     3.04           OBSERVATION DATA    M                   RINEX VERSION / TYPE
ssrcrin-15.6.1x                         20250102 204500 UTC PGM / RUN BY / DATE 
(00000000023479385599111004) Septentrio proprietary         COMMENT             
rref                                                        MARKER NAME         
01                                                          MARKER NUMBER       
geodetic                                                    MARKER TYPE         
NFB                 CLIMERS@TUW                             OBSERVER / AGENCY   
3297213             SEPT ASTERX SB3 PROB4.14.4              REC # / TYPE / VERS 
Unknown             Unknown                                 ANT # / TYPE        
  4127832.0878  1207193.3756  4695247.4914                  APPROX POSITION XYZ 
        0.0000        0.0000        0.0000                  ANTENNA: DELTA H/E/N
G   23 X1  C1C L1C D1C S1C C1W S1W C2W L2W D2W S2W C2L L2L  SYS / # / OBS TYPES 
       D2L S2L C5Q L5Q D5Q S5Q C1L L1L D1L S1L              SYS / # / OBS TYPES 
E   21 X1  C1C L1C D1C S1C C6C L6C D6C S6C C5Q L5Q D5Q S5Q  SYS / # / OBS TYPES 
       C7Q L7Q D7Q S7Q C8Q L8Q D8Q S8Q                      SYS / # / OBS TYPES 
S    9 X1  C1C L1C D1C S1C C5I L5I D5I S5I                  SYS / # / OBS TYPES 
R   17 X1  C1C L1C D1C S1C C2P L2P D2P S2P C2C L2C D2C S2C  SYS / # / OBS TYPES 
       C3Q L3Q D3Q S3Q                                      SYS / # / OBS TYPES 
C   25 X1  C1P L1P D1P S1P C5P L5P D5P S5P C2I L2I D2I S2I  SYS / # / OBS TYPES 
       C7I L7I D7I S7I C6I L6I D6I S6I C7D L7D D7D S7D      SYS / # / OBS TYPES 
J   17 X1  C1C L1C D1C S1C C2L L2L D2L S2L C5Q L5Q D5Q S5Q  SYS / # / OBS TYPES 
       C1L L1L D1L S1L                                      SYS / # / OBS TYPES 
I    5 X1  C5A L5A D5A S5A                                  SYS / # / OBS TYPES 
SEPTENTRIO RECEIVERS OUTPUT ALIGNED CARRIER PHASES.         COMMENT             
NO FURTHER PHASE SHIFT APPLIED IN THE RINEX ENCODER.        COMMENT             
G L1C                                                       SYS / PHASE SHIFT   
G L2W                                                       SYS / PHASE SHIFT   
G L2L  0.00000                                              SYS / PHASE SHIFT   
G L5Q  0.00000                                              SYS / PHASE SHIFT   
G L1L  0.00000                                              SYS / PHASE SHIFT   
E L1C  0.00000                                              SYS / PHASE SHIFT   
E L6C  0.00000                                              SYS / PHASE SHIFT   
E L5Q  0.00000                                              SYS / PHASE SHIFT   
E L7Q  0.00000                                              SYS / PHASE SHIFT   
E L8Q  0.00000                                              SYS / PHASE SHIFT   
S L1C                                                       SYS / PHASE SHIFT   
S L5I                                                       SYS / PHASE SHIFT   
R L1C                                                       SYS / PHASE SHIFT   
R L2P  0.00000                                              SYS / PHASE SHIFT   
R L2C                                                       SYS / PHASE SHIFT   
R L3Q  0.00000                                              SYS / PHASE SHIFT   
C L1P  0.00000                                              SYS / PHASE SHIFT   
C L5P  0.00000                                              SYS / PHASE SHIFT   
C L2I                                                       SYS / PHASE SHIFT   
C L7I                                                       SYS / PHASE SHIFT   
C L6I                                                       SYS / PHASE SHIFT   
C L7D                                                       SYS / PHASE SHIFT   
J L1C                                                       SYS / PHASE SHIFT   
J L2L  0.00000                                              SYS / PHASE SHIFT   
J L5Q  0.00000                                              SYS / PHASE SHIFT   
J L1L  0.00000                                              SYS / PHASE SHIFT   
I L5A                                                       SYS / PHASE SHIFT   
  2025     1     2    20    45    0.0000000     GPS         TIME OF FIRST OBS   
 C1C    0.000 C2C    0.000 C2P    0.000                     GLONASS COD/PHS/BIS 
DBHZ                                                        SIGNAL STRENGTH UNIT
    18                                                      LEAP SECONDS        
 24 R01  1 R02 -4 R03  5 R04  6 R05  1 R06 -4 R07  5 R08  6 GLONASS SLOT / FRQ #
    R09 -2 R10 -7 R11  0 R12 -1 R13 -2 R14 -7 R15  0 R16 -1 GLONASS SLOT / FRQ #
    R17  4 R18 -3 R19  3 R20  2 R21  4 R22 -3 R23  3 R24  2 GLONASS SLOT / FRQ #
                                                            END OF HEADER       
> 2025 01 02 20 45  0.0000000  0 58
G23         1.000    22015677.403 7 115693246.13707     -2824.175 7        45.272                                    22015673.769 5  90150603.99305     -2200.656 5        34.771    22015673.656 7  90150602.00307     -2200.645 7        44.311
C37         2.000                                                                                                                                    25588055.409 7 133243710.47207     -1491.160 7        43.361                                                                    25588059.418 7 108271448.93107     -1211.615 7        43.556
G16         3.000    23350361.665 7 122707176.68007     -3974.262 7        43.511                                    23350357.506 4  95616064.40804     -3096.817 4        28.455
G21         4.000    22603765.531 6 118783639.04806      1946.651 6        41.354                                    22603761.234 4  92558682.07604      1516.869 4        26.671
S21         5.000    38587226.490 6 202776933.16506      -432.571 6        41.845
G26         6.000    25733439.182 3                     -3985.190 3        23.962                                                                                                    25733439.888 3 105374383.09403     -3103.987 3        23.486
G10         7.000    20863220.422 8 109637030.56508      -161.018 8        51.372                                    20863218.249 8  85431468.96708      -125.469 8        52.567    20863218.337 7  85431462.97307      -125.514 7        45.341
E15         8.000    24868638.926 7 130685685.69707      1214.000 7        45.351                                                                    24868639.937 8  97590027.17908       906.551 8        49.091    24868639.403 8 100135841.95508       930.226 8        49.597
E36         9.000    26721724.235 6 140423791.16306     -2746.547 6        41.094                                                                    26721725.448 7 104862062.66807     -2050.935 7        44.275    26721725.037 7 107597582.34107     -2104.394 7        44.769
G27        10.000    20276271.602 8 106552678.71008     -1090.150 8        50.199                                    20276269.464 8  83028131.99108      -849.467 8        53.165    20276269.832 7  83028133.98407      -849.466 7        46.428
G15        11.000    24756252.137 6 130094997.60606     -2912.124 6        36.805                                    24756248.418 4 101372716.49104     -2269.176 4        28.256    24756249.621 5 101372719.47905     -2269.044 5        34.952
G32        12.000    24723814.396 6 129924528.11506      2742.651 6        40.203                                    24723813.716 5 101239887.21505      2137.128 5        34.710    24723813.735 6 101239860.21806      2137.115 6        38.775
C23        13.000                                                                                                                                    26205103.566 7 136456884.78907     -3228.331 7        42.436                                                                    26205096.035 6 110882384.98706     -2623.282 6        41.476
S36        14.000    38356203.760 7 201563736.06207      -431.684 7        43.860
C13        15.000                                                                                                                                    39018752.317 6 203180936.00106     -1455.752 6        41.995    39018754.053 7 157112421.45207     -1125.776 7        42.580    39018751.880 6 165101175.79206     -1182.974 6        40.651
G18        16.000    24848025.217 6 130577466.65006     -3566.205 6        38.745                                    24848022.482 3 101748767.87403     -2778.860 3        22.457    24848023.025 6 101748775.87006     -2778.797 6        39.363
R10        17.000    23621009.184 6 125913281.22906     -4623.876 6        38.808
E27        18.000    25344948.702 7 133188623.68007        -3.892 7        44.286                                                                    25344948.811 7  99459041.25907        -2.900 7        47.852    25344948.257 8 102053622.17808        -2.920 8        48.185
E02        19.000    28246868.392 5 148438451.79305     -3669.951 5        33.958                                                                    28246869.367 5 110846996.71305     -2740.312 5        34.957    28246868.140 5 113738643.56305     -2811.840 5        35.810
E05        20.000    25384793.491 6 133397998.44606      1965.281 6        40.939                                                                    25384794.200 7  99615388.87007      1467.546 7        43.801    25384793.632 7 102214053.78107      1505.839 7        44.340
R11        21.000    21628860.944 7 115578094.65407     -2290.354 7        47.927                                                                    21628860.033 7  89894076.74407     -1781.398 7        45.543
I06        22.000    38733244.448 6 151997794.17806      -238.338 6        40.784
S28        23.000    41049118.191 5 215714593.57605      -424.499 5        33.180
E04        24.000    29060227.198 3                     -2320.552 3        21.762                                                                    29060227.413 4 114038546.21904     -1732.396 4        26.671    29060226.466 4 117013461.30604     -1778.235 4        26.455
S23        25.000    38313641.398 7 201339510.71307      -431.970 7        44.302
S45        26.000    63567290.464 6 334048750.31306      -478.460 6        37.369
G02        27.000    24745418.550 6 130038073.87206      2396.043 6        39.228                                    24745413.627 3 101328352.29703      1867.049 3        21.310
S27        28.000    39306107.571 5 206555008.44505      -400.144 5        35.957
C38        29.000                                                                                                                                    41087972.201 6 213955974.23506     -1678.173 6        38.402                                                                    41087970.637 6 173856799.46006     -1363.592 6        38.468
E21        30.000    28648693.847 6 150549915.13906      2143.034 6        36.839                                                                    28648694.107 6 112423644.63906      1600.152 6        40.491    28648694.078 6 115356431.68506      1641.992 6        41.726
C43        31.000                                                                                                                                    21652808.424 8 112751961.15908      -558.824 8        51.588                                                                    21652806.867 8  91620246.69008      -454.045 8        49.797
C42        32.000                                                                                                                                    23052641.109 8 120041172.65108      1233.969 8        48.524                                                                    23052649.004 8  97543327.14508      1002.733 8        49.163
I02        33.000    40620627.725 5 159404110.75505      -962.389 5        32.539
E34        35.000    23601840.905 8 124028718.48208     -1039.398 8        48.511                                                                    23601840.935 8  92618958.95408      -776.172 8        50.551    23601840.920 8  95035094.50508      -796.417 8        51.751
R21        37.000    20945759.786 8 112085040.01308      1897.204 8        50.617                                                                    20945759.023 7  87177272.98507      1475.569 7        44.456
R06        38.000    23796302.325 5 126981630.69005      4157.811 5        35.576
R05        39.000    20552557.134 8 109865217.91008      1423.629 8        51.293                                                                    20552556.488 7  85450733.69307      1107.267 7        47.205
C12        40.000                                                                                                                                    26429864.568 6 137627427.84206     -3224.012 6        37.365    26429862.963 7 106422348.73207     -2493.056 7        42.112    26429862.309 6 111833627.51406     -2619.797 6        41.261
R04        41.000    21617117.837 8 115758713.23808     -2523.583 8        48.941                                                                    21617116.938 7  90034561.71207     -1962.820 7        43.702
S44        42.000    40616774.642 6 213442768.44306      -437.163 6        37.694
G08        43.000    20935266.202 8 110015657.45308      1264.072 8        48.439                                    20935264.823 8  85726526.45008       984.992 8        49.471    20935265.390 7  85726524.45507       984.928 7        45.454
C05        44.000                                                                                                                                    39355493.953 6 204934418.67406      -370.835 6        37.433    39355489.872 7 158468314.94907      -286.766 7        42.900    39355491.513 6 166526104.35406      -301.320 6        40.012
C11        45.000                                                                                                                                    22269658.824 8 115964100.86408     -1702.302 8        48.726    22269655.152 8  89670859.30008     -1316.331 8        51.891    22269654.069 8  94230370.66108     -1383.118 8        48.931
E09        46.000    27115260.309 6 142491672.42106      -248.941 6        40.083                                                                    27115260.243 7 106406130.07807      -185.928 7        42.938    27115259.831 7 109181939.22307      -190.733 7        44.226
C33        47.000                                                                                                                                    25918278.722 7 134963278.48307      3119.294 7        42.047                                                                    25918290.610 7 109668772.05607      2534.818 7        43.486
C21        48.000                                                                                                                                    24111728.169 7 125556124.30907     -1785.232 7        46.518                                                                    24111722.777 7 102024623.29407     -1450.574 7        47.195
E06        49.000    27809284.609 6 146138796.86306     -1343.910 6        38.216                                                                    27809285.058 6 109129625.90206     -1003.570 6        40.384    27809285.052 6 111976482.95106     -1029.889 6        41.650
R19        50.000    24078649.016 5 128804781.98105     -3700.514 5        33.263                                                                    24078649.872 6 100181604.23006     -2878.356 6        36.030
S48        51.000    77333903.653 6 406392799.36806      -466.697 6        36.972
C08        52.000                                                                                                                                    39587057.317 6 206140298.31206     -1666.019 6        37.221    39587051.787 6 159400783.74406     -1288.302 6        41.664    39587050.886 6 167505895.57406     -1353.718 6        38.736
C34        53.000                                                                                                                                    23646845.345 7 123135604.32007     -2760.207 7        46.269                                                                    23646845.511 7 100057880.27907     -2242.857 7        46.200
C60        54.000                                                                                                                                    40616774.305 6 211502399.02706      -433.400 6        40.110                                                                    40616758.643 6 171862992.24006      -352.060 6        39.838
R12        55.000    23092020.957 7 123353430.71507      1782.844 7        43.898                                                                    23092022.478 7  95941559.21607      1386.733 7        43.445
I09        56.000    38270771.659 7 150182751.37007       293.663 7        42.288
C02        57.000                                                                                                                                    40698405.384 5 211927315.51805      -386.055 5        34.614    40698398.876 6 163875635.69506      -298.621 6        40.086    40698401.831 6 172208305.40206      -313.810 6        36.163
I03        58.000    80320733.464 6 239410559.87306      1086.245 6        39.700
E30        59.000    25440143.216 7 133689072.15407     -2690.921 7        45.804                                                                    25440143.097 8  99832867.81008     -2009.362 8        48.008    25440142.827 8 102437186.84708     -2061.796 8        48.868
R20        60.000    19915828.695 6 106499093.35106     -1328.106 6        38.994                                                                    19915830.525 7  82832697.35207     -1033.029 7        47.376
> 2025 01 02 20 45  5.0000000  0 58
G23         1.000    22018365.425 7 115707371.87107     -2826.074 7        45.326                                    22018361.796 5  90161611.05905     -2202.135 5        34.581    22018361.986 7  90161609.06807     -2202.247 7        44.104
C37         2.000                                                                                                                                    25589488.459 7 133251171.89007     -1493.329 7        42.929                                                                    25589492.334 7 108277511.94207     -1213.445 7        43.420
G16         3.000    23354143.826 7 122727050.41007     -3975.073 7        43.517                                    23354139.363 4  95631550.42504     -3097.461 4        28.246
G21         4.000    22601913.523 6 118773908.14106      1945.683 6        41.342                                    22601909.553 4  92551099.55204      1516.116 4        26.719
S21         5.000    38587638.711 6 202779095.73106      -432.481 6        41.764
G26         6.000    25737226.905 4                     -3983.053 4        24.436
G10         7.000    20863374.920 8 109637842.65908      -163.816 8        51.436                                    20863372.784 8  85432101.77108      -127.649 8        52.427    20863372.938 7  85432095.76907      -127.722 7        45.410
E15         8.000    24867484.053 7 130679617.27007      1213.353 7        45.511                                                                    24867485.141 8  97585495.56208       906.065 8        48.906    24867484.592 8 100131192.12208       929.736 8        49.626
E36         9.000    26724337.272 6 140437523.36306     -2746.362 6        40.815                                                                    26724338.551 7 104872317.24707     -2050.833 7        43.871    26724338.180 7 107608104.42707     -2104.320 7        44.632
G27        10.000    20277310.160 8 106558136.09608     -1092.758 8        50.343                                    20277307.976 8  83032384.50208      -851.501 8        52.980    20277308.506 7  83032386.50007      -851.551 7        46.301
G15        11.000    24759024.040 5 130109564.35805     -2914.542 5        35.990                                    24759020.524 4 101384067.18604     -2271.071 4        27.748    24759020.979 5 101384070.20105     -2271.213 5        34.543
G32        12.000    24721204.641 6 129910815.07506      2742.468 6        40.529                                    24721204.154 5 101229201.73505      2136.988 5        34.800    24721204.460 6 101229174.73706      2137.011 6        38.829
C23        13.000                                                                                                                                    26208203.957 7 136473027.50707     -3228.696 7        42.133                                                                    26208196.361 6 110895502.26306     -2623.638 6        41.542
S36        14.000    38356613.705 7 201565894.27207      -431.474 7        43.719
C13        15.000                                                                                                                                    39020150.697 6 203188215.35206     -1455.800 6        41.905    39020151.899 7 157118050.31607     -1125.790 7        42.417    39020149.641 6 165107090.85906     -1183.031 6        40.527
G18        16.000    24851418.458 6 130595297.15406     -3566.051 6        39.000                                    24851415.728 3 101762661.77303     -2778.738 3        21.952    24851415.736 6 101762669.77406     -2778.729 6        39.102
R10        17.000    23625345.702 6 125936401.62406     -4624.340 6        39.027
E27        18.000    25344953.580 7 133188648.70507        -6.119 7        44.313                                                                    25344953.640 7  99459059.96207        -4.600 7        47.724    25344953.042 8 102053641.36908        -4.719 8        48.252
E02        19.000    28250359.633 5 148456799.09405     -3669.186 5        34.248                                                                    28250360.323 5 110860697.59905     -2739.926 5        34.833    28250359.606 5 113752701.87105     -2811.583 5        35.848
E05        20.000    25382924.053 6 133388174.85106      1964.160 6        40.818                                                                    25382925.048 7  99608053.08407      1466.797 7        43.966    25382924.312 7 102206526.61707      1505.130 7        44.470
R11        21.000    21631006.187 7 115589555.93407     -2294.141 7        47.934                                                                    21631004.237 7  89902991.04607     -1784.308 7        44.977
I06        22.000    38733548.057 6 151998985.29706      -238.061 6        40.691
S28        23.000    41049523.526 5 215716714.76105      -424.058 5        33.401
E04        24.000    29062432.370 3                     -2320.828 3        20.286                                                                    29062435.024 4 114047212.20904     -1733.440 4        25.940    29062435.434 4 117022353.26604     -1779.152 4        26.407
S23        25.000    38314055.216 7 201341669.65607      -431.681 7        44.536
S45        26.000    63567697.145 6 334051141.64606      -478.090 6        37.535
G02        27.000    24743139.583 6 130026094.93806      2395.616 6        40.458                                    24743134.432 3 101319018.07003      1866.713 3        21.571
S27        28.000    39306487.216 6 206557007.62606      -399.759 6        36.064
C38        29.000                                                                                                                                    41089583.557 6 213964364.23406     -1677.785 6        38.246                                                                    41089581.758 6 173863617.03406     -1363.265 6        38.526
E21        30.000    28646654.928 6 150539203.11806      2142.048 6        36.688                                                                    28646655.319 6 112415645.40006      1599.545 6        39.967    28646655.530 6 115348223.77906      1641.183 6        41.359
C43        31.000                                                                                                                                    21653345.703 8 112754758.97908      -560.281 8        51.454                                                                    21653344.170 8  91622520.15608      -455.334 8        49.679
C42        32.000                                                                                                                                    23051457.754 8 120035008.79608      1231.605 8        48.547                                                                    23051465.268 8  97538318.51508      1000.753 8        49.056
I02        33.000    40621853.072 5 159408922.65805      -962.603 5        32.593
E34        35.000    23602830.286 8 124033917.55508     -1040.240 8        48.414                                                                    23602830.271 8  92622841.39308      -776.828 8        50.439    23602830.287 8  95039078.21908      -797.063 8        51.729
R21        37.000    20943987.541 8 112075556.71408      1896.122 8        50.263                                                                    20943987.168 7  87169897.10507      1474.760 7        44.871
R06        38.000    23792406.609 5 126960841.73405      4157.877 5        35.595
R05        39.000    20551227.350 8 109858109.55108      1419.700 8        51.227                                                                    20551226.791 7  85445204.96707      1104.242 7        46.941
C12        40.000                                                                                                                                    26432960.429 6 137643548.82206     -3224.337 6        37.353    26432958.741 6 106434814.49606     -2493.157 6        41.719    26432958.113 6 111846727.13806     -2619.941 6        40.956
R04        41.000    21619476.787 8 115771340.61308     -2527.377 8        48.602                                                                    21619474.504 7  90044382.98207     -1965.722 7        43.098
S44        42.000    40617192.408 6 213444954.52606      -437.320 6        37.561
G08        43.000    20934064.661 8 110009342.52708      1262.130 8        48.416                                    20934063.129 8  85721605.73108       983.477 8        49.388    20934063.917 7  85721603.73007       983.412 7        45.168
C05        44.000                                                                                                                                    39355849.393 6 204936272.33506      -370.840 6        37.176    39355845.782 7 158469748.31607      -286.685 7        42.880    39355847.651 6 166527610.58306      -301.238 6        39.811
C11        45.000                                                                                                                                    22271293.817 8 115972615.27108     -1703.520 8        48.598    22271290.159 8  89677443.17608     -1317.211 8        51.823    22271289.147 8  94237289.33008     -1384.279 8        48.799
E09        46.000    27115498.455 6 142492922.53306      -251.055 6        40.262                                                                    27115498.093 7 106407063.60407      -187.562 7        42.512    27115497.794 7 109182897.11307      -192.513 7        44.087
C33        47.000                                                                                                                                    25915283.242 6 134947682.34806      3119.162 6        41.845                                                                    25915295.574 7 109656098.93107      2534.597 7        43.382
C21        48.000                                                                                                                                    24113443.421 7 125565056.37807     -1787.596 7        46.632                                                                    24113438.063 7 102031881.34207     -1452.644 7        46.949
E06        49.000    27810564.467 6 146145521.64106     -1345.931 6        38.270                                                                    27810564.805 6 109134647.65106     -1005.030 6        40.462    27810564.490 6 111981635.68606     -1031.157 6        41.800
R19        50.000    24082108.463 5 128823285.10605     -3700.844 5        32.748                                                                    24082110.342 6 100195995.49506     -2878.219 6        36.597
S48        51.000    77334323.011 6 406395132.30206      -466.554 6        37.164
C08        52.000                                                                                                                                    39588657.052 6 206148627.99006     -1665.879 6        37.187    39588651.244 6 159407224.78306     -1288.069 6        41.690    39588650.567 6 167512664.13106     -1353.763 6        38.474
C34        53.000                                                                                                                                    23649496.157 7 123149407.33207     -2761.050 7        46.160                                                                    23649496.045 7 100069096.35107     -2243.484 7        46.115
C60        54.000                                                                                                                                    40617190.470 6 211504565.20206      -433.001 6        40.081                                                                    40617174.682 6 171864752.45806      -351.899 6        39.727
R12        55.000    23090353.774 7 123344525.08207      1779.388 7        44.454                                                                    23090355.276 7  95934632.61207      1384.002 7        42.844
I09        56.000    38270397.135 7 150181283.24807       293.541 7        42.167
C02        57.000                                                                                                                                    40698775.246 5 211929245.71705      -386.150 5        34.424    40698769.430 6 163877128.24106      -298.581 6        39.994    40698772.359 6 172209873.84606      -313.594 6        36.181
I03        58.000    80319349.559 6 239405128.25206      1086.528 6        39.661
E30        59.000    25442704.208 7 133702530.20507     -2692.290 7        45.809                                                                    25442704.136 7  99842917.65507     -2010.471 7        47.908    25442703.818 8 102447498.86508     -2062.933 8        48.837
R20        60.000    19917070.515 6 106505738.54506     -1329.953 6        39.132                                                                    19917072.832 7  82837865.82907     -1034.317 7        47.266
> 2025 01 02 20 45 10.0000000  0 58
G23         1.000    22021055.750 7 115721508.17507     -2828.444 7        45.666                                    22021051.830 5  90172626.35705     -2203.988 5        34.714    22021052.117 7  90172624.35307     -2203.918 7        44.355
C37         2.000                                                                                                                                    25590923.212 7 133258645.30507     -1495.893 7        42.468                                                                    25590927.336 7 108283584.68307     -1215.495 7        43.443
G16         3.000    23357926.410 7 122746929.33307     -3976.388 7        43.930                                    23357922.235 4  95647040.48904     -3098.473 4        28.597
G21         4.000    22600062.866 6 118764183.51506      1944.277 6        40.658                                    22600059.035 4  92543521.92804      1515.024 4        26.850
S21         5.000    38588050.611 6 202781257.99406      -432.498 6        41.661
G26         6.000    25741015.783 3                     -3982.316 3        23.029                                                                                                    25741019.900 3                     -3103.567 3        22.552
G10         7.000    20863532.374 8 109638669.49908      -166.860 8        51.716                                    20863530.123 8  85432746.06008      -130.021 8        52.627    20863530.035 7  85432740.06607      -130.070 7        45.210
E15         8.000    24866330.457 7 130673553.18707      1212.269 7        45.661                                                                    24866331.152 8  97580967.18708       905.314 8        49.008    24866330.693 8 100126545.62408       928.895 8        49.722
E36         9.000    26726950.602 6 140451256.56006     -2746.814 6        40.625                                                                    26726951.931 7 104882572.55907     -2051.178 7        44.224    26726951.458 7 107618627.26407     -2104.539 7        44.892
G27        10.000    20278351.537 8 106563607.55008     -1095.788 8        50.505                                    20278349.157 8  83036647.97308      -853.861 8        53.185    20278349.319 7  83036649.97807      -853.856 7        46.027
G15        11.000    24761798.805 6 130124143.94406     -2917.192 6        36.405                                    24761794.974 4 101395427.88104     -2273.128 4        28.095    24761795.379 5 101395430.88505     -2273.282 5        35.100
G32        12.000    24718595.602 6 129897104.01106      2742.030 6        40.775                                    24718594.971 5 101218517.79405      2136.648 5        35.367    24718595.790 6 101218490.80606      2136.402 6        38.757
C23        13.000                                                                                                                                    26211304.346 6 136489173.17406     -3229.485 6        41.423                                                                    26211296.952 6 110908621.89906     -2624.109 6        41.404
S36        14.000    38357022.129 7 201568052.75707      -431.916 7        43.962
C13        15.000                                                                                                                                    39021548.414 6 203195495.06506     -1455.977 6        41.743    39021549.739 7 157123679.43607     -1125.827 7        42.599    39021547.612 6 165113006.20106     -1183.025 6        40.470
G18        16.000    24854811.741 6 130613128.76106     -3566.487 6        38.042                                    24854809.176 3 101776556.52603     -2779.081 3        21.881    24854808.663 6 101776564.53006     -2779.103 6        39.408
R10        17.000    23629684.038 6 125959524.81906     -4624.843 6        39.574
E27        18.000    25344960.234 7 133188685.77707        -8.681 7        44.367                                                                    25344960.616 7  99459087.64907        -6.519 7        47.910    25344960.067 8 102053669.77908        -6.664 8        48.345
E02        19.000    28253850.801 5 148475145.35205     -3669.087 5        34.005                                                                    28253851.720 5 110874397.68305     -2739.690 5        35.029    28253850.765 5 113766759.35305     -2811.354 5        35.714
E05        20.000    25381055.538 6 133378357.29906      1962.753 6        40.670                                                                    25381056.887 7  99600721.79207      1465.706 7        44.254    25381056.141 7 102199004.09007      1503.969 7        44.621
R11        21.000    21633153.980 7 115601036.85807     -2298.180 7        47.684                                                                    21633153.142 7  89911920.67107     -1787.505 7        45.859
I06        22.000    38733851.338 6 152000176.23306      -238.340 6        41.058
S28        23.000    41049933.153 5 215718835.67805      -424.235 5        33.299
E04        24.000    29064643.449 3                     -2324.751 3        19.791                                                                    29064645.109 4 114055884.60104     -1735.413 4        24.662
S23        25.000    38314467.280 7 201343828.53707      -431.844 7        44.612
S45        26.000    63568108.284 6 334053533.00306      -478.422 6        37.463
G02        27.000    24740860.716 6 130014118.39906      2394.972 6        39.631                                    24740855.510 3 101309685.70603      1866.209 3        21.905
S27        28.000    39306866.401 6 206559006.55806      -399.978 6        36.193
C38        29.000                                                                                                                                    41091194.531 6 213972753.58906     -1677.786 6        38.318                                                                    41091192.927 6 173870434.05306     -1363.291 6        38.345
E21        30.000    28644617.498 6 150528496.81706      2140.826 6        36.703                                                                    28644618.069 6 112407650.43206      1598.637 6        39.874    28644618.045 6 115340020.24806      1640.281 6        41.144
C43        31.000                                                                                                                                    21653884.480 8 112757565.09908      -562.145 8        51.303                                                                    21653883.037 8  91624800.33808      -456.640 8        49.669
C42        32.000                                                                                                                                    23050276.518 8 120028857.64308      1228.865 8        48.221                                                                    23050284.041 8  97533320.17608       998.750 8        49.067
I02        33.000    40623079.226 5 159413734.11405      -962.111 5        32.766
E34        35.000    23603820.940 8 124039121.80408     -1041.432 8        48.432                                                                    23603820.546 8  92626727.68108      -777.692 8        50.565    23603820.614 8  95043065.88708      -797.934 8        51.765
R21        37.000    20942216.646 8 112066079.60408      1894.763 8        50.630                                                                    20942216.237 7  87162526.00907      1473.721 7        45.187
R06        38.000    23788512.287 5 126940053.64405      4157.298 5        35.524
R05        39.000    20549901.187 8 109851022.42908      1415.289 8        51.059                                                                    20549900.894 7  85439692.77607      1100.729 7        47.103
C12        40.000                                                                                                                                    26436057.645 6 137659671.54406     -3224.726 6        37.353    26436055.147 7 106447281.62007     -2493.659 7        42.059    26436054.399 6 111859828.16106     -2620.195 6        40.889
R04        41.000    21621837.498 8 115783987.94508     -2531.493 8        48.488                                                                    21621835.627 7  90054219.81507     -1968.958 7        42.893
S44        42.000    40617608.385 6 213447140.60706      -437.223 6        38.006
G08        43.000    20932864.845 8 110003039.02908      1259.467 8        48.239                                    20932863.611 8  85716693.91108       981.404 8        49.542    20932864.442 7  85716691.91007       981.421 7        45.177
C05        44.000                                                                                                                                    39356205.571 6 204938125.93006      -370.970 6        37.304    39356201.795 7 158471181.62107      -286.647 7        42.880    39356203.391 6 166529116.76906      -301.147 6        39.970
C11        45.000                                                                                                                                    22272930.240 8 115981136.55908     -1705.050 8        48.424    22272926.513 8  89684032.38008     -1318.443 8        51.907    22272925.573 8  94244213.56408     -1385.368 8        48.811
E09        46.000    27115738.390 6 142494184.75706      -253.788 6        40.296                                                                    27115738.280 7 106408006.19807      -189.556 7        42.747    27115737.934 7 109183864.27707      -194.389 7        44.137
C33        47.000                                                                                                                                    25912288.515 6 134932087.80306      3118.680 6        41.511                                                                    25912300.786 7 109643427.06707      2534.299 7        43.304
C21        48.000                                                                                                                                    24115161.469 7 125574001.64707     -1790.441 7        46.423                                                                    24115155.963 7 102039150.08707     -1454.704 7        46.921
E06        49.000    27811846.192 6 146152257.72506     -1348.317 6        38.435                                                                    27811846.653 6 109139677.83806     -1006.856 6        40.386    27811846.236 6 111986797.09606     -1033.176 6        41.807
R19        50.000    24085568.156 5 128841789.97105     -3701.480 5        33.754                                                                    24085569.174 6 100210388.13606     -2878.801 6        36.767
S48        51.000    77334741.313 6 406397465.27906      -466.441 6        37.319
C08        52.000                                                                                                                                    39590257.097 6 206156957.63206     -1665.936 6        37.308    39590250.699 6 159413665.80106     -1288.197 6        41.595    39590250.203 6 167519432.61006     -1353.480 6        38.501
C34        53.000                                                                                                                                    23652147.717 7 123163215.35907     -2762.119 7        46.203                                                                    23652147.701 7 100080316.49907     -2244.380 7        46.181
C60        54.000                                                                                                                                    40617606.586 6 211506731.43006      -433.160 6        39.769                                                                    40617590.695 6 171866512.68106      -352.065 6        39.658
R12        55.000    23088690.992 7 123335637.86407      1775.579 7        45.320                                                                    23088690.923 7  95927720.33307      1381.011 7        42.834
I09        56.000    38270023.101 7 150179816.11007       293.346 7        42.136
C02        57.000                                                                                                                                    40699146.010 5 211931175.97605      -386.486 5        34.219    40699139.886 6 163878620.82006      -298.587 6        39.988    40699143.186 6 172211442.32006      -313.609 6        36.042
I03        58.000    80317965.560 6 239399696.74906      1086.297 6        39.871
E30        59.000    25445266.793 7 133715996.50707     -2694.136 7        45.774                                                                    25445266.697 8  99852973.66208     -2011.898 8        48.150    25445266.299 8 102457817.19608     -2064.333 8        48.874
R20        60.000    19918315.193 6 106512393.41606     -1332.039 6        39.321                                                                    19918317.443 7  82843041.85807     -1036.064 7        47.509
> 2025 01 02 20 45 15.0000000  0 58
G23         1.000    22023747.751 7 115735654.64907     -2830.279 7        45.594                                    22023743.805 5  90183649.58405     -2205.412 5        34.590    22023743.948 7  90183647.58707     -2205.438 7        44.700
C37         2.000                                                                                                                                    25592360.371 7 133266130.30407     -1498.109 7        42.288                                                                    25592364.818 7 108289666.86307     -1217.368 7        43.395
G16         3.000    23361710.173 7 122766813.06607     -3977.226 7        43.932                                    23361706.077 4  95662534.30004     -3099.137 4        28.531
G21         4.000    22598213.675 6 118754464.79206      1943.082 6        40.744                                    22598209.527 4  92535948.90404      1514.088 4        26.862
S21         5.000    38588461.454 6 202783419.76506      -432.304 6        41.833
G26         6.000    25744805.183 3                     -3981.783 3        22.895                                                                                                    25744806.563 3                     -3103.360 3        21.595
G10         7.000    20863692.396 8 109639510.71908      -169.689 8        51.639                                    20863690.202 8  85433401.55708      -132.225 8        52.547    20863690.270 7  85433395.56107      -132.252 7        45.577
E15         8.000    24865177.162 7 130667493.08207      1211.627 7        45.851                                                                    24865177.959 8  97576441.78408       904.801 8        49.103    24865177.471 8 100121902.16508       928.419 8        49.752
E36         9.000    26729564.243 6 140464990.34906     -2746.767 6        40.341                                                                    26729565.367 7 104892828.30407     -2051.133 7        44.026    26729564.861 7 107629150.55807     -2104.683 7        44.784
G27        10.000    20279395.229 8 106569092.67608     -1098.361 8        50.607                                    20279392.937 8  83040922.09708      -855.866 8        53.101    20279393.113 7  83040924.09907      -855.864 7        46.086
G15        11.000    24764575.800 6 130138735.96106     -2919.659 6        36.612                                    24764571.789 4 101406798.26604     -2275.055 4        27.952    24764572.142 5 101406801.26305     -2275.269 5        35.329
G32        12.000    24715987.157 6 129883394.58406      2741.731 6        40.682                                    24715986.105 5 101207835.12405      2136.413 5        35.652    24715986.343 6 101207808.12506      2136.452 6        38.610
C23        13.000                                                                                                                                    26214405.442 6 136505321.38306     -3229.943 6        41.707                                                                    26214397.874 6 110921743.64706     -2624.505 6        41.299
S36        14.000    38357436.452 7 201570210.21407      -431.227 7        44.053
C13        15.000                                                                                                                                    39022946.047 6 203202774.80606     -1455.948 6        41.530    39022947.497 7 157129308.61307     -1125.837 7        42.525    39022945.671 6 165118921.60506     -1182.958 6        40.644
G18        16.000    24858205.049 6 130630961.04606     -3566.518 6        38.045                                    24858202.650 3 101790451.79403     -2779.113 3        21.857    24858202.456 6 101790459.78306     -2779.122 6        38.847
R10        17.000    23634023.408 6 125982650.33006     -4625.312 6        40.200
E27        18.000    25344969.616 7 133188734.55307       -10.978 7        44.509                                                                    25344969.930 8  99459124.05808        -8.101 8        48.001    25344969.350 8 102053707.14508        -8.390 8        48.340
E02        19.000    28257341.758 5 148493490.11905     -3668.868 5        33.886                                                                    28257342.484 5 110888096.70405     -2739.781 5        34.586    28257341.683 5 113780815.74505     -2811.320 5        35.729
E05        20.000    25379188.175 6 133368545.39306      1961.818 6        40.005                                                                    25379189.544 7  99593394.72307      1465.061 7        44.310    25379188.912 7 102191485.87407      1503.318 7        44.652
R11        21.000    21635306.249 7 115612537.08207     -2301.956 7        47.870                                                                    21635305.348 7  89920865.29107     -1790.411 7        45.120
I06        22.000    38734154.993 6 152001366.66406      -238.132 6        41.108
S28        23.000    41050329.084 5 215720956.17905      -424.146 5        33.725
E04        24.000    29066854.358 3                     -2323.172 3        20.786                                                                    29066856.959 4 114064563.13204     -1736.221 4        25.835    29066856.338 4 117040156.88804     -1781.827 4        26.275
S23        25.000    38314875.598 7 201345987.08707      -431.631 7        44.605
S45        26.000    63568513.940 6 334055923.84706      -478.090 6        37.682
G02        27.000    24738580.943 6 130002143.92906      2394.634 6        39.961                                    24738576.704 3 101300354.94703      1865.945 3        21.571
S27        28.000    39307248.648 6 206561005.01006      -399.592 6        36.208
C38        29.000                                                                                                                                    41092805.840 6 213981141.91506     -1677.592 6        38.087                                                                    41092803.772 6 173877250.24606     -1363.071 6        38.069
E21        30.000    28642581.342 6 150517795.89306      2139.607 6        36.888                                                                    28642581.857 6 112399659.48006      1597.939 6        39.748    28642581.695 6 115331820.83906      1639.501 6        41.011
C43        31.000                                                                                                                                    21654424.918 8 112760379.14108      -563.560 8        51.304                                                                    21654423.439 8  91627086.97808      -457.885 8        49.756
C42        32.000                                                                                                                                    23049097.681 8 120022718.82708      1226.546 8        48.030                                                                    23049105.269 8  97528331.89408       996.700 8        49.209
I02        33.000    40624304.535 5 159418544.78805      -962.142 5        32.287
E34        35.000    23604812.283 8 124044330.83808     -1042.320 8        48.607                                                                    23604811.851 8  92630617.54408      -778.296 8        50.662    23604811.849 8  95047057.23308      -798.619 8        51.882
R21        37.000    20940447.338 8 112056608.31108      1893.647 8        50.579                                                                    20940446.050 7  87155159.44807      1472.852 7        45.612
R06        38.000    23784616.762 5 126919266.31005      4157.227 5        35.119
R05        39.000    20548579.937 8 109843955.84008      1411.236 8        51.064                                                                    20548579.459 7  85434196.54507      1097.717 7        47.292
C12        40.000                                                                                                                                    26439154.226 6 137675795.70006     -3225.075 6        37.180    26439151.866 7 106459749.83607     -2493.745 7        42.279    26439150.937 6 111872930.35506     -2620.612 6        40.841
R04        41.000    21624203.455 8 115796654.82208     -2535.360 8        48.707                                                                    21624202.132 7  90064071.83107     -1971.977 7        43.776
S44        42.000    40618024.783 6 213449326.37806      -437.228 6        37.849
G08        43.000    20931667.292 8 109996746.54208      1257.330 8        48.107                                    20931666.178 8  85711790.67908       979.736 8        49.402    20931667.053 7  85711788.67207       979.832 7        45.457
C05        44.000                                                                                                                                    39356561.977 6 204939979.09906      -370.551 6        37.066    39356557.526 7 158472614.62107      -286.581 7        42.914    39356559.475 6 166530622.63706      -301.010 6        40.086
C11        45.000                                                                                                                                    22274567.808 8 115989664.37708     -1706.202 8        48.406    22274564.551 8  89690626.62808     -1319.325 8        51.770    22274563.271 8  94251143.11708     -1386.404 8        48.845
E09        46.000    27115980.515 6 142495458.72306      -255.956 6        40.689                                                                    27115980.603 7 106408957.53607      -191.124 7        42.904    27115980.222 7 109184840.44407      -196.183 7        44.239
C33        47.000                                                                                                                                    25909293.496 6 134916494.48106      3118.411 6        41.490                                                                    25909306.315 7 109630756.22607      2534.167 7        43.175
C21        48.000                                                                                                                                    24116881.601 7 125582959.72407     -1792.883 7        46.776                                                                    24116876.233 7 102046429.26307     -1456.829 7        47.054
E06        49.000    27813130.202 6 146159004.73006     -1350.567 6        38.510                                                                    27813130.529 6 109144716.19306     -1008.544 6        40.334    27813130.025 6 111991966.88706     -1034.802 6        41.685
R19        50.000    24089027.569 5 128860296.07305     -3701.365 5        33.251                                                                    24089028.965 5 100224781.78005     -2878.719 5        35.976
S48        51.000    77335156.696 6 406399797.78706      -466.450 6        37.240
C08        52.000                                                                                                                                    39591856.684 6 206165286.95506     -1665.906 6        37.550    39591850.618 6 159420106.56406     -1288.057 6        41.435    39591849.739 6 167526200.88206     -1353.467 6        38.541
C34        53.000                                                                                                                                    23654800.477 7 123177028.07207     -2763.035 7        46.134                                                                    23654800.251 7 100091540.46007     -2245.174 7        46.202
C60        54.000                                                                                                                                    40618022.281 6 211508897.33606      -433.146 6        39.922                                                                    40618006.641 6 171868272.64106      -351.843 6        39.622
R12        55.000    23087030.991 7 123326768.66607      1771.997 7        44.825                                                                    23087030.474 7  95920822.05007      1378.258 7        42.427
I09        56.000    38269649.642 6 150178349.69606       293.087 6        41.952
C02        57.000                                                                                                                                    40699517.119 5 211933105.86105      -386.099 5        34.190    40699510.888 6 163880113.13306      -298.474 6        39.862    40699513.946 6 172213010.50806      -313.611 6        36.151
I03        58.000    80316581.270 6 239394265.07706      1086.260 6        39.712
E30        59.000    25447830.985 7 133729470.68107     -2695.622 7        45.776                                                                    25447830.704 8  99863035.53508     -2012.928 8        48.100    25447830.384 8 102468141.55908     -2065.472 8        48.950
R20        60.000    19919562.702 6 106519057.53606     -1333.757 6        39.093                                                                    19919563.774 7  82848225.04307     -1037.377 7        47.462
> 2025 01 02 20 45 20.0000000  0 58
G23         1.000    22026441.598 7 115749811.69607     -2832.359 7        45.681                                    22026437.823 5  90194681.04705     -2207.030 5        34.562    22026437.826 7  90194679.04707     -2207.089 7        44.399
C37         2.000                                                                                                                                    25593800.316 7 133273627.28607     -1500.640 7        42.499                                                                    25593804.455 7 108295758.77607     -1219.244 7        43.469
G16         3.000    23365494.933 7 122786701.97107     -3978.041 7        43.367                                    23365490.823 4  95678032.14004     -3099.767 4        28.521
G21         4.000    22596365.366 6 118744752.34606      1941.876 6        40.889                                    22596361.289 4  92528380.76504      1513.145 4        26.850
S21         5.000    38588874.270 6 202785581.23206      -432.187 6        41.685
G26         6.000    25748592.639 3                     -3981.415 3        23.848                                                                                                    25748595.383 3                     -3100.060 3        22.895
G10         7.000    20863855.257 8 109640366.71408      -172.458 8        51.590                                    20863853.103 8  85434068.56508      -134.384 8        52.510    20863853.389 7  85434062.56907      -134.384 7        45.451
E15         8.000    24864024.661 7 130661437.32407      1210.829 7        45.637                                                                    24864025.598 8  97571919.63508       904.212 8        49.085    24864025.123 8 100117262.04708       927.750 8        49.686
E36         9.000    26732178.038 6 140478725.13306     -2746.951 6        40.517                                                                    26732179.072 7 104903084.79507     -2051.302 7        44.214    26732178.448 7 107639674.60207     -2104.760 7        44.767
G27        10.000    20280441.599 8 106574591.88008     -1101.153 8        50.575                                    20280439.386 8  83045207.19208      -858.041 8        53.062    20280439.766 7  83045209.18907      -858.056 7        46.145
