     3.04           OBSERVATION DATA    M                   RINEX VERSION / TYPE
ssrcrin-15.6.1x                         20250102 154500 UTC PGM / RUN BY / DATE 
(00000000023479385599111004) Septentrio proprietary         COMMENT             
rref                                                        MARKER NAME         
01                                                          MARKER NUMBER       
geodetic                                                    MARKER TYPE         
NFB                 CLIMERS@TUW                             OBSERVER / AGENCY   
3297213             SEPT ASTERX SB3 PROB4.14.4              REC # / TYPE / VERS 
Unknown             Unknown                                 ANT # / TYPE        
  4127832.1341  1207193.2840  4695247.6143                  APPROX POSITION XYZ 
        0.0000        0.0000        0.0000                  ANTENNA: DELTA H/E/N
G   23 X1  C1C L1C D1C S1C C1W S1W C2W L2W D2W S2W C2L L2L  SYS / # / OBS TYPES 
       D2L S2L C5Q L5Q D5Q S5Q C1L L1L D1L S1L              SYS / # / OBS TYPES 
E   21 X1  C1C L1C D1C S1C C6C L6C D6C S6C C5Q L5Q D5Q S5Q  SYS / # / OBS TYPES 
       C7Q L7Q D7Q S7Q C8Q L8Q D8Q S8Q                      SYS / # / OBS TYPES 
S    9 X1  C1C L1C D1C S1C C5I L5I D5I S5I                  SYS / # / OBS TYPES 
R   17 X1  C1C L1C D1C S1C C2P L2P D2P S2P C2C L2C D2C S2C  SYS / # / OBS TYPES 
       C3Q L3Q D3Q S3Q                                      SYS / # / OBS TYPES 
C   25 X1  C1P L1P D1P S1P C5P L5P D5P S5P C2I L2I D2I S2I  SYS / # / OBS TYPES 
       C7I L7I D7I S7I C6I L6I D6I S6I C7D L7D D7D S7D      SYS / # / OBS TYPES 
J   17 X1  C1C L1C D1C S1C C2L L2L D2L S2L C5Q L5Q D5Q S5Q  SYS / # / OBS TYPES 
       C1L L1L D1L S1L                                      SYS / # / OBS TYPES 
I    5 X1  C5A L5A D5A S5A                                  SYS / # / OBS TYPES 
SEPTENTRIO RECEIVERS OUTPUT ALIGNED CARRIER PHASES.         COMMENT             
NO FURTHER PHASE SHIFT APPLIED IN THE RINEX ENCODER.        COMMENT             
G L1C                                                       SYS / PHASE SHIFT   
G L2W                                                       SYS / PHASE SHIFT   
G L2L  0.00000                                              SYS / PHASE SHIFT   
G L5Q  0.00000                                              SYS / PHASE SHIFT   
G L1L  0.00000                                              SYS / PHASE SHIFT   
E L1C  0.00000                                              SYS / PHASE SHIFT   
E L6C  0.00000                                              SYS / PHASE SHIFT   
E L5Q  0.00000                                              SYS / PHASE SHIFT   
E L7Q  0.00000                                              SYS / PHASE SHIFT   
E L8Q  0.00000                                              SYS / PHASE SHIFT   
S L1C                                                       SYS / PHASE SHIFT   
S L5I                                                       SYS / PHASE SHIFT   
R L1C                                                       SYS / PHASE SHIFT   
R L2P  0.00000                                              SYS / PHASE SHIFT   
R L2C                                                       SYS / PHASE SHIFT   
R L3Q  0.00000                                              SYS / PHASE SHIFT   
C L1P  0.00000                                              SYS / PHASE SHIFT   
C L5P  0.00000                                              SYS / PHASE SHIFT   
C L2I                                                       SYS / PHASE SHIFT   
C L7I                                                       SYS / PHASE SHIFT   
C L6I                                                       SYS / PHASE SHIFT   
C L7D                                                       SYS / PHASE SHIFT   
J L1C                                                       SYS / PHASE SHIFT   
J L2L  0.00000                                              SYS / PHASE SHIFT   
J L5Q  0.00000                                              SYS / PHASE SHIFT   
J L1L  0.00000                                              SYS / PHASE SHIFT   
I L5A                                                       SYS / PHASE SHIFT   
  2025     1     2    15    45    0.0000000     GPS         TIME OF FIRST OBS   
 C1C    0.000 C2C    0.000 C2P    0.000                     GLONASS COD/PHS/BIS 
DBHZ                                                        SIGNAL STRENGTH UNIT
    18                                                      LEAP SECONDS        
 24 R01  1 R02 -4 R03  5 R04  6 R05  1 R06 -4 R07  5 R08  6 GLONASS SLOT / FRQ #
    R09 -2 R10 -7 R11  0 R12 -1 R13 -2 R14 -7 R15  0 R16 -1 GLONASS SLOT / FRQ #
    R17  4 R18 -3 R19  3 R20  2 R21  4 R22 -3 R23  3 R24  2 GLONASS SLOT / FRQ #
                                                            END OF HEADER       
> 2025 01 02 15 45  0.0000000  0 55
E24         1.000    27607247.761 6 145077181.47506     -2993.684 6        38.330                                                                    27607250.802 7 108336923.28407     -2235.553 7        42.442    27607250.005 7 111163092.91207     -2293.800 7        43.232
E11         2.000    24054934.041 7 126409705.09907      -213.321 7        44.591                                                                    24054932.313 7  94396975.49807      -159.274 7        46.491    24054931.717 7  96859492.36207      -163.413 7        46.324
G05         4.000    24221296.192 6 127283822.27706      2130.769 6        40.424                                    24221294.905 5  99182211.89905      1660.334 5        33.599    24221296.386 6  99182210.91606      1660.337 6        37.108
S21         5.000    38502678.308 7 202332553.09007      -483.224 7        42.783
G26         6.000    23172534.631 7 121772640.70207      2665.046 7        42.040                                    23172539.520 6  94887881.50006      2076.653 6        37.558    23172539.858 6  94887868.52006      2076.681 6        39.997
G25         7.000    20655654.217 8 108546366.89708     -2450.427 8        49.062                                    20655654.400 8  84581669.50508     -1909.423 8        48.804    20655655.092 7  84581670.50707     -1909.465 7        44.119
G04         8.000    25370906.742 6 133325012.69806       577.982 6        37.259                                    25370905.694 3 103889606.93603       450.378 3        18.716    25370906.080 6 103889615.91706       450.197 6        36.461
E36         9.000    25392673.890 7 133439539.22007      2265.571 7        45.118                                                                    25392678.674 7  99646536.34507      1691.813 7        47.805    25392677.795 7 102246000.38507      1736.005 7        47.819
R08        10.000    23847690.237 6 127703296.61606      -578.313 6        37.796                                                                    23847691.492 6  99324781.21606      -449.840 6        40.555
G20        11.000    23702097.813 6 124555459.51106        48.099 6        40.532                                    23702094.780 3  97056257.74103        37.484 3        23.638
S27        12.000    39299817.224 6 206522032.00706      -477.951 6        36.159
E08        13.000    27637650.250 6 145236933.40706     -2632.292 6        38.700                                                                    27637658.864 6 108456240.52106     -1965.791 6        40.565    27637657.555 6 111285522.00306     -2016.916 6        41.180
S36        14.000    38273944.368 7 201131381.06107      -482.998 7        44.506
C13        15.000                                                                                                                                    39039153.596 6 203287135.01406      1146.019 6        41.757    39039158.370 7 157194530.88207       886.112 7        43.056    39039155.966 6 165187462.89906       931.146 6        41.266
G18        16.000    23323343.253 7 122565153.38307      3031.051 7        44.333                                    23323344.215 5  95505392.89805      2361.855 5        31.162    23323344.423 7  95505400.90407      2361.873 7        42.502
G12        17.000    23869902.171 7 125437352.96207     -3809.895 7        42.347                                    23869901.437 6  97743473.49406     -2968.748 6        36.854    23869901.502 6  97743470.50506     -2968.734 6        38.766
E02        19.000    24137698.590 7 126844611.37407      1063.888 7        47.240                                                                    24137700.730 8  94721723.48108       794.404 8        50.254    24137699.845 8  97192711.39708       815.173 8        50.210
E10        21.000    25213848.079 7 132499866.96007     -1808.815 7        45.108                                                                    25213849.542 8  98944834.62508     -1350.780 8        48.268    25213849.179 8 101525989.80008     -1385.998 8        48.372
I06        22.000    38749173.467 6 152060225.03806      -410.274 6        40.763
S28        23.000    40981311.008 5 215358214.45705      -483.706 5        34.471
S23        25.000    38222759.042 7 200861878.62707      -487.379 7        44.903
S45        26.000    63479895.383 6 333590140.48406      -546.271 6        36.321
R09        27.000    22691156.038 7 121169624.79407      3454.944 7        45.384                                                                    22691160.747 7  94243130.58707      2687.170 7        43.365
R18        28.000    19332096.314 8 103196311.42408       849.378 8        51.498                                                                    19332098.123 7  80263943.05607       660.601 7        47.133
C38        29.000                                                                                                                                    39041953.135 7 203301779.13807       444.543 7        42.591                                                                    39041951.960 7 165199386.48207       361.123 7        42.817
C44        30.000                                                                                                                                    21394955.429 8 111409346.66608      -162.037 8        51.884                                                                    21394955.369 8  90529300.27408      -131.722 8        50.376
E12        31.000    27061907.092 6 142211441.70506     -2840.668 6        36.306                                                                    27061907.138 6 106196960.55006     -2121.222 6        40.558    27061906.665 6 108967299.89306     -2176.527 6        40.918
G11        32.000    24008859.777 6 126167597.87006     -3416.384 6        40.925                                    24008858.904 4  98312510.40704     -2662.120 4        26.132    24008858.596 6  98312501.41506     -2662.005 6        40.253
I02        33.000    37863121.924 6 148583037.02606      -777.213 6        41.027
R15        34.000    20650505.683 8 110350177.57008     -3383.631 8        50.896                                                                    20650507.252 7  85827984.31107     -2631.795 7        45.819
R07        35.000    24329258.905 7 130236326.85507     -3156.188 7        44.296                                                                    24329269.020 6 101294898.55206     -2454.883 6        39.291
G29        36.000    20398245.967 8 107193783.17908      -438.758 8        50.593                                    20398243.657 8  83527728.20708      -341.890 8        52.892    20398243.964 7  83527738.20707      -341.887 7        46.891
G31        37.000    21941212.179 7 115302039.64707       799.426 7        46.815                                    21941211.103 7  89845834.27607       622.928 7        44.035    21941210.987 7  89845840.28807       622.874 7        42.438
C10        38.000                                                                                                                                    40773818.170 5 212319988.36405     -1154.385 5        35.038    40773817.908 6 164179288.84106      -892.559 6        39.039    40773815.455 6 172527375.15706      -938.041 6        36.321
E25        39.000    23639956.343 8 124229007.48108     -1408.381 8        48.064                                                                    23639958.335 8  92768540.40708     -1051.746 8        50.902    23639957.743 8  95188574.04108     -1079.143 8        51.061
C12        40.000                                                                                                                                    22403654.915 7 116661880.98107      1319.100 7        47.689    22403653.527 8  90210454.33708      1019.960 8        51.782    22403652.280 8  94797400.46308      1071.756 8        49.817
E07        41.000    27876468.019 6 146491803.07106      -548.031 6        38.117                                                                    27876477.824 6 109393240.02806      -409.153 6        41.919    27876476.426 6 112246973.58006      -419.729 6        41.657
S44        42.000    40680113.566 6 213775573.22806      -404.744 6        38.832
G28        43.000    21397724.510 7 112445981.86407      -976.568 7        47.040                                    21397723.747 6  87620333.06106      -760.963 6        37.505    21397723.853 7  87620333.07107      -760.983 7        46.397
C05        44.000                                                                                                                                    39483127.257 6 205598979.92906      -433.294 6        38.123    39483125.613 7 158982182.09507      -335.070 7        42.667    39483126.060 6 167066103.77406      -352.270 6        39.501
R16        46.000    19300853.586 8 103101879.99008       562.996 8        51.992                                                                    19300855.514 8  80190460.63108       437.827 8        48.141
R17        47.000    20146844.271 8 107810061.59708     -2985.956 8        51.156                                                                    20146845.483 7  83852400.02007     -2322.432 7        47.524
C35        48.000                                                                                                                                    23229086.748 8 120960105.50808     -2786.088 8        48.385                                                                    23229087.216 7  98290056.36207     -2264.015 7        47.338
C24        49.000                                                                                                                                    21532376.754 8 112124797.22508     -1059.544 8        51.676                                                                    21532375.186 8  91110601.94508      -861.060 8        50.291
R19        50.000    22017162.972 6 117777166.89206      3452.358 6        37.006                                                                    22017167.480 6  91604557.00706      2685.230 6        40.663
S48        51.000    77219083.194 6 405789614.46806      -513.398 6        37.902
C08        52.000                                                                                                                                    38826115.788 6 202177840.82706      1060.857 6        40.403    38826112.996 7 156336750.94907       820.408 7        43.816    38826111.429 6 164286066.83806       862.050 6        41.967
C34        53.000                                                                                                                                    24048750.142 7 125228357.06707      2417.148 7        45.288                                                                    24048753.793 7 101758398.33507      1964.090 7        45.419
C60        54.000                                                                                                                                    40680114.078 6 211832177.88306      -400.983 6        41.118                                                                    40680100.294 6 172130955.44706      -325.944 6        40.765
C25        55.000                                                                                                                                    23588803.003 7 122833278.38107      1947.486 7        46.574                                                                    23588804.262 7  99812181.87807      1582.385 7        46.334
C26        56.000                                                                                                                                    24291448.528 7 126492026.11707     -3500.392 7        46.142                                                                    24291450.198 7 102785173.54707     -2844.436 7        44.840
C02        57.000                                                                                                                                    40879151.454 5 212868469.28605      -392.118 5        34.357    40879147.489 6 164603384.91406      -303.354 6        38.754    40879150.709 5 172973061.42805      -318.651 5        35.967
I03        58.000    86854581.596 6 265050724.45306      1075.624 6        39.526
E30        59.000    28805940.715 6 151376268.22506      2157.357 6        36.219                                                                    28805954.189 6 113040783.50206      1611.018 6        38.159    28805952.535 6 115989663.31806      1653.053 6        38.583
R24        60.000    24627036.811 5 131692023.99205     -4765.940 5        33.964                                                                    24627038.298 5 102427208.86105     -3706.975 5        31.502
> 2025 01 02 15 45  5.0000000  0 55
E24         1.000    27610096.227 6 145092151.49606     -2994.285 6        38.081                                                                    27610099.654 7 108348102.20807     -2236.081 7        42.584    27610098.874 7 111174563.45507     -2294.240 7        43.357
E11         2.000    24055138.468 7 126410779.03807      -216.052 7        44.424                                                                    24055136.674 7  94397777.48407      -161.385 7        46.600    24055136.117 7  96860315.26707      -165.527 7        46.386
G05         4.000    24219269.874 6 127273173.32606      2129.024 6        40.529                                    24219268.339 5  99173914.04405      1658.970 5        33.557    24219269.727 6  99173913.07906      1658.813 6        37.384
S21         5.000    38503139.529 7 202334970.05007      -483.349 7        42.967
G26         6.000    23169999.263 6 121759318.34506      2664.061 6        41.423                                    23170004.311 6  94877500.47406      2075.886 6        37.520    23170004.545 6  94877487.49106      2075.850 6        39.790
G25         7.000    20657986.889 8 108558625.36208     -2452.801 8        49.053                                    20657987.116 8  84591221.56208     -1911.276 8        48.720    20657987.767 7  84591222.56307     -1911.267 7        43.522
G04         8.000    25370359.029 6 133322131.10306       574.912 6        37.467                                    25370357.218 3 103887361.46703       447.994 3        18.448    25370357.772 6 103887370.46106       447.898 6        36.257
E36         9.000    25390518.768 7 133428215.04507      2264.094 7        44.867                                                                    25390523.744 7  99638079.99407      1690.689 7        47.791    25390522.828 7 102237323.43207      1734.866 7        47.858
R08        10.000    23848232.772 6 127706199.41306      -582.660 6        39.246                                                                    23848232.893 6  99327038.93806      -453.105 6        40.102
G20        11.000    23702053.695 6 124555226.61906        45.132 6        40.424                                    23702050.649 3  97056076.29203        35.163 3        23.429
S27        12.000    39300274.671 6 206524421.47106      -477.977 6        36.480
E08        13.000    27640155.625 6 145250098.85806     -2633.738 6        38.748                                                                    27640164.184 6 108466071.82406     -1966.731 6        40.644    27640162.973 6 111295609.79106     -2018.016 6        41.240
S36        14.000    38274406.135 7 201133796.88907      -483.010 7        44.439
C13        15.000                                                                                                                                    39038054.251 6 203281407.75606      1144.929 6        41.719    39038058.479 7 157190102.20207       885.454 7        43.079    39038056.081 6 165182808.98706       930.565 6        41.027
G18        16.000    23320459.902 7 122550001.95207      3029.695 7        44.197                                    23320460.868 5  95493586.61205      2360.795 5        30.808    23320461.515 7  95493594.61607      2360.848 7        42.209
G12        17.000    23873527.768 7 125456405.15507     -3810.863 7        42.449                                    23873526.890 6  97758319.36606     -2969.506 6        36.654    23873526.798 6  97758316.35906     -2969.653 6        38.408
E02        19.000    24136686.755 7 126839294.93607      1062.805 7        47.162                                                                    24136689.031 8  94717753.42808       793.621 8        50.230    24136688.174 8  97188637.77208       814.364 8        50.266
E10        21.000    25215570.360 7 132508917.27107     -1811.191 7        45.062                                                                    25215571.779 8  98951592.98108     -1352.484 8        48.234    25215571.396 8 101532924.45708     -1387.740 8        48.450
I06        22.000    38749696.396 6 152062276.56906      -410.226 6        40.841
S28        23.000    40981769.269 5 215360634.27005      -484.010 5        34.414
S23        25.000    38223222.387 7 200864316.42107      -487.555 7        44.817
S45        26.000    63480361.836 6 333592872.45906      -546.456 6        36.374
R09        27.000    22687922.061 7 121152352.54807      3454.119 7        45.989                                                                    22687926.467 7  94229696.66207      2686.562 7        43.536
R18        28.000    19331303.022 8 103192075.16108       845.229 8        51.464                                                                    19331304.075 7  80260648.18507       657.391 7        46.740
C38        29.000                                                                                                                                    39041527.054 7 203299559.78307       443.396 7        42.855                                                                    39041525.744 7 165197583.05507       360.395 7        42.557
C44        30.000                                                                                                                                    21395112.215 8 111410163.29308      -164.508 8        51.741                                                                    21395112.146 8  90529963.81608      -133.527 8        50.147
E12        31.000    27064610.625 6 142225648.44106     -2842.091 6        36.030                                                                    27064610.566 6 106207569.49606     -2122.335 6        40.789    27064609.965 6 108978185.58806     -2177.630 6        40.784
G11        32.000    24012111.565 6 126184684.86306     -3418.250 6        41.440                                    24012110.373 4  98325824.96404     -2663.578 4        25.895    24012110.234 6  98325815.95806     -2663.517 6        40.298
I02        33.000    37864112.404 6 148586923.96906      -777.514 6        41.068
R15        34.000    20653673.135 8 110367103.24808     -3386.474 8        51.312                                                                    20653674.694 7  85841148.72007     -2633.930 7        45.971
R07        35.000    24332208.081 6 130252115.97006     -3159.191 6        41.449                                                                    24332218.363 5 101307178.97805     -2456.810 5        33.533
G29        36.000    20398664.787 8 107195983.23108      -441.157 8        50.537                                    20398662.300 8  83529442.54108      -343.761 8        52.773    20398662.583 7  83529452.55007      -343.766 7        46.667
G31        37.000    21940453.102 7 115298051.30007       796.108 7        46.551                                    21940452.125 7  89842726.49007       620.340 7        43.877    21940452.519 7  89842732.49807       620.412 7        42.260
C10        38.000                                                                                                                                    40774927.491 5 212325760.79205     -1154.543 5        34.881    40774926.278 6 164183752.46506      -892.833 6        39.165    40774923.968 6 172532065.69106      -938.055 6        36.110
E25        39.000    23641296.899 8 124236053.35508     -1409.859 8        48.034                                                                    23641299.124 8  92773801.94308     -1052.825 8        50.923    23641298.519 8  95193972.83508     -1080.266 8        51.045
C12        40.000                                                                                                                                    22402389.679 7 116655291.45607      1316.848 7        47.583    22402387.934 8  90205358.90808      1018.273 8        51.869    22402386.790 8  94792045.90308      1070.178 8        49.596
E07        41.000    27876990.552 6 146494548.53006      -550.290 6        37.807                                                                    27877000.202 6 109395290.23506      -411.052 6        41.995    27876998.676 6 112249077.27106      -421.732 6        41.645
S44        42.000    40680499.520 6 213777597.40106      -404.815 6        38.946
G28        43.000    21398655.904 7 112450874.10807      -980.195 7        47.329                                    21398654.708 6  87624145.20606      -763.789 6        37.335    21398654.839 7  87624145.21307      -763.772 7        46.402
C05        44.000                                                                                                                                    39483543.015 6 205601147.24006      -433.320 6        38.036    39483542.015 7 158983858.00707      -335.223 7        42.622    39483542.350 6 167067864.85306      -352.155 6        39.129
R16        46.000    19300328.714 8 103099074.13708       559.484 8        52.210                                                                    19300330.365 7  80188278.30007       435.175 7        47.706
R17        47.000    20149635.447 8 107824999.28108     -2989.056 8        50.821                                                                    20149636.532 7  83864018.22507     -2324.853 7        47.680
C35        48.000                                                                                                                                    23231763.358 8 120974040.02908     -2787.627 8        48.396                                                                    23231763.167 7  98301379.26907     -2264.970 7        47.249
C24        49.000                                                                                                                                    21533395.486 8 112130101.83808     -1062.172 8        51.599                                                                    21533393.851 8  91114912.33708      -862.968 8        50.124
R19        50.000    22013937.578 6 117759910.04106      3450.402 6        36.321                                                                    22013941.967 6  91591135.03606      2683.693 6        41.075
S48        51.000    77219548.999 6 405792182.59306      -513.637 6        38.060
C08        52.000                                                                                                                                    38825097.828 6 202172538.84406      1059.891 6        40.398    38825094.585 7 156332651.13407       819.500 7        43.663    38825093.166 6 164281758.49906       861.444 6        41.630
C34        53.000                                                                                                                                    24046430.207 7 125216275.03107      2415.823 7        45.621                                                                    24046433.602 7 101748580.67407      1963.113 7        45.187
C60        54.000                                                                                                                                    40680499.130 6 211834183.66406      -401.240 6        41.089                                                                    40680485.520 6 172132585.27606      -325.913 6        40.479
C25        55.000                                                                                                                                    23586934.169 7 122823545.34207      1945.848 7        46.552                                                                    23586935.118 7  99804272.96007      1581.250 7        46.077
C26        56.000                                                                                                                                    24294810.269 7 126509531.73907     -3501.661 7        45.484                                                                    24294812.063 7 102799398.25207     -2845.236 7        44.778
C02        57.000                                                                                                                                    40879527.638 5 212870430.74105      -392.367 5        34.605    40879524.143 6 164604901.63706      -303.465 6        38.778    40879527.013 5 172974655.24305      -318.868 5        35.519
I03        58.000    86853211.371 6 265045347.10706      1075.372 6        39.706
E30        59.000    28803887.193 6 151365481.20206      2157.498 6        36.064                                                                    28803901.743 6 113032728.30406      1611.022 6        38.381    28803899.734 6 115981397.97606      1653.108 6        38.658
R24        60.000    24631494.202 5 131715854.69505     -4765.952 5        33.557                                                                    24631495.335 5 102445743.90705     -3706.980 5        31.509
> 2025 01 02 15 45 10.0000000  0 55
E24         1.000    27612945.480 6 145107124.31806     -2995.118 6        37.346                                                                    27612948.879 7 108359283.19507     -2236.429 7        42.614    27612948.195 7 111186036.12407     -2294.853 7        43.481
E11         2.000    24055345.325 7 126411865.54607      -218.632 7        44.382                                                                    24055343.439 7  94398588.83207      -163.266 7        46.363    24055342.842 7  96861147.78407      -167.559 7        46.432
G05         4.000    24217245.371 6 127262533.06206      2127.060 6        40.653                                    24217243.548 5  99165622.95505      1657.447 5        33.922    24217244.791 6  99165621.96906      1657.635 6        37.936
S21         5.000    38503598.022 7 202337386.94307      -483.484 7        43.062
G26         6.000    23167465.229 6 121746000.54606      2662.944 6        41.454                                    23167469.992 6  94867122.99506      2075.021 6        37.539    23167470.082 6  94867110.00606      2075.011 6        40.002
G25         7.000    20660321.401 8 108570894.75008     -2455.085 8        48.880                                    20660321.902 8  84600782.12408     -1913.052 8        48.736    20660322.537 7  84600783.12607     -1913.045 7        44.280
G04         8.000    25369813.080 6 133319264.13206       571.883 6        37.388                                    25369811.832 2 103885127.44102       445.653 2        17.924    25369811.972 6 103885136.43606       445.423 6        36.620
E36         9.000    25388365.159 7 133416897.76607      2262.687 7        44.498                                                                    25388369.998 7  99629628.80107      1689.641 7        47.555    25388369.304 7 102228651.77607      1733.699 7        47.878
R08        10.000    23848779.711 6 127709123.00606      -586.769 6        40.153                                                                    23848779.428 6  99329312.84806      -456.523 6        40.482
G20        11.000    23702011.909 6 124555008.76806        42.027 6        40.162                                    23702009.166 3  97055906.53403        32.743 3        23.505
S27        12.000    39300727.404 6 206526811.41606      -477.973 6        36.280
E08        13.000    27642662.905 6 145263271.19006     -2635.151 6        38.631                                                                    27642670.866 6 108475908.29306     -1967.884 6        40.589    27642669.346 6 111305702.87106     -2019.224 6        41.178
S36        14.000    38274862.513 7 201136212.08007      -483.193 7        44.405
C13        15.000                                                                                                                                    39036955.233 6 203275684.77006      1144.046 6        41.871    39036959.208 7 157185676.84007       884.675 7        43.031    39036957.024 6 165178158.64106       929.575 6        41.242
G18        16.000    23317577.957 7 122534856.56407      3028.330 7        43.534                                    23317578.742 5  95481785.03005      2359.736 5        30.770    23317579.617 7  95481793.03207      2359.731 7        42.334
G12        17.000    23877154.118 6 125475461.68006     -3811.759 6        41.735                                    23877153.135 6  97773168.60606     -2970.201 6        36.548    23877153.423 6  97773165.61506     -2970.141 6        38.664
E02        19.000    24135676.158 7 126833983.29307      1061.724 7        46.778                                                                    24135678.203 8  94713786.94908       792.874 8        50.082    24135677.360 8  97184567.82108       813.550 8        50.293
E10        21.000    25217294.134 7 132517978.51007     -1813.473 7        44.664                                                                    25217296.099 8  98958359.49308     -1354.186 8        48.130    25217295.664 8 101539867.49408     -1389.540 8        48.442
I06        22.000    38750218.710 6 152064328.03406      -410.427 6        40.865
S28        23.000    40982231.880 5 215363054.20405      -484.183 5        34.595
S23        25.000    38223687.418 7 200866754.36007      -487.606 7        44.867
S45        26.000    63480828.284 6 333595604.55306      -546.502 6        36.446
R09        27.000    22684688.955 7 121135083.93007      3453.317 7        46.035                                                                    22684691.852 7  94216265.56007      2685.714 7        43.710
R18        28.000    19330512.881 8 103187858.81508       841.153 8        51.164                                                                    19330514.449 7  80257368.81607       654.204 7        47.052
C38        29.000                                                                                                                                    39041101.784 7 203297345.71307       442.255 7        43.223                                                                    39041100.639 7 165195783.98407       359.309 7        42.692
C44        30.000                                                                                                                                    21395271.296 8 111410991.66408      -166.967 8        51.688                                                                    21395271.277 8  90530636.97008      -135.684 8        50.349
E12        31.000    27067315.792 5 142239862.56005     -2843.499 5        35.914                                                                    27067315.446 6 106218183.95206     -2123.536 6        40.715    27067314.669 6 108989076.94906     -2178.898 6        40.803
G11        32.000    24015365.073 6 126201781.07706     -3420.242 6        41.514                                    24015363.639 4  98339146.70404     -2665.140 4        25.955    24015363.646 6  98339137.70806     -2665.131 6        39.889
I02        33.000    37865103.493 6 148590811.58006      -777.675 6        41.061
R15        34.000    20656842.773 8 110384042.19908     -3389.244 8        50.854                                                                    20656844.859 7  85854323.46307     -2636.047 7        46.300
R07        35.000    24335160.329 6 130267918.25406     -3161.801 6        40.005                                                                    24335171.205 6 101319469.56606     -2459.056 6        40.627
G29        36.000    20399085.611 8 107198194.94008      -443.586 8        50.353                                    20399083.164 8  83531165.95808      -345.650 8        52.788    20399083.537 7  83531175.96807      -345.674 7        46.892
G31        37.000    21939697.248 7 115294079.10807       792.730 7        46.559                                    21939696.229 7  89839631.28907       617.709 7        43.903    21939696.623 7  89839637.29507       617.730 7        42.364
C10        38.000                                                                                                                                    40776035.220 5 212331533.23205     -1154.646 5        35.105    40776034.346 6 164188216.08106      -892.809 6        38.901    40776032.663 6 172536756.29506      -938.171 6        36.072
E25        39.000    23642638.991 7 124243105.97907     -1411.292 7        47.988                                                                    23642641.159 8  92779068.51508     -1053.876 8        50.835    23642640.516 8  95199376.79908     -1081.395 8        51.086
C12        40.000                                                                                                                                    22401125.773 7 116648712.37207      1314.725 7        47.332    22401124.882 8  90200271.55808      1016.645 8        52.127    22401123.355 8  94786699.90208      1068.227 8        49.790
E07        41.000    27877515.520 6 146497306.01106      -552.827 6        37.694                                                                    27877524.892 6 109397349.39506      -412.763 6        41.902    27877523.503 6 112251190.15006      -423.601 6        41.781
S44        42.000    40680884.679 6 213779621.72806      -405.169 6        38.955
G28        43.000    21399590.105 7 112455783.44007      -983.648 7        46.940                                    21399588.923 6  87627970.66406      -766.479 6        37.399    21399588.890 7  87627970.66607      -766.456 7        46.326
C05        44.000                                                                                                                                    39483959.153 6 205603314.55106      -433.329 6        38.147    39483958.033 7 158985533.92807      -335.337 7        42.775    39483958.350 6 167069626.01806      -352.391 6        39.393
R16        46.000    19299806.698 8 103096285.48808       555.898 8        52.036                                                                    19299808.219 7  80186109.36107       432.372 7        47.958
R17        47.000    20152429.552 8 107839951.87908     -2992.103 8        50.602                                                                    20152430.823 8  83875648.02408     -2327.206 8        48.000
C35        48.000                                                                                                                                    23234440.468 7 120987981.54707     -2789.013 7        47.921                                                                    23234440.502 7  98312707.92507     -2266.338 7        47.321
C24        49.000                                                                                                                                    21534416.823 8 112135419.08108     -1064.781 8        51.624                                                                    21534414.994 8  91119233.06308      -865.263 8        50.300
R19        50.000    22010714.130 6 117742662.94806      3448.346 6        36.836                                                                    22010717.377 6  91577720.65206      2681.948 6        40.827
S48        51.000    77220014.289 6 405794751.32806      -513.721 6        37.762
C08        52.000                                                                                                                                    38824081.305 6 202167241.76506      1058.868 6        40.677    38824077.012 7 156328555.11707       818.706 7        43.791    38824075.950 7 164277454.25307       860.252 7        42.032
C34        53.000                                                                                                                                    24044111.379 7 125204198.90707      2414.465 7        45.812                                                                    24044114.545 7 101738767.87307      1961.961 7        45.368
C60        54.000                                                                                                                                    40680884.284 6 211836189.57506      -401.297 6        41.194                                                                    40680870.786 6 172134215.29106      -326.159 6        40.753
C25        55.000                                                                                                                                    23585066.556 7 122813819.89707      1944.302 7        46.557                                                                    23585067.439 7  99796370.29507      1579.707 7        46.256
C26        56.000                                                                                                                                    24298172.779 7 126527043.35107     -3503.071 7        45.145                                                                    24298175.070 7 102813627.87607     -2846.528 7        45.126
C02        57.000                                                                                                                                    40879904.296 5 212872392.18305      -392.307 5        34.429    40879900.873 6 164606418.34206      -303.368 6        38.745    40879903.940 6 172976249.10506      -318.851 6        36.015
I03        58.000    86851841.174 6 265039969.69406      1075.481 6        39.495
E30        59.000    28801834.779 5 151354693.56905      2157.742 5        35.943                                                                    28801848.744 6 113024672.67506      1611.187 6        38.147    28801846.821 6 115973132.18906      1653.219 6        38.937
R24        60.000    24635949.627 5 131739685.29205     -4766.187 5        33.425                                                                    24635950.692 5 102464278.86405     -3707.627 5        31.042
> 2025 01 02 15 45 15.0000000  0 55
E24         1.000    27615795.485 6 145122099.98406     -2995.293 6        37.471                                                                    27615798.674 7 108370466.33507     -2236.733 7        42.785    27615798.207 7 111197510.99407     -2295.075 7        43.731
E11         2.000    24055554.333 7 126412964.68407      -221.011 7        44.602                                                                    24055552.596 7  94399409.62807      -165.062 7        46.384    24055552.075 7  96861989.98807      -169.385 7        46.669
G05         4.000    24215222.214 6 127251901.60006      2125.672 6        40.667                                    24215220.501 5  99157338.72605      1656.362 5        34.224    24215221.496 6  99157337.74706      1656.285 6        37.826
S21         5.000    38504057.857 7 202339804.11307      -483.213 7        43.143
G26         6.000    23164931.417 6 121732687.37106      2662.400 6        41.585                                    23164936.536 6  94856749.12506      2074.592 6        37.554    23164936.315 6  94856736.13306      2074.572 6        39.691
G25         7.000    20662658.142 8 108583175.16508     -2457.080 8        49.185                                    20662658.772 8  84610351.28408     -1914.607 8        48.742    20662659.666 7  84610352.29207     -1914.649 7        44.302
G04         8.000    25369270.816 6 133316411.75606       569.301 6        37.588                                    25369268.990 3 103882904.80203       443.603 3        18.179    25369269.349 6 103882913.77406       443.575 6        36.049
E36         9.000    25386213.015 7 133405587.52107      2261.532 7        44.728                                                                    25386217.729 7  99621182.85707      1688.738 7        47.650    25386216.983 8 102219985.50208      1732.804 8        48.074
R08        10.000    23849329.487 6 127712067.57906      -590.911 6        39.967                                                                    23849329.062 6  99331603.06906      -459.648 6        40.808
G20        11.000    23701973.158 6 124554806.10206        39.100 6        40.338                                    23701970.670 3  97055748.63603        30.460 3        23.200
S27        12.000    39301185.102 6 206529201.31606      -477.857 6        36.461
E08        13.000    27645170.821 6 145276450.53106     -2636.404 6        38.958                                                                    27645178.870 6 108485749.98306     -1968.714 6        40.522    27645177.200 6 111315801.30106     -2020.166 6        41.373
S36        14.000    38275324.552 7 201138627.99207      -483.173 7        44.521
C13        15.000                                                                                                                                    39035857.105 6 203269966.12406      1143.433 6        41.831    39035861.195 7 157181254.83707       884.178 7        43.257    39035858.914 6 165173511.79806       929.060 6        41.154
G18        16.000    23314697.142 7 122519717.31207      3027.407 7        42.973                                    23314697.796 5  95469988.23005      2359.015 5        30.740    23314698.329 7  95469996.25207      2359.014 7        42.567
G12        17.000    23880780.943 6 125494522.67206     -3812.521 6        41.013                                    23880780.314 6  97788021.33006     -2970.795 6        36.344    23880780.928 6  97788018.33606     -2970.862 6        38.877
E02        19.000    24134666.355 7 126828676.54407      1060.972 7        46.928                                                                    24134668.389 8  94709824.12208       792.308 8        50.114    24134667.499 8  97180501.62008       812.945 8        50.450
E10        21.000    25219020.580 7 132527050.77207     -1815.350 7        44.745                                                                    25219022.548 8  98965134.24708     -1355.686 8        48.159    25219022.062 8 101546818.97408     -1390.996 8        48.694
I06        22.000    38750742.005 6 152066379.46006      -410.212 6        40.825
S28        23.000    40982692.341 5 215365474.26305      -483.588 5        34.505
S23        25.000    38224151.657 7 200869192.38907      -487.537 7        44.989
S45        26.000    63481292.103 6 333596636.82616      -546.188 6        36.541
R09        27.000    22681454.234 7 121117818.96407      3452.725 7        46.061                                                                    22681458.765 7  94202837.28407      2685.535 7        43.209
R18        28.000    19329726.732 8 103183662.50608       837.365 8        51.354                                                                    19329728.682 7  80254105.02507       651.317 7        47.053
C38        29.000                                                                                                                                    39040677.460 7 203295137.05007       441.263 7        43.227                                                                    39040676.380 7 165193989.28107       358.632 7        42.648
C44        30.000                                                                                                                                    21395432.620 8 111411831.90108      -169.129 8        51.542                                                                    21395432.567 8  90531319.74008      -137.436 8        50.258
E12        31.000    27070022.004 6 142254084.18706     -2844.982 6        36.193                                                                    27070021.783 6 106228804.02806     -2124.590 6        40.524    27070021.029 6 108999974.05806     -2179.983 6        40.999
G11        32.000    24018620.051 6 126218886.62206     -3421.736 6        40.806                                    24018618.417 4  98352475.71704     -2666.297 4        25.639    24018618.607 6  98352466.73906     -2666.428 6        39.634
I02        33.000    37866094.188 6 148594700.15806      -777.574 6        41.223
R15        34.000    20660015.076 8 110400994.57208     -3391.720 8        51.193                                                                    20660017.505 7  85867508.63607     -2638.020 7        46.574
R07        35.000    24338114.769 7 130283733.74807     -3164.392 7        43.771                                                                    24338124.182 5 101331770.54105     -2461.287 5        34.833
G29        36.000    20399508.553 8 107200418.42408      -445.763 8        50.382                                    20399506.269 8  83532898.54808      -347.349 8        52.797    20399506.755 7  83532908.54907      -347.326 7        46.983
G31        37.000    21938944.596 7 115290123.19707       789.717 7        46.698                                    21938943.427 7  89836548.77507       615.360 7        43.954    21938944.208 7  89836554.78807       615.337 7        42.889
C10        38.000                                                                                                                                    40777143.765 5 212337305.79105     -1154.182 5        34.957    40777143.298 6 164192679.78306      -892.565 6        38.916    40777141.039 6 172541447.01806      -938.190 6        36.060
E25        39.000    23643982.378 8 124250165.46008     -1412.481 8        48.101                                                                    23643984.533 8  92784340.21508     -1054.788 8        50.791    23643983.892 8  95204786.01908     -1082.294 8        51.282
C12        40.000                                                                                                                                    22399864.167 7 116642143.81407      1312.778 7        47.301    22399863.381 8  90195192.34308      1015.100 8        52.077    22399861.930 8  94781362.42408      1066.711 8        49.707
E07        41.000    27878042.744 6 146500075.58306      -555.010 6        37.671                                                                    27878051.992 6 109399417.61306      -414.363 6        41.957    27878050.514 6 112253312.32906      -425.224 6        41.778
S44        42.000    40681270.777 6 213781646.29506      -404.741 6        39.093
G28        43.000    21400527.401 7 112460709.97407      -986.904 7        46.934                                    21400526.408 6  87631809.52606      -769.015 6        37.433    21400526.566 7  87631809.53207      -769.026 7        46.545
C05        44.000                                                                                                                                    39484375.193 6 205605482.01106      -433.515 6        38.177    39484374.309 7 158987209.93707      -335.138 7        42.736    39484374.819 6 167071387.26106      -352.210 6        39.405
R16        46.000    19299287.566 8 103093513.99508       552.716 8        51.750                                                                    19299289.412 8  80183953.76008       429.887 8        48.037
R17        47.000    20155226.963 8 107854919.56108     -2994.912 8        50.784                                                                    20155228.083 7  83887289.55007     -2329.397 7        47.505
C35        48.000                                                                                                                                    23237118.668 7 121001930.10007     -2790.286 7        47.742                                                                    23237119.156 7  98324042.28007     -2267.341 7        47.258
C24        49.000                                                                                                                                    21535440.150 8 112140749.06008     -1067.111 8        51.599                                                                    21535438.527 8  91123564.12508      -867.207 8        50.202
R19        50.000    22007492.199 6 117725425.76906      3446.577 6        37.214                                                                    22007494.971 6  91564313.99106      2680.548 6        41.800
S48        51.000    77220482.213 6 405797319.99406      -513.617 6        37.750
C08        52.000                                                                                                                                    38823064.872 6 202161949.86406      1058.114 6        40.532    38823060.839 7 156324463.09707       818.139 7        43.672    38823059.587 6 164273154.16806       859.683 6        41.733
C34        53.000                                                                                                                                    24041793.178 7 125192128.81907      2413.631 7        45.664                                                                    24041796.563 7 101728959.95307      1961.200 7        45.276
C60        54.000                                                                                                                                    40681269.434 6 211838195.75606      -401.118 6        41.097                                                                    40681255.971 6 172135845.48106      -325.954 6        40.622
C25        55.000                                                                                                                                    23583200.452 7 122804102.18207      1942.934 7        46.680                                                                    23583201.235 7  99788473.87407      1578.734 7        46.253
C26        56.000                                                                                                                                    24301536.958 7 126544561.01507     -3503.991 7        45.183                                                                    24301539.191 7 102827862.42107     -2847.448 7        45.108
C02        57.000                                                                                                                                    40880281.495 5 212874353.82405      -392.242 5        34.395    40880277.777 6 164607935.22106      -303.384 6        38.844    40880280.795 5 172977843.11105      -318.628 5        35.810
I03        58.000    86850470.804 6 265034592.30606      1075.636 6        39.688
E30        59.000    28799781.998 6 151343905.53406      2157.631 6        36.042                                                                    28799795.545 6 113016616.69206      1611.220 6        38.165    28799794.163 6 115964866.05106      1653.327 6        39.141
R24        60.000    24640406.059 5 131763515.77305     -4766.138 5        33.359                                                                    24640407.274 5 102482813.60405     -3706.854 5        31.064
> 2025 01 02 15 45 20.0000000  0 55
E24         1.000    27618645.833 6 145137078.59806     -2996.019 6        37.841                                                                    27618648.968 7 108381651.66207     -2237.272 7        43.029    27618648.583 7 111208988.10307     -2295.625 7        43.850
E11         2.000    24055765.646 7 126414076.53507      -223.593 7        44.728                                                                    24055764.161 7  94400239.91807      -167.031 7        46.589    24055763.538 7  96862841.92707      -171.313 7        46.650
G05         4.000    24213200.366 6 127241278.97706      2123.689 6        40.443                                    24213199.180 5  99149061.37505      1654.815 5        34.405    24213200.337 6  99149060.39006      1654.680 6        37.747
S21         5.000    38504516.824 7 202342221.51207      -483.405 7        42.819
G26         6.000    23162398.731 6 121719378.91706      2661.467 6        41.747                                    23162404.002 6  94846378.92906      2073.865 6        37.607    23162404.265 6  94846365.94306      2073.812 6        39.790
G25         7.000    20664997.334 8 108595466.64308     -2459.345 8        49.171                                    20664997.739 8  84619929.06408     -1916.376 8        48.807    20664998.296 7  84619930.07507     -1916.443 7        44.334
G04         8.000    25368730.555 6 133313574.03006       566.182 6        38.201                                    25368728.935 3 103880693.54803       441.208 3        18.866    25368729.556 6 103880702.54406       440.995 6        36.681
E36         9.000    25384062.207 7 133394284.34207      2260.077 7        44.551                                                                    25384066.883 7  99612742.19207      1687.684 7        47.710    25384066.075 8 102211324.64208      1731.674 8        48.092
R08        10.000    23849881.843 6 127715032.97706      -595.017 6        39.012                                                                    23849882.838 6  99333909.51306      -462.949 6        40.021
G20        11.000    23701937.982 6 124554618.57506        36.089 6        40.908                                    23701935.009 3  97055602.52603        28.117 3        23.810
S27        12.000    39301640.009 6 206531591.09406      -478.058 6        36.318
E08        13.000    27647680.207 6 145289636.86606     -2637.706 6        38.994                                                                    27647688.238 6 108495596.90806     -1969.883 6        40.853    27647686.638 6 111325905.09806     -2021.299 6        41.552
S36        14.000    38275783.962 7 201141045.64007      -483.586 7        44.442
C13        15.000                                                                                                                                    39034759.531 6 203264251.90806      1142.496 6        41.852    39034763.929 7 157176836.25807       883.402 7        43.187    39034761.384 6 165168868.51906       928.427 6        41.051
G18        16.000    23311817.483 7 122504584.27907      3026.129 7        43.712                                    23311818.121 5  95458196.28005      2358.018 5        30.800    23311818.640 7  95458204.30307      2357.979 7        43.219
