     3.04           OBSERVATION DATA    M                   RINEX VERSION / TYPE
ssrcrin-15.6.1x                         20250102 044500 UTC PGM / RUN BY / DATE 
(00000000023479385599111004) Septentrio proprietary         COMMENT             
rref                                                        MARKER NAME         
01                                                          MARKER NUMBER       
geodetic                                                    MARKER TYPE         
NFB                 CLIMERS@TUW                             OBSERVER / AGENCY   
3297213             SEPT ASTERX SB3 PROB4.14.4              REC # / TYPE / VERS 
Unknown             Unknown                                 ANT # / TYPE        
  4127831.8317  1207193.1532  4695247.4343                  APPROX POSITION XYZ 
        0.0000        0.0000        0.0000                  ANTENNA: DELTA H/E/N
G   23 X1  C1C L1C D1C S1C C1W S1W C2W L2W D2W S2W C2L L2L  SYS / # / OBS TYPES 
       D2L S2L C5Q L5Q D5Q S5Q C1L L1L D1L S1L              SYS / # / OBS TYPES 
E   21 X1  C1C L1C D1C S1C C6C L6C D6C S6C C5Q L5Q D5Q S5Q  SYS / # / OBS TYPES 
       C7Q L7Q D7Q S7Q C8Q L8Q D8Q S8Q                      SYS / # / OBS TYPES 
S    9 X1  C1C L1C D1C S1C C5I L5I D5I S5I                  SYS / # / OBS TYPES 
R   17 X1  C1C L1C D1C S1C C2P L2P D2P S2P C2C L2C D2C S2C  SYS / # / OBS TYPES 
       C3Q L3Q D3Q S3Q                                      SYS / # / OBS TYPES 
C   25 X1  C1P L1P D1P S1P C5P L5P D5P S5P C2I L2I D2I S2I  SYS / # / OBS TYPES 
       C7I L7I D7I S7I C6I L6I D6I S6I C7D L7D D7D S7D      SYS / # / OBS TYPES 
J   17 X1  C1C L1C D1C S1C C2L L2L D2L S2L C5Q L5Q D5Q S5Q  SYS / # / OBS TYPES 
       C1L L1L D1L S1L                                      SYS / # / OBS TYPES 
I    5 X1  C5A L5A D5A S5A                                  SYS / # / OBS TYPES 
SEPTENTRIO RECEIVERS OUTPUT ALIGNED CARRIER PHASES.         COMMENT             
NO FURTHER PHASE SHIFT APPLIED IN THE RINEX ENCODER.        COMMENT             
G L1C                                                       SYS / PHASE SHIFT   
G L2W                                                       SYS / PHASE SHIFT   
G L2L  0.00000                                              SYS / PHASE SHIFT   
G L5Q  0.00000                                              SYS / PHASE SHIFT   
G L1L  0.00000                                              SYS / PHASE SHIFT   
E L1C  0.00000                                              SYS / PHASE SHIFT   
E L6C  0.00000                                              SYS / PHASE SHIFT   
E L5Q  0.00000                                              SYS / PHASE SHIFT   
E L7Q  0.00000                                              SYS / PHASE SHIFT   
E L8Q  0.00000                                              SYS / PHASE SHIFT   
S L1C                                                       SYS / PHASE SHIFT   
S L5I                                                       SYS / PHASE SHIFT   
R L1C                                                       SYS / PHASE SHIFT   
R L2P  0.00000                                              SYS / PHASE SHIFT   
R L2C                                                       SYS / PHASE SHIFT   
R L3Q  0.00000                                              SYS / PHASE SHIFT   
C L1P  0.00000                                              SYS / PHASE SHIFT   
C L5P  0.00000                                              SYS / PHASE SHIFT   
C L2I                                                       SYS / PHASE SHIFT   
C L7I                                                       SYS / PHASE SHIFT   
C L6I                                                       SYS / PHASE SHIFT   
C L7D                                                       SYS / PHASE SHIFT   
J L1C                                                       SYS / PHASE SHIFT   
J L2L  0.00000                                              SYS / PHASE SHIFT   
J L5Q  0.00000                                              SYS / PHASE SHIFT   
J L1L  0.00000                                              SYS / PHASE SHIFT   
I L5A                                                       SYS / PHASE SHIFT   
  2025     1     2     4    45    0.0000000     GPS         TIME OF FIRST OBS   
 C1C    0.000 C2C    0.000 C2P    0.000                     GLONASS COD/PHS/BIS 
DBHZ                                                        SIGNAL STRENGTH UNIT
    18                                                      LEAP SECONDS        
 24 R01  1 R02 -4 R03  5 R04  6 R05  1 R06 -4 R07  5 R08  6 GLONASS SLOT / FRQ #
    R09 -2 R10 -7 R11  0 R12 -1 R13 -2 R14 -7 R15  0 R16 -1 GLONASS SLOT / FRQ #
    R17  4 R18 -3 R19  3 R20  2 R21  4 R22 -3 R23  3 R24  2 GLONASS SLOT / FRQ #
                                                            END OF HEADER       
> 2025 01 02 04 45  0.0000000  0 57
G09         1.000    20230347.635 8 106311230.12408     -1710.812 8        49.354                                    20230344.503 8  82839925.86608     -1333.100 8        52.388    20230344.980 7  82839925.86807     -1333.127 7        45.932
G06         2.000    21868696.672 7 114920796.75607     -2726.328 7        46.570                                    21868694.858 7  89548677.71007     -2124.409 7        46.571    21868695.549 7  89548685.70907     -2124.467 7        44.606
E11         3.000    24490172.946 7 128696747.10407      -668.164 7        43.103                                                                    24490167.827 7  96104705.57207      -499.037 7        45.037    24490167.779 7  98611780.88307      -512.039 7        45.324
G16         4.000    23407438.983 6 123006936.80706      -496.435 6        40.687                                    23407433.565 3  95849544.93003      -386.842 3        23.581
S21         5.000    38340687.999 7 201481351.53107      -483.438 7        42.622
E10         6.000    24641811.594 7 129493604.99207     -2236.154 7        47.189                                                                    24641810.306 8  96699767.02508     -1669.895 8        49.903    24641810.145 8  99222369.07708     -1713.444 8        50.054
G20         7.000    22453398.905 7 117993418.19007      2480.804 7        44.880                                    22453393.541 5  91942904.64305      1933.101 5        30.234
G03         8.000    24592523.294 6 129234655.47506     -4107.579 6        37.921                                    24592521.780 5 100702364.79005     -3200.698 5        30.075    24592521.603 5 100702362.74505     -3200.319 5        35.648
R10         9.000    20317020.136 7 108301152.03407      1080.466 7        46.348
R17        10.000    22956823.401 7 122846605.58807      2103.828 7        44.444                                                                    22956821.704 6  95547353.32206      1636.266 6        40.801
G30        11.000    22861098.835 7 120135895.44707      2756.227 7        44.108                                    22861096.920 6  93612378.10706      2147.710 6        41.809    22861097.038 6  93612386.11806      2147.645 6        40.706
S27        12.000    38974781.526 6 204813868.24206      -495.081 6        36.170
G26        13.000    24838120.943 6 130525212.93606     -2684.575 6        36.374                                    24838119.667 4 101707965.12304     -2091.880 4        26.527    24838119.838 5 101707965.10805     -2092.071 5        34.548
S36        14.000    38108446.228 7 200261772.17807      -483.868 7        44.799
I09        15.000    37924874.626 7 148825352.43107      -780.387 7        43.027
E09        16.000    27984356.610 6 147058804.29806      1983.076 6        38.138                                                                    27984355.979 6 109816637.97206      1481.005 6        40.215    27984355.187 6 112681416.14506      1519.719 6        40.191
S45        17.000    63294761.212 6 332617076.68706      -524.526 6        37.319
E36        18.000    27115834.745 6 142494669.01206      1775.209 6        39.742                                                                    27115834.820 7 106408376.55307      1325.843 7        43.156    27115834.716 7 109184245.55007      1360.326 7        43.786
E12        19.000    25730282.563 7 135213554.45007     -3237.118 7        42.027                                                                    25730278.718 7 100971149.02507     -2417.347 7        43.757    25730278.640 7 103605178.51407     -2480.451 7        44.764
E21        20.000    26630225.081 6 139942772.80506      1538.317 6        41.187                                                                    26630224.236 7 104502735.29807      1148.719 7        44.277    26630223.486 7 107228889.90207      1178.768 7        44.149
G11        21.000    22019852.904 7 115715127.80807      -207.751 7        46.142                                    22019848.646 5  90167615.00805      -161.883 5        35.462    22019848.626 7  90167627.99907      -161.908 7        45.369
I06        22.000    37868532.711 7 148604497.28407      -338.869 7        43.117
S28        23.000    40769752.034 5 214246504.86705      -482.902 5        34.514
R08        24.000    19504102.363 8 104443623.01408     -1013.696 8        50.962                                                                    19504099.194 7  81233933.88607      -788.366 7        46.717
S23        25.000    38047838.991 7 199942733.23107      -479.887 7        44.542
R01        26.000    21144205.524 7 113027903.96307      2223.600 7        46.365                                                                    21144205.800 6  87910585.11706      1729.353 6        39.438
C44        27.000                                                                                                                                    25621980.130 6 133420374.52706        22.813 6        40.694                                                                    25621978.155 6 108414977.90406        18.714 6        40.801
R24        29.000    21300319.786 8 113902392.91908     -1590.826 8        49.565                                                                    21300317.891 7  88590738.92107     -1237.343 7        44.495
E19        30.000    23542694.704 7 123717730.82807     -1847.351 7        42.882                                                                    23542692.180 7  92386620.03207     -1379.506 7        45.404    23542692.129 7  94796702.47507     -1415.458 7        46.102
C23        31.000                                                                                                                                    25622093.319 7 133420976.16807     -2905.635 7        42.229                                                                    25622085.165 7 108415439.74007     -2360.904 7        42.536
R23        32.000    22864135.333 7 122307710.73307     -4729.124 7        42.927
E29        33.000    27390762.114 6 143939502.00606     -2959.932 6        38.303                                                                    27390760.533 6 107487303.13806     -2210.208 6        41.990    27390760.750 7 110291314.49107     -2267.827 7        42.785
E04        34.000    23925927.862 7 125731637.18607       781.861 7        47.680                                                                    23925925.557 8  93890520.08608       583.848 8        50.675    23925925.242 8  96339833.43508       599.094 8        50.912
C16        35.000                                                                                                                                    39984156.162 6 208208026.69006     -1511.177 6        39.913    39984155.857 6 160999665.97106     -1168.535 6        40.589    39984153.155 6 169186077.14306     -1227.955 6        36.079
C32        36.000                                                                                                                                    25733276.124 6 133999963.80806     -3232.714 6        41.504                                                                    25733275.521 7 108885965.84407     -2626.637 7        42.567
I01        37.000   383869577.346 6 203245862.31106     -2896.539 6        41.611
E27        38.000    27225913.610 6 143073146.43606      -828.299 6        39.285                                                                    27225913.045 6 106840348.51306      -618.326 6        41.797    27225912.382 7 109627484.27107      -634.514 7        42.718
C19        39.000                                                                                                                                    22649342.959 8 117941077.73908      1205.097 8        49.689                                                                    22649337.633 8  95836764.90808       979.434 8        49.588
C39        40.000                                                                                                                                    40884116.993 6 212894349.19606     -1669.828 6        38.261                                                                    40884113.356 6 172994091.97906     -1356.817 6        38.583
G05        41.000    25541530.428 5 134221649.72405      3214.579 5        35.510                                    25541526.275 4 104588278.07104      2504.871 4        24.165    25541525.764 5 104588287.05605      2505.129 5        30.219
S44        42.000    40688360.973 6 213818962.82406      -550.774 6        37.860
G29        43.000    25600876.194 6 134533513.02706      -199.096 6        36.563                                    25600873.269 4 104831294.74004      -155.138 4        27.449    25600873.983 5 104831293.74305      -155.251 5        35.067
C05        44.000                                                                                                                                    39095758.143 6 203581919.18006      -531.366 6        37.202    39095754.246 7 157422479.72707      -410.709 7        44.251    39095755.479 6 165427090.17906      -431.566 6        40.086
C29        45.000                                                                                                                                    26369353.805 6 137312156.27106     -3504.325 6        38.508                                                                    26369351.828 6 111577370.44206     -2847.288 6        39.048
G04        46.000    21911901.509 7 115147853.08207     -3023.548 7        44.864                                    21911897.606 5  89725586.12705     -2356.008 5        33.413    21911897.593 7  89725588.11807     -2355.972 7        43.551
R11        47.000    22554710.296 7 120525513.78107      3899.949 7        44.209                                                                    22554708.804 7  93742069.51007      3033.239 7        43.475
C20        49.000                                                                                                                                    21995740.159 8 114537620.66508     -1347.070 8        51.996                                                                    21995734.376 8  93071183.47808     -1094.481 8        49.871
C06        50.000                                                                                                                                    39408679.641 6 205211372.16106     -1515.125 6        36.847    39408674.459 7 158682433.88407     -1171.682 7        42.391    39408674.064 6 166751030.55706     -1231.188 6        38.994
S48        51.000    77076652.281 6 405039857.16606      -468.681 6        38.291
E06        52.000    25646770.368 7 134774713.42407      1635.019 7        43.664                                                                    25646769.329 7 100643466.90707      1220.936 7        45.919    25646769.290 7 103268946.43907      1252.869 7        46.585
C09        53.000                                                                                                                                    38887839.441 6 202499204.89306     -1172.628 6        41.278    38887835.348 7 156585221.60607      -906.820 7        45.967    38887833.321 6 164547171.46206      -952.783 6        41.528
C60        54.000                                                                                                                                    40688359.375 6 211875173.55906      -545.826 6        39.327                                                                    40688344.169 6 172165904.03306      -443.296 6        39.715
R09        55.000    21311674.965 7 113803181.36407     -2449.117 7        47.598                                                                    21311673.618 7  88513580.55207     -1904.894 7        46.243
G07        56.000    21023766.376 8 110480657.33308       890.677 8        49.014                                    21023761.192 8  86088807.64608       694.036 8        48.669    21023760.983 7  86088816.64207       694.057 7        44.841
C02        57.000                                                                                                                                    40643837.549 5 211643175.01105      -562.312 5        35.019    40643829.502 6 163655922.63506      -434.777 6        39.270    40643832.824 5 171977419.89005      -456.772 5        35.176
I03        58.000    99715701.092 6 315520592.88906       845.178 6        40.939
R07        59.000    22073212.360 7 118159699.22207     -3415.283 7        46.416                                                                    22073211.696 7  91902040.77507     -2656.375 7        43.395
> 2025 01 02 04 45  5.0000000  0 57
G09         1.000    20231976.229 8 106319788.83708     -1712.764 8        49.388                                    20231973.176 8  82846594.99108     -1334.623 8        52.272    20231973.384 7  82846594.99207     -1334.616 7        46.008
G06         2.000    21871291.904 7 114934435.39507     -2729.123 7        46.385                                    21871290.178 7  89559305.21607     -2126.590 7        46.410    21871290.816 7  89559313.21907     -2126.561 7        44.105
E11         3.000    24490809.838 7 128700095.19007      -670.958 7        43.215                                                                    24490804.952 7  96107205.77107      -501.068 7        44.980    24490804.848 7  98614346.30007      -514.152 7        45.412
G16         4.000    23407913.332 6 123009428.99606      -500.169 6        40.305                                    23407907.629 3  95851486.89003      -389.742 3        22.895
S21         5.000    38341146.720 7 201483769.01907      -483.478 7        42.449
E10         6.000    24643940.491 7 129504791.74607     -2238.490 7        47.176                                                                    24643939.076 8  96708120.77308     -1671.566 8        49.807    24643938.822 8  99230940.74508     -1715.236 8        50.069
G20         7.000    22451039.085 7 117981017.90607      2479.344 7        44.880                                    22451033.871 5  91933242.08005      1931.960 5        30.143
G03         8.000    24596431.327 6 129255194.12106     -4107.979 6        37.792                                    24596430.183 5 100718368.90105     -3201.014 5        30.000    24596430.331 5 100718366.89305     -3201.115 5        35.671
R10         9.000    20316008.794 7 108295761.17407      1075.991 7        45.708
R17        10.000    22954859.658 7 122836095.58707      2100.244 7        44.051                                                                    22954858.219 6  95539178.88606      1633.386 6        40.143
G30        11.000    22858476.824 7 120122117.89507      2754.893 7        44.188                                    22858475.122 6  93601642.35206      2146.668 6        41.619    22858475.184 6  93601650.36006      2146.584 6        40.341
S27        12.000    38975252.071 5 204816343.97305      -495.066 5        35.833
G26        13.000    24840676.985 6 130538643.18406     -2687.475 6        36.749                                    24840675.553 4 101718430.23404     -2094.139 4        26.754    24840675.657 5 101718430.20705     -2093.844 5        34.519
S36        14.000    38108908.428 7 200264190.93707      -483.699 7        44.867
I09        15.000    37925869.418 7 148829254.68207      -780.544 7        43.242
E09        16.000    27982469.918 6 147048889.52306      1982.722 6        38.501                                                                    27982469.211 6 109809234.10206      1480.575 6        40.145    27982468.720 6 112673819.13306      1519.237 6        40.520
S45        17.000    63295219.683 6 332619699.99606      -524.806 6        37.259
E36        18.000    27114146.373 6 142485796.83306      1773.483 6        39.571                                                                    27114146.607 7 106401751.24207      1324.468 7        43.024    27114146.201 7 109177447.39107      1359.013 7        43.752
E12        19.000    25733363.148 6 135229743.81206     -3238.517 6        41.785                                                                    25733359.276 7 100983238.48307     -2418.434 7        43.602    25733359.388 7 103617583.34107     -2481.505 7        44.754
E21        20.000    26628762.049 6 139935085.61106      1536.636 6        41.285                                                                    26628761.370 7 104496994.85907      1147.502 7        44.378    26628760.581 7 107222999.71007      1177.461 7        44.178
G11        21.000    22020052.037 7 115716175.48907      -211.305 7        46.090                                    22020047.987 5  90168431.38005      -164.653 5        35.271    22020048.139 7  90168444.38007      -164.659 7        45.255
I06        22.000    37868964.497 7 148606191.56407      -338.956 7        43.344
S28        23.000    40770213.850 5 214248918.78105      -482.564 5        34.900
R08        24.000    19505049.835 8 104448696.97608     -1015.803 8        50.806                                                                    19505046.955 7  81237880.31507      -790.067 7        46.985
S23        25.000    38048295.696 7 199945132.97707      -480.043 7        44.755
R01        26.000    21142126.434 7 113016789.16707      2222.385 7        46.371                                                                    21142125.431 6  87901940.27606      1728.519 6        39.589
C44        27.000                                                                                                                                    25621958.934 6 133420267.55906        20.037 6        40.367                                                                    25621957.531 6 108414891.01106        16.355 6        40.880
R24        29.000    21301809.308 8 113910358.28008     -1595.303 8        48.836                                                                    21301807.127 7  88596934.19107     -1240.713 7        44.299
E19        30.000    23544452.714 7 123726970.20007     -1848.252 7        42.897                                                                    23544450.392 7  92393519.57707     -1380.340 7        45.500    23544450.177 7  94803781.99507     -1416.234 7        46.029
C23        31.000                                                                                                                                    25624884.415 7 133435509.16407     -2907.534 7        42.554                                                                    25624876.186 7 108427249.00807     -2362.714 7        42.536
R23        32.000    22868556.597 7 122331358.71507     -4730.099 7        43.668
E29        33.000    27393578.552 6 143954301.33206     -2959.893 6        38.351                                                                    27393576.772 6 107498354.58506     -2210.365 6        41.988    27393576.912 7 110302654.23007     -2267.909 7        42.832
E04        34.000    23925184.554 7 125727730.97807       780.761 7        47.988                                                                    23925182.220 8  93887603.12208       582.990 8        50.677    23925181.880 8  96336840.37608       598.179 8        50.922
C16        35.000                                                                                                                                    39985607.634 6 208215583.40506     -1511.461 6        39.886    39985606.990 6 161005509.30106     -1168.736 6        40.722    39985604.203 5 169192217.61205     -1228.212 5        35.538
C32        36.000                                                                                                                                    25736380.310 6 134016128.65206     -3233.207 6        41.793                                                                    25736379.982 7 108899101.12607     -2627.291 7        42.404
I01        37.000   383873267.802 6 203260345.38606     -2896.667 6        41.709
E27        38.000    27226703.100 6 143077293.19306      -830.483 6        39.673                                                                    27226702.149 6 106843445.15006      -620.292 6        41.845    27226701.485 7 109630661.68507      -636.483 7        42.493
C19        39.000                                                                                                                                    22648186.455 8 117935055.31108      1203.886 8        49.849                                                                    22648181.117 8  95831871.21708       978.263 8        49.468
C39        40.000                                                                                                                                    40885720.373 6 212902699.03206     -1669.870 6        38.252                                                                    40885716.941 6 173000876.92006     -1356.953 6        38.462
G05        41.000    25538471.635 5 134205576.97005      3214.573 5        35.476                                    25538467.600 3 104575753.84903      2504.852 3        22.724    25538467.504 5 104575762.88105      2504.911 5        31.706
S44        42.000    40688882.968 6 213821716.39006      -550.700 6        38.003
G29        43.000    25601068.009 6 134534516.22306      -202.123 6        36.669                                    25601064.108 4 104832076.44904      -157.495 4        27.701    25601064.615 5 104832075.44805      -157.482 5        34.914
C05        44.000                                                                                                                                    39096268.368 6 203584575.71506      -531.364 6        37.437    39096264.234 7 157424533.94007      -410.798 7        44.140    39096265.629 6 165429248.85006      -431.903 6        40.191
C29        45.000                                                                                                                                    26372718.744 6 137329677.14606     -3504.020 6        38.853                                                                    26372716.546 6 111591607.61106     -2847.313 6        39.138
G04        46.000    21914779.056 7 115162973.83107     -3024.706 7        44.974                                    21914774.997 5  89737368.52805     -2356.917 5        33.269    21914775.288 7  89737370.52507     -2356.865 7        43.501
R11        47.000    22551062.299 7 120506016.84607      3898.810 7        44.623                                                                    22551060.409 7  93726905.22907      3032.364 7        43.528
C20        49.000                                                                                                                                    21997034.716 8 114544360.12808     -1348.707 8        52.273                                                                    21997028.649 8  93076659.86208     -1095.917 8        49.742
C06        50.000                                                                                                                                    39410134.453 6 205218948.65806     -1515.366 6        36.809    39410129.694 7 158688292.51707     -1171.801 7        42.336    39410129.103 6 166757187.09006     -1231.224 6        38.868
S48        51.000    77077101.688 6 405042200.05506      -468.480 6        38.213
E06        52.000    25645214.968 7 134766540.15107      1634.358 7        43.585                                                                    25645214.087 7 100637363.49407      1220.446 7        45.884    25645213.953 7 103262683.80907      1252.263 7        46.551
C09        53.000                                                                                                                                    38888965.102 6 202505069.30806     -1173.049 6        41.144    38888961.441 7 156589756.33007      -907.031 7        46.010    38888959.534 6 164551936.80606      -953.354 6        41.607
C60        54.000                                                                                                                                    40688883.423 6 211877902.07906      -545.680 6        39.637                                                                    40688868.131 6 172168121.20706      -443.451 6        39.486
R09        55.000    21313970.041 7 113815437.56807     -2453.225 7        47.451                                                                    21313968.261 7  88523113.15107     -1907.988 7        46.172
G07        56.000    21022919.904 8 110476210.46308       888.123 8        49.217                                    21022914.991 8  86085342.55308       692.046 8        48.573    21022914.994 7  86085351.55207       692.090 7        44.739
C02        57.000                                                                                                                                    40644377.502 5 211645986.25705      -562.353 5        35.243    40644369.638 6 163658096.46906      -435.003 6        39.111    40644372.880 5 171979704.26705      -457.021 5        35.133
I03        58.000    99714624.177 6 315516367.24406       845.065 6        41.130
R07        59.000    22076402.913 7 118176778.56307     -3416.377 7        46.624                                                                    22076402.559 7  91915324.69507     -2657.140 7        43.316
> 2025 01 02 04 45 10.0000000  0 57
G09         1.000    20233606.797 8 106328357.06708     -1714.693 8        49.441                                    20233603.650 8  82853271.53508     -1336.123 8        52.286    20233604.207 7  82853271.53707     -1336.127 7        46.135
G06         2.000    21873889.998 7 114948087.49107     -2731.784 7        46.167                                    21873888.079 7  89569943.21607     -2128.662 7        46.426    21873888.727 7  89569951.21307     -2128.727 7        44.218
E11         3.000    24491449.193 7 128703456.49707      -673.620 7        43.136                                                                    24491444.593 7  96109715.83907      -503.165 7        44.877    24491444.435 7  98616921.84207      -516.141 7        45.484
G16         4.000    23408390.537 6 123011939.22206      -503.905 6        40.060                                    23408385.225 3  95853442.91103      -392.663 3        22.686
S21         5.000    38341606.416 7 201486186.73507      -483.689 7        42.567
E10         6.000    24646071.374 7 129515989.65707     -2240.755 7        47.160                                                                    24646069.927 8  96716482.84108     -1673.269 8        49.855    24646069.659 8  99239520.95508     -1716.881 8        50.230
G20         7.000    22448680.701 7 117968624.80007      2477.902 7        44.342                                    22448675.559 5  91923585.12205      1930.829 5        30.340
G03         8.000    24600340.309 6 129275735.76206     -4108.796 6        37.573                                    24600339.160 5 100734375.35205     -3201.649 5        30.075    24600340.205 5 100734373.34105     -3201.480 5        35.767
R10         9.000    20315001.373 7 108290392.51107      1071.427 7        45.529
R17        10.000    22952898.701 7 122825603.47607      2096.529 7        43.691                                                                    22952897.997 6  95531018.36306      1630.577 6        41.075
G30        11.000    22855856.761 7 120108347.16107      2753.433 7        43.934                                    22855854.595 6  93590911.91706      2145.529 6        41.640    22855854.674 6  93590919.91406      2145.589 6        40.346
S27        12.000    38975724.024 6 204818820.17906      -495.166 6        36.030
G26        13.000    24843234.799 6 130552086.40006     -2690.079 6        36.741                                    24843233.612 4 101728905.46904     -2096.156 4        27.234    24843234.264 5 101728905.46605     -2096.102 5        34.814
S36        14.000    38109368.978 7 200266610.36907      -483.981 7        44.974
I09        15.000    37926864.031 7 148833157.83607      -780.785 7        43.299
E09        16.000    27980583.875 6 147038976.73806      1982.372 6        38.655                                                                    27980582.737 6 109801831.68706      1480.322 6        40.086    27980582.561 6 112666223.62506      1518.821 6        40.477
S45        17.000    63295679.156 6 332622323.73406      -524.816 6        37.142
E36        18.000    27112459.583 6 142476933.23906      1771.817 6        39.922                                                                    27112459.910 7 106395132.33207      1323.110 7        42.995    27112459.543 7 109170655.82107      1357.614 7        43.979
E12        19.000    25736445.511 7 135245940.23307     -3240.049 7        42.214                                                                    25736441.329 7 100995333.20407     -2419.473 7        43.638    25736441.494 7 103629993.57807     -2482.671 7        44.996
E21        20.000    26627300.480 6 139927406.90406      1534.867 6        41.111                                                                    26627300.155 7 104491260.76207      1146.122 7        44.352    26627299.464 7 107217116.03107      1176.027 7        44.688
G11        21.000    22020255.194 7 115717240.62907      -214.772 7        46.075                                    22020250.672 5  90169261.36005      -167.355 5        35.219    22020250.847 7  90169274.35707      -167.418 7        45.711
I06        22.000    37869396.135 7 148607886.32607      -339.042 7        43.344
S28        23.000    40770664.603 5 214251333.29905      -482.815 5        34.548
R08        24.000    19505999.166 8 104453781.49408     -1018.052 8        50.842                                                                    19505995.901 7  81241834.93307      -791.805 7        47.310
S23        25.000    38048751.904 7 199947533.22407      -480.198 7        44.730
R01        26.000    21140048.328 7 113005679.73007      2221.323 7        45.901                                                                    21140047.323 6  87893299.60606      1727.659 6        39.841
C44        27.000                                                                                                                                    25621940.776 6 133420174.36506        17.184 6        40.722                                                                    25621939.543 6 108414815.26406        13.988 6        40.825
R24        29.000    21303302.829 8 113918345.62408     -1599.732 8        48.858                                                                    21303301.391 7  88603146.58207     -1244.226 7        44.804
E19        30.000    23546211.955 7 123736214.26507     -1849.294 7        42.872                                                                    23546209.435 7  92400422.59707     -1380.982 7        45.403    23546209.297 7  94810865.10607     -1416.984 7        46.209
C23        31.000                                                                                                                                    25627677.202 7 133450051.58807     -2909.475 7        42.620                                                                    25627668.962 7 108439065.88907     -2364.084 7        42.567
R23        32.000    22872977.810 7 122355012.37307     -4731.451 7        43.888
E29        33.000    27396394.809 6 143969101.42306     -2960.105 6        38.471                                                                    27396393.207 6 107509406.58306     -2210.511 6        41.943    27396393.281 7 110313994.55507     -2268.079 7        42.849
E04        34.000    23924442.083 7 125723830.40007       779.529 7        47.841                                                                    23924439.956 8  93884690.34608       582.126 8        50.597    23924439.662 8  96333851.61408       597.297 8        51.081
C16        35.000                                                                                                                                    39987059.177 6 208223140.86806     -1511.708 6        39.922    39987058.626 6 161011353.21306     -1168.844 6        40.570    39987055.578 5 169198358.64205     -1228.281 5        35.914
C32        36.000                                                                                                                                    25739485.081 7 134032296.54107     -3233.906 7        42.038                                                                    25739484.954 7 108912238.83107     -2627.818 7        42.633
I01        37.000   383876958.958 6 203274829.42106     -2896.887 6        41.752
E27        38.000    27227494.424 6 143081452.51306      -833.214 6        39.075                                                                    27227493.709 6 106846551.11706      -622.095 6        41.959    27227492.926 7 109633848.68107      -638.349 7        42.614
C19        39.000                                                                                                                                    22647030.951 8 117929038.91508      1202.690 8        49.863                                                                    22647025.697 8  95826982.38208       977.296 8        49.545
C39        40.000                                                                                                                                    40887324.061 6 212911048.98706     -1669.950 6        38.177                                                                    40887320.542 6 173007661.90606     -1357.086 6        38.417
G05        41.000    25535413.382 6 134189504.37506      3214.512 6        36.132                                    25535409.046 4 104563229.76704      2504.805 4        24.376    25535410.328 5 104563238.75905      2504.777 5        32.677
S44        42.000    40689409.390 6 213824470.30106      -550.928 6        38.024
G29        43.000    25601261.594 6 134535534.91806      -205.186 6        36.560                                    25601258.043 4 104832870.23704      -159.882 4        27.820    25601258.143 5 104832869.22505      -159.908 5        34.643
C05        44.000                                                                                                                                    39096778.943 6 203587232.73006      -531.487 6        37.766    39096774.661 7 157426588.50807      -410.923 7        44.095    39096776.024 6 165431407.86906      -431.928 6        40.150
C29        45.000                                                                                                                                    26376082.775 6 137347197.23206     -3503.882 6        39.586                                                                    26376081.145 6 111605844.08306     -2847.141 6        39.012
G04        46.000    21917657.237 7 115178100.03807     -3025.875 7        45.079                                    21917653.434 5  89749155.17805     -2357.825 5        33.317    21917653.911 7  89749157.18007     -2357.885 7        43.695
R11        47.000    22547414.308 7 120486525.50007      3897.621 7        44.214                                                                    22547412.657 7  93711745.28207      3031.458 7        43.445
C20        49.000                                                                                                                                    21998330.561 8 114551107.73108     -1350.384 8        52.345                                                                    21998324.441 8  93082142.82208     -1097.266 8        49.731
C06        50.000                                                                                                                                    39411589.223 6 205226526.20106     -1515.638 6        36.922    39411585.026 7 158694151.95007     -1172.012 7        42.368    39411584.292 6 166763344.44206     -1231.520 6        38.967
S48        51.000    77077554.167 6 405044543.46906      -468.806 6        38.285
E06        52.000    25643659.992 7 134758370.71007      1633.488 7        43.361                                                                    25643659.492 7 100631262.93707      1219.736 7        45.830    25643659.415 7 103256424.11007      1251.548 7        46.727
C09        53.000                                                                                                                                    38890091.491 6 202510935.44306     -1173.450 6        41.218    38890088.042 7 156594292.40507      -907.408 7        45.871    38890085.943 6 164556703.48806      -953.582 6        41.456
C60        54.000                                                                                                                                    40689407.738 6 211880630.94106      -545.766 6        39.513                                                                    40689392.116 6 172170338.60506      -443.419 6        39.598
R09        55.000    21316268.880 7 113827713.97707     -2457.322 7        47.218                                                                    21316267.164 7  88532661.46507     -1911.259 7        46.013
G07        56.000    21022076.335 8 110471776.28708       885.555 8        49.052                                    21022071.200 8  86081887.35408       690.042 8        48.599    21022071.082 7  86081896.36807       689.950 7        44.757
C02        57.000                                                                                                                                    40644917.370 5 211648797.87005      -562.334 5        35.214    40644909.743 6 163660270.57306      -435.019 6        39.198    40644912.743 5 171981988.89405      -456.876 5        35.171
I03        58.000    99713547.227 6 315512141.95206       844.935 6        41.166
R07        59.000    22079595.165 7 118193863.09807     -3417.448 7        46.604                                                                    22079593.874 7  91928612.65307     -2657.921 7        42.828
> 2025 01 02 04 45 15.0000000  0 57
G09         1.000    20235239.027 8 106336934.54108     -1716.200 8        49.415                                    20235235.877 8  82859955.27708     -1337.298 8        52.207    20235236.337 7  82859955.27907     -1337.340 7        45.875
G06         2.000    21876490.270 7 114961752.65907     -2734.082 7        46.244                                    21876488.476 7  89580591.39707     -2130.452 7        46.369    21876489.118 7  89580599.39607     -2130.421 7        43.898
E11         3.000    24492091.440 7 128706830.66807      -675.933 7        43.354                                                                    24492086.624 7  96112235.49407      -504.679 7        45.044    24492086.614 7  98619507.23607      -517.912 7        45.391
G16         4.000    23408872.042 6 123014467.16306      -506.924 6        40.532                                    23408866.166 3  95855412.73803      -395.016 3        22.686
S21         5.000    38342061.561 7 201488604.65807      -483.438 7        42.142
E10         6.000    24648204.412 7 129527198.36407     -2242.537 7        47.172                                                                    24648202.889 8  96724852.97708     -1674.663 8        49.857    24648202.682 8  99248109.44608     -1718.308 8        50.166
G20         7.000    22446323.543 7 117956238.53607      2476.834 7        44.424                                    22446318.585 5  91913933.48705      1929.997 5        30.166
G03         8.000    24604249.731 6 129296280.00106     -4108.826 6        37.985                                    24604248.605 5 100750383.83105     -3201.680 5        30.166    24604249.535 5 100750381.80905     -3201.640 5        35.643
R10         9.000    20313998.453 7 108285045.55807      1067.437 7        46.147
R17        10.000    22950940.961 7 122815128.90407      2093.512 7        43.014                                                                    22950940.312 6  95522871.47906      1628.258 6        40.598
G30        11.000    22853237.289 7 120094582.91707      2752.458 7        44.575                                    22853235.253 6  93580186.53206      2144.774 6        41.552    22853235.926 6  93580194.54306      2144.705 6        40.310
S27        12.000    38976194.514 5 204821296.97205      -495.009 5        35.800
G26        13.000    24845795.415 6 130565542.23206     -2692.081 6        36.726                                    24845794.125 4 101739390.52404     -2097.726 4        27.269    24845794.716 5 101739390.52905     -2097.493 5        34.690
S36        14.000    38109830.884 7 200269029.69807      -483.824 7        44.810
I09        15.000    37927858.637 7 148837061.61807      -780.636 7        43.496
E09        16.000    27978697.067 6 147029065.56206      1982.398 6        38.243                                                                    27978696.594 6 109794430.50006      1480.242 6        40.095    27978696.232 6 112658629.34306      1518.876 6        40.281
S45        17.000    63296131.840 6 332624947.56006      -524.559 6        37.346
E36        18.000    27110774.775 6 142468077.91706      1770.409 6        40.267                                                                    27110774.770 7 106388519.57807      1322.178 7        43.001    27110774.529 7 109163870.56607      1356.580 7        44.012
E12        19.000    25739528.975 7 135262143.31507     -3241.047 7        42.201                                                                    25739524.708 7 101007432.90507     -2420.220 7        43.570    25739525.009 7 103642408.92507     -2483.404 7        44.844
E21        20.000    26625840.709 6 139919736.35406      1533.692 6        40.989                                                                    26625840.633 7 104485532.75707      1145.202 7        44.373    26625840.026 7 107211238.60207      1175.032 7        44.926
G11        21.000    22020461.080 7 115718322.87907      -217.870 7        46.390                                    22020456.608 5  90170104.67405      -169.766 5        35.257    22020456.605 7  90170117.67107      -169.814 7        45.470
I06        22.000    37869828.141 7 148609581.32207      -338.830 7        43.462
S28        23.000    40771128.882 5 214253748.26105      -482.788 5        34.443
R08        24.000    19506950.943 8 104458876.18508     -1019.752 8        50.994                                                                    19506947.329 7  81245797.46707      -793.095 7        46.741
S23        25.000    38049209.530 7 199949933.58907      -479.711 7        44.629
R01        26.000    21137970.118 7 112994575.27007      2220.651 7        46.154                                                                    21137970.047 6  87884662.80206      1727.093 6        39.240
C44        27.000                                                                                                                                    25621926.737 6 133420094.62206        14.756 6        41.039                                                                    25621924.316 6 108414750.48306        12.076 6        40.744
R24        29.000    21304800.159 8 113926354.88508     -1603.741 8        48.885                                                                    21304798.968 7  88609375.99107     -1247.285 7        44.640
E19        30.000    23547971.873 7 123745462.76207     -1849.837 7        43.065                                                                    23547969.397 7  92407328.95207     -1381.414 7        45.416    23547969.260 7  94817951.62607     -1417.511 7        46.114
C23        31.000                                                                                                                                    25630472.097 7 133464603.08607     -2910.986 7        42.438                                                                    25630463.236 7 108450890.18807     -2365.568 7        42.373
R23        32.000    22877400.143 7 122378671.47007     -4732.073 7        44.238
E29        33.000    27399211.175 6 143983901.91206     -2959.881 6        38.231                                                                    27399209.651 6 107520458.88706     -2210.191 6        41.790    27399209.587 7 110325335.18207     -2268.016 7        42.758
E04        34.000    23923701.016 7 125719935.13607       778.784 7        47.873                                                                    23923698.683 8  93881781.54408       581.580 8        50.685    23923698.408 8  96330866.93008       596.748 8        51.044
C16        35.000                                                                                                                                    39988510.073 6 208230698.75806     -1511.366 6        40.026    39988509.666 6 161017197.46106     -1168.713 6        40.858    39988506.817 5 169204500.04705     -1228.075 5        35.619
C32        36.000                                                                                                                                    25742590.567 7 134048467.12207     -3234.115 7        42.506                                                                    25742590.549 7 108925378.76007     -2628.077 7        42.764
I01        37.000   383880650.474 6 203289314.20106     -2896.953 6        41.962
E27        38.000    27228288.391 6 143085623.98706      -835.105 6        39.432                                                                    27228287.595 7 106849666.19007      -623.678 7        42.174    27228286.860 7 109637045.01307      -640.071 7        42.538
C19        39.000                                                                                                                                    22645876.463 8 117923028.22808      1201.817 8        49.812                                                                    22645871.422 8  95822098.22108       976.517 8        49.469
C39        40.000                                                                                                                                    40888927.440 6 212919398.72506     -1669.707 6        38.375                                                                    40888923.905 6 173014446.76306     -1356.669 6        38.583
G05        41.000    25532354.517 5 134173431.54605      3214.819 5        35.848                                    25532350.478 4 104550705.47804      2505.050 4        24.045    25532350.339 5 104550714.45505      2505.321 5        32.677
S44        42.000    40689935.865 6 213827224.19406      -550.440 6        37.611
G29        43.000    25601458.296 6 134536568.73506      -207.971 6        36.594                                    25601454.723 4 104833675.79504      -162.053 4        27.569    25601455.188 5 104833674.80305      -162.167 5        34.205
C05        44.000                                                                                                                                    39097288.802 6 203589889.86806      -531.097 6        37.796    39097284.743 7 157428643.19007      -410.834 7        44.087    39097286.192 6 165433567.03006      -431.700 6        40.105
C29        45.000                                                                                                                                    26379447.175 6 137364716.15006     -3503.398 6        39.787                                                                    26379445.337 6 111620079.65706     -2846.758 6        39.018
G04        46.000    21920536.604 7 115193231.34007     -3026.510 7        45.348                                    21920532.908 5  89760945.79905     -2358.321 5        33.245    21920533.290 7  89760947.80007     -2358.298 7        43.818
R11        47.000    22543767.325 7 120467039.43907      3897.019 7        43.746                                                                    22543766.290 7  93696589.47107      3030.888 7        43.147
C20        49.000                                                                                                                                    21999627.910 8 114557863.13208     -1351.577 8        52.206                                                                    21999621.706 8  93087632.14808     -1098.307 8        49.797
C06        50.000                                                                                                                                    39413044.778 6 205234104.43106     -1515.644 6        36.836    39413040.178 7 158700011.90807     -1171.829 7        42.502    39413039.684 6 166769502.37806     -1231.474 6        38.946
S48        51.000    77078007.857 6 405046886.82006      -468.325 6        38.150
E06        52.000    25642106.327 7 134750204.77107      1633.013 7        43.719                                                                    25642105.505 7 100625164.98007      1219.466 7        45.947    25642105.450 7 103250167.07507      1251.236 7        46.759
C09        53.000                                                                                                                                    38891218.658 6 202516802.93806     -1173.413 6        41.039    38891214.753 7 156598829.50907      -907.219 7        45.893    38891212.798 6 164561471.31206      -953.319 6        41.435
C60        54.000                                                                                                                                    40689931.593 6 211883359.82506      -545.538 6        39.526                                                                    40689916.315 6 172172556.04806      -443.314 6        39.568
R09        55.000    21318571.467 7 113840010.17407     -2460.973 7        47.014                                                                    21318569.906 7  88542225.17707     -1914.065 7        46.045
G07        56.000    21021234.818 8 110467354.46808       883.399 8        48.871                                    21021229.748 8  86078441.77708       688.360 8        48.529    21021229.874 7  86078450.77907       688.397 7        44.152
C02        57.000                                                                                                                                    40645458.226 5 211651609.52905      -562.209 5        35.281    40645449.875 6 163662444.74206      -434.693 6        38.817    40645452.598 5 171984273.64105      -456.755 5        35.467
I03        58.000    99712469.999 6 315507916.75606       845.206 6        41.128
R07        59.000    22082787.530 7 118210952.39707     -3418.028 7        46.209                                                                    22082785.966 7  91941904.33807     -2658.478 7        43.227
> 2025 01 02 04 45 20.0000000  0 57
G09         1.000    20236872.944 8 106345520.99208     -1718.347 8        49.624                                    20236869.822 8  82866646.02008     -1338.971 8        52.155    20236869.935 7  82866646.02207     -1338.955 7        46.000
G06         2.000    21879093.330 7 114975430.71907     -2737.025 7        46.362                                    21879091.322 7  89591249.62107     -2132.745 7        46.292    21879091.995 7  89591257.62207     -2132.644 7        43.962
E11         3.000    24492736.061 7 128710217.49207      -678.779 7        43.458                                                                    24492731.150 7  96114764.62707      -506.990 7        45.074    24492731.070 7  98622102.34407      -520.142 7        45.467
G16         4.000    23409356.679 6 123017012.59506      -510.890 6        40.610                                    23409350.460 3  95857396.18903      -398.091 3        22.762
S21         5.000    38342525.125 7 201491022.67507      -483.752 7        42.555
E10         6.000    24650338.998 7 129538417.67107     -2245.075 7        47.030                                                                    24650337.819 8  96733231.02608     -1676.491 8        49.838    24650337.623 8  99256706.05308     -1720.232 8        50.216
G20         7.000    22443968.176 7 117943858.88507      2475.156 7        44.524                                    22443962.751 5  91904287.00705      1928.702 5        30.008
G03         8.000    24608159.446 6 129316826.66506     -4109.724 6        38.027                                    24608158.516 5 100766394.19105     -3202.367 5        30.083    24608158.713 5 100766392.16505     -3202.382 5        35.438
R10         9.000    20313000.043 7 108279720.43907      1062.782 7        45.928
R17        10.000    22948986.862 7 122804671.85507      2089.630 7        43.687                                                                    22948986.829 6  95514738.21406      1625.206 6        41.614
G30        11.000    22850619.658 7 120080824.95507      2750.781 7        44.262                                    22850617.095 6  93569466.04406      2143.469 6        41.449    22850617.700 6  93569474.03906      2143.587 6        40.381
S27        12.000    38976665.904 5 204823773.60905      -495.073 5        35.833
G26        13.000    24848358.233 6 130579010.51006     -2695.018 6        36.582                                    24848357.031 4 101749885.28404     -2100.009 4        27.054    24848357.261 5 101749885.29905     -2100.084 5        34.609
S36        14.000    38110289.788 7 200271449.15707      -484.087 7        45.046
I09        15.000    37928853.921 7 148840965.85907      -780.952 7        43.558
E09        16.000    27976811.400 6 147019155.83106      1981.741 6        39.009                                                                    27976810.649 6 109787030.35906      1479.865 6        40.000    27976810.553 6 112651036.16406      1518.464 6        40.205
S45        17.000    63296587.467 6 332625971.26116      -525.152 6        37.255
E36        18.000    27109090.898 6 142459230.61706      1768.496 6        40.274                                                                    27109091.147 7 106381912.84607      1320.682 7        43.067    27109090.854 7 109157091.48307      1355.103 7        44.041
E12        19.000    25742613.378 6 135278352.85606     -3242.768 6        41.928                                                                    25742609.342 7 101019537.43207     -2421.442 7        43.638    25742609.627 7 103654829.22207     -2484.680 7        44.936
