     3.04           OBSERVATION DATA    M                   RINEX VERSION / TYPE
ssrcrin-15.6.1x                         20250101 194500 UTC PGM / RUN BY / DATE 
(00000000023479385599111004) Septentrio proprietary         COMMENT             
ract                                                        MARKER NAME         
01                                                          MARKER NUMBER       
geodetic                                                    MARKER TYPE         
NFB                 CLIMERS@TUW                             OBSERVER / AGENCY   
3296359             SEPT ASTERX SB3 PROB4.14.4              REC # / TYPE / VERS 
Unknown             Unknown                                 ANT # / TYPE        
  4127445.9842  1206914.8164  4695543.5406                  APPROX POSITION XYZ 
        0.0000        0.0000        0.0000                  ANTENNA: DELTA H/E/N
G   23 X1  C1C L1C D1C S1C C1W S1W C2W L2W D2W S2W C2L L2L  SYS / # / OBS TYPES 
       D2L S2L C5Q L5Q D5Q S5Q C1L L1L D1L S1L              SYS / # / OBS TYPES 
E   21 X1  C1C L1C D1C S1C C6C L6C D6C S6C C5Q L5Q D5Q S5Q  SYS / # / OBS TYPES 
       C7Q L7Q D7Q S7Q C8Q L8Q D8Q S8Q                      SYS / # / OBS TYPES 
S    9 X1  C1C L1C D1C S1C C5I L5I D5I S5I                  SYS / # / OBS TYPES 
R   17 X1  C1C L1C D1C S1C C2P L2P D2P S2P C2C L2C D2C S2C  SYS / # / OBS TYPES 
       C3Q L3Q D3Q S3Q                                      SYS / # / OBS TYPES 
C   25 X1  C1P L1P D1P S1P C5P L5P D5P S5P C2I L2I D2I S2I  SYS / # / OBS TYPES 
       C7I L7I D7I S7I C6I L6I D6I S6I C7D L7D D7D S7D      SYS / # / OBS TYPES 
J   17 X1  C1C L1C D1C S1C C2L L2L D2L S2L C5Q L5Q D5Q S5Q  SYS / # / OBS TYPES 
       C1L L1L D1L S1L                                      SYS / # / OBS TYPES 
I    5 X1  C5A L5A D5A S5A                                  SYS / # / OBS TYPES 
SEPTENTRIO RECEIVERS OUTPUT ALIGNED CARRIER PHASES.         COMMENT             
NO FURTHER PHASE SHIFT APPLIED IN THE RINEX ENCODER.        COMMENT             
G L1C                                                       SYS / PHASE SHIFT   
G L2W                                                       SYS / PHASE SHIFT   
G L2L  0.00000                                              SYS / PHASE SHIFT   
G L5Q  0.00000                                              SYS / PHASE SHIFT   
G L1L  0.00000                                              SYS / PHASE SHIFT   
E L1C  0.00000                                              SYS / PHASE SHIFT   
E L6C  0.00000                                              SYS / PHASE SHIFT   
E L5Q  0.00000                                              SYS / PHASE SHIFT   
E L7Q  0.00000                                              SYS / PHASE SHIFT   
E L8Q  0.00000                                              SYS / PHASE SHIFT   
S L1C                                                       SYS / PHASE SHIFT   
S L5I                                                       SYS / PHASE SHIFT   
R L1C                                                       SYS / PHASE SHIFT   
R L2P  0.00000                                              SYS / PHASE SHIFT   
R L2C                                                       SYS / PHASE SHIFT   
R L3Q  0.00000                                              SYS / PHASE SHIFT   
C L1P  0.00000                                              SYS / PHASE SHIFT   
C L5P  0.00000                                              SYS / PHASE SHIFT   
C L2I                                                       SYS / PHASE SHIFT   
C L7I                                                       SYS / PHASE SHIFT   
C L6I                                                       SYS / PHASE SHIFT   
C L7D                                                       SYS / PHASE SHIFT   
J L1C                                                       SYS / PHASE SHIFT   
J L2L  0.00000                                              SYS / PHASE SHIFT   
J L5Q  0.00000                                              SYS / PHASE SHIFT   
J L1L  0.00000                                              SYS / PHASE SHIFT   
I L5A                                                       SYS / PHASE SHIFT   
  2025     1     1    19    45    0.0000000     GPS         TIME OF FIRST OBS   
 C1C    0.000 C2C    0.000 C2P    0.000                     GLONASS COD/PHS/BIS 
DBHZ                                                        SIGNAL STRENGTH UNIT
    18                                                      LEAP SECONDS        
 24 R01  1 R02 -4 R03  5 R04  6 R05  1 R06 -4 R07  5 R08  6 GLONASS SLOT / FRQ #
    R09 -2 R10 -7 R11  0 R12 -1 R13 -2 R14 -7 R15  0 R16 -1 GLONASS SLOT / FRQ #
    R17  4 R18 -3 R19  3 R20  2 R21  4 R22 -3 R23  3 R24  2 GLONASS SLOT / FRQ #
                                                            END OF HEADER       
> 2025 01 01 19 45  0.0000000  0 40
G18         1.000    22588547.385 7 118703838.60507     -3546.545 7        46.227                                    22588543.700 4  92496363.56004     -2763.538 4        26.874    22588543.068 6  92496383.53706     -2763.669 6        38.072
G10         2.000    21783979.403 6 114475573.01406      1568.277 6        41.051                                    21783980.546 3  89201728.86003      1222.034 3        22.857    21783981.813 4  89201775.93104      1222.083 4        29.052
G07         3.000    25173214.655 6 132286111.71406     -1021.056 6        40.841                                    25173212.420 1 103080011.22701      -795.578 1        11.481    25173248.171 5                      -795.826 5        30.211
G23         4.000    20912475.701 6 109895710.04506     -1061.836 6        36.684                                    20912458.268 2  85632994.98502      -827.386 2        16.792    20912463.029 6  85633063.94906      -827.479 6        37.716
G15         5.000    23707240.913 5                      -874.568 5        31.841
G08         6.000    22604622.723 6 118788128.28506      2107.475 6        40.694                                    22604617.008 4  92562096.67704      1642.188 4        24.782    22604619.789 4                      1642.411 4        29.185
G27         7.000    20467966.264 6 107560368.96906       510.208 6        40.453                                    20467963.041 4  83812920.94004       397.564 4        29.270    20467963.995 6  83812911.93606       397.592 6        36.715
E15        10.000    26668619.753 5 140144518.15505     -3339.361 5        32.443                                                                    26668611.576 4 104653373.04504     -2493.671 4        28.246    26668655.867 4                     -2558.953 4        25.504
E27        15.000    27660660.032 4                     -4068.538 4        29.706                                                                                                                                    27660661.640 4                     -3117.175 4        29.261
E13        16.000    23428677.116 8 123118610.41008     -1535.778 8        49.990                                                                    23428676.814 8  91939219.50208     -1146.848 8        48.066    23428676.198 8  94337588.07008     -1176.817 8        48.528
E31        17.000    28597057.231 5 150278694.39505      2012.209 5        32.419                                                                    28597047.280 4 112220991.64904      1502.496 4        26.431    28597050.553 4 115148473.76104      1541.812 4        29.308
G16        18.000    21152017.552 8 111154612.11508     -2822.228 8        48.770                                    21152014.594 5  86613884.70705     -2199.139 5        34.590
E26        19.000    24768144.766 4                       926.751 4        28.275                                                                    24768145.925 6  97195595.96406       692.114 6        36.975    24768147.449 5  99731124.13705       710.226 5        35.452
E21        22.000    24404124.377 6 128244651.82306     -2605.131 6        36.975                                                                    24404128.571 7  95767043.19907     -1945.377 7        44.388    24404122.827 6  98265340.34006     -1996.127 6        38.504
S36        23.000    38263010.868 6 201073346.78706      -850.827 6        36.529
S23        24.000    38218347.837 6 200838765.69406      -851.773 6        40.417
G26        25.000    23028248.367 5 121014276.02905     -4212.181 5        32.066                                    23028249.135 2  94296874.34702     -3282.194 2        12.424    23028245.339 3                     -3282.466 3        21.143
R20        26.000    22714281.720 3                      2174.115 3        23.886                                                                    22714275.088 4                      1691.480 4        25.519
R02        27.000    22775041.570 3                     -3016.614 3        21.476                                                                    22775049.971 5                     -2345.438 5        32.707
R19        29.000    19659596.357 6 105165594.73706      -907.898 6        36.246                                                                    19659594.633 6  81795470.44106      -705.910 6        41.430
R18        30.000    20915558.254 7 111648675.82607     -3277.581 7        42.817                                                                    20915560.492 7  86837860.42607     -2549.140 7        46.496
R04        31.000    22822276.392 5                      3281.419 5        30.128
R03        32.000    21307712.573 4 114061846.06004       664.430 4        29.744                                                                    21307711.002 5  88714866.63205       516.591 5        35.457
R16        33.000    23219450.692 5                     -5372.965 5        31.019
R09        34.000    20688838.039 7 110477673.23107     -2821.172 7        47.209                                                                    20688834.797 7  85926726.00307     -2194.331 7        43.352
R10        35.000    21520814.899 7 114718045.58807       625.919 7        43.697
C37        36.000                                                                                                                                    24477252.917 6 127459438.02906     -2899.872 6        36.529                                                                    24477258.754 6 103571293.34606     -2356.456 6        40.625
C33        37.000                                                                                                                                                                                                                                                                    24637925.523 6 104251139.76706      1718.146 6        39.865
C28        40.000                                                                                                                                    21934375.903 7 114218299.72607       284.841 7        47.623                                                                    21934371.964 7  92811546.26307       231.376 7        46.185
C21        41.000                                                                                                                                    26292825.539 4                     -3074.674 4        26.551                                                                    26292817.318 4 111253500.20304     -2497.885 4        25.338
C43        42.000                                                                                                                                    23014026.642 7 119840134.97607     -2802.018 7        42.449                                                                    23014011.323 6  97379997.66906     -2276.852 6        36.586
C11        44.000                                                                                                                                    24776495.441 4                     -3365.031 4        24.722    24776505.961 6  99764659.77006     -2602.477 6        37.550    24776485.283 4                     -2733.532 4        25.729
C13        45.000                                                                                                                                    38225582.989 6 199050634.69206     -1667.891 6        38.547    38225585.332 5 153918561.03105     -1289.941 5        34.962    38225580.308 5 161745014.17605     -1355.676 5        33.886
C08        46.000                                                                                                                                                                                                    38624350.746 5 155524313.64105     -1490.355 5        34.062    38624347.958 5 163432263.95705     -1566.373 5        34.405
C14        47.000                                                                                                                                    23754714.321 7 123697009.78307       989.197 7        44.318    23754708.347 7  95650425.77207       764.952 7        46.151    23754705.171 7 100514030.81007       803.778 7        42.480
C42        48.000                                                                                                                                    23875764.533 7 124327512.80607      -567.810 7        43.251                                                                    23875769.299 7 101026228.65907      -461.552 7        44.072
C38        50.000                                                                                                                                    40058530.357 4                     -2074.500 4        25.444                                                                    40058505.358 4                     -1686.064 4        26.922
C27        52.000                                                                                                                                    24923396.144 6 129782710.96506      1811.441 6        36.552                                                                    24923389.447 5 105459062.98905      1471.927 5        34.667
C23        55.000                                                                                                                                    26497191.609 4                     -4104.194 4        28.550                                                                    26497171.690 4                     -3334.076 4        24.541
I06        58.000    38709011.069 6 151902639.72406      -573.104 6        38.159
> 2025 01 01 19 45  5.0000000  0 40
G18         1.000    22591922.962 7 118721573.47907     -3547.470 7        45.317                                    22591918.384 4  92510182.94704     -2764.273 4        26.802    22591917.865 6  92510202.92506     -2764.249 6        37.508
G10         2.000    21782487.521 6 114467737.83206      1565.961 6        40.462                                    21782492.721 3  89195623.48803      1220.222 3        21.333
G07         3.000    25174186.301 6 132291223.52806     -1023.661 6        40.074                                    25174185.271 1 103083994.40701      -797.627 1        10.518    25174222.224 4                      -797.352 4        28.322
G23         4.000    20913488.192 5 109901027.28805     -1065.163 5        31.879                                    20913470.120 2  85637138.25302      -829.976 2        14.619    20913473.581 6  85637207.18606      -829.892 6        36.367
G15         5.000    23708078.845 5 124586779.07015      -878.069 5        30.687
G08         6.000    22602617.080 6 118777593.03706      2106.673 6        38.856                                    22602612.952 4  92553887.38404      1641.564 4        24.316    22602616.905 5                      1641.588 5        30.392
G27         7.000    20467480.801 6 107557823.62306       507.929 6        40.720                                    20467479.412 5  83810937.56005       395.790 5        30.151    20467480.561 6  83810928.56606       395.699 6        36.302
E15        10.000    26671798.530 5 140161215.01105     -3339.668 5        32.126                                                                    26671788.618 4 104665841.42504     -2493.645 4        29.573    26671830.164 4                     -2558.321 4        25.805
E27        15.000    27664530.301 5                     -4068.389 5        30.287                                                                                                                                    27664532.026 4                     -3117.216 4        29.621
E13        16.000    23430138.997 8 123126292.50508     -1537.072 8        50.165                                                                    23430138.529 8  91944956.12608     -1147.797 8        48.152    23430138.016 8  94343474.34908     -1177.689 8        48.593
E31        17.000    28595143.641 5 150268635.06705      2011.760 5        32.228                                                                    28595131.737 4 112213479.76404      1502.879 4        25.459    28595137.480 4 115140766.00804      1541.404 4        29.583
G16        18.000    21154704.776 8 111168730.57408     -2825.122 8        48.662                                    21154701.230 5  86624886.09005     -2201.392 5        34.086
E26        19.000                                                                                                                                    24767263.976 6  97192137.26006       691.373 6        36.450    24767266.910 5  99727575.24505       709.465 5        35.776
E21        22.000    24406605.962 6 128257682.93406     -2607.271 6        39.312                                                                    24406608.623 7  95776774.25007     -1946.967 7        44.868    24406602.623 6  98275325.24706     -1997.839 6        38.838
S36        23.000    38263818.197 6 201077600.72506      -850.938 6        36.526
S23        24.000    38219158.726 6 200843024.30206      -851.645 6        40.596
G26        25.000    23032254.908 4 121035339.76104     -4213.273 4        28.341                                    23032257.708 1  94313287.71201     -3282.924 1         7.875    23032256.751 3                     -3285.054 3        23.352
R20        26.000                                                                                                                                    22712232.728 4                      1692.421 4        24.526
R02        27.000                                                                                                                                    22777874.508 5  94536837.48115     -2348.057 5        32.293
R19        29.000    19660445.772 6 105170139.06806      -909.855 6        36.011                                                                    19660443.502 6  81799004.93106      -707.542 6        40.431
R18        30.000    20918628.585 7 111665066.07007     -3278.669 7        42.000                                                                    20918630.875 7  86850608.39007     -2549.976 7        46.487
R04        31.000                                                                                                                                    22819214.610 4                      2551.453 4        29.118
R03        32.000    21307096.292 4 114058535.96404       660.102 4        26.886                                                                    21307091.773 5  88712292.15705       513.451 5        34.200
R16        33.000    23224478.804 5                     -5373.251 5        33.240
R09        34.000    20691481.386 7 110491789.54007     -2825.313 7        46.791                                                                    20691478.097 6  85937705.34706     -2197.464 6        41.688
R10        35.000    21520228.455 7 114714926.74307       621.614 7        43.699
C37        36.000                                                                                                                                    24480038.150 6 127473942.24406     -2901.711 6        37.240                                                                    24480043.903 6 103583079.22706     -2357.854 6        39.396
C33        37.000                                                                                                                                                                                                                                                                    24635895.696 6 104242551.18606      1717.327 6        40.298
C28        40.000                                                                                                                                    21934102.967 7 114216878.85307       283.467 7        47.265                                                                    21934098.963 7  92810391.68907       230.437 7        46.335
C21        41.000                                                                                                                                    26295782.377 4                     -3076.526 4        27.353                                                                    26295767.142 3 111265995.92303     -2500.078 3        23.600
C43        42.000                                                                                                                                    23016717.200 7 119854147.42907     -2803.006 7        43.374                                                                    23016701.774 5  97391383.94205     -2277.688 5        35.652
C11        44.000                                                                                                                                                                                                    24779739.400 6  99777672.79406     -2602.790 6        37.089    24779716.773 4                     -2734.740 4        24.962
C13        45.000                                                                                                                                    38227184.991 6 199058975.22206     -1668.239 6        38.709    38227187.137 5 153925010.43205     -1289.858 5        34.948    38227181.749 5 161751791.54205     -1355.695 5        33.754
C08        46.000                                                                                                                                                                                                    38626201.287 5 155531765.61305     -1490.404 5        34.076    38626198.944 5 163440094.85705     -1566.678 5        34.586
C14        47.000                                                                                                                                    23753766.823 7 123692069.66607       986.731 7        44.160    23753761.263 7  95646605.76107       763.066 7        46.686    23753756.578 7 100510016.58207       801.811 7        42.838
C42        48.000                                                                                                                                    23876310.648 7 124330359.10607      -570.795 7        44.464                                                                    23876315.623 7 101028541.52907      -463.730 7        44.075
C38        50.000                                                                                                                                    40060524.446 4                     -2075.573 4        25.008                                                                    40060498.333 4                     -1685.714 4        27.497
C27        52.000                                                                                                                                    24921665.997 6 129773654.62606      1811.082 6        36.726                                                                    24921649.900 5 105451704.05505      1471.855 5        34.552
C23        55.000                                                                                                                                    26501134.189 4                     -4104.254 4        27.737                                                                    26501115.044 3                     -3334.505 3        23.867
I06        58.000    38709741.324 6 151905505.35106      -573.135 6        38.402
> 2025 01 01 19 45 10.0000000  0 40
G18         1.000    22595298.576 7 118739313.23807     -3548.697 7        45.139                                    22595293.981 4  92524006.13204     -2765.223 4        26.874    22595294.530 6  92524026.12206     -2765.150 6        36.696
G10         2.000    21780997.788 6 114459914.34006      1563.209 6        41.774                                    21781008.857 3  89189527.15103      1218.121 3        19.493
G07         3.000    25175160.574 6 132296348.54706     -1026.583 6        39.580                                    25175160.500 1 103087987.87201      -799.956 1        10.963    25175191.457 4                      -799.387 4        25.910
G23         4.000    20914504.046 4 109906360.97304     -1068.152 4        28.569                                    20914485.026 2  85641294.34202      -832.505 2        12.788    20914487.492 5  85641363.30605      -832.831 5        35.143
G15         5.000    23708922.162 4 124591175.63304      -880.671 4        28.019
G08         6.000    22600612.036 6 118767062.79406      2105.235 6        36.064                                    22600610.000 3  92545681.99003      1640.440 3        23.867    22600611.977 5                      1640.564 5        30.400
G27         7.000    20466998.591 6 107555289.53806       505.311 6        41.874                                    20466997.675 5  83808962.95205       393.744 5        30.664    20466997.118 5  83808953.97805       393.790 5        35.162
E15        10.000    26674977.826 5 140177912.77505     -3339.853 5        31.185                                                                    26674966.557 5 104678310.58805     -2494.068 5        30.181    26675002.973 4                     -2559.086 4        26.898
E27        15.000    27668400.151 4                     -4068.920 4        29.450                                                                                                                                    27668401.894 4                     -3117.365 4        29.336
E13        16.000    23431601.743 8 123133980.97608     -1538.596 8        49.782                                                                    23431601.582 8  91950697.50908     -1148.930 8        48.241    23431601.066 8  94349365.51208     -1178.927 8        48.676
E31        17.000    28593230.165 5 150258578.81305      2010.938 5        31.789                                                                    28593216.880 4 112205970.26804      1502.349 4        24.376    28593224.354 5 115133060.63805      1540.514 5        30.083
G16        18.000    21157394.515 8 111182863.52908     -2828.311 8        49.114                                    21157390.464 5  86635898.76905     -2203.873 5        33.910
E26        19.000    24766397.806 5                       924.549 5        32.353                                                                    24766383.335 6  97188682.81306       690.176 6        36.571    24766385.937 5  99724030.66705       708.419 5        35.609
E21        22.000    24409088.313 6 128270723.96606     -2609.456 6        40.920                                                                    24409090.373 7  95786512.70007     -1948.644 7        45.347    24409084.453 6  98285317.74106     -1999.484 6        38.880
S36        23.000    38264631.563 6 201081853.89006      -850.999 6        36.654
S23        24.000    38219969.225 6 200847282.87706      -851.982 6        40.810
G26        25.000                                                                                                                                                                    23036267.381 4                     -3283.691 4        24.962
R20        26.000                                                                                                                                    22710200.997 4                      1690.218 4        24.782
R02        27.000                                                                                                                                    22780708.780 5  94548585.69905     -2351.516 5        33.748
R19        29.000    19661296.335 6 105174693.74706      -912.004 6        36.386                                                                    19661294.491 6  81802547.44406      -709.600 6        39.937
R18        30.000    20921700.474 7 111681462.04707     -3279.995 7        42.246                                                                    20921701.929 7  86863360.80607     -2551.157 7        46.140
R04        31.000                                                                                                                                    22816154.581 5                      2550.527 5        30.641
R03        32.000    21306479.130 4 114055246.48904       655.539 4        28.701                                                                    21306476.422 5  88709733.78705       509.658 5        33.820
R16        33.000    23229507.778 5 124087859.76115     -5374.286 5        34.524                                                                    23229612.421 3                     -4180.202 3        23.295
R09        34.000    20694128.837 7 110505925.83307     -2829.496 7        46.018                                                                    20694125.208 6  85948700.24006     -2200.740 6        40.965
R10        35.000    21519646.513 7 114711829.14507       617.103 7        43.420
C37        36.000                                                                                                                                    24482825.030 6 127488456.18206     -2903.844 6        37.270                                                                    24482831.130 6 103594873.02306     -2359.709 6        38.420
C33        37.000                                                                                                                                    24633871.460 4                      2111.675 4        26.311                                                                    24633867.118 6 104233967.84906      1715.831 6        40.749
C28        40.000                                                                                                                                    21933830.933 7 114215464.48907       281.962 7        46.742                                                                    21933827.105 7  92809242.40007       229.091 7        46.504
C21        41.000                                                                                                                                    26298743.548 4                     -3078.724 4        28.152                                                                    26298717.788 4                     -2501.515 4        24.737
C43        42.000                                                                                                                                    23019408.522 7 119868164.98707     -2804.240 7        43.306                                                                    23019393.968 5  97402774.33605     -2278.542 5        35.190
C11        44.000                                                                                                                                                                                                    24782971.811 5  99790687.61405     -2603.394 5        35.700    24782949.108 4                     -2735.079 4        24.647
C13        45.000                                                                                                                                    38228787.775 6 199067317.92806     -1669.095 6        39.072    38228789.248 5 153931461.53405     -1290.485 5        34.386    38228784.037 5 161758570.66705     -1356.166 5        33.886
C08        46.000                                                                                                                                                                                                    38628052.316 5 155539219.01805     -1490.972 5        33.802    38628050.146 5 163447927.25405     -1566.958 5        34.386
C14        47.000                                                                                                                                    23752820.488 7 123687141.48407       984.233 7        44.096    23752815.736 7  95642794.98807       761.015 7        46.971    23752810.442 7 100506012.01707       799.743 7        43.401
C42        48.000                                                                                                                                    23876859.435 7 124333219.98007      -573.882 7        45.079                                                                    23876865.094 7 101030866.21107      -466.323 7        44.093
C38        50.000                                                                                                                                    40062512.811 4                     -2074.155 4        24.361                                                                    40062491.188 4                     -1686.109 4        27.066
C27        52.000                                                                                                                                    24919934.231 6 129764600.28706      1810.365 6        36.382                                                                    24919910.844 5 105444346.71005      1471.093 5        34.319
C23        55.000                                                                                                                                    26505074.015 4                     -4103.474 4        27.413                                                                    26505059.368 3                     -3333.446 3        22.838
I06        58.000    38710472.536 6 151908370.73106      -573.207 6        38.468
> 2025 01 01 19 45 15.0000000  0 40
G18         1.000    22598675.240 7 118757057.93807     -3549.514 7        45.701                                    22598670.432 4  92537833.16104     -2765.855 4        26.659    22598671.460 6  92537853.13206     -2766.009 6        36.166
G10         2.000    21779513.520 7 114452102.55507      1561.154 7        43.281                                    21779527.190 3  89183439.92503      1216.507 3        18.776
G07         3.000    25176139.375 6 132301486.81906     -1028.968 6        39.348                                    25176138.221 2 103091991.66802      -801.780 2        14.333
G23         4.000                                                                                                                                                                    20915505.368 6  85645532.35306      -835.251 6        36.060
G08         6.000    22598608.897 5 118756537.55005      2104.287 5        35.100                                    22598607.773 3  92537480.51803      1639.699 3        22.990    22598608.283 5                      1639.846 5        31.102
G27         7.000    20466518.914 7 107552766.75007       503.468 7        43.145                                    20466517.745 5  83806997.15905       392.305 5        30.347    20466515.224 5  83806988.18705       392.232 5        33.922
E15        10.000    26678156.340 5 140194611.62005     -3340.330 5        30.604                                                                    26678144.268 5 104690780.50905     -2494.440 5        30.792    26678177.999 4                     -2559.342 4        27.892
E27        15.000    27672270.479 5                     -4068.978 5        30.008                                                                                                                                    27672273.755 4                     -3117.578 4        29.118
E13        16.000    23433066.053 8 123141675.89008     -1539.665 8        49.899                                                                    23433065.896 8  91956443.71908     -1149.809 8        48.367    23433065.330 8  94355261.61708     -1179.788 8        48.671
E31        17.000    28591317.604 5 150248525.76405      2010.333 5        31.366                                                                    28591299.322 3                      1499.926 3        21.714    28591313.141 5 115125357.55505      1540.299 5        30.936
G16        18.000    21160086.911 8 111197011.00208     -2831.022 8        49.576                                    21160082.318 5  86646922.76305     -2205.988 5        33.748
E26        19.000    24765508.087 5 130143619.00115       923.757 5        34.357                                                                    24765503.717 6  97185232.62906       689.804 6        36.280    24765505.804 5  99720490.47405       707.561 5        35.438
E21        22.000    24411572.405 6 128283775.00506     -2611.333 6        41.945                                                                    24411573.897 7  95796258.59407     -1949.947 7        45.464    24411568.494 6  98295317.86206     -2000.799 6        39.303
S36        23.000    38265439.098 6 201086107.41106      -850.567 6        36.722
S23        24.000    38220780.579 6 200851541.51106      -851.866 6        40.810
G26        25.000    23040291.521 3                     -4215.647 3        19.940
R20        26.000                                                                                                                                    22708168.632 4                      1689.986 4        24.827
R02        27.000                                                                                                                                    22783549.485 5                     -2354.119 5        34.938
R19        29.000    19662148.133 6 105179258.76806      -913.934 6        36.318                                                                    19662149.165 6  81806098.04306      -711.027 6        40.229
R18        30.000    20924774.639 7 111697863.87407     -3280.989 7        43.388                                                                    20924774.527 7  86876117.78107     -2551.840 7        45.496
R04        31.000                                                                                                                                    22813089.011 5                      2549.662 5        32.353
R03        32.000    21305870.587 4 114051978.07304       651.282 4        28.085                                                                    21305865.207 5  88707191.72805       506.688 5        32.808
R16        33.000    23234535.609 5                     -5374.729 5        35.276
R09        34.000    20696780.244 7 110520082.32707     -2833.286 7        46.301                                                                    20696777.256 6  85959710.84706     -2203.722 6        40.391
R10        35.000    21519069.709 7 114708752.96207       613.035 7        43.134
C37        36.000                                                                                                                                    24485614.234 5 127502980.00005     -2905.902 5        35.171                                                                    24485620.274 6 103606674.77006     -2361.009 6        37.316
C33        37.000                                                                                                                                    24631843.257 4                      2111.191 4        25.624                                                                    24631839.915 6 104225389.78806      1715.369 6        40.598
C28        40.000                                                                                                                                    21933559.876 7 114214056.68707       280.853 7        45.893                                                                    21933556.706 7  92808098.41807       228.399 7        46.506
C21        41.000                                                                                                                                    26301702.541 4                     -3080.947 4        28.578                                                                    26301672.011 4                     -2503.168 4        24.045
C43        42.000                                                                                                                                    23022100.006 7 119882187.72707     -2805.031 7        42.963                                                                    23022087.185 5  97414168.94505     -2279.091 5        34.381
C11        44.000                                                                                                                                    24786238.557 5                     -3367.011 5        30.166    24786202.221 5  99803704.30105     -2603.725 5        34.381    24786181.371 4                     -2735.569 4        25.008
C13        45.000                                                                                                                                    38230389.842 6 199075662.84706     -1669.371 6        38.892    38230391.407 5 153937914.34205     -1290.484 5        34.129    38230387.113 5 161765351.58905     -1356.478 5        34.014
C08        46.000                                                                                                                                                                                                    38629904.282 5 155546674.07105     -1491.101 5        34.329    38629901.370 5 163455761.32205     -1566.815 5        34.671
C14        47.000                                                                                                                                    23751875.842 7 123682225.30107       982.036 7        43.852    23751871.430 7  95638993.49007       759.317 7        47.034    23751866.545 7 100502017.20507       798.108 7        43.500
C42        48.000                                                                                                                                    23877411.051 7 124336095.49207      -576.605 7        45.147                                                                    23877417.406 7 101033202.78207      -468.358 7        44.244
C38        50.000                                                                                                                                    40064505.330 4                     -2075.474 4        24.722                                                                    40064484.324 4                     -1686.574 4        27.150
C27        52.000                                                                                                                                    24918195.860 5 129755548.01405      1810.125 5        34.233                                                                    24918172.367 5 105436991.00105      1470.918 5        33.964
C23        55.000                                                                                                                                    26509014.409 4                     -4103.878 4        25.669                                                                    26509005.128 3                     -3333.027 3        22.152
I06        58.000    38711202.237 6 151911235.99306      -572.973 6        38.523
I01        59.000   367316905.520 6 138289627.51816     -1867.116 6        38.159
> 2025 01 01 19 45 20.0000000  0 39
G18         1.000    22602053.165 7 118774807.47607     -3550.245 7        46.197                                    22602047.763 4  92551663.95704     -2766.426 4        26.084    22602049.843 6  92551683.93206     -2766.502 6        36.076
G10         2.000    21778029.222 7 114444302.44207      1558.921 7        43.354                                    21778045.576 3  89177361.79903      1214.762 3        21.595
G07         3.000    25177120.434 6 132306638.27506     -1031.319 6        38.586                                    25177118.297 2 103096005.78702      -803.608 2        16.377
G23         4.000                                                                                                                                                                    20916526.806 6  85649714.19906      -837.254 6        36.616
G08         6.000    22596607.186 6 118746017.30806      2103.873 6        36.752                                    22596606.485 3  92529282.91303      1639.389 3        22.381    22596606.968 5                      1639.068 5        30.958
G27         7.000    20466040.481 7 107550255.19607       501.309 7        43.369                                    20466039.603 4  83805040.13004       390.624 4        29.716    20466037.381 5  83805031.10905       390.632 5        34.214
E15        10.000    26681334.010 5 140211311.35205     -3339.546 5        30.219                                                                    26681321.857 5 104703251.06805     -2494.075 5        31.570    26681353.996 4                     -2559.186 4        29.024
E27        15.000    27676143.736 5                     -4069.072 5        30.189                                                                                                                                    27676144.911 4                     -3118.354 4        28.787
E13        16.000    23434531.719 8 123149377.15008     -1540.715 8        49.850                                                                    23434531.440 8  91962194.65308     -1150.532 8        48.448    23434530.848 8  94361162.58108     -1180.594 8        48.749
E31        17.000    28589406.121 5 150238475.95105      2009.636 5        30.725                                                                    28589385.391 3                      1499.800 3        21.452    28589402.146 5 115117657.12405      1539.974 5        31.396
G16        18.000    21162781.934 8 111211172.91508     -2833.698 8        49.572                                    21162776.779 5  86657958.00405     -2208.070 5        33.808
E26        19.000    24764631.547 6 130139004.27406       922.472 6        36.654                                                                    24764625.311 6  97181786.66306       688.826 6        36.639    24764626.760 5  99716954.56205       706.843 5        35.533
E21        22.000    24414059.183 7 128296835.88907     -2612.971 7        42.068                                                                    24414059.272 7  95806011.84807     -1951.226 7        45.391    24414054.832 6  98305325.56206     -2002.154 6        39.982
S36        23.000    38266252.070 6 201090360.65806      -850.445 6        37.047
S23        24.000    38221592.473 6 200855800.13606      -851.590 6        40.994
G26        25.000                                                                                                                                                                    23044307.751 4                     -3286.125 4        28.995
R20        26.000    22706170.804 4                      2170.920 4        28.133                                                                    22706136.248 3                      1689.097 3        23.810
R19        29.000    19663003.166 5 105183833.90205      -915.674 5        35.900                                                                    19663004.672 6  81809656.46606      -712.350 6        40.999
R18        30.000    20927847.648 7 111714271.39707     -3281.942 7        42.847                                                                    20927848.031 7  86888879.18407     -2552.590 7        45.579
R04        31.000    22810074.953 4                      3276.756 4        28.019
R03        32.000    21305264.675 5 114048730.44705       647.804 5        32.156                                                                    21305258.712 5  88704665.72705       504.535 5        32.778
R16        33.000    23239564.536 5                     -5374.886 5        35.371
R09        34.000    20699436.246 7 110534258.71507     -2837.178 7        46.438                                                                    20699430.945 6  85970736.89506     -2206.604 6        39.138
R10        35.000    21518496.092 6 114705697.98106       609.001 6        41.793
C37        36.000                                                                                                                                    24488404.381 4 127517513.59104     -2907.675 4        29.848                                                                    24488411.243 6 103618484.44506     -2362.733 6        36.265
C33        37.000                                                                                                                                    24629818.976 4                      2108.634 4        25.579                                                                    24629813.867 6 104216817.03906      1714.067 6        40.319
C28        40.000                                                                                                                                    21933290.233 7 114212655.37007       279.773 7        44.798                                                                    21933287.604 7  92806959.73607       227.290 7        46.464
C21        41.000                                                                                                                                    26304660.868 4                     -3082.643 4        28.275                                                                    26304627.230 3                     -2505.976 3        23.752
C43        42.000                                                                                                                                    23024792.381 7 119896215.53607     -2805.887 7        42.679                                                                    23024781.249 5  97425567.69005     -2279.843 5        33.503
C11        44.000                                                                                                                                    24789463.871 5                     -3367.510 5        32.527    24789433.594 5  99816722.72405     -2603.698 5        31.728    24789417.310 4                     -2736.246 4        25.038
C13        45.000                                                                                                                                    38231992.603 6 199084009.93206     -1669.357 6        39.159    38231994.737 5 153944368.85205     -1291.016 5        33.485    38231989.796 5 161772134.28605     -1356.455 5        33.533
C08        46.000                                                                                                                                                                                                    38631756.561 5 155554130.50105     -1491.042 5        34.362    38631753.400 5 163463596.92305     -1566.998 5        34.310
C14        47.000                                                                                                                                    23750933.774 7 123677321.08807       979.740 7        43.316    23750928.949 7  95635201.23207       757.641 7        46.814    23750924.753 7 100498032.12807       796.063 7        43.826
C42        48.000                                                                                                                                    23877965.884 7 124338985.55307      -579.362 7        44.594                                                                    23877972.543 7 101035551.20307      -470.864 7        44.331
C38        50.000                                                                                                                                    40066498.722 3                     -2076.318 3        23.581                                                                    40066476.352 4                     -1686.140 4        26.862
C27        52.000                                                                                                                                                                                                                                                                    24916434.374 5 105429636.85705      1471.088 5        33.485
C23        55.000                                                                                                                                    26512956.466 4                     -4102.530 4        25.489                                                                    26512947.672 3                     -3332.638 3        21.381
I06        58.000    38711931.487 6 151914101.03206      -572.970 6        38.541
I01        59.000   367319283.342 6 138298966.20806     -1867.618 6        38.099
> 2025 01 01 19 45 25.0000000  0 40
G18         1.000    22605431.553 7 118792561.91907     -3551.549 7        46.444                                    22605426.052 4  92565498.58704     -2767.436 4        26.144    22605428.936 6  92565518.56006     -2767.372 6        36.563
G10         2.000    21776546.286 7 114436514.02807      1556.453 7        42.836                                    21776564.954 4  89171292.84504      1212.834 4        25.248    21776559.633 5                      1212.684 5        32.234
G07         3.000    25178102.821 6 132311802.95406     -1034.364 6        38.952                                    25178100.834 2 103100030.19902      -805.982 2        17.547    25178084.615 4                      -806.248 4        27.329
G23         4.000                                                                                                                                                                    20917550.697 6  85653908.96106      -840.530 6        36.745
G08         6.000    22594605.959 6 118735502.12906      2102.448 6        37.478                                    22594606.015 3  92521089.24903      1638.266 3        21.381    22594606.512 5                      1638.315 5        31.238
G27         7.000    20465564.118 7 107547754.90207       498.933 7        42.694                                    20465563.331 4  83803091.88604       388.766 4        28.332    20465563.189 5  83803082.87405       388.908 5        34.243
E15        10.000    26684509.694 4 140228012.10504     -3340.462 4        28.597                                                                    26684499.277 5 104715722.37805     -2494.291 5        31.841    26684531.907 5                     -2559.535 5        30.113
E27        15.000    27680016.277 4                     -4069.466 4        29.829                                                                                                                                    27680016.585 4                     -3118.107 4        28.692
E13        16.000    23435998.239 8 123157084.81808     -1542.311 8        49.593                                                                    23435998.194 8  91967950.37808     -1151.712 8        48.843    23435997.521 8  94367068.45408     -1181.756 8        48.836
E31        17.000    28587494.634 5 150228429.34105      2008.928 5        30.091                                                                    28587472.002 3                      1501.234 3        20.976    28587490.432 5 115109959.12405      1539.153 5        32.048
G16        18.000    21165479.269 8 111225349.29308     -2836.858 8        49.373                                    21165473.914 5  86669004.51305     -2210.537 5        33.545
E26        19.000    24763755.233 6 130134395.34206       921.321 6        38.258                                                                    24763748.508 6  97178344.95206       687.686 6        37.452    24763749.428 6  99713423.05406       705.815 6        36.004
E21        22.000    24416547.498 7 128309906.69907     -2615.271 7        42.011                                                                    24416546.341 7  95815772.52907     -1952.893 7        45.077    24416542.866 6  98315340.86106     -2003.933 6        40.253
S36        23.000    38267056.444 6 201094615.66706      -851.026 6        36.957
S23        24.000    38222402.687 6 200860058.82106      -851.850 6        40.906
G26        25.000    23048326.043 5                     -4218.009 5        30.415                                                                                                    23048323.094 4                     -3286.751 4        29.640
R20        26.000    22704136.364 4                      2170.675 4        28.711                                                                    22704114.945 3                      1687.114 3        18.896
R02        27.000                                                                                                                                    22789252.109 5  94583918.39515     -2360.156 5        34.052
R19        29.000    19663861.839 5 105188419.34905      -918.527 5        34.605                                                                    19663862.718 6  81813222.90006      -714.175 6        41.697
R18        30.000    20930921.307 7 111730684.68607     -3283.375 7        42.796                                                                    20930923.296 7  86901645.08207     -2553.745 7        45.950
R04        31.000                                                                                                                                    22806955.581 5                      2547.834 5        31.894
R03        32.000    21304663.584 5 114045503.72405       643.229 5        34.776                                                                    21304655.276 5  88702156.06005       500.348 5        32.641
R16        33.000    23244590.191 5 124168480.45015     -5375.678 5        34.543
R09        34.000    20702094.245 7 110548455.14507     -2841.353 7        46.292                                                                    20702088.750 6  85981778.59906     -2209.935 6        37.353
R10        35.000    21517926.789 6 114702664.39206       604.390 6        41.011
C37        36.000                                                                                                                                    24491194.208 4 127532056.95104     -2910.054 4        25.594                                                                    24491204.053 5 103630302.02205     -2364.369 5        35.010
C33        37.000                                                                                                                                    24627796.989 3                      2107.727 3        23.524                                                                    24627789.034 6 104208249.56506      1712.927 6        39.943
C28        40.000                                                                                                                                    21933022.186 7 114211260.62107       278.152 7        43.759                                                                    21933019.889 7  92805826.37007       226.041 7        46.574
