     3.04           OBSERVATION DATA    M                   RINEX VERSION / TYPE
ssrcrin-15.6.1x                         20250101 153000 UTC PGM / RUN BY / DATE 
(00000000023479385599111004) Septentrio proprietary         COMMENT             
ract                                                        MARKER NAME         
01                                                          MARKER NUMBER       
geodetic                                                    MARKER TYPE         
NFB                 CLIMERS@TUW                             OBSERVER / AGENCY   
3296359             SEPT ASTERX SB3 PROB4.14.4              REC # / TYPE / VERS 
Unknown             Unknown                                 ANT # / TYPE        
  4127446.1475  1206915.4703  4695543.7384                  APPROX POSITION XYZ 
        0.0000        0.0000        0.0000                  ANTENNA: DELTA H/E/N
G   23 X1  C1C L1C D1C S1C C1W S1W C2W L2W D2W S2W C2L L2L  SYS / # / OBS TYPES 
       D2L S2L C5Q L5Q D5Q S5Q C1L L1L D1L S1L              SYS / # / OBS TYPES 
E   21 X1  C1C L1C D1C S1C C6C L6C D6C S6C C5Q L5Q D5Q S5Q  SYS / # / OBS TYPES 
       C7Q L7Q D7Q S7Q C8Q L8Q D8Q S8Q                      SYS / # / OBS TYPES 
S    9 X1  C1C L1C D1C S1C C5I L5I D5I S5I                  SYS / # / OBS TYPES 
R   17 X1  C1C L1C D1C S1C C2P L2P D2P S2P C2C L2C D2C S2C  SYS / # / OBS TYPES 
       C3Q L3Q D3Q S3Q                                      SYS / # / OBS TYPES 
C   25 X1  C1P L1P D1P S1P C5P L5P D5P S5P C2I L2I D2I S2I  SYS / # / OBS TYPES 
       C7I L7I D7I S7I C6I L6I D6I S6I C7D L7D D7D S7D      SYS / # / OBS TYPES 
J   17 X1  C1C L1C D1C S1C C2L L2L D2L S2L C5Q L5Q D5Q S5Q  SYS / # / OBS TYPES 
       C1L L1L D1L S1L                                      SYS / # / OBS TYPES 
I    5 X1  C5A L5A D5A S5A                                  SYS / # / OBS TYPES 
SEPTENTRIO RECEIVERS OUTPUT ALIGNED CARRIER PHASES.         COMMENT             
NO FURTHER PHASE SHIFT APPLIED IN THE RINEX ENCODER.        COMMENT             
G L1C                                                       SYS / PHASE SHIFT   
G L2W                                                       SYS / PHASE SHIFT   
G L2L  0.00000                                              SYS / PHASE SHIFT   
G L5Q  0.00000                                              SYS / PHASE SHIFT   
G L1L  0.00000                                              SYS / PHASE SHIFT   
E L1C  0.00000                                              SYS / PHASE SHIFT   
E L6C  0.00000                                              SYS / PHASE SHIFT   
E L5Q  0.00000                                              SYS / PHASE SHIFT   
E L7Q  0.00000                                              SYS / PHASE SHIFT   
E L8Q  0.00000                                              SYS / PHASE SHIFT   
S L1C                                                       SYS / PHASE SHIFT   
S L5I                                                       SYS / PHASE SHIFT   
R L1C                                                       SYS / PHASE SHIFT   
R L2P  0.00000                                              SYS / PHASE SHIFT   
R L2C                                                       SYS / PHASE SHIFT   
R L3Q  0.00000                                              SYS / PHASE SHIFT   
C L1P  0.00000                                              SYS / PHASE SHIFT   
C L5P  0.00000                                              SYS / PHASE SHIFT   
C L2I                                                       SYS / PHASE SHIFT   
C L7I                                                       SYS / PHASE SHIFT   
C L6I                                                       SYS / PHASE SHIFT   
C L7D                                                       SYS / PHASE SHIFT   
J L1C                                                       SYS / PHASE SHIFT   
J L2L  0.00000                                              SYS / PHASE SHIFT   
J L5Q  0.00000                                              SYS / PHASE SHIFT   
J L1L  0.00000                                              SYS / PHASE SHIFT   
I L5A                                                       SYS / PHASE SHIFT   
  2025     1     1    15    30    0.0000000     GPS         TIME OF FIRST OBS   
 C1C    0.000 C2C    0.000 C2P    0.000                     GLONASS COD/PHS/BIS 
DBHZ                                                        SIGNAL STRENGTH UNIT
    18                                                      LEAP SECONDS        
 24 R01  1 R02 -4 R03  5 R04  6 R05  1 R06 -4 R07  5 R08  6 GLONASS SLOT / FRQ #
    R09 -2 R10 -7 R11  0 R12 -1 R13 -2 R14 -7 R15  0 R16 -1 GLONASS SLOT / FRQ #
    R17  4 R18 -3 R19  3 R20  2 R21  4 R22 -3 R23  3 R24  2 GLONASS SLOT / FRQ #
                                                            END OF HEADER       
> 2025 01 01 15 30  0.0000000  0 37
G18         1.000    24017043.095 7 126210418.21707      2870.561 7        45.673                                    24017048.658 4  98345862.11304      2236.791 4        24.180    24017049.154 6  98345879.15506      2236.696 6        36.023
G20         2.000    23794200.904 4                       329.442 4        24.195
G25         3.000    20186326.053 7 106080212.60107     -2308.201 7        46.164                                    20186396.376 1  82659851.47201     -1798.663 1        11.259    20186326.639 6  82659706.25406     -1798.602 6        39.532
G11         4.000    23320763.126 4                     -3304.713 4        26.790                                                                                                    23320709.259 5  95494480.37805     -2574.538 5        31.577
G31         5.000    22203733.455 7 116681477.02407      1124.668 7        45.694                                    22203733.694 6  90920702.21606       876.358 6        36.461    22203736.061 6  90920874.22006       876.265 6        37.399
G28         6.000    21277541.611 7 111814257.75007      -569.547 7        45.965                                    21277541.891 5  87128001.88205      -443.805 5        33.269    21277543.383 7  87128003.87707      -443.838 7        44.916
G12         7.000    23075474.000 6 121262522.97006     -3962.110 6        41.464                                    23075473.877 5  94490249.17105     -3087.359 5        30.121    23075475.069 5  94490215.15905     -3087.274 5        32.910
G29         8.000    20370132.131 8 107045853.87508      -269.778 8        48.048                                    20370130.682 7  83412539.31707      -210.223 7        44.414    20370132.219 6  83412341.34106      -210.237 6        41.824
E30         9.000    24545632.746 7 128988229.56707     -2362.428 7        45.478                                                                    24545637.062 7  96322419.32607     -1764.119 7        43.498    24545633.577 6  98835180.91106     -1810.231 6        41.333
E15        10.000    24709461.137 6 129849096.26706      1462.663 6        38.562                                                                    24709468.417 7  96965295.19207      1092.179 7        42.993    24709466.397 6  99494781.27906      1120.620 6        41.456
E34        12.000    24523728.090 7 128873078.75607     -1360.231 7        42.366                                                                    24523734.253 8  96236454.86208     -1015.820 8        48.525    24523733.478 8  98746951.27308     -1042.297 8        49.420
E19        14.000    26772394.274 4                     -1483.609 4        27.988                                                                    26772403.017 4 105060688.58204     -1107.852 4        24.977    26772402.936 5 107801391.27805     -1136.815 5        32.994
E27        15.000    23642066.014 7 124239942.03507        54.275 7        44.149                                                                    23642069.896 8  92776602.48308        40.459 8        49.505    23642068.990 8  95196973.26108        41.514 8        49.493
R17        17.000    19880388.238 7 106384008.44907      1683.543 7        46.221                                                                    19880392.543 6  82743119.92306      1309.415 6        39.763
E36        19.000                                                                                                                                                                                                    27906975.547 3                     -2726.133 3        22.629
R15        20.000    19482863.121 7 104110809.38407       840.825 7        45.214                                                                    19482867.013 7  80975129.02607       654.028 7        42.135
R24        21.000    19725855.017 7 105483015.10907     -2680.816 7        46.828                                                                    19725855.156 7  82042384.55107     -2085.074 7        42.362
E21        22.000    27226760.554 5 143077620.69105      1641.294 5        32.180                                                                    27226779.441 5 106843778.38905      1225.302 5        34.367    27226771.021 5 109630971.94105      1257.574 5        34.419
S36        23.000    38178737.230 6 200630445.21906      -853.699 6        36.268
S23        24.000    38126298.628 6 200355007.14906      -857.886 6        36.669
G26        25.000    23778285.090 6 124955756.58706      2456.306 6        36.491                                    23778288.327 2  97368114.91102      1913.993 2        12.121    23778322.227 5  97368235.05505      1914.193 5        34.233
E29        26.000    27246630.256 5 143182013.59405     -3200.664 5        34.324                                                                                                                                    27246645.937 5 109710943.22405     -2452.549 5        31.049
C34        28.000                                                                                                                                    21379909.928 7 111331252.77207      -369.781 7        45.935                                                                    21379911.518 7  90465531.80707      -300.573 7        43.699
R23        31.000    24129409.644 3                     -5216.420 3        21.190
R16        33.000    23285314.176 6 124385968.14606      3132.344 6        40.482                                                                    23285333.570 5  96744676.68905      2436.297 5        32.503
C24        34.000                                                                                                                                    23933516.744 7 124628119.04307     -3820.961 7        43.640                                                                    23933516.149 6 101270524.69306     -3104.887 6        40.460
R14        35.000    19962357.221 6 106410623.89906     -3084.959 6        40.579                                                                    19962362.611 6  82763930.06006     -2399.253 6        40.334
R06        37.000    23875837.667 4                     -2761.738 4        26.778
S21        38.000    38406398.476 5 201827000.33005      -853.663 5        34.881
C44        39.000                                                                                                                                    23383660.152 7 121765005.71907     -3333.813 7        46.936                                                                    23383659.547 5  98943992.74005     -2709.104 5        32.653
C25        41.000                                                                                                                                    21414242.969 8 111509590.96508     -1266.116 8        52.608                                                                    21414244.834 8  90610743.84308     -1028.867 8        50.940
C12        43.000                                                                                                                                    22182034.315 7 115507709.16207     -2127.743 7        46.642    22182033.737 8  89317956.24508     -1645.379 8        51.436    22182031.443 7  93859446.54107     -1729.024 7        42.271
C11        44.000                                                                                                                                    22271964.699 7 115975938.75107      1103.900 7        46.306    22271963.255 7  89680011.01407       853.608 7        47.721    22271960.914 6  94240013.10806       896.803 6        40.532
C38        49.000                                                                                                                                    39172525.309 4                       310.835 4        29.043                                                                    39172527.462 5                       252.623 5        30.000
C23        55.000                                                                                                                                    23895547.351 7 124430774.95607      1611.554 7        45.871                                                                    23895541.794 6 101110130.55706      1309.397 6        41.559
I02        57.000    37650078.790 5 147747055.26905     -1028.360 5        32.419
I06        58.000    38636831.787 5 151619248.31005      -695.716 5        31.789
> 2025 01 01 15 30  5.0000000  0 37
G18         1.000    24014311.794 7 126196067.30407      2869.731 7        45.302                                    24014317.077 4  98334679.67204      2236.151 4        24.090    24014319.157 5  98334696.69805      2235.957 5        35.605
G25         3.000    20188523.574 7 106091759.88507     -2310.658 7        47.492                                    20188594.143 1  82668849.72301     -1800.588 1         9.619    20188523.776 6  82668704.14806     -1800.566 6        40.086
G11         4.000                                                                                                                                                                    23323854.115 5  95507358.87805     -2576.763 5        31.623
G31         5.000    22202664.768 7 116675861.12707      1121.677 7        46.265                                    22202664.842 6  90916326.20406       874.034 6        36.764    22202666.663 6  90916498.19106       874.087 6        37.936
G28         6.000    21278085.222 7 111817114.09507      -573.021 7        45.759                                    21278085.452 5  87130227.62305      -446.513 5        33.802    21278086.791 7  87130229.61407      -446.477 7        45.394
G12         7.000    23079244.548 7 121282335.81107     -3963.171 7        42.438                                    23079244.027 5  94505687.75605     -3088.182 5        30.332    23079245.294 5  94505653.76205     -3087.989 5        33.174
G29         8.000    20370390.222 8 107047209.17808      -272.262 8        48.141                                    20370388.685 7  83413595.42507      -212.154 7        45.111    20370390.324 7  83413397.44007      -212.135 7        42.362
E30         9.000    24547881.273 7 129000044.83807     -2363.763 7        45.701                                                                    24547885.427 7  96331242.42807     -1765.123 7        43.911    24547881.876 6  98844234.18206     -1811.121 6        41.352
E15        10.000    24708070.465 6 129841788.03806      1460.651 6        38.871                                                                    24708077.676 7  96959837.79807      1090.729 7        43.187    24708075.487 6  99489181.49706      1119.324 6        40.934
E34        12.000    24525023.557 7 128879886.65207     -1362.824 7        42.519                                                                    24525029.735 8  96241538.69408     -1017.740 8        48.542    24525028.832 8  98752167.72508     -1044.280 8        49.125
E19        14.000    26773804.538 4                     -1486.178 4        26.299                                                                    26773818.612 4 105066233.57304     -1110.190 4        25.474    26773815.941 5 107807080.88305     -1138.841 5        32.844
E27        15.000    23642015.221 7 124239674.22507        52.943 7        44.522                                                                    23642018.822 8  92776402.51208        39.511 8        49.403    23642018.019 8  95196768.07008        40.579 8        49.492
R17        17.000    19878815.372 7 106375599.60307      1680.032 7        45.789                                                                    19878820.818 6  82736579.74306      1306.699 6        39.477
E36        19.000                                                                                                                                                                                                    27910361.486 3                     -2727.109 3        21.976
R15        20.000    19482077.543 7 104106612.67707       837.798 7        43.490                                                                    19482082.187 7  80971864.94807       651.680 7        42.836
R24        21.000    19728363.325 7 105496428.36907     -2684.527 7        46.386                                                                    19728363.558 6  82052817.12506     -2087.988 6        41.704
E21        22.000    27225197.518 5 143069416.24805      1640.677 5        33.784                                                                    27225218.460 5 106837651.80105      1225.272 5        33.683    27225209.545 5 109624685.53205      1257.558 5        34.624
S36        23.000    38179548.355 6 200634712.88706      -853.469 6        36.416
S23        24.000    38127114.994 6 200359297.18906      -858.112 6        36.367
G26        25.000    23775949.295 5 124943475.90105      2455.650 5        34.352                                    23775951.372 1  97358545.69201      1913.458 1        11.259    23775987.213 5  97358665.85705      1913.654 5        34.324
E29        26.000    27249675.864 5 143198019.64805     -3201.887 5        34.543                                                                                                                                    27249691.484 5 109723207.51805     -2453.179 5        30.332
C34        28.000                                                                                                                                    21380266.066 7 111333108.01807      -372.354 7        46.710                                                                    21380267.823 7  90467039.36407      -302.606 7        43.501
R23        31.000    24134302.909 3                     -5215.227 3        20.667
R16        33.000    23282378.207 6 124370307.24506      3131.949 6        39.658                                                                    23282397.232 4  96732496.19504      2436.175 4        25.564
C24        34.000                                                                                                                                    23937185.412 7 124647227.10007     -3822.262 7        44.397                                                                    23937185.744 6 101286051.52206     -3105.812 6        40.250
R14        35.000    19965254.009 6 106426055.69906     -3087.836 6        41.616                                                                    19965257.035 6  82775932.60006     -2401.617 6        39.177
R06        37.000    23878422.417 4                     -2764.734 4        24.602
S21        38.000    38407214.185 5 201831269.67205      -853.897 5        35.043
C44        39.000                                                                                                                                    23386861.634 7 121781678.62707     -3335.267 7        46.469                                                                    23386861.382 5  98957540.83505     -2710.238 5        33.509
R07        40.000    23835197.434 5 127591961.02615       155.679 5        30.943
C25        41.000                                                                                                                                    21415459.881 8 111515928.25808     -1268.749 8        52.196                                                                    21415461.971 8  90615893.40508     -1030.933 8        51.020
C12        43.000                                                                                                                                    22184079.169 7 115518353.94007     -2130.150 7        47.227    22184077.715 8  89326187.47408     -1647.106 8        50.717    22184075.693 7  93868096.29107     -1730.863 7        42.400
C11        44.000                                                                                                                                    22270905.924 7 115970425.04107      1101.527 7        45.261    22270903.592 7  89675747.50707       851.902 7        46.533    22270903.909 6  94235532.79306       895.083 6        41.189
C38        49.000                                                                                                                                    39172226.278 4                       309.894 4        27.892                                                                    39172228.985 4                       252.046 4        29.858
C23        55.000                                                                                                                                    23894000.517 7 124422720.86107      1610.004 7        46.267                                                                    23893994.557 6 101103585.94606      1308.288 6        40.620
I02        57.000    37651389.619 5 147752197.53205     -1028.512 5        33.228
I06        58.000    38637718.448 5 151622725.12705      -695.478 5        31.985
> 2025 01 01 15 30 10.0000000  0 36
G18         1.000    24011581.446 7 126181719.39207      2869.177 7        44.614                                    24011586.226 4  98323499.55504      2235.715 4        24.226    24011589.365 5  98323516.58305      2235.840 5        35.038
G25         3.000    20190723.081 7 106103318.42707     -2312.952 7        47.747                                    20190794.194 2  82677856.47602     -1802.290 2        15.857    20190723.538 6  82677710.79506     -1802.343 6        40.215
G11         4.000                                                                                                                                                                    23327000.528 5  95520246.38405     -2578.482 5        32.150
G31         5.000    22201597.871 7 116670259.09007      1118.916 7        46.729                                    22201598.700 6  90911960.99506       871.880 6        36.722    22201598.962 6  90912133.00206       872.156 6        37.297
G28         6.000    21278631.726 7 111819987.15207      -576.308 7        45.710                                    21278632.175 5  87132466.38405      -449.072 5        33.904    21278633.790 7  87132468.37007      -449.072 7        46.006
G12         7.000    23083015.644 7 121302153.70807     -3964.215 7        42.819                                    23083015.148 5  94521130.26905     -3088.994 5        30.174    23083016.597 5  94521096.27105     -3088.992 5        32.725
G29         8.000    20370650.343 8 107048576.22508      -274.708 8        48.205                                    20370648.943 7  83414660.68307      -214.060 7        45.673    20370650.251 7  83414462.70007      -214.015 7        43.014
E30         9.000    24550130.836 7 129011865.33907     -2364.709 7        45.592                                                                    24550134.782 7  96340069.44207     -1765.931 7        44.256    24550131.232 6  98853291.46306     -1811.956 6        41.495
E15        10.000    24706681.089 6 129834488.41706      1459.137 6        38.901                                                                    24706688.558 7  96954386.81907      1089.496 7        43.340    24706686.402 6  99483588.30906      1117.806 6        40.532
E34        12.000    24526322.015 7 128886706.60907     -1365.248 7        42.959                                                                    24526327.498 8  96246631.54508     -1019.544 8        48.565    24526326.470 8  98757393.42608     -1046.126 8        48.863
E19        14.000    26775218.380 4                     -1488.603 4        24.812                                                                    26775238.486 4 105071786.85504     -1111.211 4        27.593    26775230.740 5 107812779.20405     -1140.807 5        32.677
E27        15.000    23641965.302 7 124239411.76307        51.853 7        44.754                                                                    23641968.836 8  92776206.53708        38.714 8        49.428    23641968.044 8  95196566.97808        39.761 8        49.634
R17        17.000    19877246.930 7 106367207.81307      1676.629 7        45.774                                                                    19877252.600 6  82730052.85406      1303.970 6        39.649
E36        19.000                                                                                                                                                                                                    27913750.757 3                     -2725.700 3        20.762
R15        20.000    19481295.447 7 104102430.08407       834.992 7        42.440                                                                    19481300.263 7  80968611.83007       649.411 7        43.522
R24        21.000    19730873.990 7 105509859.26007     -2688.055 7        45.407                                                                    19730875.603 7  82063263.40007     -2090.584 7        42.409
E21        22.000    27223634.168 5 143061212.10605      1641.012 5        34.929                                                                    27223657.176 5 106831525.47405      1225.052 5        32.000    27223647.831 5 109618399.38205      1257.129 5        34.609
S36        23.000    38180359.928 6 200638979.84306      -853.563 6        36.325
S23        24.000    38127928.731 6 200363587.10006      -857.922 6        36.272
G26        25.000    23773610.425 5 124931197.71605      2455.160 5        31.970                                    23773615.021 1  97348978.44201      1913.146 1         9.048    23773652.278 5  97349098.55905      1913.170 5        33.725
E29        26.000    27252722.729 5 143214030.98105     -3202.813 5        34.767                                                                    27252744.172 5 106945616.80715     -2391.609 5        31.479    27252738.624 5 109735475.90305     -2454.099 5        30.302
C34        28.000                                                                                                                                    21380624.045 7 111334975.12307      -374.707 7        46.909                                                                    21380626.395 7  90468556.54707      -304.465 7        43.154
R16        33.000    23279447.136 6 124354647.14006      3131.748 6        37.766
C24        34.000                                                                                                                                    23940855.399 7 124666340.60407     -3823.303 7        44.828                                                                    23940856.377 6 101301582.80206     -3106.684 6        40.000
R14        35.000    19968151.234 6 106441502.00806     -3090.798 6        40.241                                                                    19968154.668 6  82787946.42006     -2403.979 6        38.733
R06        37.000    23881012.591 3                     -2769.141 3        22.438
S21        38.000    38408028.123 5 201835539.06905      -853.913 5        34.752
C44        39.000                                                                                                                                    23390064.729 7 121798357.77707     -3336.554 7        46.023                                                                    23390063.745 5  98971094.00505     -2711.003 5        33.395
R07        40.000    23835049.411 5 127591192.28315       151.387 5        30.438                                                                    23835022.835 3                       117.293 3        23.467
C25        41.000                                                                                                                                    21416679.130 8 111522277.57708     -1271.114 8        51.761                                                                    21416681.335 8  90621052.73508     -1032.837 8        51.109
C12        43.000                                                                                                                                    22186125.797 7 115529009.29007     -2132.223 7        46.985    22186123.874 8  89334426.88808     -1648.826 8        49.959    22186121.919 7  93876754.64007     -1732.598 7        42.626
C11        44.000                                                                                                                                    22269850.181 7 115964921.44307      1099.617 7        44.445    22269845.706 7  89671491.83007       850.317 7        45.348    22269848.743 7  94231060.69907       893.547 7        42.112
C38        49.000                                                                                                                                    39171929.559 4                       308.911 4        26.910                                                                    39171930.344 4                       251.051 4        29.848
C23        55.000                                                                                                                                    23892454.798 7 124414673.25507      1608.810 7        46.557                                                                    23892448.652 6 101097046.63106      1307.199 6        39.898
I02        57.000    37652700.927 5 147757340.32805     -1028.796 5        33.964
I06        58.000    38638603.397 5 151626201.51805      -695.207 5        31.962
> 2025 01 01 15 30 15.0000000  0 36
G18         1.000    24008851.950 7 126167374.21907      2868.511 7        43.748                                    24008856.319 4  98312321.56504      2235.198 4        24.180    24008860.191 5  98312338.59205      2235.206 5        34.952
G25         3.000    20192924.299 7 106114887.91307     -2315.322 7        47.522                                    20192996.003 3  82686871.65303     -1804.149 3        18.209    20192925.128 6  82686725.97506     -1804.001 6        40.632
G11         4.000    23330158.519 5 122600781.44615     -3311.685 5        34.467                                                                                                    23330149.770 5  95533142.61205     -2580.255 5        33.269
G31         5.000    22200534.866 7 116664670.63007      1116.005 7        46.942                                    22200535.102 6  90907606.36406       869.609 6        36.597    22200535.230 6  90907778.40506       869.243 6        36.348
G28         6.000    21279181.834 7 111822876.64107      -579.834 7        46.093                                    21279182.109 5  87134717.94505      -451.821 5        34.000    21279183.189 7  87134719.92907      -451.791 7        46.268
G12         7.000    23086787.387 7 121321976.35107     -3965.268 7        42.326                                    23086787.413 5  94536576.48205     -3089.816 5        30.015    23086789.292 5  94536542.48105     -3090.096 5        33.838
G29         8.000    20370912.836 8 107049954.72908      -277.139 8        48.494                                    20370911.391 7  83415734.87607      -215.958 7        46.129    20370912.326 7  83415536.88707      -215.850 7        43.611
E30         9.000    24552381.272 7 129023690.80207     -2365.897 7        45.682                                                                    24552385.022 7  96348900.14907     -1766.795 7        44.296    24552381.536 6  98862352.54006     -1812.924 6        41.878
E15        10.000    24705293.779 6 129827197.12006      1457.076 6        38.345                                                                    24705301.041 7  96948942.03807      1088.037 7        43.137    24705299.017 6  99478001.47006      1116.453 6        40.772
E34        12.000    24527622.059 7 128893538.33507     -1367.814 7        43.573                                                                    24527627.474 8  96251733.18308     -1021.445 8        48.447    24527626.379 8  98762628.14608     -1048.087 8        48.670
E19        14.000    26776636.108 4                     -1490.224 4        24.165                                                                    26776663.926 5 105077348.46305     -1113.404 5        30.045    26776648.112 5 107818485.98205     -1142.304 5        32.491
E27        15.000    23641916.966 7 124239154.36007        50.674 7        45.160                                                                    23641919.763 8  92776014.33608        37.845 8        49.211    23641919.084 8  95196369.77008        38.824 8        49.895
R17        17.000    19875681.347 7 106358832.63107      1673.064 7        45.291                                                                    19875687.345 6  82723538.86206      1301.194 6        39.222
E36        19.000                                                                                                                                                                                                    27917141.897 3                     -2729.984 3        21.238
R15        20.000    19480516.489 7 104098261.40207       832.037 7        42.425                                                                    19480519.829 7  80965369.53907       647.174 7        43.568
R24        21.000    19733388.279 7 105523307.33407     -2691.624 7        46.406                                                                    19733390.756 7  82073723.03007     -2093.422 7        42.118
E21        22.000    27222073.878 6 143053008.01006      1640.630 6        36.507                                                                    27222095.519 4 106825399.15104      1225.116 4        29.630    27222086.760 5 109612113.24205      1257.034 5        34.995
S36        23.000    38181173.978 6 200643246.42206      -853.802 6        36.223
S23        24.000    38128743.157 6 200367876.37306      -858.359 6        36.450
G26        25.000    23771274.077 4 124918921.69304      2454.718 4        27.497                                    23771279.300 1  97339412.83201      1912.714 1         8.381    23771315.669 5  97339532.97305      1912.600 5        33.323
E29        26.000    27255770.940 5 143230047.35605     -3204.231 5        34.738                                                                    27255791.453 5 106957577.04705     -2392.803 5        32.737    27255785.925 4 109747748.12604     -2455.073 4        29.953
C34        28.000                                                                                                                                    21380984.217 7 111336853.78907      -377.140 7        46.689                                                                    21380986.784 7  90470083.14307      -306.332 7        42.614
R16        33.000    23276516.160 6 124338987.31306      3131.627 6        36.087
C24        34.000                                                                                                                                    23944526.324 7 124685459.27707     -3824.567 7        45.266                                                                    23944527.958 6 101317118.28406     -3107.663 6        39.841
R14        35.000    19971050.670 6 106456962.64506     -3093.832 6        36.703                                                                    19971055.999 6  82799971.38406     -2406.325 6        39.114
R06        37.000    23883603.668 3                     -2772.099 3        20.857
S21        38.000    38408838.274 5 201839808.05505      -854.155 5        35.214
C44        39.000                                                                                                                                    23393268.848 7 121815042.88107     -3337.926 7        45.816                                                                    23393267.963 5  98984652.07305     -2712.362 5        33.521
R07        40.000    23834907.468 4 127590442.53704       148.320 4        29.251                                                                    23834881.863 3                       114.755 3        21.905
C25        41.000                                                                                                                                    21417900.816 8 111528638.64408     -1273.696 8        51.728                                                                    21417902.927 8  90626221.64208     -1034.899 8        50.964
C12        43.000                                                                                                                                    22188172.975 7 115539674.93107     -2134.436 7        46.851    22188172.045 8  89342674.23308     -1650.513 8        49.148    22188169.918 7  93885421.35507     -1734.267 7        42.461
C11        44.000                                                                                                                                    22268795.898 7 115959427.73307      1097.484 7        43.518    22268791.120 7  89667243.78107       848.590 7        44.837    22268794.621 7  94226596.64507       891.892 7        42.383
C38        49.000                                                                                                                                    39171631.857 4                       308.441 4        24.376                                                                    39171634.362 4                       250.379 4        29.261
C23        55.000                                                                                                                                    23890910.428 7 124406631.86607      1607.328 7        46.985                                                                    23890904.031 6 101090512.39406      1306.127 6        38.637
I02        57.000    37654010.634 5 147762483.16405     -1028.868 5        34.262
I06        58.000    38639490.045 5 151629677.38405      -695.011 5        32.192
> 2025 01 01 15 30 20.0000000  0 37
G18         1.000    24006123.327 7 126153032.51807      2868.131 7        42.859                                    24006126.898 4  98301146.28304      2234.890 4        24.150    24006130.332 5  98301163.28605      2235.115 5        35.381
G25         3.000    20195128.036 7 106126469.03807     -2317.246 7        47.474                                    20195200.844 2  82695895.87002     -1805.601 2        16.226    20195129.345 6  82695750.24506     -1805.599 6        41.499
G11         4.000    23333307.547 6 122617343.63406     -3313.373 6        36.132                                    23333311.204 1  95546011.15611     -2581.706 1         7.125    23333303.395 5  95546048.16505     -2581.956 5        34.176
G31         5.000    22199474.044 7 116659096.48307      1113.587 7        46.940                                    22199474.201 6  90903262.88806       867.723 6        36.310    22199474.924 5  90903434.90005       867.708 5        35.814
G28         6.000    21279734.833 7 111825783.27007      -582.843 7        46.331                                    21279735.257 5  87136982.85905      -454.163 5        33.964    21279736.351 7  87136984.84707      -454.126 7        46.316
G12         7.000    23090559.850 6 121341804.47106     -3966.048 6        41.409                                    23090560.841 4  94552026.95504     -3090.429 4        29.403    23090563.013 5  94551992.95405     -3090.436 5        35.048
G29         8.000    20371177.797 8 107051345.41708      -279.142 8        49.332                                    20371176.178 7  83416818.56207      -217.522 7        46.436    20371176.629 7  83416620.58007      -217.427 7        43.852
E30         9.000    24554632.871 7 129035521.91607     -2366.557 7        46.073                                                                    24554636.501 7  96357735.08707     -1767.280 7        44.456    24554632.959 7  98871417.94607     -1813.286 7        42.161
E15        10.000    24703907.529 6 129819914.82206      1455.846 6        37.108                                                                    24703914.957 7  96943504.00107      1087.031 7        42.665    24703913.270 6  99472421.55206      1115.437 6        40.744
E34        12.000    24528924.283 7 128900382.53807     -1369.895 7        43.354                                                                    24528929.759 8  96256844.13908     -1023.016 8        48.411    24528928.678 8  98767872.42408     -1049.654 8        48.477
E19        14.000    26778059.994 4                     -1492.838 4        28.000                                                                    26778087.180 5 105082918.88905     -1115.005 5        31.834    26778068.066 5 107824201.80205     -1144.157 5        32.635
E27        15.000    23641869.924 7 124238902.72907        49.935 7        45.664                                                                    23641871.834 8  92775826.45408        37.310 8        49.212    23641871.156 8  95196176.98408        38.263 8        50.025
R17        17.000    19874119.527 7 106350474.75507      1670.005 7        45.204                                                                    19874124.137 6  82717038.31906      1298.855 6        38.132
E36        19.000                                                                                                                                                                                                    27920536.207 3                     -2726.719 3        19.642
R15        20.000    19479738.168 6 104094107.37906       829.578 6        41.547                                                                    19479742.480 7  80962138.64807       645.204 7        44.366
R24        21.000    19735906.893 7 105536773.63507     -2694.857 7        47.626                                                                    19735908.303 7  82084196.85507     -2096.072 7        42.866
E21        22.000    27220514.377 6 143044804.66806      1640.944 6        37.713                                                                    27220533.532 4 106819273.31704      1225.221 4        27.281    27220525.798 5 109605827.69205      1257.063 5        34.705
S36        23.000    38181985.716 6 200647513.59506      -853.206 6        36.076
S23        24.000    38129564.603 6 200372165.66106      -857.804 6        36.287
G26        25.000    23768934.750 3                      2454.870 3        20.143                                                                                                    23768979.823 5  97329969.58005      1912.550 5        32.844
E29        26.000    27258820.828 5 143246069.35405     -3204.573 5        34.933                                                                    27258840.653 5 106969541.47305     -2392.906 5        33.629    27258834.803 4 109760024.66204     -2455.536 4        29.924
C34        28.000                                                                                                                                    21381347.247 7 111338744.71007      -379.270 7        46.171                                                                    21381349.687 7  90471619.69507      -308.323 7        42.184
R23        31.000    24148945.944 3                     -5217.606 3        20.333
R16        33.000    23273587.180 6 124323328.74516      3131.863 6        37.467                                                                    23273614.495 5                      2435.638 5        32.168
C24        34.000                                                                                                                                    23948198.585 7 124704583.81207     -3825.308 7        45.254                                                                    23948200.808 6 101332658.54506     -3108.521 6        39.934
R14        35.000    19973954.991 5 106472438.27905     -3096.403 5        35.490                                                                    19973959.560 6  82812008.03106     -2408.417 6        39.523
R06        37.000    23886196.968 3                     -2775.741 3        19.731
S21        38.000    38409654.300 5 201844077.22205      -853.536 5        34.667
C44        39.000                                                                                                                                    23396474.656 7 121831734.63907     -3338.813 7        45.567                                                                    23396473.352 5  98998215.53905     -2713.264 5        33.772
R07        40.000                                                                                                                                    23834749.981 3                       114.983 3        19.642
C25        41.000                                                                                                                                    21419124.922 8 111535012.16008     -1275.750 8        51.635                                                                    21419126.766 8  90631400.68108     -1036.842 8        50.957
C12        43.000                                                                                                                                    22190222.611 7 115550351.53007     -2136.247 7        46.820    22190222.465 8  89350930.06608     -1651.883 8        48.334    22190219.966 7  93894096.99207     -1736.018 7        42.489
C11        44.000                                                                                                                                    22267742.166 6 115953944.57806      1095.689 6        41.402    22267739.618 7  89663003.87407       847.295 7        45.082    22267740.848 7  94222141.14207       890.143 7        42.800
C38        49.000                                                                                                                                    39171334.275 3                       307.714 3        22.724                                                                    39171338.328 4                       249.536 4        29.867
C23        55.000                                                                                                                                    23889367.831 7 124398597.38607      1606.373 7        47.307                                                                    23889361.006 6 101083983.76006      1305.161 6        37.898
I02        57.000    37655322.361 5 147767626.91005     -1028.864 5        35.081
I06        58.000    38640375.459 5 151633153.18305      -694.828 5        31.879
> 2025 01 01 15 30 25.0000000  0 34
G18         1.000    24003395.107 7 126138694.02407      2867.209 7        42.358                                    24003398.457 4  98289973.48304      2234.173 4        24.120    24003401.784 5  98289990.53305      2234.013 5        35.581
G25         3.000    20197334.170 7 106138061.58807     -2319.812 7        47.744                                    20197408.015 1  82704928.81601     -1807.582 1        10.815    20197334.902 6  82704783.39406     -1807.609 6        41.819
G11         4.000    23336459.102 6 122633917.44406     -3316.401 6        36.004                                    23336464.127 1  95558925.90101     -2584.162 1         7.625    23336458.689 5  95558962.84605     -2584.126 5        34.200
G31         5.000    22198415.572 7 116653536.38907      1110.370 7        46.910                                    22198415.960 6  90898930.36706       865.220 6        36.053    22198416.735 5  90899102.37905       865.221 5        34.705
G28         6.000    21280291.100 7 111828706.79607      -586.589 7        45.744                                    21280291.715 5  87139260.94905      -457.087 5        34.071    21280292.373 7  87139262.94307      -457.169 7        45.783
G12         7.000    23094333.718 6 121361637.78606     -3967.295 6        40.033                                    23094335.427 4  94567481.47604     -3091.408 4        29.090    23094336.139 6  94567447.49406     -3091.397 6        36.344
G29         8.000    20371444.820 8 107052748.04508      -281.917 8        50.276                                    20371443.183 7  83417911.55307      -219.681 7        46.860    20371443.211 7  83417713.56107      -219.695 7        43.613
E30         9.000    24556885.234 7 129047358.44807     -2368.082 7        46.092                                                                    24556888.890 7  96366574.07507     -1768.396 7        44.677    24556885.434 7  98880487.52507     -1814.618 7        42.584
E15        10.000    24702523.108 5 129812641.35105      1453.664 5        34.990                                                                    24702530.328 7  96938072.51007      1085.409 7        42.089    24702529.102 6  99466848.35806      1113.929 6        41.058
E34        12.000    24530229.010 7 128907238.97407     -1372.737 7        43.357                                                                    24530234.475 8  96261964.22808     -1025.133 8        48.325    24530233.306 8  98773126.07608     -1051.876 8        48.316
E19        14.000    26779483.870 4                     -1495.254 4        28.948                                                                    26779507.197 5 105088498.00505     -1116.619 5        32.916    26779490.267 5 107829926.44105     -1145.967 5        32.928
E27        15.000    23641823.216 7 124238656.61907        48.426 7        45.639                                                                    23641825.066 8  92775642.68108        36.163 8        49.451    23641824.303 8  95195988.41408        37.068 8        50.227
R17        17.000    19872561.373 7 106342134.14807      1666.289 7        45.705                                                                    19872565.516 6  82710551.17906      1296.153 6        36.839
R15        20.000    19478964.586 6 104089967.62106       826.223 6        41.018                                                                    19478967.545 7  80958918.82807       642.651 7        45.177
R24        21.000    19738429.156 8 105550257.52508     -2698.822 8        48.601                                                                    19738430.269 7  82094684.32907     -2099.141 7        42.908
E21        22.000    27218952.660 6 143036601.85006      1640.280 6        37.985                                                                    27218966.361 4 106813147.86304      1224.506 4        27.329    27218964.802 5 109599542.51505      1257.026 5        35.143
S36        23.000    38182795.710 5 200651780.13605      -853.371 5        35.776
S23        24.000    38130380.410 6 200376455.00706      -857.965 6        36.163
G26        25.000                                                                                                                                                                    23766643.676 5  97320408.33405      1912.162 5        32.180
E29        26.000    27261871.995 5 143262096.83005     -3206.477 5        35.319                                                                    27261890.493 5 106981510.00805     -2394.388 5        34.000    27261884.835 5 109772305.40905     -2456.728 5        30.151
C34        28.000                                                                                                                                    21381712.855 7 111340647.63407      -381.948 7        45.625                                                                    21381714.779 6  90473165.99206      -310.485 6        41.523
R16        33.000    23270657.526 6 124307671.03706      3131.166 6        39.583                                                                    23270676.111 5                      2435.373 5        34.410
C24        34.000                                                                                                                                    23951871.931 7 124723713.95507     -3826.793 7        45.022                                                                    23951874.556 6 101348203.34306     -3109.615 6        40.048
R14        35.000    19976861.751 6 106487928.46506     -3099.790 6        38.931                                                                    19976864.875 6  82824055.96506     -2410.959 6        40.195
S21        38.000    38410462.484 5 201848346.65005      -854.350 5        34.305
C44        39.000                                                                                                                                    23399681.414 7 121848432.79807     -3340.449 7        45.648                                                                    23399680.063 5  99011784.15705     -2714.328 5        34.100
R07        40.000    23834610.591 5 127589002.84705       139.689 5        30.234                                                                    23834613.302 3                       111.802 3        20.762
C25        41.000                                                                                                                                    21420351.024 8 111541397.89708     -1278.648 8        51.455                                                                    21420353.004 8  90636589.62008     -1038.980 8        50.822
C12        43.000                                                                                                                                    22192275.672 7 115561038.85507     -2138.814 7        46.832    22192274.892 7  89359194.19407     -1653.900 7        47.558    22192272.153 7  93902781.31507     -1737.942 7        42.381
C11        44.000                                                                                                                                    22266688.625 6 115948471.73306      1093.297 6        38.919    22266689.546 7  89658771.93507       845.359 7        46.085    22266688.958 7  94217693.98207       888.372 7        43.086
C38        49.000                                                                                                                                    39171038.410 3                       309.330 3        20.976                                                                    39171043.970 4                       248.586 4        29.630
C23        55.000                                                                                                                                    23887826.459 7 124390569.59207      1604.679 7        47.646                                                                    23887819.207 6 101077460.54406      1303.953 6        37.127
I02        57.000    37656633.510 5 147772771.06305     -1029.119 5        35.352
I06        58.000    38641261.071 5 151636628.72705      -694.970 5        31.970
> 2025 01 01 15 30 30.0000000  0 34
G18         1.000    24000667.085 7 126124359.21507      2866.472 7        42.353                                    24000670.651 3  98278803.56603      2233.608 3        23.752    24000674.881 6  98278820.58306      2233.764 6        36.219
G25         3.000    20199542.554 8 106149665.98508     -2322.126 8        48.009                                    20199616.411 1  82713970.99101     -1809.478 1        11.630    20199543.726 7  82713825.78207     -1809.506 7        42.440
G11         4.000    23339610.410 6 122650503.35406     -3319.062 6        36.594                                    23339619.138 1  95571849.94301     -2586.202 1         6.250    23339612.766 5  95571886.85805     -2586.026 5        34.529
G31         5.000    22197360.599 7 116647990.82207      1107.537 7        47.172                                    22197360.483 5  90894609.16005       863.010 5        35.724    22197362.377 5  90894781.15305       863.414 5        33.868
G28         6.000    21280850.523 7 111831647.65707      -589.973 7        45.944                                    21280851.432 5  87141552.53805      -459.718 5        34.238    21280851.896 7  87141554.52807      -459.783 7        45.833
G12         7.000    23098108.687 6 121381476.68806     -3968.429 6        39.414                                    23098111.274 4  94582940.36304     -3092.282 4        28.815    23098111.994 6  94582906.37806     -3092.055 6        36.941
G29         8.000    20371713.700 8 107054163.01208      -284.315 8        50.502                                    20371712.465 7  83419014.15407      -221.551 7        47.262    20371712.308 7  83418816.16007      -221.518 7        44.008
E30         9.000    24559138.813 7 129059200.81607     -2369.100 7        45.914                                                                    24559142.275 7  96375417.41107     -1769.130 7        44.603    24559138.925 7  98889561.55307     -1815.344 7        42.679
E15        10.000    24701140.976 5 129805377.06205      1451.766 5        33.976                                                                    24701147.490 6  96932647.90306      1084.184 6        41.104    24701146.838 6  99461282.23306      1112.488 6        41.344
E34        12.000    24531536.363 7 128914108.07207     -1375.184 7        43.414                                                                    24531541.576 8  96267093.77108     -1026.914 8        48.070    24531540.333 8  98778389.42108     -1053.673 8        48.198
E19        14.000    26780908.583 5                     -1497.675 5        30.166                                                                    26780928.232 5 105094086.08905     -1118.447 5        33.713    26780914.772 5 107835660.27605     -1147.528 5        33.401
E27        15.000    23641776.462 7 124238416.46307        47.386 7        45.309                                                                    23641779.408 8  92775463.35508        35.365 8        49.397    23641778.461 8  95195804.40808        36.306 8        50.273
R17        17.000    19871007.072 7 106333811.04207      1662.784 7        46.744                                                                    19871009.824 6  82704077.68806      1293.185 6        37.013
R15        20.000    19478193.867 6 104085842.60706       823.373 6        41.600                                                                    19478195.510 7  80955710.48007       640.433 7        45.716
R24        21.000    19740955.085 8 105563759.69208     -2702.376 8        49.891                                                                    19740955.499 7  82105186.02307     -2101.924 7        43.101
E21        22.000    27217389.752 6 143028399.96606      1639.969 6        38.156                                                                    27217404.363 4 106807023.16404      1225.212 4        28.730    27217404.249 5 109593258.07105      1256.687 5        35.133
