     3.04           OBSERVATION DATA    M                   RINEX VERSION / TYPE
ssrcrin-15.6.1x                         20250101 071500 UTC PGM / RUN BY / DATE 
(00000000023479385599111004) Septentrio proprietary         COMMENT             
ract                                                        MARKER NAME         
01                                                          MARKER NUMBER       
geodetic                                                    MARKER TYPE         
NFB                 CLIMERS@TUW                             OBSERVER / AGENCY   
3296359             SEPT ASTERX SB3 PROB4.14.4              REC # / TYPE / VERS 
Unknown             Unknown                                 ANT # / TYPE        
  4127446.4194  1206915.0083  4695543.5874                  APPROX POSITION XYZ 
        0.0000        0.0000        0.0000                  ANTENNA: DELTA H/E/N
G   23 X1  C1C L1C D1C S1C C1W S1W C2W L2W D2W S2W C2L L2L  SYS / # / OBS TYPES 
       D2L S2L C5Q L5Q D5Q S5Q C1L L1L D1L S1L              SYS / # / OBS TYPES 
E   21 X1  C1C L1C D1C S1C C6C L6C D6C S6C C5Q L5Q D5Q S5Q  SYS / # / OBS TYPES 
       C7Q L7Q D7Q S7Q C8Q L8Q D8Q S8Q                      SYS / # / OBS TYPES 
S    9 X1  C1C L1C D1C S1C C5I L5I D5I S5I                  SYS / # / OBS TYPES 
R   17 X1  C1C L1C D1C S1C C2P L2P D2P S2P C2C L2C D2C S2C  SYS / # / OBS TYPES 
       C3Q L3Q D3Q S3Q                                      SYS / # / OBS TYPES 
C   25 X1  C1P L1P D1P S1P C5P L5P D5P S5P C2I L2I D2I S2I  SYS / # / OBS TYPES 
       C7I L7I D7I S7I C6I L6I D6I S6I C7D L7D D7D S7D      SYS / # / OBS TYPES 
J   17 X1  C1C L1C D1C S1C C2L L2L D2L S2L C5Q L5Q D5Q S5Q  SYS / # / OBS TYPES 
       C1L L1L D1L S1L                                      SYS / # / OBS TYPES 
I    5 X1  C5A L5A D5A S5A                                  SYS / # / OBS TYPES 
SEPTENTRIO RECEIVERS OUTPUT ALIGNED CARRIER PHASES.         COMMENT             
NO FURTHER PHASE SHIFT APPLIED IN THE RINEX ENCODER.        COMMENT             
G L1C                                                       SYS / PHASE SHIFT   
G L2W                                                       SYS / PHASE SHIFT   
G L2L  0.00000                                              SYS / PHASE SHIFT   
G L5Q  0.00000                                              SYS / PHASE SHIFT   
G L1L  0.00000                                              SYS / PHASE SHIFT   
E L1C  0.00000                                              SYS / PHASE SHIFT   
E L6C  0.00000                                              SYS / PHASE SHIFT   
E L5Q  0.00000                                              SYS / PHASE SHIFT   
E L7Q  0.00000                                              SYS / PHASE SHIFT   
E L8Q  0.00000                                              SYS / PHASE SHIFT   
S L1C                                                       SYS / PHASE SHIFT   
S L5I                                                       SYS / PHASE SHIFT   
R L1C                                                       SYS / PHASE SHIFT   
R L2P  0.00000                                              SYS / PHASE SHIFT   
R L2C                                                       SYS / PHASE SHIFT   
R L3Q  0.00000                                              SYS / PHASE SHIFT   
C L1P  0.00000                                              SYS / PHASE SHIFT   
C L5P  0.00000                                              SYS / PHASE SHIFT   
C L2I                                                       SYS / PHASE SHIFT   
C L7I                                                       SYS / PHASE SHIFT   
C L6I                                                       SYS / PHASE SHIFT   
C L7D                                                       SYS / PHASE SHIFT   
J L1C                                                       SYS / PHASE SHIFT   
J L2L  0.00000                                              SYS / PHASE SHIFT   
J L5Q  0.00000                                              SYS / PHASE SHIFT   
J L1L  0.00000                                              SYS / PHASE SHIFT   
I L5A                                                       SYS / PHASE SHIFT   
  2025     1     1     7    15    0.0000000     GPS         TIME OF FIRST OBS   
 C1C    0.000 C2C    0.000 C2P    0.000                     GLONASS COD/PHS/BIS 
DBHZ                                                        SIGNAL STRENGTH UNIT
    18                                                      LEAP SECONDS        
 24 R01  1 R02 -4 R03  5 R04  6 R05  1 R06 -4 R07  5 R08  6 GLONASS SLOT / FRQ #
    R09 -2 R10 -7 R11  0 R12 -1 R13 -2 R14 -7 R15  0 R16 -1 GLONASS SLOT / FRQ #
    R17  4 R18 -3 R19  3 R20  2 R21  4 R22 -3 R23  3 R24  2 GLONASS SLOT / FRQ #
                                                            END OF HEADER       
> 2025 01 01 07 15  0.0000000  0 34
G18         1.000    25179548.049 5 132319423.73705       276.054 5        35.524                                    25179539.232 1 103106006.14301       215.040 1         5.286    25179540.824 4                       215.324 4        26.455
G13         2.000    21476162.936 6 112858139.83606      1673.385 6        37.985                                    21476156.342 2  87941340.87302      1303.923 2        16.075
G30         3.000    20496484.251 7 107709741.55507     -1308.257 7        43.528                                    20496484.852 7  83929618.47707     -1019.417 7        42.336    20496484.861 7  83929654.48407     -1019.402 7        43.342
G14         4.000    21975990.745 7 115484607.96907      1964.363 7        43.772                                    21975989.110 4  89987927.36204      1530.667 4        24.165    21975988.330 6  89988042.39706      1530.698 6        38.646
G07         5.000    22221004.349 7 116772359.02207     -3002.742 7        47.965                                    22221003.850 7  90991369.08007     -2339.794 7        42.817    22221003.740 7  90991242.05807     -2339.800 7        42.561
G05         7.000    21138467.374 6 111083383.14706      -179.807 6        41.220                                    21138461.558 5  86558498.99505      -140.109 5        30.604    21138462.792 6  86558512.01906      -140.032 6        38.333
G20        10.000    21220177.467 7 111512772.37007     -2661.656 7        43.007                                    21220174.557 3  86893029.62803     -2074.013 3        20.810
E25        14.000    24923127.238 6 130971887.54006      1505.600 6        39.060                                                                    24923129.038 7  97803802.02307      1124.225 7        46.588    24923126.457 7 100355130.72607      1153.552 7        42.779
E24        15.000    25149955.804 7 132163945.40707     -1199.867 7        43.835                                                                    25149959.018 6  98693815.72306      -896.093 6        41.197    25149959.233 7 101268552.26107      -919.473 7        45.539
E15        16.000                                                                                                                                    27002297.376 5 105962790.98905     -2476.264 5        35.862    27002300.458 6 108727076.07306     -2540.677 6        37.399
E08        17.000    26893219.170 3 141324791.13403      1596.295 3        23.714                                                                    26893213.812 6 105534746.88606      1191.852 6        36.790    26893208.109 6 108287823.29006      1222.973 6        37.176
E05        21.000    22972158.160 5 120719416.47005     -2371.417 5        34.781                                                                    22972162.090 7  90147674.34307     -1770.876 7        43.067    22972162.309 7  92499357.06807     -1817.017 7        43.164
E13        22.000    26931961.811 5 141528359.95705     -1103.816 5        33.114                                                                    26931954.527 6 105686783.19206      -824.510 6        40.713    26931955.369 6 108443876.25406      -845.958 6        41.695
R07        23.000    23052616.590 4                     -4566.158 4        25.278                                                                    23052604.426 4                     -3551.042 4        26.527
S23        24.000    38186115.085 6 200669334.71106      -813.119 6        38.556
S36        25.000    38252140.828 5 201016318.83105      -815.130 5        33.072
E03        27.000    23537532.283 7 123690555.86107       -15.604 7        46.200                                                                    23537533.189 7  92366310.31007       -11.687 7        47.772    23537532.949 8  94775885.57708       -11.952 8        48.361
R11        28.000    19991284.476 8 106827423.95608      1768.923 8        51.227                                                                    19991285.905 7  83087980.42907      1375.792 7        45.123
R17        29.000                                                                                                                                    23434876.607 6  97537022.34006     -1723.907 6        37.516
R10        30.000    19803811.840 6 105565439.59106     -2573.934 6        40.703
R09        32.000    22830248.123 4                     -4829.813 4        26.000                                                                    22830289.322 5  94820801.03105     -3757.054 5        30.891
R08        35.000    19645751.499 8 105202435.64308     -2237.902 8        52.165                                                                    19645751.806 7  81823892.19907     -1740.582 7        44.199
C05        36.000                                                                                                                                                                                                    39340625.110 5 158408228.91805      -674.190 5        32.365
C26        37.000                                                                                                                                    25958331.839 5                      2532.386 5        33.934
R01        38.000    20267668.666 7 108342282.48307      1815.079 7        44.612                                                                    20267669.269 6  84266315.76206      1411.864 6        39.946
C42        41.000                                                                                                                                    25807165.121 5 134384560.13205      2285.592 5        33.084                                                                    25807152.336 4 109198523.95504      1857.242 4        28.057
C36        42.000                                                                                                                                    22420982.566 7 116751973.35907     -2350.124 7        47.592                                                                    22420988.969 7  94870534.80807     -1909.528 7        46.497
R02        43.000    24490314.953 3                      3121.960 3        23.314
C21        47.000                                                                                                                                    22319329.714 8 116222574.36508       439.644 8        49.084                                                                    22319333.773 5  94440353.70005       357.100 5        33.850
C45        49.000                                                                                                                                    22084329.980 7 114998841.84407       708.205 7        46.592                                                                    22084322.161 8  93445968.93008       575.591 8        49.902
C22        50.000                                                                                                                                    22290380.931 7 116071784.98507     -2684.549 7        44.531                                                                    22290377.388 7  94317812.60207     -2181.281 7        45.225
I02        53.000    38375127.192 6 150592239.16706       109.490 6        37.645
I09        56.000    39226441.004 5 153932931.13105     -1219.021 5        33.521
I06        60.000    38033742.711 5 149252448.18905      -651.097 5        31.208
> 2025 01 01 07 15  5.0000000  0 35
G18         1.000    25179286.035 5 132318051.00405       273.223 5        34.767                                    25179277.955 1 103104936.59401       212.938 1         6.375    25179281.541 4                       212.817 4        28.948
G13         2.000    21474573.380 6 112849775.63106      1672.307 6        39.967                                    21474564.342 2  87934823.34302      1303.076 2        15.429
G30         3.000    20497730.407 7 107716287.81807     -1310.234 7        42.705                                    20497730.672 6  83934719.45706     -1020.962 6        41.752    20497730.819 7  83934755.45207     -1020.974 7        43.274
G14         4.000    21974122.063 7 115474790.56107      1962.600 7        43.003                                    21974120.499 3  89980277.44403      1529.291 3        22.800    21974119.900 6  89980392.51106      1529.223 6        36.907
G07         5.000    22223861.670 7 116787375.08707     -3003.630 7        47.393                                    22223861.673 7  91003069.88907     -2340.487 7        42.108    22223860.718 7  91002942.87307     -2340.544 7        42.309
G05         7.000    21138637.179 6 111084290.74606      -183.103 6        41.852                                    21138634.439 5  86559206.20305      -142.684 5        32.269    21138637.117 6  86559219.22006      -142.594 6        40.072
G20        10.000    21222711.785 7 111526087.82107     -2664.505 7        43.615                                    21222707.771 3  86903405.28103     -2076.223 3        20.238
E25        14.000    24921693.907 6 130964363.59106      1504.158 6        37.660                                                                    24921697.277 7  97798183.51307      1123.156 7        46.816    24921694.694 7 100349365.64007      1152.446 7        42.136
E24        15.000    25151098.237 7 132169950.82207     -1202.217 7        43.278                                                                    25151102.136 6  98698300.26306      -897.622 6        41.866    25151101.867 7 101273153.79907      -921.151 7        45.383
E15        16.000                                                                                                                                    27005452.537 5 105975173.65005     -2476.930 5        34.962    27005456.741 6 108739781.75506     -2541.620 6        37.308
E08        17.000    26891693.977 4 141316810.12604      1596.182 4        26.359                                                                    26891693.559 6 105528787.08706      1192.099 6        36.333    26891689.112 6 108281708.04706      1223.040 6        36.798
E05        21.000    22974416.093 5 120731275.23605     -2372.156 5        35.395                                                                    22974418.514 7  90156529.89607     -1771.340 7        42.720    22974419.482 7  92508443.64107     -1817.560 7        42.817
E13        22.000    26933012.838 5 141533885.60905     -1106.339 5        32.413                                                                    26933005.933 6 105690909.51606      -826.110 6        40.529    26933006.668 6 108448110.22706      -847.715 6        41.747
R07        23.000    23056877.438 4                     -4565.434 4        24.376                                                                    23056862.784 4                     -3551.758 4        24.632
S23        24.000    38186891.819 6 200673399.62606      -813.010 6        38.841
S36        25.000    38252916.891 5 201020394.85405      -815.257 5        33.311
G11        26.000    25595402.729 3                     -4044.469 3        19.463
E03        27.000    23537547.074 7 123690636.02607       -16.486 7        45.694                                                                    23537548.536 7  92366370.15507       -12.247 7        47.781    23537548.380 8  94775946.99608       -12.639 8        48.341
R11        28.000    19989630.813 8 106818587.60908      1765.629 8        51.323                                                                    19989632.851 7  83081107.71307      1373.271 7        46.545
R17        29.000    23436937.439 5 125416026.44615     -2220.537 5        31.358                                                                    23436948.255 6  97545649.49906     -1726.887 6        36.480
R10        30.000    19806227.578 6 105578318.25906     -2577.472 6        40.281
R08        35.000    19647842.443 8 105213632.52708     -2240.807 8        51.892                                                                    19647842.591 7  81832600.86907     -1742.902 7        44.295
C05        36.000                                                                                                                                                                                                    39341461.858 5 158411599.23105      -674.039 5        31.691
C26        37.000                                                                                                                                    25955894.971 5 135159182.76515      2531.887 5        34.076
R01        38.000    20265972.529 7 108333211.51207      1813.239 7        43.501                                                                    20265972.765 6  84259260.55506      1410.311 6        41.204
R18        39.000    23891451.716 3                       648.254 3        21.786                                                                    23891495.489 4                       504.596 4        24.316
C42        41.000                                                                                                                                    25804971.728 5 134373132.35905      2285.164 5        30.521                                                                    25804959.729 4 109189237.92904      1856.735 4        28.957
C36        42.000                                                                                                                                    22423240.033 7 116763728.81107     -2351.992 7        47.084                                                                    22423246.334 7  94880087.05907     -1911.129 7        46.494
R02        43.000                                                                                                                                    24487252.069 4                      2429.761 4        25.474
C21        47.000                                                                                                                                    22318908.588 8 116220380.90308       437.771 8        49.543                                                                    22318914.713 5  94438571.29405       356.091 5        31.804
C45        49.000                                                                                                                                    22083651.434 7 114995306.22507       706.057 7        46.115                                                                    22083643.252 8  93443095.92608       573.860 8        49.669
C22        50.000                                                                                                                                    22292960.811 7 116085212.39607     -2686.321 7        44.430                                                                    22292956.153 7  94328723.44507     -2182.816 7        44.829
I02        53.000    38374987.282 6 150591690.99006       109.669 6        37.467
I09        56.000    39227993.960 5 153939026.42005     -1219.026 5        33.802
I06        60.000    38034570.893 5 149255704.81905      -651.187 5        30.989
> 2025 01 01 07 15 10.0000000  0 38
G18         1.000    25179025.996 5 132316693.01805       270.376 5        31.313                                    25179019.741 1 103103878.36801       210.594 1         4.143    25179023.220 4                       210.695 4        28.550
G13         2.000    21472986.066 6 112841417.69306      1670.947 6        39.952                                    21472973.334 2  87928310.71702      1302.000 2        14.857
G30         3.000    20498978.569 6 107722844.66406     -1312.496 6        41.914                                    20498978.447 6  83939828.68206     -1022.727 6        41.230    20498978.776 7  83939864.68707     -1022.775 7        42.838
G14         4.000    21972255.003 7 115464982.76807      1960.475 7        42.127                                    21972253.606 3  89972635.03903      1527.634 3        21.714    21972254.027 5  89972750.05905      1527.885 5        35.324
G07         5.000    22226720.171 7 116802396.25907     -3004.848 7        46.888                                    22226720.368 6  91014774.68406     -2341.438 6        41.280    22226718.922 6  91014647.65606     -2341.478 6        41.547
G15         6.000    24419347.439 5 128324524.54115      2871.809 5        35.357
G05         7.000    21138813.395 7 111085215.43807      -186.854 7        42.023                                    21138810.653 5  86559926.74105      -145.604 5        33.269    21138813.029 6  86559939.74906      -145.478 6        40.353
G20        10.000    21225249.422 7 111539417.55907     -2667.542 7        44.692                                    21225243.829 3  86913792.06003     -2078.604 3        19.343
E25        14.000    24920262.541 5 130956847.64005      1502.337 5        35.162                                                                    24920267.043 7  97792570.96607      1121.868 7        47.084    24920264.441 6 100343606.68406      1151.106 6        41.688
E24        15.000    25152242.947 7 132175968.15907     -1204.916 7        42.832                                                                    25152247.360 7  98702793.73007      -899.661 7        42.231    25152246.744 7 101277764.47907      -923.143 7        45.335
E15        16.000                                                                                                                                    27008608.824 5 105987560.66405     -2477.924 5        34.457    27008613.484 6 108752491.91906     -2542.357 6        37.028
E08        17.000                                                                                                                                    26890173.051 6 105522827.81906      1191.853 6        36.454    26890170.323 6 108275593.34906      1222.802 6        37.059
E05        21.000    22976674.852 5 120743138.88905     -2373.290 5        35.767                                                                    22976675.815 7  90165389.07907     -1772.241 7        42.277    22976677.790 7  92517533.96207     -1818.528 7        42.641
E13        22.000    26934057.448 5 141539423.67505     -1108.811 5        31.713                                                                    26934059.735 6 105695045.06106      -828.097 6        40.734    26934060.298 6 108452353.64906      -849.617 6        41.876
R07        23.000                                                                                                                                    23061127.156 3                     -3552.393 3        23.029
S23        24.000    38187660.884 6 200677464.37106      -812.926 6        38.928
S36        25.000    38253689.172 5 201024470.67305      -815.109 5        33.102
G11        26.000    25599244.711 3                     -4042.756 3        19.612
E03        27.000    23537562.984 7 123690721.47807       -17.727 7        45.002                                                                    23537564.966 7  92366433.95707       -13.230 7        47.957    23537564.738 8  94776012.46308       -13.604 8        48.271
R11        28.000    19987980.533 8 106809768.35408      1761.990 8        51.584                                                                    19987982.190 7  83074248.29407      1370.415 7        47.260
R17        29.000                                                                                                                                    23439022.348 5  97554291.55205     -1729.854 5        34.876
R10        30.000    19808647.264 6 105591215.62006     -2581.377 6        37.637
R09        32.000                                                                                                                                    22839352.268 4                     -3758.767 4        29.810
R08        35.000    19649935.765 8 105224844.75008     -2244.130 8        52.121                                                                    19649936.065 7  81841321.47307     -1745.365 7        44.158
C05        36.000                                                                                                                                                                                                    39342298.280 5 158414969.35405      -673.869 5        32.078
C26        37.000                                                                                                                                    25953460.761 5 135146525.23305      2530.879 5        34.419                                                                    25953461.939 5                      2056.909 5        32.341
R01        38.000    20264275.031 6 108324150.85106      1810.932 6        41.774                                                                    20264278.115 7  84252213.39507      1408.554 7        42.059
R18        39.000    23890854.701 4                       644.102 4        25.895
C09        40.000                                                                                                                                                                                                    40328356.410 4                     -1190.163 4        29.213
C42        41.000                                                                                                                                                                                                                                                                    25802764.595 5 109179953.36205      1856.731 5        30.634
C36        42.000                                                                                                                                    22425499.896 7 116775494.38607     -2354.251 7        47.060                                                                    22425505.583 7  94889647.52007     -1912.946 7        46.581
R02        43.000                                                                                                                                    24484327.042 4                      2429.852 4        27.808
C21        47.000                                                                                                                                    22318489.155 8 116218197.55008       435.523 8        49.600                                                                    22318496.248 4  94436797.17304       353.690 4        28.540
C45        49.000                                                                                                                                    22082973.795 7 114991781.88007       703.631 7        44.859                                                                    22082966.498 8  93440232.07508       571.787 8        49.802
C22        50.000                                                                                                                                    22295542.822 7 116098649.65307     -2688.587 7        45.065                                                                    22295536.597 7  94339642.29307     -2184.688 7        44.811
I02        53.000    38374847.970 6 150591143.49806       109.113 6        37.391
I09        56.000    39229547.969 5 153945122.00105     -1219.302 5        34.105
I06        60.000    38035401.607 5 149258961.46205      -651.547 5        30.453
> 2025 01 01 07 15 15.0000000  0 36
G18         1.000    25178771.674 4 132315350.37804       267.487 4        28.531                                    25178764.215 1 103102832.14501       208.396 1         3.600    25178763.942 4                       208.333 4        27.545
G13         2.000    21471396.969 6 112833066.61806      1669.409 6        36.567                                    21471383.873 2  87921803.38102      1300.820 2        12.970
G30         3.000    20500228.340 7 107729412.65007     -1314.815 7        42.011                                    20500228.275 6  83944946.58606     -1024.532 6        41.244    20500228.208 7  83944982.57707     -1024.440 7        42.641
G14         4.000    21970390.360 6 115455185.15206      1958.476 6        41.063                                    21970388.479 3  89965000.56303      1526.074 3        20.357    21970388.647 5  89965115.63005      1525.909 5        33.671
G07         5.000    22229579.417 7 116817423.19107     -3005.986 7        46.252                                    22229580.038 6  91026483.96006     -2342.325 6        40.429    22229578.150 6  91026356.93206     -2342.166 6        41.027
G15         6.000    24416612.975 6 128310165.95806      2871.584 6        36.888
G05         7.000    21138993.594 6 111086157.82906      -190.249 6        41.251                                    21138990.242 5  86560661.06505      -148.249 5        34.286    21138992.032 6  86560674.06406      -148.264 6        40.479
G20        10.000    21227789.349 7 111552762.18907     -2670.494 7        45.275                                    21227782.736 3  86924190.44803     -2080.904 3        18.567
E25        14.000    24918833.334 5 130949340.23305      1500.554 5        33.245                                                                    24918838.285 7  97786964.81107      1120.540 7        47.072    24918835.866 6 100337854.28606      1149.750 6        41.220
E24        15.000    25153390.090 7 132181997.96507     -1207.239 7        42.294                                                                    25153395.045 7  98707296.51107      -901.431 7        42.584    25153394.244 7 101282384.72107      -924.973 7        45.409
E15        16.000                                                                                                                                    27011766.647 5 105999952.48305     -2478.527 5        34.129    27011770.930 6 108765207.03606     -2543.455 6        36.212
E08        17.000    26888637.560 4 141300850.98004      1595.770 4        28.986                                                                    26888653.543 6 105516869.50506      1191.500 6        36.231    26888652.128 6 108269479.61006      1222.561 6        37.225
E05        21.000    22978936.043 6 120755007.97606     -2374.258 6        36.405                                                                    22978934.179 6  90174252.32906     -1773.121 6        41.657    22978936.921 7  92526628.42207     -1819.295 7        42.320
E13        22.000    26935114.182 5 141544974.64505     -1111.679 5        32.096                                                                    26935116.144 6 105699190.23306      -829.947 6        40.589    26935116.338 7 108456606.97207      -851.595 7        42.076
S23        24.000    38188439.166 6 200681529.36606      -813.028 6        38.838
S36        25.000    38254462.351 5 201028545.46605      -815.132 5        33.060
E03        27.000    23537580.208 7 123690812.77207       -18.888 7        44.773                                                                    23537582.419 7  92366502.12807       -14.127 7        47.958    23537582.084 8  94776082.41508       -14.470 8        48.405
R11        28.000    19986333.679 8 106800966.70808      1758.599 8        51.973                                                                    19986335.007 7  83067402.55307      1367.803 7        47.702
R17        29.000    23441120.045 4 125438268.71304     -2228.106 4        25.940                                                                    23441104.207 5  97562948.94905     -1733.099 5        34.424
R10        30.000    19811069.467 5 105604131.92905     -2584.985 5        34.490
R09        32.000    22843861.021 4                     -4832.982 4        26.323                                                                    22843877.799 5                     -3759.463 5        30.370
R08        35.000    19652032.747 8 105236072.76908     -2247.181 8        52.519                                                                    19652032.896 7  81850054.36307     -1747.833 7        43.606
C05        36.000                                                                                                                                                                                                    39343136.181 5 158418339.71205      -673.842 5        32.389
C26        37.000                                                                                                                                    25951027.284 5 135133870.59505      2530.585 5        33.988                                                                    25951030.937 5                      2056.259 5        32.820
R01        38.000    20262579.857 6 108315100.96606      1808.979 6        40.794                                                                    20262584.705 7  84245174.58907      1406.994 7        42.502
R18        39.000    23890247.638 4                       640.170 4        27.808
C09        40.000                                                                                                                                                                                                    40329834.778 5                     -1190.235 5        30.023
C42        41.000                                                                                                                                                                                                                                                                    25800570.762 5 109170670.74705      1856.560 5        30.732
C36        42.000                                                                                                                                    22427761.690 7 116787270.61707     -2356.343 7        47.354                                                                    22427767.096 7  94899216.68907     -1914.735 7        46.538
R02        43.000                                                                                                                                    24481397.056 4                      2430.056 4        28.948
C21        47.000                                                                                                                                    22318071.729 8 116216024.84008       433.420 8        49.446
C45        49.000                                                                                                                                    22082298.720 7 114988269.36107       701.200 7        43.661                                                                    22082291.946 8  93437377.86308       569.872 8        49.763
C22        50.000                                                                                                                                    22298125.732 7 116112097.29407     -2690.601 7        45.922                                                                    22298119.100 7  94350569.61807     -2186.320 7        44.715
I02        53.000    38374709.111 6 150590597.01706       109.151 6        37.361
I09        56.000    39231100.777 5 153951218.21005     -1219.073 5        34.324
I06        60.000    38036230.972 5 149262218.48305      -651.213 5        30.830
> 2025 01 01 07 15 20.0000000  0 36
G18         1.000    25178522.383 4 132314022.45104       264.340 4        29.242                                    25178511.219 1 103101797.45801       206.053 1         4.714    25178513.236 4                       205.911 4        29.109
G13         2.000    21469806.977 5 112824721.74005      1668.263 5        33.527                                    21469795.714 1  87915300.91501      1299.934 1         9.619
G30         3.000    20501480.006 7 107735991.14707     -1316.542 7        44.042                                    20501480.061 6  83950072.68906     -1025.873 6        41.583    20501480.368 7  83950108.68207     -1025.917 7        43.081
G14         4.000    21968527.560 6 115445397.13006      1956.920 6        40.553                                    21968524.684 3  89957373.59003      1524.879 3        18.716    21968526.571 5  89957488.59705      1524.662 5        31.645
G07         5.000    22232440.117 7 116832455.29607     -3006.640 7        46.350                                    22232440.476 6  91038197.27106     -2342.834 6        39.444    22232438.270 6  91038070.24006     -2342.750 6        40.386
G15         6.000    24413881.685 6 128295808.27306      2871.783 6        37.573                                    24413896.887 1  99970826.63711      2237.748 1         8.952    24413896.767 4                      2237.325 4        24.992
G05         7.000    21139175.971 6 111087117.32806      -193.429 6        41.471                                    21139173.051 5  86561408.72505      -150.721 5        34.829    21139174.704 6  86561421.71206      -150.529 6        40.529
G20        10.000    21230331.889 7 111566121.06607     -2672.929 7        44.748                                    21230324.241 2  86934599.92102     -2082.792 2        17.170
E25        14.000    24917407.210 5 130941840.86105      1499.105 5        31.789                                                                    24917410.931 7  97781364.60407      1119.662 7        47.041    24917408.911 6 100332107.98806      1148.809 6        40.925
E24        15.000    25154539.659 7 132188039.67307     -1209.178 7        42.030                                                                    25154544.705 7  98711808.17407      -903.071 7        42.809    25154543.785 7 101287014.08007      -926.532 7        45.333
E15        16.000                                                                                                                                    27014925.831 5 106012348.67005     -2479.588 5        33.713    27014929.167 5 108777926.55005     -2543.911 5        35.029
E08        17.000                                                                                                                                    26887135.343 6 105510911.64506      1191.819 6        36.253    26887134.051 6 108263366.34506      1222.914 6        37.236
E05        21.000    22981196.836 6 120766881.90506     -2375.229 6        36.200                                                                    22981193.314 6  90183119.17406     -1773.589 6        41.066    22981196.695 6  92535726.58906     -1819.779 6        41.793
E13        22.000    26936176.019 5 141550537.87505     -1113.516 5        33.695                                                                    26936174.907 6 105703344.60106      -831.492 6        40.653    26936174.908 7 108460869.72207      -853.312 7        42.271
S23        24.000    38189212.265 6 200685593.97406      -812.547 6        39.105
S36        25.000    38255240.516 5 201032620.34605      -814.738 5        33.204
G11        26.000    25606950.086 3                     -4037.135 3        22.000
E03        27.000    23537598.699 7 123690909.33407       -19.618 7        44.415                                                                    23537600.719 7  92366574.22007       -14.585 7        47.901    23537600.261 8  94776156.39008       -15.035 8        48.300
R11        28.000    19984690.188 8 106792182.12408      1755.451 8        52.179                                                                    19984690.680 7  83060570.10807      1365.319 7        47.841
R17        29.000                                                                                                                                    23443190.005 5  97571621.03505     -1735.686 5        34.724
R10        30.000    19813493.780 5 105617066.79305     -2588.318 5        35.186
R09        32.000    22848381.854 4                     -4834.393 4        26.970                                                                    22848400.017 4                     -3759.379 4        29.867
R08        35.000    19654132.702 8 105247316.11908     -2249.937 8        52.303                                                                    19654132.827 7  81858799.17707     -1749.986 7        42.717
C05        36.000                                                                                                                                                                                                    39343973.019 5 158421709.90005      -673.752 5        31.841
C26        37.000                                                                                                                                    25948596.246 5 135121218.35605      2530.256 5        33.731                                                                    25948600.619 5                      2056.123 5        33.665
R01        38.000    20260888.340 6 108306061.23406      1807.162 6        39.165                                                                    20260893.615 7  84238143.68707      1405.559 7        42.531
C09        40.000                                                                                                                                                                                                    40331313.316 5                     -1190.126 5        30.755
C42        41.000                                                                                                                                    25798356.516 4                      2284.766 4        24.617                                                                    25798376.604 5 109161389.56705      1856.311 5        31.902
C36        42.000                                                                                                                                    22430024.756 7 116799056.91907     -2358.009 7        47.228                                                                    22430030.464 7  94908794.03307     -1916.190 7        46.519
R02        43.000    24478504.369 4                      3125.551 4        29.062                                                                    24478466.400 4                      2430.696 4        29.896
C21        47.000                                                                                                                                    22317656.125 8 116213862.19608       431.782 8        48.769                                                                    22317643.164 4  94433274.51904       351.039 4        25.489
C45        49.000                                                                                                                                    22081626.625 7 114984768.06207       699.429 7        42.904                                                                    22081619.549 8  93434532.77508       568.266 8        49.848
C22        50.000                                                                                                                                    22300709.817 7 116125554.75807     -2692.117 7        46.601                                                                    22300703.484 7  94361504.91107     -2187.688 7        44.868
I02        53.000    38374569.639 6 150590051.16306       109.327 6        37.021
I09        56.000    39232653.918 5 153957314.65305     -1218.838 5        34.109
I06        60.000    38037062.216 5 149265475.53005      -651.188 5        30.460
> 2025 01 01 07 15 25.0000000  0 38
G18         1.000    25178277.431 5 132312708.91605       261.668 5        31.660                                    25178261.461 1 103100774.09701       203.625 1         3.800    25178268.061 4                       203.361 4        29.602
G13         2.000    21468222.035 5 112816382.87405      1667.198 5        35.119                                    21468208.748 1  87908803.16901      1299.084 1         7.375
G30         3.000    20502734.544 7 107742579.90407     -1318.777 7        45.451                                    20502733.806 7  83955206.77107     -1027.618 7        42.239    20502734.512 7  83955242.77007     -1027.638 7        43.215
G14         4.000    21966666.794 6 115435618.46306      1954.883 6        39.598                                    21966662.978 2  89949753.88902      1523.272 2        17.208    21966664.802 5  89949868.88805      1523.034 5        30.317
G07         5.000    22235301.636 7 116847492.31607     -3007.896 7        46.273                                    22235301.671 6  91049914.41206     -2343.815 6        38.529    22235299.337 6  91049787.37606     -2343.768 6        39.285
G15         6.000    24411149.153 6 128281451.22306      2871.392 6        36.888                                    24411164.154 1  99959639.28101      2237.425 1        10.741    24411162.973 4                      2237.220 4        26.635
G05         7.000    21139362.131 6 111088093.63106      -196.998 6        41.747                                    21139359.124 5  86562169.46905      -153.502 5        35.410    21139360.249 6  86562182.47506      -153.533 6        40.381
G20        10.000    21232876.140 7 111579493.93507     -2675.939 7        44.051                                    21232868.474 2  86945020.29202     -2085.153 2        15.714
E25        14.000    24915985.339 5 130934349.12205      1498.026 5        30.053                                                                    24915985.114 7  97775770.15607      1118.277 7        46.946    24915983.237 6 100326367.59906      1147.497 6        40.343
E24        15.000    25155691.794 6 132194092.99606     -1211.911 6        41.735                                                                    25155696.165 7  98716328.49407      -904.938 7        42.692    25155695.548 7 101291652.32207      -928.453 7        45.416
E15        16.000    27018091.412 5 141980994.95515     -3321.635 5        32.976                                                                    27018086.228 5 106024748.94205     -2480.665 5        34.052    27018089.239 5 108790650.36605     -2545.302 5        33.868
E08        17.000    26885620.245 5 141284894.66105      1595.486 5        32.479                                                                    26885617.708 6 105504954.10606      1191.386 6        36.847    26885615.987 6 108257253.39806      1222.582 6        37.694
E05        21.000    22983455.253 5 120778760.37105     -2375.988 5        35.371                                                                    22983453.625 6  90191989.42006     -1774.238 6        40.565    22983456.630 6  92544828.23906     -1820.711 6        40.908
E13        22.000    26937237.948 5 141556113.16505     -1116.068 5        34.943                                                                    26937235.924 6 105707507.95806      -833.635 6        40.725    26937235.808 7 108465141.68607      -855.420 7        42.288
R07        23.000    23073900.588 4                     -4571.724 4        24.977
S23        24.000    38189983.548 6 200689658.13206      -812.813 6        39.138
S36        25.000    38256015.180 5 201036694.19705      -814.475 5        33.251
G11        26.000    25610788.634 3                     -4038.220 3        21.310
E03        27.000    23537618.003 7 123691010.88207       -20.816 7        44.135                                                                    23537619.956 7  92366650.04407       -15.527 7        47.817    23537619.353 8  94776234.20308       -16.027 8        48.109
R11        28.000    19983049.382 8 106783414.29008      1751.923 8        52.426                                                                    19983050.294 8  83053750.68808      1362.558 8        48.434
R17        29.000    23445274.927 6 125460587.33206     -2235.789 6        39.664                                                                    23445276.237 6  97580307.86406     -1738.839 6        36.514
R10        30.000    19815924.609 6 105630019.85106     -2592.167 6        37.599
R09        32.000    22852904.466 4                     -4834.898 4        27.593                                                                    22852926.100 5  94914771.49215     -3761.043 5        30.626
R08        35.000    19656235.036 8 105258574.45808     -2253.161 8        52.220                                                                    19656235.423 6  81867555.63006     -1752.550 6        41.287
C05        36.000                                                                                                                                                                                                    39344809.337 5 158425079.64005      -673.728 5        32.377
C26        37.000                                                                                                                                    25946167.735 5 135108568.18405      2529.866 5        33.024                                                                    25946171.008 5                      2055.764 5        33.976
R01        38.000    20259200.393 6 108297031.59606      1804.803 6        37.180                                                                    20259204.900 7  84231120.59107      1403.853 7        42.493
R18        39.000    23889036.038 3                       631.538 3        22.781                                                                    23889014.431 4                       491.998 4        26.503
C09        40.000                                                                                                                                                                                                    40332791.088 5                     -1189.822 5        30.717
C42        41.000                                                                                                                                    25796168.698 4                      2283.763 4        29.194                                                                    25796183.384 5 109152109.61005      1855.910 5        32.677
C36        42.000                                                                                                                                    22432289.233 7 116810853.03407     -2360.145 7        46.650                                                                    22432295.907 7  94918379.31407     -1918.003 7        46.575
R02        43.000    24475586.671 5                      3125.587 5        31.940                                                                    24475535.390 4                      2430.882 4        28.019
C21        47.000                                                                                                                                    22317242.570 7 116211709.37607       429.674 7        47.633                                                                    22317236.009 4  94431525.18104       348.791 4        27.940
C45        49.000                                                                                                                                    22080956.205 7 114981277.73007       697.044 7        43.204                                                                    22080949.190 8  93431696.57808       566.224 8        49.747
C22        50.000                                                                                                                                    22303295.697 7 116139021.77007     -2694.396 7        47.121                                                                    22303289.720 7  94372447.93907     -2189.563 7        44.945
I02        53.000    38374430.354 6 150589505.77806       108.973 6        36.786
I09        56.000    39234207.943 5 153963411.17205     -1219.279 5        34.424
I06        60.000    38037893.189 5 149268732.33305      -651.005 5        31.079
> 2025 01 01 07 15 30.0000000  0 37
G18         1.000    25178033.288 5 132311410.31305       258.463 5        34.300                                    25178014.543 1 103099762.17101       201.337 1         5.857    25178017.530 4                       201.037 4        28.654
G13         2.000    21466635.834 5 112808050.63205      1665.513 5        34.390                                    21466623.035 1  87902310.62801      1297.772 1         7.000
G30         3.000    20503990.195 7 107749179.49407     -1320.845 7        45.535                                    20503989.638 7  83960349.30207     -1029.225 7        42.988    20503989.975 7  83960385.28907     -1029.182 7        43.733
G14         4.000    21964808.024 6 115425849.72606      1952.903 6        38.970                                    21964803.471 2  89942141.92302      1521.749 2        16.151    21964806.458 4  89942256.89804      1521.470 4        29.706
G07         5.000    22238164.442 7 116862534.76207     -3008.906 7        45.657                                    22238163.675 6  91061635.78206     -2344.598 6        37.762    22238161.173 6  91061508.75806     -2344.889 6        37.788
G15         6.000    24408415.361 6 128267095.40506      2871.170 6        36.616                                    24408431.688 2  99948452.90602      2237.314 2        12.545    24408427.713 4                      2237.318 4        28.578
G05         7.000    21139551.746 6 111089087.34706      -200.304 6        41.418                                    21139548.475 5  86562943.77705      -156.076 5        35.943    21139549.588 6  86562956.77206      -155.924 6        40.870
G20        10.000    21235425.479 7 111592881.32407     -2678.753 7        43.111                                    21235415.613 2  86955451.98502     -2087.336 2        13.576
E25        14.000                                                                                                                                    24914560.882 7  97770181.89007      1117.131 7        46.663    24914559.403 6 100320633.55006      1146.338 6        40.291
E24        15.000    25156846.400 6 132200158.51406     -1214.155 6        41.128                                                                    25156849.511 7  98720857.94407      -906.709 7        42.726    25156849.703 7 101296299.94707      -930.414 7        45.442
E15        16.000    27021251.298 5 141997606.76305     -3323.160 5        32.234                                                                    27021249.115 5 106037153.78105     -2481.092 5        34.057    27021251.639 5 108803378.82105     -2546.214 5        33.635
E08        17.000    26884105.664 5 141276917.74005      1595.247 5        33.958                                                                    26884100.361 6 105498997.28306      1191.338 6        37.512    26884097.815 6 108251141.19406      1222.606 6        37.830
E05        21.000    22985713.254 5 120790644.00705     -2377.395 5        34.095                                                                    22985714.882 6  90200863.53106     -1775.071 6        40.083    22985717.006 6  92553933.81806     -1821.501 6        39.925
E13        22.000    26938298.885 6 141561701.06806     -1118.663 6        36.503                                                                    26938299.452 6 105711680.72206      -835.382 6        41.366    26938299.296 7 108469423.31207      -857.193 7        42.366
S23        24.000    38190758.525 6 200693722.39606      -812.751 6        39.162
S36        25.000    38256794.132 5 201040768.88405      -814.832 5        33.659
G11        26.000    25614633.268 3                     -4034.724 3        21.357
E03        27.000    23537637.956 7 123691118.00107       -21.796 7        43.242                                                                    23537640.134 7  92366730.02707       -16.353 7        47.649    23537639.609 7  94776316.27007       -16.783 7        47.989
R11        28.000    19981411.936 8 106774663.81808      1748.452 8        53.307                                                                    19981413.271 8  83046944.76708      1359.908 8        49.295
R17        29.000    23447373.976 6 125471775.49806     -2239.438 6        39.402                                                                    23447368.756 6  97589009.77606     -1741.839 6        37.327
R10        30.000    19818360.348 6 105642991.65606     -2596.147 6        39.489
R09        32.000    22857439.291 4                     -4836.312 4        28.758                                                                    22857453.388 5                     -3762.349 5        31.298
R08        35.000    19658339.866 8 105269848.27708     -2256.197 8        51.703                                                                    19658340.889 6  81876324.12106     -1754.807 6        40.527
C05        36.000                                                                                                                                                                                                    39345645.763 5 158428449.40005      -673.651 5        32.287
C26        37.000                                                                                                                                    25943739.347 5 135095920.69705      2529.455 5        32.347                                                                    25943742.385 5 109776462.95415      2055.270 5        34.100
R01        38.000    20257515.256 6 108288012.53406      1803.022 6        37.996                                                                    20257517.448 7  84224105.74007      1402.240 7        42.328
R18        39.000    23888435.455 4                       628.834 4        25.820
C09        40.000                                                                                                                                                                                                    40334266.719 5                     -1190.052 5        30.611
C42        41.000                                                                                                                                    25793979.754 5                      2283.301 5        32.377                                                                    25793990.892 5 109142831.44305      1855.325 5        33.299
C36        42.000                                                                                                                                    22434556.334 7 116822659.51007     -2362.193 7        46.379                                                                    22434563.284 7  94927973.02307     -1919.533 7        46.600
R02        43.000    24472663.044 5                      3125.751 5        31.781                                                                    24472608.512 4                      2430.930 4        25.699
