     3.04           OBSERVATION DATA    M                   RINEX VERSION / TYPE
ssrcrin-15.6.1x                         20250101 120000 UTC PGM / RUN BY / DATE 
(00000000023479385599111004) Septentrio proprietary         COMMENT             
ract                                                        MARKER NAME         
01                                                          MARKER NUMBER       
geodetic                                                    MARKER TYPE         
NFB                 CLIMERS@TUW                             OBSERVER / AGENCY   
3296359             SEPT ASTERX SB3 PROB4.14.4              REC # / TYPE / VERS 
Unknown             Unknown                                 ANT # / TYPE        
  4127447.6709  1206915.3935  4695541.8490                  APPROX POSITION XYZ 
        0.0000        0.0000        0.0000                  ANTENNA: DELTA H/E/N
G   23 X1  C1C L1C D1C S1C C1W S1W C2W L2W D2W S2W C2L L2L  SYS / # / OBS TYPES 
       D2L S2L C5Q L5Q D5Q S5Q C1L L1L D1L S1L              SYS / # / OBS TYPES 
E   21 X1  C1C L1C D1C S1C C6C L6C D6C S6C C5Q L5Q D5Q S5Q  SYS / # / OBS TYPES 
       C7Q L7Q D7Q S7Q C8Q L8Q D8Q S8Q                      SYS / # / OBS TYPES 
S    9 X1  C1C L1C D1C S1C C5I L5I D5I S5I                  SYS / # / OBS TYPES 
R   17 X1  C1C L1C D1C S1C C2P L2P D2P S2P C2C L2C D2C S2C  SYS / # / OBS TYPES 
       C3Q L3Q D3Q S3Q                                      SYS / # / OBS TYPES 
C   25 X1  C1P L1P D1P S1P C5P L5P D5P S5P C2I L2I D2I S2I  SYS / # / OBS TYPES 
       C7I L7I D7I S7I C6I L6I D6I S6I C7D L7D D7D S7D      SYS / # / OBS TYPES 
J   17 X1  C1C L1C D1C S1C C2L L2L D2L S2L C5Q L5Q D5Q S5Q  SYS / # / OBS TYPES 
       C1L L1L D1L S1L                                      SYS / # / OBS TYPES 
I    5 X1  C5A L5A D5A S5A                                  SYS / # / OBS TYPES 
SEPTENTRIO RECEIVERS OUTPUT ALIGNED CARRIER PHASES.         COMMENT             
NO FURTHER PHASE SHIFT APPLIED IN THE RINEX ENCODER.        COMMENT             
G L1C                                                       SYS / PHASE SHIFT   
G L2W                                                       SYS / PHASE SHIFT   
G L2L  0.00000                                              SYS / PHASE SHIFT   
G L5Q  0.00000                                              SYS / PHASE SHIFT   
G L1L  0.00000                                              SYS / PHASE SHIFT   
E L1C  0.00000                                              SYS / PHASE SHIFT   
E L6C  0.00000                                              SYS / PHASE SHIFT   
E L5Q  0.00000                                              SYS / PHASE SHIFT   
E L7Q  0.00000                                              SYS / PHASE SHIFT   
E L8Q  0.00000                                              SYS / PHASE SHIFT   
S L1C                                                       SYS / PHASE SHIFT   
S L5I                                                       SYS / PHASE SHIFT   
R L1C                                                       SYS / PHASE SHIFT   
R L2P  0.00000                                              SYS / PHASE SHIFT   
R L2C                                                       SYS / PHASE SHIFT   
R L3Q  0.00000                                              SYS / PHASE SHIFT   
C L1P  0.00000                                              SYS / PHASE SHIFT   
C L5P  0.00000                                              SYS / PHASE SHIFT   
C L2I                                                       SYS / PHASE SHIFT   
C L7I                                                       SYS / PHASE SHIFT   
C L6I                                                       SYS / PHASE SHIFT   
C L7D                                                       SYS / PHASE SHIFT   
J L1C                                                       SYS / PHASE SHIFT   
J L2L  0.00000                                              SYS / PHASE SHIFT   
J L5Q  0.00000                                              SYS / PHASE SHIFT   
J L1L  0.00000                                              SYS / PHASE SHIFT   
I L5A                                                       SYS / PHASE SHIFT   
  2025     1     1    12     0    0.0000000     GPS         TIME OF FIRST OBS   
 C1C    0.000 C2C    0.000 C2P    0.000                     GLONASS COD/PHS/BIS 
DBHZ                                                        SIGNAL STRENGTH UNIT
    18                                                      LEAP SECONDS        
 24 R01  1 R02 -4 R03  5 R04  6 R05  1 R06 -4 R07  5 R08  6 GLONASS SLOT / FRQ #
    R09 -2 R10 -7 R11  0 R12 -1 R13 -2 R14 -7 R15  0 R16 -1 GLONASS SLOT / FRQ #
    R17  4 R18 -3 R19  3 R20  2 R21  4 R22 -3 R23  3 R24  2 GLONASS SLOT / FRQ #
                                                            END OF HEADER       
> 2025 01 01 12 00  0.0000000  0 38
G19         1.000    21378608.981 6 112345330.93906     -1825.901 6        39.051                                    21378612.162 3  87541823.59203     -1422.772 3        22.229
G25         3.000    23234764.099 6 122099488.74006      2463.450 6        38.024                                    23234772.867 3  95142527.50503      1919.570 3        19.373    23234770.793 4  95142545.61104      1919.543 4        26.958
G17         5.000    23680472.783 5 124441616.92505     -3716.618 5        34.600                                    23680463.606 2  96967566.17502     -2896.072 2        13.394
G15         6.000    23715877.087 7 124627988.50107     -4673.172 7        43.263                                    23715883.834 5  97112591.97405     -3641.419 5        34.286    23715885.387 6  97112555.96006     -3641.449 6        39.258
G12         7.000    20759740.091 8 109093162.95208       814.420 8        49.944                                    20759742.260 7  85007665.13507       634.613 7        45.956    20759741.151 7  85007689.13507       634.591 7        43.985
E30         9.000    24315233.291 7 127777432.90407       491.258 7        43.501                                                                    24315239.822 8  95418235.38908       366.794 8        50.318    24315238.584 8  97907411.08608       376.397 8        50.598
G32        11.000    24474910.944 6 128616496.26106      2063.126 6        36.681                                    24474924.076 4 100220652.14604      1607.644 4        27.341    24474922.407 5 100220691.15805      1607.618 5        35.676
G10        12.000    24876104.523 6 130724836.67306     -2520.644 6        36.284                                    24876139.163 1 101863653.71301     -1964.160 1         7.500    24876119.350 4                     -1964.335 4        25.474
E02        13.000    23689698.925 7 124490217.06607     -2047.168 7        45.755                                                                    23689706.054 8  92963558.67708     -1528.727 8        49.188    23689704.310 8  95388700.96908     -1568.568 8        49.613
G24        16.000    20139225.052 5 105832446.86005     -1484.002 5        33.635                                    20139210.469 3  82466675.21003     -1156.366 3        21.143    20139219.323 5                     -1156.255 5        30.196
E08        17.000    25000536.231 7 131378632.87607     -3285.921 7        44.680                                                                    25000542.411 7  98107417.54607     -2453.827 7        42.097    25000539.540 7 100666781.20207     -2517.835 7        43.022
E07        18.000    24381523.608 7 128125850.80107      -552.806 7        42.493                                                                    24381531.864 7  95678414.80507      -412.740 7        45.181    24381538.604 7  98174342.56907      -423.531 7        42.717
R22        22.000    21289272.536 7 113643740.76407      -106.010 7        44.635                                                                    21289279.231 7  88389476.71207       -82.430 7        45.678
S36        23.000    38242249.393 5 200964335.87205      -841.916 5        35.581
S23        24.000    38179014.081 5 200632077.27105      -845.601 5        35.690
R04        25.000    21331197.367 8 114227701.65208       576.396 8        49.492                                                                    21331206.066 7  88843744.57507       448.237 7        44.041
E29        26.000    27666149.879 6 145386613.46006      1751.821 6        36.151                                                                    27666169.843 6 108567965.27706      1308.344 6        39.273    27666164.131 6 111400159.54506      1342.385 6        41.397
R13        29.000    19497997.458 6 104118215.07206      -738.096 6        36.026
R12        31.000    21111206.160 8 112772275.94508     -3374.981 8        48.645                                                                    21111215.831 7  87711790.83607     -2624.969 7        43.393
C10        32.000                                                                                                                                    38899098.419 4 202557804.31704     -1408.007 4        28.445    38899111.588 6 156630575.90006     -1088.807 6        41.824    38899106.433 5 164594810.39205     -1144.365 5        35.905
R03        33.000    20841310.813 5 111565182.35005     -3272.233 5        34.814
C24        34.000                                                                                                                                    21759261.111 7 113306139.59907       310.639 7        45.294                                                                    21759257.477 7  92070580.85307       252.443 7        46.958
R14        35.000    22362575.881 7 119205094.72307      2167.450 7        45.902                                                                    22362586.144 5  92715177.56305      1685.584 5        31.042
R23        36.000    22151837.119 5                      2939.719 5        32.174
C26        37.000                                                                                                                                    22454483.857 6 116926443.98706     -2333.864 6        40.489                                                                    22454487.245 6  95012337.55706     -1896.648 6        38.372
S21        38.000    38470483.441 5 202163730.54905      -841.371 5        34.581
C44        39.000                                                                                                                                                                                                                                                                    24211602.021 5 102447218.48505      1808.766 5        34.800
C35        40.000                                                                                                                                    23211348.361 6 120867528.19306       117.159 6        39.922                                                                    23211362.757 5  98214833.30405        95.165 5        32.934
C42        41.000                                                                                                                                    25989726.210 6 135335324.26706     -4096.847 6        37.474                                                                    25989747.618 4 109971129.88204     -3329.351 4        27.293
R02        43.000    23544580.489 4                     -5397.500 4        27.389                                                                    23544670.739 3                     -4198.547 3        18.507
C40        44.000                                                                                                                                    40102887.323 4                     -1986.640 4        24.075                                                                    40102829.024 4                     -1614.236 4        28.521
C33        46.000                                                                                                                                    24476059.727 6 127453177.59506     -2450.270 6        41.073                                                                    24476072.298 7 103566352.66307     -1991.352 7        43.634
C14        48.000                                                                                                                                    24866015.378 5 129484010.29805     -3544.806 5        35.805    24866031.556 5 100125280.03205     -2741.186 5        31.555    24866036.763 5 105216341.83305     -2880.583 5        33.275
C41        50.000                                                                                                                                    25593340.569 6 133271142.77406       222.298 6        37.062                                                                    25593344.135 6 108293806.20306       180.706 6        39.667
C29        51.000                                                                                                                                    25485248.698 6 132708315.90906     -2973.141 6        39.378                                                                    25485261.300 5                     -2416.094 5        30.423
C07        53.000                                                                                                                                                                                                    39726949.868 4                     -1317.251 4        28.891    39726938.341 4 168097673.89004     -1383.963 4        26.395
I02        56.000    36941375.520 5 144965882.49905      -690.274 5        32.988
I06        58.000    38406543.781 6 150715496.74706      -739.360 6        36.809
> 2025 01 01 12 00  5.0000000  0 39
G19         1.000    21380347.741 6 112354469.07506     -1829.218 6        40.849                                    21380351.015 4  87548944.19804     -1425.365 4        24.602
G25         3.000    23232421.219 6 122087173.95906      2462.558 6        40.441                                    23232427.939 3  95132931.60103      1918.843 3        20.476    23232424.635 4  95132949.66304      1918.427 4        25.820
G17         5.000    23684005.300 5 124460204.69905     -3718.340 5        35.148                                    23684001.018 1  96982050.09601     -2897.389 1        11.481    23684036.182 5                     -2897.398 5        31.600
G15         6.000    23720323.970 7 124651356.20607     -4673.915 7        43.484                                    23720330.859 5  97130800.52305     -3642.005 5        34.519    23720331.450 6  97130764.49506     -3641.719 6        39.243
G12         7.000    20758966.852 8 109089097.01408       812.087 8        50.265                                    20758968.472 7  85004496.87407       632.791 7        45.941    20758967.618 7  85004520.86607       632.929 7        43.242
E30         9.000    24314765.933 7 127774980.92407       489.740 7        44.441                                                                    24314773.315 8  95416404.35208       365.801 8        50.422    24314771.998 8  97905532.28708       375.361 8        50.674
G32        11.000    24472948.649 6 128606185.79906      2061.266 6        36.484                                    24472962.209 4 100212618.00804      1606.175 4        26.790    24472959.650 5 100212657.03205      1605.997 5        34.681
G10        12.000    24878499.591 6 130737445.97206     -2522.935 6        36.034                                    24878538.028 1 101873479.21301     -1965.918 1         8.762
E02        13.000    23691647.347 7 124500456.19107     -2048.304 7        45.576                                                                    23691654.473 8  92971204.77408     -1529.584 8        49.340    23691652.843 8  95396546.53308     -1569.481 8        49.605
G24        16.000    20140639.972 5 105839872.51305     -1486.549 5        35.605                                    20140626.976 4  82472461.44704     -1158.350 4        24.075    20140632.682 5                     -1158.454 5        32.048
E08        17.000    25003663.545 7 131395067.09607     -3287.600 7        44.274                                                                    25003669.901 7  98119689.83007     -2455.018 7        42.603    25003667.051 7 100679373.63707     -2519.050 7        43.126
E07        18.000    24382050.970 7 128128621.29507      -555.275 7        42.451                                                                    24382059.049 7  95680483.68807      -414.657 7        45.240    24382065.536 7  98176465.41407      -425.461 7        43.242
R22        22.000    21289374.433 7 113644282.46207      -110.507 7        45.389                                                                    21289380.860 7  88389898.03107       -85.961 7        45.722
S36        23.000    38243054.580 5 200968544.68005      -841.556 5        35.548
S23        24.000    38179818.897 5 200636306.00505      -845.674 5        35.829
R04        25.000    21330662.398 8 114224831.33308       571.959 8        50.080                                                                    21330671.128 7  88841512.10307       444.821 7        44.643
E29        26.000    27664483.802 5 145377856.56605      1751.040 5        35.109                                                                    27664501.538 6 108561425.97206      1307.526 6        39.033    27664497.857 6 111393449.66606      1341.535 6        40.994
R13        29.000    19498688.875 5 104121910.16805      -739.869 5        34.352
R21        30.000                                                                                                                                    23389698.787 4                     -3001.305 4        25.203
R12        31.000    21114366.196 8 112789154.38708     -3376.257 8        49.088                                                                    21114375.530 7  87724918.49007     -2625.908 7        43.763
C10        32.000                                                                                                                                    38900454.206 4 202564846.63404     -1408.586 4        29.336    38900463.834 6 156636021.44906     -1089.191 6        41.545    38900459.145 5 164600532.84405     -1144.634 5        35.633
R03        33.000    20844366.192 6 111581553.76616     -3276.156 6        38.387                                                                    20844354.522 4                     -2548.171 4        29.829
C24        34.000                                                                                                                                    21758960.897 7 113304590.08807       309.174 7        44.877                                                                    21758959.936 7  92069321.72307       251.353 7        46.720
R14        35.000    22360542.507 7 119194260.08307      2166.449 7        45.121                                                                    22360552.173 5  92706750.62205      1685.240 5        33.084
R23        36.000    22149098.626 5                      2937.523 5        33.222
C26        37.000                                                                                                                                    22456726.333 6 116938117.53606     -2335.351 6        41.974                                                                    22456729.080 6  95021823.24706     -1897.642 6        38.498
S21        38.000    38471284.054 5 202167937.45205      -841.182 5        34.595
C44        39.000                                                                                                                                    24209497.857 4 126064989.94814      2224.834 4        26.263                                                                    24209465.207 5 102438176.96005      1807.848 5        33.916
C35        40.000                                                                                                                                    23211237.536 6 120866949.48306       114.405 6        40.122
C42        41.000                                                                                                                                    25993659.966 6 135355809.65806     -4097.167 6        37.225                                                                    25993681.463 4 109987775.92004     -3329.769 4        26.000
R02        43.000    23549638.350 4                     -5398.354 4        24.962
C40        44.000                                                                                                                                    40104795.830 4                     -1987.234 4        24.286                                                                    40104736.444 4                     -1614.642 4        28.028
C33        46.000                                                                                                                                    24478408.721 6 127465436.59806     -2453.016 6        39.432                                                                    24478426.279 7 103576314.06307     -1993.327 7        43.187
C14        48.000                                                                                                                                    24869420.715 5 129501737.99705     -3546.250 5        35.457    24869427.767 5 100138988.15705     -2741.972 5        32.054    24869442.746 5 105230747.04605     -2881.875 5        34.033
C41        50.000                                                                                                                                                                                                                                                                    25593131.966 6 108292908.61806       178.379 6        38.607
C29        51.000                                                                                                                                    25488104.399 6 132723187.57806     -2975.480 6        39.486                                                                    25488117.857 5                     -2417.836 5        30.596
C07        53.000                                                                                                                                    39728613.787 4 206877109.85914     -1703.816 4        24.451    39728586.236 4                     -1317.645 4        28.474    39728574.480 4 168104596.08204     -1384.409 4        26.419
I02        56.000    36942254.258 5 144969334.65605      -690.348 5        32.605
I06        58.000    38407486.096 6 150719194.24806      -739.558 6        37.123
> 2025 01 01 12 00 10.0000000  0 39
G19         1.000    21382090.458 7 112363622.63407     -1831.985 7        42.032                                    21382092.707 4  87556076.82704     -1427.521 4        26.084
G25         3.000    23230079.176 6 122074863.16606      2462.006 6        41.909                                    23230084.299 3  95123338.81803      1918.438 3        21.643    23230088.215 4  95123356.90104      1917.814 4        27.305
G17         5.000    23687550.374 5 124478799.85905     -3719.496 5        35.176                                    23687539.757 1  96996539.76001     -2898.239 1        11.926    23687566.725 5                     -2898.460 5        31.336
G15         6.000    23724771.072 7 124674725.85107     -4673.924 7        43.424                                    23724778.290 5  97149010.58005     -3642.005 5        34.748    23724779.621 6  97148974.57106     -3642.041 6        39.712
G12         7.000    20758195.249 8 109085041.40008       810.230 8        50.140                                    20758196.541 7  85001336.65007       631.347 7        45.806    20758196.238 7  85001360.64607       631.426 7        42.961
E30         9.000    24314300.188 7 127772534.46107       488.965 7        45.401                                                                    24314307.816 8  95414577.45208       365.220 8        50.478    24314306.456 8  97903657.73508       374.659 8        50.616
G32        11.000    24470988.482 6 128595883.45506      2059.867 6        36.314                                    24471001.667 4 100204590.20504      1605.107 4        25.850    24470999.103 5 100204629.23105      1605.167 5        33.449
G10        12.000    24880894.525 6 130750066.00806     -2524.725 6        36.646                                    24880939.218 1 101883312.95301     -1967.345 1        10.518
E02        13.000    23693596.727 7 124510700.09507     -2049.038 7        45.865                                                                    23693603.850 8  92978854.43408     -1530.137 8        49.428    23693602.332 8  95404395.75008     -1570.071 8        49.479
E25        14.000    27588306.023 3                     -3427.229 3        21.048
G24        16.000    20142055.968 5 105847311.40305     -1488.584 5        34.690                                    20142045.205 4  82478258.00704     -1159.939 4        25.895    20142048.460 5  82478322.06215     -1160.084 5        34.205
E08        17.000    25006791.778 7 131411508.38707     -3288.695 7        43.433                                                                    25006798.876 7  98131967.40207     -2455.913 7        43.130    25006796.066 7 100691971.49507     -2519.991 7        43.270
E07        18.000    24382580.527 7 128131402.98107      -557.249 7        42.542                                                                    24382588.470 7  95682560.92207      -416.177 7        45.412    24382593.170 7  98178596.84907      -427.067 7        43.336
R22        22.000    21289480.593 7 113644845.74107      -114.679 7        45.592                                                                    21289485.748 7  88390336.12007       -89.177 7        45.201
S36        23.000    38243853.695 5 200972752.67505      -841.398 5        35.462
S23        24.000    38180625.922 5 200640534.16405      -845.271 5        35.829
R04        25.000    21330130.414 8 114221982.22708       567.914 8        50.249                                                                    21330138.815 7  88839296.12107       441.752 7        44.167
E29        26.000    27662817.420 5 145369104.44805      1750.094 5        34.700                                                                    27662834.400 6 108554890.26106      1306.824 6        38.883    27662832.394 6 111386743.47206      1340.931 6        40.460
R13        29.000    19499382.857 6 104125615.08306      -741.616 6        36.151
R21        30.000                                                                                                                                    23393313.481 4                     -3003.930 4        29.517
R12        31.000    21117526.534 8 112806037.96808     -3377.031 8        48.839                                                                    21117536.488 7  87738050.15907     -2626.625 7        43.355
C10        32.000                                                                                                                                    38901807.909 5 202571889.69205     -1408.793 5        30.483    38901816.390 6 156641467.57706     -1089.194 6        41.597    38901811.550 5 164606255.89105     -1144.410 5        35.714
R03        33.000    20847428.888 6 111597943.42606     -3279.600 6        39.895
C24        34.000                                                                                                                                    21758661.147 7 113303046.64207       308.252 7        44.298                                                                    21758663.555 7  92068067.52907       250.522 7        46.612
R14        35.000    22358510.407 7 119183428.55907      2166.102 7        44.290                                                                    22358522.226 5  92698326.15105      1684.647 5        33.701
C26        37.000                                                                                                                                    22458970.758 7 116949796.82407     -2336.266 7        42.845                                                                    22458972.181 6  95031313.63006     -1898.454 6        39.042
S21        38.000    38472079.386 5 202172143.60105      -840.932 5        34.481
C44        39.000                                                                                                                                                                                                                                                                    24207328.829 5 102429139.20505      1807.343 5        33.647
C35        40.000                                                                                                                                    23211126.723 6 120866383.82506       112.034 6        37.958                                                                    23211126.081 5  98213903.36205        90.887 5        33.036
C42        41.000                                                                                                                                    25997593.354 6 135376295.25406     -4096.852 6        36.975                                                                    25997615.237 4 110004422.03404     -3329.394 4        26.874
R02        43.000    23554695.590 3                     -5396.729 3        21.738
C40        44.000                                                                                                                                    40106707.618 3                     -1985.049 3        23.048                                                                    40106644.530 4                     -1614.482 4        28.218
C33        46.000                                                                                                                                    24480759.351 6 127477706.94706     -2455.035 6        39.667                                                                    24480782.429 7 103586284.70507     -1994.968 7        42.798
C14        48.000                                                                                                                                    24872828.077 5 129519471.91805     -3547.434 5        34.452    24872834.282 5 100152701.06005     -2742.780 5        34.090    24872847.186 5 105245157.25205     -2882.533 5        35.448
C41        50.000                                                                                                                                                                                                                                                                    25592921.792 6 108292021.51106       176.600 6        37.009
C29        51.000                                                                                                                                    25490961.081 6 132738068.94506     -2977.192 6        38.228                                                                    25490975.850 4                     -2419.088 4        29.659
C07        53.000                                                                                                                                                                                                    39730221.665 4                     -1317.342 4        28.502    39730209.469 4 168111518.48904     -1384.292 4        26.503
I02        56.000    36943134.015 5 144972787.15305      -690.283 5        32.257
I06        58.000    38408427.372 6 150722891.23606      -739.189 6        37.070
> 2025 01 01 12 00 15.0000000  0 39
G19         1.000    21383835.462 7 112372792.29207     -1835.708 7        43.094                                    21383837.476 4  87563222.00104     -1430.413 4        26.599
G25         3.000    23227737.712 7 122062557.06207      2460.579 7        42.815                                    23227741.916 3  95113749.67903      1917.341 3        23.010    23227746.514 4  95113767.74704      1917.029 4        28.559
G17         5.000    23691096.968 5 124497403.11505     -3721.593 5        34.900                                    23691079.954 1  97011035.66201     -2899.897 1        10.667    23691097.013 5                     -2899.861 5        31.291
G15         6.000    23729218.318 7 124698098.17907     -4674.963 7        43.037                                    23729226.311 5  97167222.72705     -3642.815 5        34.805    23729227.126 6  97167186.70506     -3642.576 6        39.784
G12         7.000    20757425.252 8 109080996.82908       807.636 8        49.457                                    20757426.657 7  84998185.02907       629.331 7        45.392    20757426.574 7  84998209.01607       629.368 7        42.969
E30         9.000    24313836.299 7 127770094.28707       487.281 7        46.463                                                                    24313843.530 8  95412755.24708       363.854 8        50.699    24313842.095 8  97901787.99608       373.320 8        50.649
G32        11.000    24469030.380 6 128585589.96606      2057.804 6        37.357                                    24469042.412 4 100196569.29104      1603.497 4        24.602    24469039.620 5 100196608.32405      1603.513 5        32.772
G10        12.000    24883299.362 6 130762697.46406     -2527.441 6        37.520                                    24883342.728 2 101893155.62702     -1969.429 2        12.727    24883342.719 4                     -1970.477 4        24.150
E02        13.000    23695547.166 7 124520949.46807     -2050.569 7        46.167                                                                    23695554.243 8  92986508.18408     -1531.325 8        49.589    23695552.798 8  95412249.15708     -1571.224 8        49.579
E25        14.000    27591579.000 3                     -3425.792 3        19.701
G24        16.000    20143469.764 5 105854764.41305     -1492.272 5        35.367                                    20143465.732 4  82484065.55504     -1162.815 4        26.192    20143470.301 6  82484129.57506     -1162.627 6        37.558
E08        17.000    25009921.203 6 131427957.45706     -3290.506 6        41.733                                                                    25009929.175 7  98144250.77907     -2457.310 7        43.744    25009926.659 7 100704575.31607     -2521.478 7        43.803
E07        18.000    24383111.474 7 128134196.59507      -560.039 7        42.582                                                                    24383120.118 7  95684647.05907      -418.213 7        45.523    24383123.778 7  98180737.42607      -429.216 7        43.486
R22        22.000    21289590.071 7 113645431.28407      -119.476 7        45.166                                                                    21289595.165 7  88390791.53407       -92.956 7        44.310
S36        23.000    38244657.138 5 200976960.40705      -841.644 5        35.576
S23        24.000    38181431.177 5 200644762.24405      -845.550 5        35.605
R04        25.000    21329602.793 8 114219154.89308       563.159 8        50.721                                                                    21329610.482 7  88837097.07607       438.004 7        43.361
E29        26.000    27661152.954 5 145360357.77405      1748.815 5        33.467                                                                    27661168.848 6 108548358.59506      1305.683 6        38.871    27661167.489 6 111380041.42706      1339.802 6        39.616
R13        29.000    19500080.410 6 104129330.36906      -744.109 6        38.243
R21        30.000    23396876.105 5 125201690.59515     -3865.816 5        34.581                                                                    23396929.789 4                     -3007.345 4        29.602
R12        31.000    21120688.014 8 112822927.33108     -3378.650 8        48.864                                                                    21120698.938 7  87751186.30607     -2627.778 7        42.595
C10        32.000                                                                                                                                    38903161.366 5 202578934.19205     -1409.217 5        31.600    38903169.022 6 156646914.85506     -1089.680 6        41.700    38903164.418 5 164611980.13005     -1144.987 5        35.976
R03        33.000    20850496.154 6 111614352.19106     -3283.682 6        41.507                                                                    20850499.345 5  86811169.59515     -2553.530 5        34.838
C24        34.000                                                                                                                                    21758366.152 7 113301509.93507       306.512 7        44.667                                                                    21758368.450 7  92066818.80607       249.116 7        46.591
R14        35.000    22356479.162 7 119172600.89007      2164.977 7        43.710                                                                    22356490.307 5  92689904.63005      1683.983 5        35.005
C26        37.000                                                                                                                                    22461215.552 7 116961482.58607     -2337.950 7        42.991                                                                    22461216.699 6  95040809.22506     -1899.786 6        39.348
S21        38.000    38472883.133 5 202176349.47305      -841.431 5        34.490
C44        39.000                                                                                                                                                                                                                                                                    24205193.985 5 102420105.80205      1806.254 5        32.641
C35        40.000                                                                                                                                    23211015.997 5 120865831.94105       108.831 5        34.543                                                                    23211022.499 5  98213454.88205        88.643 5        34.333
C42        41.000                                                                                                                                    26001527.602 6 135396781.77506     -4097.482 6        36.526                                                                    26001550.872 4 110021068.89504     -3328.728 4        26.467
R02        43.000    23559753.022 3                     -5398.715 3        20.500
C40        44.000                                                                                                                                    40108615.378 4                     -1987.654 4        24.256                                                                    40108552.312 4                     -1614.914 4        28.265
C33        46.000                                                                                                                                    24483119.341 6 127489989.37106     -2457.989 6        40.079                                                                    24483140.786 7 103596265.14007     -1997.126 7        42.447
C14        48.000                                                                                                                                    24876236.077 5 129537212.73605     -3549.095 5        34.690    24876244.513 6 100166419.30206     -2744.144 6        36.393    24876252.759 6 105259573.09006     -2883.978 6        36.461
C41        50.000                                                                                                                                                                                                                                                                    25592713.655 5 108291145.29605       174.016 5        35.538
C29        51.000                                                                                                                                    25493819.339 6 132752960.71706     -2979.461 6        36.136                                                                    25493835.422 4                     -2421.395 4        28.806
C07        53.000                                                                                                                                                                                                    39731856.079 4                     -1317.820 4        28.199    39731845.578 4 168118441.71704     -1384.696 4        26.024
I02        56.000    36944014.121 5 144976240.62005      -690.818 5        32.401
I06        58.000    38409370.466 6 150726588.22906      -739.511 6        36.938
> 2025 01 01 12 00 20.0000000  0 40
G19         1.000    21385584.059 7 112381978.29107     -1838.742 7        43.833                                    21385585.282 4  87570379.90404     -1432.784 4        27.114
G25         3.000    23225397.270 7 122050255.88807      2459.729 7        42.531                                    23225400.847 3  95104164.38403      1916.662 3        23.810    23225406.959 4  95104182.42704      1916.919 4        29.062
G17         5.000    23694641.441 5 124516014.62805     -3723.055 5        34.438                                    23694621.694 1  97025538.09601     -2901.036 1        11.630    23694634.581 5                     -2901.109 5        30.792
G15         6.000    23733666.602 7 124721473.33307     -4675.215 7        42.603                                    23733674.869 5  97185437.08205     -3643.017 5        34.724    23733674.925 6  97185401.07406     -3643.171 6        39.994
G12         7.000    20756657.345 8 109076963.52008       805.601 8        48.654                                    20756658.879 7  84995042.18507       627.745 7        44.858    20756658.939 7  84995066.17907       627.649 7        43.010
E30         9.000    24313373.474 7 127767660.60307       486.070 7        47.211                                                                    24313380.541 8  95410937.89008       362.985 8        50.719    24313378.959 8  97899923.23408       372.466 8        50.650
G32        11.000    24467072.664 6 128575305.58706      2056.173 6        38.186                                    24467084.570 3 100188555.49403      1602.208 3        23.143    24467083.156 5 100188594.52205      1602.225 5        32.737
G10        12.000    24885711.518 6 130775340.52406     -2529.857 6        38.072                                    24885748.644 1 101903007.30901     -1971.297 1        11.852
E02        13.000    23697498.596 7 124531204.55407     -2051.548 7        46.251                                                                    23697505.712 8  92994166.19808     -1532.084 8        49.492    23697504.390 8  95420106.94108     -1571.967 8        49.842
E25        14.000    27594837.633 3                     -3428.979 3        20.714
G24        16.000    20144889.052 6 105862231.58206     -1494.811 6        36.374                                    20144888.701 4  82489884.16004     -1164.804 4        26.204    20144890.632 6  82489948.19006     -1164.839 6        39.327
E08        17.000    25013052.192 6 131444414.55506     -3292.182 6        39.486                                                                    25013060.807 7  98156540.14307     -2458.510 7        43.814    25013058.694 7 100717185.27207     -2522.550 7        44.245
E07        18.000    24383644.830 7 128137002.34907      -562.413 7        42.760                                                                    24383654.000 7  95686742.26407      -419.852 7        45.374    24383656.437 7  98182887.30407      -430.922 7        43.634
R22        22.000    21289703.949 7 113646039.37907      -123.787 7        45.449                                                                    21289709.166 7  88391264.49007       -96.328 7        44.161
S36        23.000    38245457.000 5 200981168.92905      -841.605 5        35.457
S23        24.000    38182232.339 5 200648990.62905      -845.884 5        35.271
R04        25.000    21329078.444 8 114216349.71008       558.801 8        50.146                                                                    21329086.067 7  88834915.26507       434.601 7        42.959
E29        26.000    27659488.437 5 145351616.79705      1747.427 5        32.323                                                                    27659504.732 6 108541831.18606      1305.172 6        38.745    27659504.005 6 111373343.74606      1339.237 6        38.997
R13        29.000    19500779.644 6 104133056.50106      -746.073 6        39.811
R21        30.000    23400494.642 5                     -3868.935 5        34.490                                                                    23400541.693 4                     -3009.679 4        26.838
R12        31.000    21123851.237 8 112839822.85608     -3379.681 8        48.928                                                                    21123861.043 6  87764327.24206     -2628.598 6        41.080
C10        32.000                                                                                                                                    38904514.983 5 202585980.38405     -1409.551 5        32.737    38904522.139 6 156652363.40406     -1089.957 6        41.333    38904517.869 5 164617705.73505     -1145.187 5        35.967
R03        33.000    20853567.270 7 111630780.01907     -3287.451 7        42.324                                                                    20853570.454 6  86823946.77806     -2557.012 6        36.805
C24        34.000                                                                                                                                    21758073.487 7 113299980.20107       305.408 7        45.479                                                                    21758074.513 7  92065575.77907       248.053 7        46.469
R14        35.000    22354448.765 7 119161777.30407      2164.328 7        45.112                                                                    22354462.605 6  92681486.30106      1683.261 6        38.351
R23        36.000    22140910.687 5                      2931.517 5        32.479
C26        37.000                                                                                                                                    22463461.273 7 116973175.00407     -2339.166 7        43.018                                                                    22463462.243 6  95050310.26606     -1900.657 6        40.002
S21        38.000    38473684.971 5 202180555.50905      -841.129 5        34.681
C44        39.000                                                                                                                                    24203064.051 5 126031639.18105      2221.831 5        33.443                                                                    24203060.121 5 102411076.93105      1805.763 5        32.084
C35        40.000                                                                                                                                    23210913.246 5 120865294.03705       105.898 5        30.687                                                                    23210921.712 5  98213017.74505        86.237 5        35.557
C42        41.000                                                                                                                                    26005462.103 6 135417269.40406     -4097.839 6        36.408                                                                    26005485.504 4 110037716.82604     -3329.622 4        27.329
R02        43.000                                                                                                                                    23564817.773 3                     -4200.220 3        21.286
C40        44.000                                                                                                                                    40110518.501 4                     -1987.502 4        24.150                                                                    40110460.304 4                     -1615.014 4        27.269
C33        46.000                                                                                                                                    24485486.851 6 127502284.03706     -2460.030 6        39.697                                                                    24485501.631 7 103606255.56807     -1999.000 7        42.351
C14        48.000                                                                                                                                    24879647.850 5 129554960.71405     -3550.287 5        34.867    24879656.975 6 100180143.08106     -2745.415 6        37.951    24879660.783 6 105273994.72206     -2884.949 6        37.350
C41        50.000                                                                                                                                                                                                                                                                    25592507.704 5 108290280.27805       171.972 5        33.228
C29        51.000                                                                                                                                    25496679.577 5 132767863.13305     -2981.669 5        33.174                                                                    25496696.732 4                     -2422.069 4        27.425
C07        53.000                                                                                                                                    39733522.847 3                     -1705.078 3        22.990    39733494.177 4                     -1317.556 4        28.114    39733481.013 4 168125365.98404     -1385.279 4        26.132
I02        56.000    36944894.175 5 144979695.15705      -691.028 5        32.365
I06        58.000    38410312.402 6 150730285.38106      -739.453 6        37.263
> 2025 01 01 12 00 25.0000000  0 40
G19         1.000    21387335.333 7 112391179.65107     -1842.085 7        43.462                                    21387336.002 4  87577549.77404     -1435.382 4        27.257
G25         3.000    23223055.268 6 122037958.66606      2458.726 6        40.987                                    23223060.628 3  95094582.18703      1915.876 3        23.924    23223065.820 4  95094600.19804      1915.934 4        29.564
G17         5.000    23698181.609 5 124534633.38205     -3724.773 5        33.587                                    23698164.770 1  97040046.08201     -2902.420 1        10.370    23698174.179 4                     -2902.454 4        29.062
G15         6.000    23738115.377 6 124744850.38306     -4675.917 6        41.659                                    23738123.740 5  97203652.90705     -3643.561 5        34.905    23738123.538 6  97203616.89006     -3643.450 6        39.916
G12         7.000    20755891.815 7 109072940.54407       803.250 7        47.681                                    20755893.043 7  84991907.38507       625.911 7        44.414    20755893.314 7  84991931.38207       625.941 7        42.728
E30         9.000    24312911.334 7 127765232.43007       484.691 7        47.764                                                                    24312918.567 8  95409124.64308       361.959 8        50.734    24312916.771 8  97898062.68508       371.402 8        50.466
G32        11.000    24465116.305 6 128565029.29306      2054.269 6        39.646                                    24465127.413 3 100180547.99103      1600.740 3        21.357    24465127.178 5 100180587.02605      1600.323 5        32.114
G10        12.000    24888123.428 5 130787994.17605     -2532.202 5        34.776                                    24888156.497 1 101912867.30201     -1973.143 1         7.750
E02        13.000    23699450.784 7 124541464.35907     -2052.812 7        45.865                                                                    23699458.015 8  93001827.72608     -1532.937 8        49.364    23699456.856 8  95427968.34108     -1572.948 8        49.904
E25        14.000    27598097.857 3                     -3430.243 3        20.881
G24        16.000    20146309.968 6 105869712.08406     -1497.830 6        38.282                                    20146313.798 4  82495713.11804     -1167.152 4        28.284    20146314.681 6  82495777.16506     -1167.238 6        40.231
E08        17.000    25016184.631 6 131460878.65706     -3294.004 6        36.408                                                                    25016193.692 7  98168834.73907     -2459.719 7        43.695    25016191.903 7 100729800.60107     -2523.894 7        44.488
E07        18.000    24384180.540 7 128139819.28107      -564.866 7        42.663                                                                    24384189.911 7  95688845.81307      -421.722 7        45.201    24384190.788 7  98185045.73707      -432.700 7        43.591
R22        22.000    21289821.924 7 113646669.05907      -128.438 7        45.315                                                                    21289827.135 7  88391754.23807       -99.841 7        43.991
S36        23.000    38246258.417 5 200985376.80005      -841.713 5        35.424
S23        24.000    38183038.604 5 200653218.13705      -845.829 5        35.329
R04        25.000    21328556.833 8 114213565.75108       554.242 8        49.594                                                                    21328566.703 7  88832749.95407       431.118 7        43.060
E29        26.000    27657825.486 5 145342880.59505      1746.213 5        31.215                                                                    27657841.763 6 108535307.36006      1304.137 6        38.721    27657841.171 6 111366649.74806      1338.180 6        38.372
R13        29.000    19501479.562 6 104136792.26906      -748.627 6        40.155
R21        30.000    23404114.601 5 125240381.17215     -3872.333 5        32.862                                                                    23404155.860 4                     -3013.028 4        24.090
R12        31.000    21127015.029 8 112856723.43208     -3381.012 8        48.914                                                                    21127025.124 6  87777472.13106     -2629.834 6        40.448
C10        32.000                                                                                                                                    38905869.822 5 202593027.27905     -1409.721 5        33.216    38905875.821 6 156657812.51906     -1090.175 6        41.097    38905870.795 5 164623431.92605     -1145.700 5        35.848
R03        33.000    20856639.283 6 111647226.00706     -3291.373 6        41.507                                                                    20856643.014 6  86836738.04206     -2559.998 6        37.312
C24        34.000                                                                                                                                    21757780.994 7 113298456.51607       303.832 7        46.216                                                                    21757781.807 7  92064337.65007       246.802 7        46.184
R14        35.000    22352419.336 7 119150956.78607      2163.344 7        46.416                                                                    22352434.640 6  92673070.30706      1682.639 6        40.429
R23        36.000    22138169.918 5                      2929.033 5        32.713
C26        37.000                                                                                                                                    22465707.553 7 116984873.11907     -2340.494 7        43.418                                                                    22465708.922 6  95059815.91706     -1901.885 6        40.429
S21        38.000    38474482.699 5 202184760.67405      -841.316 5        34.429
C44        39.000                                                                                                                                    24200936.699 5 126020532.45705      2220.431 5        34.090                                                                    24200926.108 5 102402051.88705      1804.315 5        31.230
C35        40.000                                                                                                                                    23210807.810 4 120864768.96804       103.780 4        26.335                                                                    23210822.110 6  98212591.16206        84.030 6        36.703
C42        41.000                                                                                                                                    26009397.122 6 135437757.19206     -4098.058 6        36.370                                                                    26009420.609 4 110054364.71204     -3329.954 4        28.019
R02        43.000                                                                                                                                    23569882.020 3                     -4199.006 3        22.324
C40        44.000                                                                                                                                    40112420.975 4                     -1986.739 4        24.526                                                                    40112369.271 4                     -1615.226 4        27.940
C33        46.000                                                                                                                                    24487857.236 6 127514590.05406     -2462.622 6        37.622                                                                    24487864.762 7 103616255.17407     -2001.125 7        42.104
C14        48.000                                                                                                                                    24883059.528 5 129572714.82305     -3551.930 5        35.676    24883065.595 6 100193871.56406     -2746.483 6        38.237    24883070.393 6 105288421.30906     -2886.221 6        37.769
C41        50.000                                                                                                                                                                                                                                                                    25592304.986 5 108289425.61805       169.445 5        30.513
C29        51.000                                                                                                                                    25499541.710 5 132782775.17705     -2983.498 5        31.547                                                                    25499558.231 4                     -2424.325 4        25.654
C07        53.000                                                                                                                                    39735161.276 3                     -1705.756 3        23.143    39735131.068 4                     -1318.038 4        27.593    39735118.583 4                     -1384.754 4        26.395
I02        56.000    36945774.352 5 144983150.34505      -691.203 5        32.263
I06        58.000    38411254.247 6 150733981.98206      -739.442 6        37.236
