     3.04           OBSERVATION DATA    M                   RINEX VERSION / TYPE
ssrcrin-15.6.1x                         20250101 193000 UTC PGM / RUN BY / DATE 
(00000000023479385599111004) Septentrio proprietary         COMMENT             
ract                                                        MARKER NAME         
01                                                          MARKER NUMBER       
geodetic                                                    MARKER TYPE         
NFB                 CLIMERS@TUW                             OBSERVER / AGENCY   
3296359             SEPT ASTERX SB3 PROB4.14.4              REC # / TYPE / VERS 
Unknown             Unknown                                 ANT # / TYPE        
  4127447.1964  1206914.8420  4695544.6930                  APPROX POSITION XYZ 
        0.0000        0.0000        0.0000                  ANTENNA: DELTA H/E/N
G   23 X1  C1C L1C D1C S1C C1W S1W C2W L2W D2W S2W C2L L2L  SYS / # / OBS TYPES 
       D2L S2L C5Q L5Q D5Q S5Q C1L L1L D1L S1L              SYS / # / OBS TYPES 
E   21 X1  C1C L1C D1C S1C C6C L6C D6C S6C C5Q L5Q D5Q S5Q  SYS / # / OBS TYPES 
       C7Q L7Q D7Q S7Q C8Q L8Q D8Q S8Q                      SYS / # / OBS TYPES 
S    9 X1  C1C L1C D1C S1C C5I L5I D5I S5I                  SYS / # / OBS TYPES 
R   17 X1  C1C L1C D1C S1C C2P L2P D2P S2P C2C L2C D2C S2C  SYS / # / OBS TYPES 
       C3Q L3Q D3Q S3Q                                      SYS / # / OBS TYPES 
C   25 X1  C1P L1P D1P S1P C5P L5P D5P S5P C2I L2I D2I S2I  SYS / # / OBS TYPES 
       C7I L7I D7I S7I C6I L6I D6I S6I C7D L7D D7D S7D      SYS / # / OBS TYPES 
J   17 X1  C1C L1C D1C S1C C2L L2L D2L S2L C5Q L5Q D5Q S5Q  SYS / # / OBS TYPES 
       C1L L1L D1L S1L                                      SYS / # / OBS TYPES 
I    5 X1  C5A L5A D5A S5A                                  SYS / # / OBS TYPES 
SEPTENTRIO RECEIVERS OUTPUT ALIGNED CARRIER PHASES.         COMMENT             
NO FURTHER PHASE SHIFT APPLIED IN THE RINEX ENCODER.        COMMENT             
G L1C                                                       SYS / PHASE SHIFT   
G L2W                                                       SYS / PHASE SHIFT   
G L2L  0.00000                                              SYS / PHASE SHIFT   
G L5Q  0.00000                                              SYS / PHASE SHIFT   
G L1L  0.00000                                              SYS / PHASE SHIFT   
E L1C  0.00000                                              SYS / PHASE SHIFT   
E L6C  0.00000                                              SYS / PHASE SHIFT   
E L5Q  0.00000                                              SYS / PHASE SHIFT   
E L7Q  0.00000                                              SYS / PHASE SHIFT   
E L8Q  0.00000                                              SYS / PHASE SHIFT   
S L1C                                                       SYS / PHASE SHIFT   
S L5I                                                       SYS / PHASE SHIFT   
R L1C                                                       SYS / PHASE SHIFT   
R L2P  0.00000                                              SYS / PHASE SHIFT   
R L2C                                                       SYS / PHASE SHIFT   
R L3Q  0.00000                                              SYS / PHASE SHIFT   
C L1P  0.00000                                              SYS / PHASE SHIFT   
C L5P  0.00000                                              SYS / PHASE SHIFT   
C L2I                                                       SYS / PHASE SHIFT   
C L7I                                                       SYS / PHASE SHIFT   
C L6I                                                       SYS / PHASE SHIFT   
C L7D                                                       SYS / PHASE SHIFT   
J L1C                                                       SYS / PHASE SHIFT   
J L2L  0.00000                                              SYS / PHASE SHIFT   
J L5Q  0.00000                                              SYS / PHASE SHIFT   
J L1L  0.00000                                              SYS / PHASE SHIFT   
I L5A                                                       SYS / PHASE SHIFT   
  2025     1     1    19    30    0.0000000     GPS         TIME OF FIRST OBS   
 C1C    0.000 C2C    0.000 C2P    0.000                     GLONASS COD/PHS/BIS 
DBHZ                                                        SIGNAL STRENGTH UNIT
    18                                                      LEAP SECONDS        
 24 R01  1 R02 -4 R03  5 R04  6 R05  1 R06 -4 R07  5 R08  6 GLONASS SLOT / FRQ #
    R09 -2 R10 -7 R11  0 R12 -1 R13 -2 R14 -7 R15  0 R16 -1 GLONASS SLOT / FRQ #
    R17  4 R18 -3 R19  3 R20  2 R21  4 R22 -3 R23  3 R24  2 GLONASS SLOT / FRQ #
                                                            END OF HEADER       
> 2025 01 01 19 30  0.0000000  0 37
G18         1.000    21997693.197 7 115598880.34807     -3345.902 7        47.008                                    21997688.826 5  90076915.73105     -2607.191 5        30.777    21997689.137 6  90076935.73406     -2607.156 6        41.364
G10         2.000                                                                                                                                                                    22086928.438 4                      1525.974 4        25.564
G07         3.000    25039692.634 5 131584363.76205      -536.618 5        30.302                                    25039660.975 1 102533232.41301      -418.075 1         4.000    25039663.618 4                      -419.312 4        24.135
G23         4.000    20782018.131 7 109210254.31007      -460.605 7        43.274                                    20782013.527 3  85098863.55203      -358.912 3        23.086    20782012.649 6  85098885.51606      -358.797 6        37.845
G15         5.000    23610153.000 4                      -263.946 4        27.988
G08         6.000                                                                                                                                                                    22979776.308 5  94098210.72005      1765.091 5        30.106
G27         7.000    20588986.660 6 108196349.52406       895.960 6        41.137                                    20588981.010 3  84308489.52803       698.137 3        22.381    20588983.708 5  84308458.53705       698.029 5        31.909
E15        10.000    26100582.464 6 137159480.71806     -3289.771 6        37.595                                                                    26100584.372 6 102424348.42506     -2456.833 6        39.111    26100582.631 6 105096218.27206     -2520.918 6        40.577
E27        15.000    26969501.936 5 141725664.65905     -3995.459 5        34.919                                                                    26969500.305 6 105834091.33006     -2983.579 6        38.760    26969488.918 4 108594969.82004     -3061.612 4        25.699
E13        16.000    23186246.750 7 121844636.29107     -1291.207 7        42.984                                                                    23186248.644 8  90987875.00608      -964.159 8        48.802    23186247.900 8  93361425.95508      -989.319 8        48.322
G16        18.000    20715050.188 8 108858335.46208     -2272.411 8        49.557                                    20715046.204 6  84824578.73406     -1770.710 6        38.508
E26        19.000    24944466.053 6 131084043.92306      1131.280 6        38.544                                                                    24944462.235 6  97887433.78206       845.058 6        39.258    24944462.417 6 100441066.56406       867.159 6        39.682
E21        22.000    23989493.726 6 126065749.73306     -2232.668 6        40.315                                                                    23989494.930 7  94139941.73907     -1667.187 7        45.926    23989495.698 7  96595792.73407     -1710.689 7        44.197
S36        23.000    38117304.040 6 200307655.26206      -850.505 6        36.771
S23        24.000    38072494.062 6 200072316.07006      -851.386 6        39.535
G26        25.000    22327164.294 5 117330397.01105     -3962.104 5        33.132                                    22327161.623 4  91426048.52204     -3087.349 4        27.964    22327163.728 5  91426033.49405     -3087.061 5        35.538
R02        27.000    22326258.195 6 119137184.66506     -2294.695 6        39.895                                                                    22326277.237 6  92662458.30106     -1784.733 6        37.365
R19        29.000    19538538.220 5 104518026.59005      -528.960 5        34.543                                                                    19538538.536 7  81291806.35107      -411.364 7        43.259
R18        30.000    20381587.144 7 108798274.30907     -3051.245 7        45.904                                                                    20381589.433 6  84620896.14006     -2373.310 6        39.159
R03        32.000                                                                                                                                    21480124.057 5                      1066.889 5        30.430
R16        33.000    22326158.251 7 119262389.17107     -5209.666 7        42.779                                                                    22326167.037 5  92759619.42205     -4051.916 5        34.148
R09        34.000    20276583.634 8 108276259.63208     -2058.763 8        48.897                                                                    20276580.347 7  84214516.17607     -1601.333 7        47.209
R10        35.000    21689466.023 5 115617026.70005      1358.879 5        35.243
C37        36.000                                                                                                                                                                                                                                                                    24008388.923 6 101587343.28006     -2044.453 6        36.639
C33        37.000                                                                                                                                    25021494.480 6 130293547.10106      2311.525 6        41.890                                                                    25021505.300 7 105874193.25407      1878.277 7        42.607
C28        40.000                                                                                                                                    22003723.856 7 114579423.81107       515.809 7        47.001                                                                    22003722.552 7  93104989.05907       419.025 7        44.969
C21        41.000                                                                                                                                    25795317.242 6 134322948.93406     -2673.665 6        37.614                                                                    25795312.490 4                     -2172.917 4        27.018
C43        42.000                                                                                                                                    22546213.533 6 117404052.87406     -2609.203 6        40.877                                                                    22546207.874 6  95400559.29806     -2120.279 6        38.468
C11        44.000                                                                                                                                    24202681.362 4                     -3272.698 4        28.815    24202677.108 5  97454194.26005     -2530.565 5        30.566    24202677.062 5 102409562.03705     -2659.128 5        30.098
C13        45.000                                                                                                                                    37944674.504 5 197587898.13005     -1580.348 5        35.652    37944676.923 6 152787471.13206     -1221.832 6        41.228    37944675.598 5 160556411.41005     -1283.675 5        34.495
C08        46.000                                                                                                                                    38297938.779 5 199427417.25405     -1846.798 5        33.994    38297930.960 7 154209961.38107     -1428.164 7        43.215    38297932.193 5                     -1501.119 5        34.590
C14        47.000                                                                                                                                    23961319.387 6 124772916.56406      1391.355 6        40.632    23961311.881 6  96482316.74706      1075.810 6        41.139    23961307.529 6 101388223.86206      1130.410 6        41.316
C42        48.000                                                                                                                                    23822701.365 6 124051196.38906       -49.598 6        38.153                                                                    23822706.368 5 100801698.85205       -40.412 5        32.659
C27        52.000                                                                                                                                    25242406.360 5 131443933.45505      1877.968 5        34.424                                                                    25242412.113 4                      1525.587 4        24.767
I09        54.000    38881624.162 5 152579852.05105       137.764 5        35.081
C23        55.000                                                                                                                                    25787079.442 5 134280095.55905     -4101.191 5        34.048                                                                    25787073.457 5                     -3332.607 5        31.404
I06        58.000    38576914.947 6 151384256.96906      -578.984 6        36.423
> 2025 01 01 19 30  5.0000000  0 37
G18         1.000    22000877.079 7 115615612.85707     -3347.081 7        46.758                                    22000873.014 5  90089954.05405     -2608.117 5        30.377    22000873.081 6  90089974.04106     -2608.045 6        41.790
G10         2.000                                                                                                                                                                    22085065.520 4                      1525.006 4        25.188
G07         3.000                                                                                                                                                                    25040179.956 4                      -420.077 4        28.626
G23         4.000    20782457.140 7 109212565.58007      -463.872 7        42.663                                    20782452.944 3  85100664.50003      -361.468 3        21.714    20782453.616 6  85100686.49506      -361.333 6        38.568
G15         5.000    23610408.339 5                      -266.880 5        31.011
G08         6.000                                                                                                                                                                    22977627.299 4  94089385.92604      1764.695 4        29.261
G27         7.000    20588138.518 6 108191874.15806       894.066 6        40.768                                    20588129.636 3  84305002.24403       696.698 3        22.971    20588133.593 5  84304971.23405       696.985 5        32.323
E15        10.000    26103713.023 6 137175931.05006     -3290.102 6        37.263                                                                    26103714.903 6 102436632.75606     -2456.911 6        38.991    26103712.761 6 105108823.05506     -2521.031 6        40.560
E27        15.000    26973304.355 5 141745642.72905     -3995.406 5        33.856                                                                    26973301.917 6 105849009.99306     -2983.754 6        38.685    26973291.263 4 108610277.60204     -3061.018 4        26.000
E13        16.000    23187475.966 7 121851095.46307     -1292.400 7        43.162                                                                    23187477.775 8  90992698.41708      -965.186 8        48.887    23187476.959 8  93366375.19608      -990.345 8        48.728
G16        18.000    20717213.679 8 108869705.25208     -2275.408 8        48.529                                    20717209.758 6  84833438.31106     -1773.046 6        38.291
E26        19.000    24943390.143 6 131078388.92506      1130.524 6        39.003                                                                    24943386.381 6  97883210.90706       844.303 6        38.817    24943387.382 6 100436733.55606       866.243 6        40.014
E21        22.000    23991619.108 6 126076917.64206     -2234.632 6        40.286                                                                    23991620.163 7  94148281.42207     -1668.616 7        45.690    23991620.684 7  96604349.95607     -1712.059 7        42.976
S36        23.000    38118110.546 6 200311907.82006      -850.415 6        36.930
S23        24.000    38073304.924 6 200076572.89606      -851.224 6        39.649
G26        25.000    22330933.430 4 117350210.14504     -3963.295 4        29.545                                    22330931.827 4  91441487.31804     -3088.269 4        26.766    22330934.926 5  91441472.30405     -3088.174 5        35.462
R02        27.000    22328410.652 6 119148668.02106     -2298.509 6        39.099                                                                    22328419.429 6  92671389.85306     -1787.839 6        36.571
R19        29.000    19539032.646 5 104520675.92105      -530.657 5        33.515                                                                    19539034.020 7  81293866.95807      -412.834 7        43.101
R18        30.000    20384446.493 7 108813533.43207     -3052.347 7        45.449                                                                    20384447.284 6  84632764.34806     -2374.136 6        38.946
R03        32.000    21478839.743 6 114978039.61616      1368.153 6        38.270                                                                    21478847.431 5                      1064.105 5        32.844
R16        33.000    22331034.018 6 119288440.35306     -5210.795 6        41.931                                                                    22331042.374 5  92779881.51005     -4052.865 5        34.257
R09        34.000    20278513.540 8 108286564.40208     -2063.070 8        49.214                                                                    20278510.100 7  84222530.97707     -1604.608 7        47.042
R10        35.000    21688188.685 5 115610240.93505      1355.154 5        32.108
C37        36.000                                                                                                                                                                                                                                                                    24010805.965 6 101597569.42306     -2046.283 6        36.401
C33        37.000                                                                                                                                    25019275.540 7 130281991.51507      2310.752 7        42.174                                                                    25019286.139 7 105864803.39807      1877.689 7        42.571
C28        40.000                                                                                                                                    22003228.844 7 114576847.75707       514.660 7        47.364                                                                    22003227.679 7  93102895.79007       418.162 7        44.903
C21        41.000                                                                                                                                    25797882.008 6 134336322.10606     -2675.819 6        38.204                                                                    25797884.662 4                     -2173.833 4        24.586
C43        42.000                                                                                                                                    22548719.217 7 117417101.37007     -2610.168 7        42.411                                                                    22548714.532 6  95411162.26606     -2120.974 6        39.447
C11        44.000                                                                                                                                    24205820.741 4                     -3272.659 4        27.066    24205819.316 4  97466847.62504     -2531.192 4        29.725    24205820.137 4 102422858.80804     -2659.322 4        29.801
C13        45.000                                                                                                                                    37946191.900 5 197595799.23305     -1580.336 5        35.067    37946193.902 6 152793580.79306     -1222.119 6        41.340    37946193.111 5 160562831.74805     -1284.463 5        34.633
C08        46.000                                                                                                                                    38299712.028 5 199436653.50205     -1847.612 5        33.886    38299704.620 7 154217103.41707     -1428.501 7        42.794    38299703.978 5 162058577.14815     -1501.114 5        34.971
C14        47.000                                                                                                                                    23959982.367 6 124765965.28506      1389.471 6        40.136    23959976.854 6  96476941.59606      1074.370 6        40.663    23959972.238 6 101382575.38706      1128.940 6        40.520
C42        48.000                                                                                                                                    23822751.849 6 124051450.89006       -52.049 6        37.229                                                                    23822755.690 5 100801905.61905       -42.235 5        32.377
C27        52.000                                                                                                                                    25240603.483 5 131434544.04905      1877.821 5        33.910                                                                    25240615.169 4                      1526.096 4        24.466
I09        54.000    38881448.807 5 152579164.05905       137.763 5        34.881
C23        55.000                                                                                                                                    25791018.713 5 134300601.88005     -4101.331 5        34.157                                                                    25791010.734 5                     -3332.745 5        31.374
I06        58.000    38577652.501 6 151387150.81706      -578.721 6        36.446
> 2025 01 01 19 30 10.0000000  0 38
G18         1.000    22004062.158 7 115632351.46507     -3348.416 7        46.273                                    22004058.348 4  90102997.12304     -2609.152 4        29.716    22004057.780 6  90103017.11106     -2609.112 6        41.485
G10         2.000    22083344.886 4                      1955.614 4        25.985                                                                                                    22083202.463 4                      1523.200 4        24.571
G07         3.000                                                                                                                                                                    25040702.152 5                      -422.274 5        30.196
G23         4.000    20782899.861 6 109214893.49606      -467.390 6        40.594                                    20782896.046 3  85102478.45103      -364.206 3        21.000    20782897.374 6  85102500.46406      -364.120 6        39.024
G15         5.000    23610670.032 4                      -270.133 4        29.981
G08         6.000    22975505.368 3                      2262.159 3        23.371                                                                                                    22975471.817 4  94080564.02504      1764.239 4        28.512
G27         7.000    20587286.419 6 108187408.80706       892.119 6        39.583                                    20587280.712 3  84301522.76503       695.137 3        22.076    20587285.740 5  84301491.74505       695.392 5        31.638
E15        10.000    26106843.729 6 137192383.01606     -3290.679 6        36.197                                                                    26106845.609 6 102448918.30706     -2457.109 6        38.865    26106843.416 6 105121429.09006     -2521.377 6        40.713
E27        15.000    26977106.532 5 141765623.37005     -3996.786 5        32.060                                                                    26977103.850 6 105863930.58706     -2984.408 6        38.739    26977095.180 4 108625587.51504     -3062.508 4        25.910
E13        16.000    23188707.070 7 121857561.69107     -1294.035 7        43.128                                                                    23188708.176 8  90997527.10508      -966.299 8        48.891    23188707.454 8  93371329.85108      -991.575 8        49.003
G16        18.000    20719380.579 8 108881090.90108     -2278.809 8        48.219                                    20719376.214 6  84842310.24206     -1775.696 6        37.928
E26        19.000    24942315.331 6 131072739.50406      1129.178 6        38.799                                                                    24942311.583 6  97878992.19106       843.228 6        38.643    24942313.635 6 100432404.81506       865.249 6        40.265
E21        22.000    23993747.034 6 126088096.14606     -2236.763 6        41.447                                                                    23993747.235 7  94156629.03207     -1670.427 7        45.571    23993747.784 6  96612915.31406     -1713.956 6        41.676
S36        23.000    38118920.388 6 200316160.18206      -850.472 6        37.066
S23        24.000    38074114.623 6 200080829.78406      -851.601 6        39.754
G26        25.000    22334704.514 4 117370031.23904     -3965.009 4        28.711                                    22334703.659 4  91456932.31304     -3089.618 4        25.669    22334706.007 6  91456917.31606     -3089.902 6        36.015
R20        26.000                                                                                                                                    23088279.085 3                      1803.377 3        21.857
R02        27.000    22330568.995 6 119160172.25806     -2303.074 6        37.168                                                                    22330567.593 5  92680337.59905     -1791.222 5        34.481
R19        29.000    19539530.565 5 104523335.94305      -533.137 5        31.653                                                                    19539531.694 7  81295935.86407      -414.694 7        43.469
R18        30.000    20387306.667 7 108828799.27507     -3053.901 7        45.833                                                                    20387306.663 6  84644637.78506     -2375.218 6        37.471
R03        32.000    21477568.349 6 114971208.20206      1364.239 6        38.126                                                                    21477573.587 5  89421986.57215      1060.980 5        33.467
R16        33.000    22335911.771 7 119314497.64007     -5212.220 7        42.045                                                                    22335918.271 5  92800148.31705     -4054.026 5        34.109
R09        34.000    20280446.629 8 108296891.02808     -2067.414 8        49.163                                                                    20280443.763 7  84230562.81107     -1608.190 7        46.869
R10        35.000    21686913.477 5 115603474.22605      1351.245 5        30.649
C37        36.000                                                                                                                                    24013271.896 6 125043142.26416     -2520.296 6        37.433                                                                    24013225.225 6 101607804.79506     -2048.015 6        36.733
C33        37.000                                                                                                                                    25017057.190 7 130270440.28307      2309.749 7        42.199                                                                    25017068.033 7 105855417.08307      1876.903 7        42.667
C28        40.000                                                                                                                                    22002735.148 7 114574277.88807       513.273 7        47.415                                                                    22002734.034 7  93100807.55307       417.050 7        44.704
C21        41.000                                                                                                                                    25800447.301 6 134349707.04006     -2678.164 6        36.658                                                                    25800459.820 3                     -2177.159 3        20.452
C43        42.000                                                                                                                                    22551225.216 7 117430155.33407     -2611.421 7        43.026                                                                    22551222.347 6  95421769.67606     -2122.108 6        40.462
C11        44.000                                                                                                                                    24208959.708 4                     -3273.928 4        25.820    24208962.268 4  97479503.05104     -2531.476 4        27.521    24208963.617 4 102436157.77904     -2660.134 4        29.687
C13        45.000                                                                                                                                    37947710.451 5 197603702.97805     -1580.933 5        35.081    37947711.621 6 152799692.45806     -1222.577 6        41.073    37947710.873 5 160569254.15705     -1284.707 5        34.871
C08        46.000                                                                                                                                    38301485.064 5 199445892.07705     -1847.814 5        33.725    38301478.986 7 154224247.24407     -1428.945 7        42.220    38301478.673 5 162066084.22705     -1501.645 5        35.500
C14        47.000                                                                                                                                    23958646.783 6 124759024.28106      1387.049 6        39.240    23958643.885 6  96471574.39606      1072.516 6        40.224    23958638.968 6 101376935.24206      1127.125 6        39.883
C42        48.000                                                                                                                                    23822804.636 6 124051719.42106       -55.171 6        36.552                                                                    23822807.195 5 100802123.79805       -44.467 5        31.826
C27        52.000                                                                                                                                    25238801.184 5 131425156.28605      1876.759 5        30.740                                                                    25238822.067 4                      1525.356 4        24.556
I09        54.000    38881273.700 5 152578476.57305       137.398 5        34.929
C23        55.000                                                                                                                                    25794958.053 5 134321109.15505     -4101.403 5        34.462                                                                    25794948.897 5                     -3333.012 5        31.283
I06        58.000    38578389.455 6 151390044.42906      -578.653 6        36.113
> 2025 01 01 19 30 15.0000000  0 38
G18         1.000    22007248.161 7 115649096.15707     -3349.547 7        45.624                                    22007244.562 4  90116044.93504     -2610.042 4        28.701    22007244.054 6  90116064.92406     -2610.005 6        41.428
G10         2.000                                                                                                                                                                    22081343.735 4                      1522.304 4        25.068
G07         3.000    25041206.329 4 131592474.42904      -544.690 4        29.137                                    25041206.413 1 102539552.49101      -424.445 1         4.143    25041226.200 5                      -424.377 5        30.015
G23         4.000    20783346.453 6 109217238.03706      -470.699 6        40.310                                    20783343.003 3  85104305.34103      -366.762 3        21.048    20783344.195 6  85104327.37906      -366.745 6        39.601
G15         5.000    23610932.243 4                      -273.304 4        29.962
G08         6.000                                                                                                                                                                    22973315.321 4  94071744.98904      1763.601 4        28.417
G27         7.000    20586434.885 6 108182953.54006       890.008 6        38.595                                    20586434.153 3  84298051.15503       693.529 3        21.405    20586435.452 5  84298020.08805       693.759 5        30.241
E15        10.000    26109975.180 6 137208836.56106     -3290.821 6        36.064                                                                    26109976.657 6 102461205.05906     -2457.412 6        38.841    26109974.703 6 105134036.35506     -2521.549 6        40.632
E27        15.000    26980908.877 4 141785606.47804     -3997.006 4        29.299                                                                    26980906.378 6 105878853.05706     -2984.610 6        38.544    26980900.129 4 108640899.19104     -3062.702 4        27.126
E13        16.000    23189939.138 7 121864034.93407     -1295.360 7        43.591                                                                    23189939.840 8  91002361.03608      -967.379 8        48.880    23189939.254 8  93376289.88108      -992.580 8        49.212
G16        18.000    20721550.628 8 108892492.31908     -2281.939 8        48.520                                    20721545.613 6  84851194.46506     -1778.134 6        37.569
E26        19.000    24941241.298 6 131067095.60006      1128.055 6        37.217                                                                    24941237.506 6  97874777.60506       842.501 6        38.081    24941240.834 6 100428080.30706       864.435 6        40.529
E21        22.000    23995876.364 7 126099285.24307     -2238.998 7        42.119                                                                    23995876.337 7  94164984.52107     -1672.021 7        45.229    23995876.396 6  96621488.74706     -1715.545 6        40.246
S36        23.000    38119728.563 6 200320412.09606      -850.511 6        36.983
S23        24.000    38074925.060 6 200085086.58506      -851.504 6        39.513
G26        25.000    22338478.881 5 117389860.20805     -3966.699 5        31.879                                    22338477.011 4  91472383.46204     -3090.927 4        25.263    22338479.431 6  91472368.47106     -3091.006 6        36.586
R20        26.000                                                                                                                                    23086118.916 3                      1802.664 3        20.357
R02        27.000    22332732.215 5 119171697.25605     -2307.351 5        33.617                                                                    22332726.895 5  92689301.55505     -1794.602 5        30.883
R19        29.000    19540029.954 5 104526006.55305      -535.461 5        32.503                                                                    19540030.983 7  81298012.98607      -416.303 7        43.611
R18        30.000    20390168.725 7 108844071.73707     -3055.283 7        46.283                                                                    20390166.064 5  84656516.34805     -2376.204 5        34.805
R03        32.000    21476299.514 6 114964394.96606      1360.612 6        37.074                                                                    21476297.078 4  89416687.41204      1057.741 4        29.204
R16        33.000    22340790.324 7 119340561.33907     -5213.365 7        42.595                                                                    22340793.270 5  92820420.09505     -4054.840 5        33.509
R09        34.000    20282384.526 8 108307239.78308     -2072.008 8        49.118                                                                    20282381.580 7  84238611.81607     -1611.570 7        46.310
R10        35.000    21685648.954 5 115596726.82105      1347.506 5        33.659
C37        36.000                                                                                                                                                                                                                                                                    24015647.195 6 101618049.38906     -2049.818 6        37.406
C33        37.000                                                                                                                                    25014839.597 7 130258893.36807      2308.792 7        42.226                                                                    25014850.765 7 105846034.28207      1876.171 7        43.154
C28        40.000                                                                                                                                    22002243.111 8 114571714.14308       512.053 8        48.218                                                                    22002241.661 7  93098724.30407       416.091 7        44.718
C21        41.000                                                                                                                                    25803016.217 5 134363103.72405     -2680.403 5        33.066
C43        42.000                                                                                                                                    22553731.611 7 117443214.73207     -2612.535 7        43.602                                                                    22553730.823 6  95432381.48406     -2122.918 6        41.547
C11        44.000                                                                                                                                    24212108.683 4                     -3274.394 4        27.138    24212106.512 4  97492160.57204     -2531.781 4        27.569    24212107.617 4 102449458.90004     -2660.604 4        29.431
C13        45.000                                                                                                                                    37949227.316 5 197611609.25605     -1581.413 5        33.581    37949230.106 6 152805806.11506     -1222.954 6        41.263    37949229.156 5 160575678.67705     -1285.207 5        34.805
C08        46.000                                                                                                                                    38303259.325 5 199455133.05605     -1848.695 5        34.071    38303253.479 7 154231392.94807     -1429.325 7        42.064    38303253.531 6 162073593.29506     -1502.145 6        36.076
C14        47.000                                                                                                                                    23957313.334 6 124752093.46706      1385.127 6        37.085    23957312.337 6  96466215.04706      1070.985 6        38.883    23957307.708 6 101371303.38106      1125.565 6        39.018
C42        48.000                                                                                                                                    23822859.254 5 124052001.94205       -58.032 5        35.857                                                                    23822861.513 5 100802353.37505       -47.285 5        32.467
C27        52.000                                                                                                                                    25236997.061 4 131415770.06604      1877.001 4        27.329                                                                    25237024.926 4                      1525.924 4        25.008
I09        54.000    38881097.566 5 152577789.54905       137.258 5        34.510
C23        55.000                                                                                                                                    25798897.481 5 134341617.33205     -4101.750 5        35.076                                                                    25798886.692 5                     -3333.038 5        31.728
I06        58.000    38579127.097 6 151392937.81506      -578.563 6        36.110
> 2025 01 01 19 30 20.0000000  0 38
G18         1.000    22010435.385 7 115665846.86507     -3350.717 7        45.010                                    22010431.930 4  90129097.43104     -2610.947 4        27.186    22010431.231 6  90129117.42406     -2610.943 6        41.433
G10         2.000                                                                                                                                                                    22079488.145 4                      1520.821 4        29.081
G07         3.000                                                                                                                                                                    25041745.833 4                      -426.470 4        29.924
G23         4.000    20783797.400 6 109219599.10606      -473.699 6        39.351                                    20783792.857 3  85106145.10603      -369.119 3        21.690    20783793.260 6  85106167.14606      -369.204 6        40.636
G15         5.000    23611191.508 4                      -276.453 4        29.374
G08         6.000    22971133.181 5                      2262.455 5        32.395                                                                                                    22971160.819 5  94062928.81405      1762.825 5        30.385
G27         7.000    20585589.962 6 108178508.20806       888.296 6        39.069                                    20585589.540 3  84294587.26803       692.182 3        21.167    20585589.867 5  84294556.25105       692.317 5        30.785
E15        10.000    26113106.649 5 137225291.66905     -3291.151 5        35.167                                                                    26113108.027 6 102473492.94406     -2457.666 6        38.766    26113105.971 6 105146644.79506     -2521.823 6        40.250
E27        15.000    26984711.558 4 141805592.01404     -3996.923 4        26.850                                                                    26984709.622 6 105893777.36206     -2984.955 6        38.051    26984705.938 4 108656212.84704     -3063.161 4        28.692
E13        16.000    23191172.031 7 121870515.12707     -1296.567 7        44.503                                                                    23191172.765 8  91007200.15008      -968.330 8        48.644    23191172.280 8  93381255.23208      -993.641 8        49.477
G16        18.000    20723723.411 8 108903909.45408     -2284.921 8        48.752                                    20723717.986 6  84860090.93306     -1780.458 6        37.081
E26        19.000    24940168.768 6 131061457.14406      1127.269 6        37.149                                                                    24940164.114 6  97870567.09706       841.711 6        37.595    24940168.551 6 100423759.95306       863.807 6        40.398
E21        22.000    23998007.957 7 126110484.82007     -2240.909 7        42.971                                                                    23998007.430 7  94173347.84107     -1673.414 7        44.880    23998006.756 6  96630070.21306     -1716.996 6        38.901
S36        23.000    38120540.283 6 200324663.30506      -850.078 6        36.938
S23        24.000    38075730.645 6 200089343.28106      -851.350 6        39.444
G26        25.000    22342256.360 5 117409697.02605     -3968.071 5        34.695                                    22342252.156 4  91487840.72504     -3092.005 4        25.609    22342254.144 6  91487825.72506     -3092.060 6        37.335
R20        26.000                                                                                                                                    23083968.025 4                      1800.752 4        26.587
R02        27.000                                                                                                                                    22334894.237 4  92698281.51604     -1798.037 4        27.497
R19        29.000    19540531.829 5 104528687.64905      -537.016 5        33.365                                                                    19540531.701 7  81300098.27207      -417.853 7        43.384
R18        30.000    20393031.068 7 108859350.74607     -3056.426 7        45.926                                                                    20393027.447 5  84668400.03405     -2377.344 5        31.977
R03        32.000    21475033.039 5 114957600.08005      1357.121 5        35.481                                                                    21475026.505 3  89411402.47503      1055.729 3        23.390
R16        33.000    22345671.400 7 119366631.08807     -5214.471 7        43.558                                                                    22345669.207 5  92840696.53005     -4055.853 5        32.072
R09        34.000    20284326.750 8 108317610.25008     -2076.240 8        49.061                                                                    20284324.153 7  84246677.73007     -1614.905 7        46.282
R10        35.000    21684392.580 5 115589998.33205      1343.903 5        35.271
C37        36.000                                                                                                                                                                                                                                                                    24018070.985 6 101628303.15606     -2051.738 6        38.174
C33        37.000                                                                                                                                    25012623.219 7 130247350.72707      2308.177 7        42.453                                                                    25012634.441 7 105836654.95207      1875.542 7        43.354
C28        40.000                                                                                                                                    22001752.354 8 114569156.51508       510.990 8        48.872                                                                    22001750.429 7  93096646.01207       415.139 7        44.614
C21        41.000                                                                                                                                    25805588.690 4 134376512.07304     -2682.795 4        28.569
C43        42.000                                                                                                                                    22556239.106 7 117456279.47107     -2613.457 7        44.572                                                                    22556240.163 7  95442997.64107     -2123.568 7        42.212
C11        44.000                                                                                                                                    24215254.433 4                     -3274.620 4        29.251    24215249.503 4  97504820.13804     -2532.367 4        27.808    24215252.502 4 102462762.11004     -2660.806 4        29.232
C13        45.000                                                                                                                                    37950745.249 5 197619518.03805     -1581.901 5        32.748    37950748.830 6 152811921.66506     -1223.213 6        41.597    37950747.758 5 160582105.21305     -1285.582 5        34.895
C08        46.000                                                                                                                                    38305034.552 5 199464376.27805     -1849.265 5        33.737    38305028.531 6 154238540.38906     -1429.655 6        41.716    38305028.794 6 162081104.17006     -1502.448 6        36.658
C14        47.000                                                                                                                                    23955980.504 5 124745172.78805      1383.196 5        35.152    23955982.384 6  96460863.55906      1069.601 6        37.482    23955978.168 6 101365679.76306      1123.982 6        37.962
C42        48.000                                                                                                                                    23822915.621 5 124052298.33205       -60.553 5        35.776                                                                    23822918.689 5 100802594.22005       -48.968 5        33.198
C27        52.000                                                                                                                                    25235190.468 4 131406385.40304      1876.656 4        24.180
I09        54.000    38880923.512 5 152577102.97405       137.196 5        34.333
C23        55.000                                                                                                                                    25802836.184 5 134362126.33505     -4101.761 5        35.867                                                                    25802825.020 5                     -3333.282 5        31.170
I06        58.000    38579864.106 6 151395830.90906      -578.565 6        36.019
> 2025 01 01 19 30 25.0000000  0 37
G18         1.000    22013624.345 7 115682603.94107     -3352.049 7        44.402                                    22013620.421 4  90142154.89704     -2611.998 4        25.820    22013619.936 6  90142174.90106     -2612.050 6        41.206
G10         2.000                                                                                                                                                                    22077633.518 5                      1518.585 5        31.947
G07         3.000                                                                                                                                                                    25042261.192 4                      -428.527 4        28.730
G23         4.000    20784250.471 6 109221977.13806      -477.368 6        39.105                                    20784245.846 3  85107998.13403      -371.978 3        22.648    20784246.814 6  85108020.16306      -371.962 6        40.808
G08         6.000    22968982.456 5 120702816.89415      2261.587 5        35.405                                                                                                    22969009.550 5  94054115.75305      1762.441 5        30.158
G27         7.000    20584747.231 6 108174073.27106       885.940 6        39.727                                    20584746.652 3  84291131.49103       690.338 3        21.690    20584746.959 4  84291100.45304       690.496 4        29.100
E15        10.000    26116237.996 5 137241748.68405     -3291.488 5        34.619                                                                    26116239.797 6 102485782.27906     -2457.860 6        39.087    26116237.801 6 105159254.73506     -2522.042 6        39.652
E27        15.000                                                                                                                                    26988513.154 6 105908703.76606     -2985.457 6        38.117    26988511.624 4 108671528.58304     -3063.600 4        29.981
E13        16.000    23192406.581 7 121877002.66207     -1298.161 7        44.948                                                                    23192407.073 8  91012044.73308      -969.438 8        48.543    23192406.814 8  93386226.19908      -994.706 8        49.366
G16        18.000    20725898.814 8 108915342.64508     -2288.271 8        48.983                                    20725893.367 6  84868999.91206     -1783.066 6        36.711
E26        19.000    24939096.278 6 131055824.54806      1125.845 6        37.595                                                                    24939092.155 6  97866360.92506       840.828 6        36.991    24939096.862 6 100419444.07806       862.786 6        40.198
E21        22.000    24000141.543 7 126121695.27207     -2243.203 7        44.191                                                                    24000140.716 7  94181719.28007     -1675.068 7        44.691    24000139.076 6  96638660.02306     -1718.789 6        37.267
S36        23.000    38121344.960 6 200328915.32806      -850.268 6        37.365
S23        24.000    38076541.583 6 200093600.05706      -851.394 6        39.309
G26        25.000    22346032.118 6 117429542.05006     -3969.873 6        36.287                                    22346029.125 4  91503304.36204     -3093.400 4        26.168    22346030.812 6  91503289.34706     -3093.344 6        37.803
R20        26.000                                                                                                                                    23081803.407 4                      1801.067 4        27.150
R02        27.000    22337085.923 4 119194809.61504     -2315.786 4        28.303
R19        29.000    19541033.349 5 104531379.63105      -539.440 5        33.611                                                                    19541034.877 7  81302192.02907      -419.638 7        42.366
R18        30.000    20395894.500 7 108874636.64807     -3057.872 7        44.473                                                                    20395892.648 5  84680289.08905     -2378.419 5        31.713
R03        32.000    21473774.750 6 114950823.90006      1353.277 6        37.830                                                                    21473768.030 4                      1052.793 4        26.455
R16        33.000    22350553.433 7 119392707.23607     -5215.879 7        43.985                                                                    22350551.572 5  92860977.93505     -4056.777 5        30.883
R09        34.000    20286272.383 8 108328003.01508     -2080.749 8        48.156                                                                    20286270.597 7  84254761.00007     -1618.350 7        46.355
R10        35.000    21683134.232 5 115583289.33305      1339.887 5        35.276
C37        36.000                                                                                                                                                                                                                                                                    24020496.618 6 101638566.37006     -2053.482 6        38.625
C33        37.000                                                                                                                                    25010407.478 7 130235812.76307      2307.109 7        42.555                                                                    25010418.917 7 105827279.43707      1874.728 7        43.539
C28        40.000                                                                                                                                    22001262.229 8 114566605.35408       509.615 8        48.817                                                                    22001260.347 7  93094572.99107       414.061 7        44.343
C21        41.000                                                                                                                                    25808160.070 3 134389932.50303     -2686.136 3        23.733                                                                    25808144.688 4                     -2181.789 4        28.872
C43        42.000                                                                                                                                    22558748.584 7 117469349.94807     -2614.669 7        45.482                                                                    22558750.361 7  95453618.49707     -2124.692 7        42.487
C11        44.000                                                                                                                                    24218404.794 4                     -3275.296 4        29.763    24218395.415 4  97517481.89004     -2532.148 4        28.626    24218396.237 4 102476067.71104     -2661.451 4        28.417
C13        45.000                                                                                                                                    37952264.489 5 197627429.65805     -1582.399 5        33.102    37952268.394 6 152818039.43206     -1223.605 6        41.909    37952267.267 5 160588534.03905     -1285.844 5        34.700
C08        46.000                                                                                                                                    38306807.691 5 199473622.22005     -1849.497 5        33.641    38306804.081 6 154245689.94206     -1430.018 6        41.652    38306804.664 6 162088617.28806     -1503.051 6        36.801
C14        47.000                                                                                                                                    23954652.536 5 124738262.60005      1381.127 5        34.848    23954654.951 6  96455520.21106      1067.888 6        36.280    23954650.786 6 101360064.70506      1122.118 6        36.650
C42        48.000                                                                                                                                    23822974.724 5 124052609.04805       -63.480 5        34.757                                                                    23822980.428 5 100802846.71805       -51.718 5        34.190
C27        52.000                                                                                                                                    25233388.658 4 131397002.45304      1876.760 4        26.910                                                                    25233434.338 4                      1524.542 4        26.778
I09        54.000    38880748.251 5 152576417.08605       137.407 5        34.105
C23        55.000                                                                                                                                    25806775.333 6 134382636.51706     -4102.192 6        36.567                                                                    25806763.210 5                     -3333.525 5        31.177
I06        58.000    38580601.388 6 151398724.01206      -578.675 6        36.015
> 2025 01 01 19 30 30.0000000  0 36
G18         1.000    22016813.833 7 115699367.60607     -3353.500 7        43.272                                    22016810.007 4  90155217.49804     -2613.103 4        24.120    22016809.471 6  90155237.49906     -2613.157 6        40.894
