     3.04           OBSERVATION DATA    M                   RINEX VERSION / TYPE
ssrcrin-15.6.1x                         20250101 143000 UTC PGM / RUN BY / DATE 
(00000000023479385599111004) Septentrio proprietary         COMMENT             
ract                                                        MARKER NAME         
01                                                          MARKER NUMBER       
geodetic                                                    MARKER TYPE         
NFB                 CLIMERS@TUW                             OBSERVER / AGENCY   
3296359             SEPT ASTERX SB3 PROB4.14.4              REC # / TYPE / VERS 
Unknown             Unknown                                 ANT # / TYPE        
  4127447.0933  1206915.8918  4695543.5662                  APPROX POSITION XYZ 
        0.0000        0.0000        0.0000                  ANTENNA: DELTA H/E/N
G   23 X1  C1C L1C D1C S1C C1W S1W C2W L2W D2W S2W C2L L2L  SYS / # / OBS TYPES 
       D2L S2L C5Q L5Q D5Q S5Q C1L L1L D1L S1L              SYS / # / OBS TYPES 
E   21 X1  C1C L1C D1C S1C C6C L6C D6C S6C C5Q L5Q D5Q S5Q  SYS / # / OBS TYPES 
       C7Q L7Q D7Q S7Q C8Q L8Q D8Q S8Q                      SYS / # / OBS TYPES 
S    9 X1  C1C L1C D1C S1C C5I L5I D5I S5I                  SYS / # / OBS TYPES 
R   17 X1  C1C L1C D1C S1C C2P L2P D2P S2P C2C L2C D2C S2C  SYS / # / OBS TYPES 
       C3Q L3Q D3Q S3Q                                      SYS / # / OBS TYPES 
C   25 X1  C1P L1P D1P S1P C5P L5P D5P S5P C2I L2I D2I S2I  SYS / # / OBS TYPES 
       C7I L7I D7I S7I C6I L6I D6I S6I C7D L7D D7D S7D      SYS / # / OBS TYPES 
J   17 X1  C1C L1C D1C S1C C2L L2L D2L S2L C5Q L5Q D5Q S5Q  SYS / # / OBS TYPES 
       C1L L1L D1L S1L                                      SYS / # / OBS TYPES 
I    5 X1  C5A L5A D5A S5A                                  SYS / # / OBS TYPES 
SEPTENTRIO RECEIVERS OUTPUT ALIGNED CARRIER PHASES.         COMMENT             
NO FURTHER PHASE SHIFT APPLIED IN THE RINEX ENCODER.        COMMENT             
G L1C                                                       SYS / PHASE SHIFT   
G L2W                                                       SYS / PHASE SHIFT   
G L2L  0.00000                                              SYS / PHASE SHIFT   
G L5Q  0.00000                                              SYS / PHASE SHIFT   
G L1L  0.00000                                              SYS / PHASE SHIFT   
E L1C  0.00000                                              SYS / PHASE SHIFT   
E L6C  0.00000                                              SYS / PHASE SHIFT   
E L5Q  0.00000                                              SYS / PHASE SHIFT   
E L7Q  0.00000                                              SYS / PHASE SHIFT   
E L8Q  0.00000                                              SYS / PHASE SHIFT   
S L1C                                                       SYS / PHASE SHIFT   
S L5I                                                       SYS / PHASE SHIFT   
R L1C                                                       SYS / PHASE SHIFT   
R L2P  0.00000                                              SYS / PHASE SHIFT   
R L2C                                                       SYS / PHASE SHIFT   
R L3Q  0.00000                                              SYS / PHASE SHIFT   
C L1P  0.00000                                              SYS / PHASE SHIFT   
C L5P  0.00000                                              SYS / PHASE SHIFT   
C L2I                                                       SYS / PHASE SHIFT   
C L7I                                                       SYS / PHASE SHIFT   
C L6I                                                       SYS / PHASE SHIFT   
C L7D                                                       SYS / PHASE SHIFT   
J L1C                                                       SYS / PHASE SHIFT   
J L2L  0.00000                                              SYS / PHASE SHIFT   
J L5Q  0.00000                                              SYS / PHASE SHIFT   
J L1L  0.00000                                              SYS / PHASE SHIFT   
I L5A                                                       SYS / PHASE SHIFT   
  2025     1     1    14    30    0.0000000     GPS         TIME OF FIRST OBS   
 C1C    0.000 C2C    0.000 C2P    0.000                     GLONASS COD/PHS/BIS 
DBHZ                                                        SIGNAL STRENGTH UNIT
    18                                                      LEAP SECONDS        
 24 R01  1 R02 -4 R03  5 R04  6 R05  1 R06 -4 R07  5 R08  6 GLONASS SLOT / FRQ #
    R09 -2 R10 -7 R11  0 R12 -1 R13 -2 R14 -7 R15  0 R16 -1 GLONASS SLOT / FRQ #
    R17  4 R18 -3 R19  3 R20  2 R21  4 R22 -3 R23  3 R24  2 GLONASS SLOT / FRQ #
                                                            END OF HEADER       
> 2025 01 01 14 30  0.0000000  0 38
G06         2.000    23959611.370 4                     -3400.623 4        28.768                                                                                                    23959625.360 3                     -2649.953 3        22.210
G25         3.000    19784264.131 8 103967040.29908      -612.543 8        51.258                                    19784266.025 7  81013249.91607      -477.311 7        47.317    19784268.182 6  81013296.91606      -477.278 6        41.759
G11         4.000    22349443.163 8 117447338.44108     -1156.959 8        48.001                                    22349445.260 5  91517258.77805      -901.525 5        33.748    22349445.669 7  91517275.78007      -901.499 7        43.774
G31         5.000    24139437.681 5 126853889.55905      2574.886 5        32.952                                    24139448.854 3  98847011.43303      2006.420 3        18.149    24139455.499 5  98847070.38205      2006.568 5        32.467
G28         6.000    22260481.101 8 116979647.11008      1555.989 8        48.168                                    22260485.786 5  91153022.36205      1212.451 5        33.719    22260486.039 7  91153118.37707      1212.360 7        43.335
G12         7.000                                                                                                                                                                    21272405.857 6  87106943.17806     -2321.937 6        39.198
G29         8.000    21374630.884 7 112324462.78407      1425.681 7        43.132                                    21374633.157 6  87525724.89506      1110.922 6        37.724    21374634.065 6  87525555.89506      1110.870 6        40.350
E30         9.000    23795993.269 7 125048911.62807     -1577.289 7        47.652                                                                    23795998.816 7  93380653.81507     -1177.908 7        42.588    23795997.284 7  95816674.43007     -1208.569 7        42.616
E15        10.000    26655070.903 5 140073344.97405      2325.144 5        33.150                                                                    26655085.612 6 104600288.26606      1736.246 6        40.102    26655082.796 6 107329070.77706      1781.529 6        41.847
G32        11.000    23603578.802 5 124037803.02105     -2948.350 5        35.719                                    23603611.632 1  96652660.59401     -2297.397 1        11.630
E34        12.000    24812443.853 6 130390430.59706       441.340 6        39.553                                                                    24812451.238 7  97369494.45407       329.536 7        44.742    24812450.178 7  99909552.08007       338.135 7        45.556
E02        13.000    26851753.518 4                     -3191.395 4        25.338
E19        14.000    26946596.288 6 141605319.16806       237.504 6        38.198                                                                    26946611.131 5 105744295.98205       177.593 5        33.701    26946615.601 5 108502852.15105       182.044 5        35.348
E27        15.000    24520172.029 5 128854532.69305       717.630 5        30.566                                                                    24520177.328 6  96222457.24906       535.981 6        40.696    24520176.231 6  98732659.50706       549.989 6        41.774
G24        16.000    24682152.633 3                     -4754.604 3        23.962
R17        17.000    22302109.018 5 119343320.81405      3488.601 5        33.539                                                                    22302127.873 5                      2713.237 5        30.513
E07        18.000    27119666.820 5                     -3778.946 5        32.838                                                                    27119698.155 5 106423430.57705     -2822.187 5        31.109    27119692.505 4 109199686.01904     -2895.476 4        28.038
E36        19.000    26434098.355 5 138912147.41905     -2355.057 5        35.481                                                                    26434115.580 5 103733262.81705     -1758.759 5        33.563    26434114.085 6 106439292.47206     -1804.405 6        37.365
R15        20.000    21197121.266 7 113271559.63707      2254.588 7        47.619                                                                    21197128.410 7  88099824.96107      1753.595 7        45.111
R24        21.000    19505049.732 6 104302370.43906       344.343 6        41.206                                                                    19505052.723 5  81124051.55805       267.973 5        33.228
S36        23.000    38192215.630 5 200701314.78505      -854.791 5        35.895
S23        24.000    38136697.154 5 200409641.91705      -859.574 5        35.724
E29        26.000    26028635.232 6 136781406.53506     -1970.660 6        39.832                                                                    26028647.389 6 102142000.54406     -1471.597 6        37.735    26028645.769 6 104806597.17706     -1510.035 6        40.934
C34        28.000                                                                                                                                    22318532.408 7 116218833.92307      1313.213 7        42.976                                                                    22318534.947 7  94437079.35807      1067.187 7        43.981
C24        34.000                                                                                                                                    22235984.290 7 115788624.37007     -2748.419 7        46.608                                                                    22235984.632 6  94087712.76206     -2233.297 6        40.341
R14        35.000    19220535.461 8 102456452.26608      -897.268 8        48.381                                                                    19220542.600 8  79688322.12508      -697.778 8        48.302
R23        36.000    21474527.126 4 114874232.79504     -4144.539 4        26.982
S21        38.000    38419824.769 5 201897514.60805      -854.724 5        34.767
C44        39.000                                                                                                                                    22101545.000 8 115088553.08408     -1969.137 8        48.865                                                                    22101547.102 7  93518896.93507     -1600.109 7        44.432
C35        40.000                                                                                                                                    25540519.115 4                     -3910.077 4        24.361                                                                    25540546.300 4                     -3177.331 4        26.180
C25        41.000                                                                                                                                    21716256.618 7 113082219.72807       337.346 7        44.066                                                                    21716260.675 7  91888673.20907       274.147 7        43.257
R05        42.000    23038877.531 6 123155964.18406     -3515.864 6        37.686
C12        43.000                                                                                                                                    21916649.645 6 114125727.81806      -301.837 6        37.444    21916658.335 8  88249376.66308      -233.430 8        49.010    21916655.015 7  92736634.25207      -245.193 7        43.517
C32        44.000                                                                                                                                                                                                                                                                    26885411.125 5 113760843.17005     -1705.781 5        33.311
C05        45.000                                                                                                                                    39434266.416 5 205344570.30105      -821.565 5        30.936    39434276.984 5 158785467.49505      -635.374 5        35.352
C23        55.000                                                                                                                                                                                                                                                                    25848706.439 6 109374326.92406      1770.835 6        38.111
I02        57.000    37341681.510 6 146536787.94306      -949.091 6        39.222
I06        58.000    38586053.720 7 151419919.17407      -719.703 7        42.150
> 2025 01 01 14 30  5.0000000  0 37
G25         3.000    19784848.173 8 103970108.57308      -614.689 8        51.080                                    19784849.692 7  81015640.78607      -478.982 7        47.113    19784851.910 6  81015687.79206      -479.065 6        41.998
G11         4.000    22350545.605 7 117453131.49207     -1160.218 7        47.726                                    22350547.833 5  91521772.84005      -904.064 5        33.575    22350548.590 7  91521789.83807      -904.084 7        44.050
G31         5.000    24136989.821 5 126841016.46605      2574.368 5        32.545                                    24136999.281 2  98836980.43202      2005.969 2        16.151    24137006.436 5  98837039.45105      2005.883 5        32.263
G28         6.000    22259001.539 8 116971872.54808      1553.775 8        48.167                                    22259006.287 5  91146964.30005      1210.727 5        33.449    22259006.393 7  91147060.30907      1210.805 7        43.249
G12         7.000    21275235.191 6 111802128.14916     -2981.525 6        40.865                                    21275240.931 4  87118556.27714     -2323.265 4        29.327    21275242.411 6  87118556.24906     -2323.187 6        40.040
G29         8.000    21373275.527 6 112317339.41306      1423.656 6        41.769                                    21373277.803 6  87520174.21806      1109.343 6        37.656    21373278.405 6  87520005.20906      1109.279 6        40.462
E30         9.000    23797494.683 7 125056800.62807     -1578.224 7        47.890                                                                    23797499.941 7  93386544.94807     -1178.598 7        42.690    23797498.337 7  95822719.23407     -1209.294 7        42.061
E15        10.000    26652858.856 5 140061720.63805      2324.719 5        34.562                                                                    26652873.482 6 104591607.80906      1735.950 6        40.582    26652870.899 6 107320163.87106      1781.211 6        41.974
G32        11.000    23606379.486 6 124052550.58706     -2950.554 6        36.979                                    23606418.644 2  96664152.07902     -2299.166 2        14.381
E34        12.000    24812025.389 6 130388229.55306       439.056 6        39.177                                                                    24812032.204 7  97367850.81507       327.894 7        44.695    24812031.486 7  99907865.55907       336.417 7        45.940
E02        13.000    26854788.762 4                     -3191.272 4        25.038                                                                    26854781.291 5                     -2382.527 5        30.106    26854769.322 4                     -2444.872 4        28.578
E19        14.000    26946371.023 6 141604136.84306       235.429 6        37.448                                                                    26946386.616 5 105743413.01405       175.893 5        33.048    26946392.299 5 108501946.12405       180.285 5        34.638
E27        15.000    24519489.238 5 128850946.08505       717.063 5        31.457                                                                    24519494.778 6  96219778.91906       535.455 6        41.066    24519493.549 6  98729911.31606       549.438 6        41.561
G24        16.000    24686678.111 4                     -4755.765 4        24.677
R17        17.000    22298847.102 5 119325880.60515      3487.579 5        32.018                                                                    22298875.572 5                      2712.227 5        31.215
E07        18.000    27123262.971 5                     -3779.489 5        31.298                                                                    27123293.979 5 106437541.16505     -2822.334 5        31.042    27123290.305 4 109214164.72304     -2895.467 4        26.731
E36        19.000    26436338.543 5 138923927.94005     -2357.317 5        34.443                                                                    26436358.162 5 103742059.92805     -1759.883 5        34.571    26436355.527 6 106448319.13106     -1805.991 6        37.527
R15        20.000    21195011.813 7 113260289.18207      2253.585 7        47.585                                                                    21195019.563 7  88091059.09407      1752.837 7        44.590
R24        21.000    19504733.925 7 104300659.78607       339.971 7        42.544                                                                    19504735.832 4  81122721.01004       264.798 4        29.791
S36        23.000    38193034.523 5 200705588.35905      -854.620 5        35.786
S23        24.000    38137509.688 5 200413938.41905      -859.322 5        35.286
E29        26.000    26030511.017 6 136791265.32106     -1972.837 6        39.994                                                                    26030523.392 6 102149362.59006     -1473.161 6        37.342    26030522.115 6 104814151.28306     -1511.579 6        41.766
C34        28.000                                                                                                                                    22317272.521 7 116212272.77207      1311.229 7        44.367                                                                    22317274.979 7  94431747.91807      1065.259 7        44.143
C24        34.000                                                                                                                                    22238624.334 7 115802370.51507     -2750.060 7        46.133                                                                    22238623.640 6  94098882.62606     -2234.779 6        39.426
R14        35.000    19221378.080 7 102460945.35107      -900.024 7        47.704                                                                    19221385.218 7  79691816.74607      -700.025 7        47.824
R23        36.000    21478402.145 5 114894963.97505     -4147.654 5        31.170
S21        38.000    38420642.566 5 201901788.64405      -854.802 5        34.790
C44        39.000                                                                                                                                    22103436.974 8 115098404.85308     -1971.551 8        48.981                                                                    22103439.038 7  93526902.29407     -1602.182 7        44.269
C35        40.000                                                                                                                                    25544274.844 4                     -3910.615 4        27.269                                                                    25544291.056 4                     -3177.605 4        26.084
C25        41.000                                                                                                                                    21715933.882 7 113080537.43207       335.584 7        44.298                                                                    21715937.921 7  91887306.21807       272.507 7        43.253
R05        42.000    23042172.816 6 123173550.10706     -3518.672 6        36.219
C12        43.000                                                                                                                                    21916940.862 6 114127243.90406      -304.541 6        39.003    21916949.327 8  88250548.99308      -235.529 8        48.960    21916946.092 7  92737866.17307      -247.631 7        42.908
C32        44.000                                                                                                                                                                                                                                                                    26887430.863 5 113769376.41105     -1707.459 5        31.653
C05        45.000                                                                                                                                    39435054.937 5 205348677.15505      -821.436 5        30.860    39435064.853 5 158788643.17505      -635.101 5        35.390
C23        55.000                                                                                                                                                                                                                                                                    25846614.235 6 109365473.63006      1770.435 6        38.955
I02        57.000    37342891.101 6 146541532.86206      -949.000 6        39.153
I06        58.000    38586970.473 7 151423517.25907      -719.501 7        42.028
> 2025 01 01 14 30 10.0000000  0 38
G06         2.000    23966073.361 5                     -3405.216 5        30.657
G25         3.000    19785434.548 8 103973188.98208      -617.145 8        50.385                                    19785435.828 7  81018041.11207      -480.895 7        47.264    19785437.943 6  81018088.12006      -480.825 6        41.862
G11         4.000    22351651.499 7 117458941.91207     -1163.690 7        47.090                                    22351653.746 5  91526300.43905      -906.771 5        33.557    22351654.377 7  91526317.42507      -906.731 7        43.860
G31         5.000    24134540.405 5 126828149.86205      2572.580 5        32.671                                    24134550.746 2  98826954.53702      2004.565 2        14.571    24134555.549 5  98827013.59705      2004.952 5        32.084
G28         6.000    22257524.325 7 116964110.02207      1551.439 7        47.962                                    22257529.042 5  91140915.61005      1208.909 5        33.431    22257528.933 7  91141011.61707      1208.843 7        43.145
G12         7.000    21278078.396 6 111817040.34606     -2983.115 6        41.595                                    21278078.788 5  87130176.16305     -2324.502 5        32.904    21278079.648 6  87130176.14006     -2324.535 6        40.179
G29         8.000    21371922.693 6 112310227.41006      1421.286 6        40.729                                    21371924.619 6  87514632.40906      1107.492 6        38.090    21371925.666 6  87514463.40006      1107.556 6        40.520
E30         9.000    23798996.925 8 125064695.61008     -1579.458 8        48.134                                                                    23799002.101 7  93392440.55207     -1179.460 7        42.825    23799000.426 6  95828768.63406     -1210.310 6        41.170
E15        10.000    26650646.702 5 140050099.79505      2323.871 5        34.886                                                                    26650661.933 6 104582929.92606      1735.456 6        40.706    26650659.654 7 107311259.61007      1780.767 7        42.093
G32        11.000    23609190.259 6 124067309.29106     -2952.499 6        36.798                                    23609227.395 2  96675652.31102     -2300.646 2        15.571    23609230.870 5                     -2301.022 5        30.196
E34        12.000    24811609.277 6 130386040.82306       436.578 6        39.300                                                                    24811615.413 7  97366216.37107       325.970 7        44.485    24811614.969 7  99906188.47907       334.584 7        46.197
E02        13.000    26857822.413 3                     -3191.091 3        23.886                                                                    26857810.431 5                     -2382.928 5        31.540    26857807.508 4                     -2445.094 4        28.682
E19        14.000    26946148.846 6 141602966.49606       233.094 6        37.516                                                                    26946164.221 5 105742538.96805       174.190 5        33.299    26946171.136 5 108501049.27905       178.461 5        34.481
E27        15.000    24518809.074 5 128847363.74505       716.266 5        33.036                                                                    24518813.196 6  96217103.84906       534.721 6        41.225    24518811.612 6  98727166.46006       548.814 6        41.466
G24        16.000    24691203.568 4                     -4754.848 4        25.113
R17        17.000    22295586.870 5                      3486.062 5        30.045                                                                    22295628.633 5                      2711.265 5        31.306
E07        18.000    27126859.770 4                     -3779.808 4        29.422                                                                    27126889.641 5 106451653.89005     -2822.746 5        30.936
E36        19.000    26438582.181 5 138935719.99805     -2359.462 5        33.994                                                                    26438601.634 5 103750865.69605     -1761.822 5        34.876    26438598.994 6 106457354.63306     -1807.841 6        36.949
R15        20.000    21192903.613 8 113249024.84808      2252.386 8        48.157                                                                    21192911.368 7  88082297.99507      1751.864 7        44.003
R24        21.000    19504423.930 7 104298971.58507       335.469 7        43.795                                                                    19504421.548 5  81121408.03105       260.693 5        30.325
S36        23.000    38193845.908 5 200709863.01705      -854.590 5        35.767
S23        24.000    38138331.340 5 200418235.48505      -859.154 5        35.481
E29        26.000    26032389.765 6 136801135.66106     -1975.099 6        40.031                                                                    26032401.708 6 102156733.30406     -1475.022 6        37.085    26032400.839 7 104821714.28207     -1513.505 7        42.525
C34        28.000                                                                                                                                    22316013.488 7 116205722.64907      1309.005 7        45.013                                                                    22316016.898 7  94426425.45707      1063.539 7        44.331
R13        29.000    22321429.987 4                     -4218.918 4        26.623
C24        34.000                                                                                                                                    22241265.647 7 115816125.99607     -2751.862 7        45.175                                                                    22241264.787 6  94110060.14306     -2236.335 6        38.523
R14        35.000    19222222.933 7 102465453.42507      -903.034 7        46.629                                                                    19222230.152 7  79695323.03707      -702.379 7        47.230
R23        36.000    21482279.736 5 114915709.62605     -4150.392 5        34.167
S21        38.000    38421453.973 5 201906063.19505      -854.804 5        34.581
C44        39.000                                                                                                                                    22105331.382 8 115108269.34908     -1974.052 8        48.930                                                                    22105333.307 7  93534918.03707     -1604.181 7        44.044
C35        40.000                                                                                                                                    25548033.637 4                     -3911.140 4        29.384                                                                    25548043.225 4                     -3177.931 4        26.156
C25        41.000                                                                                                                                    21715613.260 7 113078865.16707       333.585 7        44.503                                                                    21715617.024 7  91885947.39707       270.971 7        43.496
C12        43.000                                                                                                                                    21917237.862 6 114128774.24706      -307.341 6        41.623    21917242.926 8  88251732.33208      -237.643 8        48.367    21917240.294 7  92739109.69907      -249.859 7        42.804
C32        44.000                                                                                                                                                                                                                                                                    26889452.796 5 113777919.51005     -1709.792 5        31.162
C05        45.000                                                                                                                                    39435843.289 5 205352784.43105      -821.064 5        31.192    39435854.161 5 158791819.20905      -634.933 5        35.167
C23        55.000                                                                                                                                                                                                                                                                    25844522.203 6 109356622.00406      1770.187 6        39.754
I02        57.000    37344099.984 6 146546278.66006      -949.221 6        39.303
I06        58.000    38587887.562 7 151427115.62207      -719.568 7        42.182
> 2025 01 01 14 30 15.0000000  0 39
G06         2.000    23969316.200 5                     -3407.555 5        31.132                                                                                                    23969382.986 4                     -2654.741 4        25.068
G25         3.000    19786022.970 8 103976281.13608      -619.852 8        50.303                                    19786024.351 7  81020450.59607      -483.007 7        47.310    19786026.581 6  81020497.62206      -483.072 6        41.919
G11         4.000    22352760.796 7 117464769.28207     -1167.434 7        46.891                                    22352762.856 5  91530841.24705      -909.685 5        33.341    22352763.773 7  91530858.23207      -909.626 7        43.630
G31         5.000    24132093.600 5 126815289.24005      2571.165 5        35.119                                    24132103.253 2  98816933.38902      2003.457 2        15.048    24132102.703 5  98816992.39605      2004.235 5        30.845
G28         6.000    22256049.479 7 116956359.13907      1548.802 7        47.774                                    22256053.943 5  91134875.97605      1206.855 5        33.030    22256053.875 7  91134971.99407      1206.802 7        42.466
G12         7.000    21280919.998 7 111831960.94307     -2985.229 7        42.428                                    21280918.389 5  87141802.58105     -2326.145 5        34.533    21280918.542 6  87141802.55506     -2326.134 6        39.898
G29         8.000    21370571.606 6 112303126.35206      1418.789 6        41.626                                    21370573.460 6  87509099.12006      1105.547 6        38.565    21370574.440 6  87508930.12206      1105.593 6        41.025
E30         9.000    23800500.286 8 125072596.13408     -1580.891 8        48.390                                                                    23800505.618 7  93398340.29807     -1180.564 7        42.925    23800503.416 6  95834822.26706     -1211.406 6        40.446
E15        10.000    26648435.340 5 140038481.98105      2322.922 5        34.795                                                                    26648450.963 6 104574254.33606      1734.780 6        41.037    26648448.903 6 107302357.70706      1779.962 6        41.933
G32        11.000    23612003.127 5 124082078.89705     -2955.247 5        35.614                                    23612038.248 2  96687161.10102     -2302.794 2        14.952    23612041.799 4                     -2302.703 4        28.844
E34        12.000    24811195.988 6 130383864.02106       433.932 6        40.162                                                                    24811201.028 7  97364590.83207       324.052 7        44.379    24811200.760 7  99904520.54207       332.526 7        46.178
E02        13.000    26860856.503 3                     -3191.385 3        20.262                                                                    26860842.871 5                     -2383.416 5        31.766    26860845.408 4                     -2445.842 4        27.569
E19        14.000    26945928.813 6 141601807.93106       230.303 6        37.667                                                                    26945943.504 5 105741673.87005       171.926 5        33.347    26945951.396 5 108500161.62705       176.410 5        34.076
E27        15.000    24518131.178 6 128843785.46006       715.214 6        36.231                                                                    24518132.195 6  96214431.73706       533.921 6        41.499    24518130.627 6  98724424.64406       547.872 6        40.968
G24        16.000    24695729.610 4                     -4755.848 4        25.203
R17        17.000    22292329.414 4 119291022.64114      3483.844 4        26.192                                                                    22292372.438 4                      2709.997 4        29.896
E07        18.000    27130457.114 4                     -3780.575 4        27.832                                                                    27130486.884 5 106465768.38005     -2822.882 5        30.226    27130487.646 4 109243128.36904     -2896.344 4        25.970
E36        19.000    26440828.823 5 138947523.19005     -2361.784 5        33.760                                                                    26440848.001 5 103759679.82505     -1763.688 5        35.343    26440844.447 6 106466398.68706     -1809.712 6        36.503
R15        20.000    21190796.606 8 113237766.20708      2250.933 8        48.712                                                                    21190804.656 7  88073541.31607      1750.711 7        43.209
R24        21.000    19504114.445 7 104297305.33107       330.809 7        43.065                                                                    19504107.855 5  81120112.06905       257.008 5        30.951
S36        23.000    38194658.491 5 200714137.35505      -855.130 5        35.986
S23        24.000    38139148.641 5 200422532.98805      -859.927 5        35.619
E29        26.000    26034270.181 6 136811017.18406     -1977.513 6        39.853                                                                    26034282.066 6 102164112.34806     -1477.050 6        37.070    26034281.803 7 104829285.83007     -1515.375 7        42.959
C34        28.000                                                                                                                                    22314756.938 7 116199183.15607      1306.529 7        45.056                                                                    22314760.876 7  94421111.58207      1061.697 7        44.390
R13        29.000    22325387.784 5                     -4221.333 5        31.343
C24        34.000                                                                                                                                    22243908.344 7 115829890.39007     -2753.980 7        43.577                                                                    22243907.788 6  94121244.81206     -2237.853 6        37.459
R14        35.000    19223071.517 7 102469975.97907      -906.197 7        46.158                                                                    19223078.316 7  79698840.58007      -704.782 7        46.361
R23        36.000    21486162.711 6 114936469.63506     -4153.659 6        36.620
S21        38.000    38422269.767 5 201910337.95505      -854.903 5        34.938
C44        39.000                                                                                                                                    22107227.944 8 115118146.19208     -1976.814 8        48.832                                                                    22107229.916 7  93542943.76607     -1606.408 7        43.723
C35        40.000                                                                                                                                    25551793.404 5                     -3912.369 5        30.747                                                                    25551806.713 4                     -3179.193 4        26.599
C25        41.000                                                                                                                                    21715294.016 7 113077202.47807       331.303 7        44.147                                                                    21715297.939 7  91884596.32807       269.140 7        43.738
R05        42.000    23048780.218 5 123208767.21715     -3525.413 5        31.985
C12        43.000                                                                                                                                    21917537.437 7 114130318.41007      -310.479 7        43.435    21917539.269 7  88252926.37607      -240.097 7        47.348    21917537.383 7  92740364.42707      -252.252 7        42.927
C32        44.000                                                                                                                                                                                                                                                                    26891475.287 4 113786471.97204     -1711.984 4        29.479
C05        45.000                                                                                                                                    39436632.360 5 205356891.80705      -821.942 5        30.898    39436642.969 5 158794995.29405      -635.571 5        35.295
C23        55.000                                                                                                                                                                                                                                                                    25842430.247 6 109347771.66006      1769.805 6        40.286
I02        57.000    37345310.113 6 146551025.44006      -949.566 6        39.015
I06        58.000    38588804.997 7 151430713.98607      -719.832 7        42.072
> 2025 01 01 14 30 20.0000000  0 38
G06         2.000    23972559.906 5                     -3410.050 5        31.125                                                                                                    23972625.221 4                     -2657.396 4        24.842
G25         3.000    19786613.750 8 103979385.04608      -622.006 8        50.629                                    19786615.241 7  81022869.23907      -484.683 7        47.647    19786617.328 7  81022916.25807      -484.759 7        42.432
G11         4.000    22353873.183 7 117470613.62507     -1170.662 7        46.714                                    22353875.225 5  91535395.28305      -912.200 5        33.419    22353875.900 7  91535412.26707      -912.250 7        43.369
G31         5.000    24129647.170 6 126802434.48306      2570.251 6        36.450                                    24129657.074 2  98806916.71702      2002.797 2        16.491    24129656.982 5  98806975.72405      2003.255 5        30.913
G28         6.000    22254576.896 7 116948619.99407      1546.596 7        47.199                                    22254581.107 5  91128845.49605      1205.138 5        32.814    22254581.205 7  91128941.51707      1205.187 7        42.345
G12         7.000    21283761.679 7 111846889.94607     -2986.811 7        42.768                                    21283759.453 5  87153435.55105     -2327.377 5        34.781    21283759.242 6  87153435.51906     -2327.339 6        38.907
G29         8.000    21369224.203 7 112296036.34807      1416.732 7        43.930                                    21369224.336 6  87503574.45006      1103.946 6        39.565    21369225.143 6  87503405.45106      1103.930 6        41.685
E30         9.000    23802004.729 8 125080502.23308     -1581.892 8        48.575                                                                    23802010.255 7  93404244.20607     -1181.310 7        43.054    23802007.575 6  95840880.17606     -1211.992 6        39.760
E15        10.000    26646224.720 5 140026867.28505      2322.545 5        34.448                                                                    26646240.609 6 104565581.06106      1734.357 6        40.982    26646238.997 7 107293458.16807      1779.546 7        42.419
G32        11.000    23614815.086 5 124096859.36905     -2957.232 5        32.719                                    23614851.605 2  96698678.24602     -2304.326 2        12.485    23614847.272 4                     -2304.227 4        26.048
E34        12.000    24810785.232 6 130381699.18306       431.672 6        40.875                                                                    24810789.187 7  97362974.21907       322.325 7        44.156    24810788.826 7  99902861.75207       330.798 7        46.344
E02        13.000                                                                                                                                    26863880.028 5                     -2383.667 5        31.668    26863881.335 4                     -2445.632 4        27.653
E19        14.000    26945710.039 6 141600660.86506       228.235 6        37.614                                                                    26945725.249 5 105740817.29505       170.616 5        33.623    26945733.286 5 108499282.67405       174.967 5        33.467
E27        15.000    24517455.961 6 128840211.16406       714.372 6        37.747                                                                    24517452.110 6  96211762.58606       533.423 6        41.709    24517450.170 6  98721685.87106       547.412 6        40.863
G24        16.000    24700254.570 4                     -4756.130 4        24.827
R17        17.000    22289079.926 4 119273604.62704      3482.370 4        26.036                                                                    22289112.929 4                      2708.732 4        27.928
E07        18.000    27134054.338 4                     -3780.962 4        24.602                                                                    27134084.994 4 106479884.66904     -2823.417 4        29.554    27134083.785 4 109257612.98804     -2896.801 4        25.308
E36        19.000    26443079.528 5 138959337.49605     -2364.061 5        33.174                                                                    26443097.269 5 103768502.20605     -1765.298 5        34.543    26443091.973 5 106475451.24205     -1811.440 5        35.990
R15        20.000    21188690.512 8 113226513.24208      2249.869 8        48.537                                                                    21188699.250 7  88064789.04007      1749.830 7        43.031
R24        21.000    19503800.933 7 104295661.22807       326.545 7        42.140                                                                    19503802.228 5  81118833.29305       253.703 5        33.036
S36        23.000    38195471.986 5 200718411.80105      -854.937 5        35.986
S23        24.000    38139967.726 5 200426830.59805      -859.453 5        35.376
E29        26.000    26036153.990 6 136820909.89306     -1979.718 6        38.928                                                                    26036164.142 6 102171499.74206     -1478.211 6        37.040    26036164.821 7 104836865.96507     -1516.983 7        43.604
C34        28.000                                                                                                                                    22313502.491 7 116192654.32207      1304.608 7        44.591                                                                    22313506.786 7  94415806.37507      1060.235 7        44.378
R13        29.000    22329341.481 5                     -4222.737 5        31.223
C24        34.000                                                                                                                                    22246552.097 7 115843663.72507     -2755.680 7        42.389                                                                    22246552.998 6  94132436.76406     -2239.141 6        37.017
R14        35.000    19223923.786 7 102474513.06007      -908.968 7        46.972                                                                    19223929.518 7  79702369.42607      -707.007 7        45.848
S21        38.000    38423077.611 5 201914612.81505      -854.719 5        34.681
C44        39.000                                                                                                                                    22109126.847 8 115128035.40008     -1979.211 8        48.873                                                                    22109128.806 7  93550979.52707     -1608.043 7        43.134
C35        40.000                                                                                                                                    25555552.661 5                     -3913.174 5        31.781                                                                    25555569.834 4                     -3179.709 4        26.850
C25        41.000                                                                                                                                    21714975.941 7 113075549.42407       329.536 7        43.573                                                                    21714980.604 7  91883253.06907       267.972 7        43.852
R05        42.000                                                                                                                                    23052252.014 4                     -2744.268 4        26.994
C12        43.000                                                                                                                                    21917837.213 7 114131876.43407      -313.044 7        45.049    21917838.366 7  88254131.13907      -242.080 7        46.873    21917836.890 7  92741630.43007      -254.281 7        43.200
C32        44.000                                                                                                                                    26893456.756 5                     -2109.033 5        32.060                                                                    26893496.823 4 113795033.98304     -1713.321 4        26.623
C05        45.000                                                                                                                                    39437421.476 5 205360999.19205      -821.329 5        30.626    39437432.546 5 158798171.39805      -635.303 5        35.052
C23        55.000                                                                                                                                                                                                                                                                    25840338.710 6 109338922.69606      1769.738 6        40.458
I02        57.000    37346519.888 6 146555772.96306      -949.723 6        39.243
I06        58.000    38589721.693 7 151434312.33507      -719.724 7        42.171
> 2025 01 01 14 30 25.0000000  0 39
G06         2.000    23975805.418 5                     -3412.748 5        30.181                                                                                                    23975867.022 3                     -2658.402 3        22.457
G25         3.000    19787206.771 8 103982500.22408      -624.019 8        50.954                                    19787208.348 8  81025296.66108      -486.251 8        48.055    19787210.369 7  81025343.68207      -486.297 7        43.043
G11         4.000    22354988.444 7 117476474.49407     -1173.729 7        46.894                                    22354990.663 5  91539962.19105      -914.595 5        33.407    22354990.678 7  91539979.17407      -914.687 7        42.777
G31         5.000    24127202.637 6 126789585.34406      2569.401 6        37.611                                    24127212.102 3  98796904.47003      2002.110 3        18.388    24127212.109 5  98796963.50105      2002.306 5        31.057
G28         6.000    22253106.589 7 116940892.08107      1544.553 7        46.915                                    22253110.341 5  91122823.77505      1203.542 5        33.060    22253110.315 7  91122919.78407      1203.585 7        42.326
G12         7.000    21286604.738 7 111861826.90007     -2988.102 7        42.201                                    21286601.795 5  87165074.71005     -2328.383 5        34.043    21286600.377 6  87165074.68106     -2328.376 6        37.410
G29         8.000    21367876.734 7 112288956.87507      1414.903 7        45.228                                    21367877.130 6  87498057.98706      1102.520 6        40.834    21367878.313 7  87497888.99507      1102.570 7        42.112
E30         9.000    23803510.156 8 125088413.43808     -1582.676 8        48.668                                                                    23803515.942 7  93410151.93007     -1181.908 7        43.143    23803513.026 6  95846942.00106     -1212.644 6        39.489
E15        10.000    26644014.754 5 140015255.18905      2322.342 5        33.683                                                                    26644030.924 6 104556909.74606      1734.160 6        41.104    26644029.438 7 107284560.64007      1779.375 7        42.654
G32        11.000    23617629.585 5 124111650.21205     -2958.812 5        30.906                                    23617667.431 1  96710203.55101     -2305.646 1         9.429    23617656.238 3                     -2304.859 3        19.791
E34        12.000    24810376.368 6 130379545.83506       429.591 6        41.139                                                                    24810379.557 7  97361366.18707       320.857 7        44.060    24810378.705 7  99901211.77607       329.112 7        46.051
E02        13.000                                                                                                                                    26866916.233 5                     -2383.890 5        31.721    26866917.236 4                     -2446.141 4        26.982
E19        14.000    26945494.018 6 141599524.62206       226.167 6        37.584                                                                    26945509.224 5 105739968.69405       169.094 5        33.545    26945516.911 5 108498411.95705       173.184 5        32.737
E27        15.000    24516782.848 6 128836640.31906       713.907 6        37.493                                                                    24516772.574 7  96209096.05407       533.079 7        42.017    24516770.631 6  98718949.78806       547.037 6        40.858
G24        16.000    24704774.075 3                     -4755.214 3        23.810                                                                                                    24704785.073 3                     -3704.114 3        20.810
R17        17.000    22285829.457 5                      3481.687 5        31.796                                                                    22285854.834 4                      2706.655 4        24.586
E07        18.000    27137649.746 3                     -3779.697 3        21.833                                                                    27137683.607 4 106494002.51404     -2823.822 4        29.014
E36        19.000    26445334.487 5 138971162.48605     -2366.053 5        32.323                                                                    26445349.470 5 103777332.63305     -1767.064 5        33.832    26445341.752 5 106484511.99105     -1812.953 5        35.267
R15        20.000    21186585.016 8 113215265.56508      2249.075 8        48.180                                                                    21186594.762 7  88056040.88607      1749.270 7        43.268
R24        21.000    19503487.900 7 104294038.48807       322.311 7        42.578                                                                    19503498.610 5  81117571.26005       250.830 5        35.395
S36        23.000    38196288.447 5 200722686.01205      -854.716 5        35.571
S23        24.000    38140783.493 5 200431127.76705      -859.514 5        35.576
E29        26.000    26038041.225 6 136830813.31006     -1981.735 6        37.977                                                                    26038048.453 6 102178895.18206     -1479.815 6        37.267    26038049.304 7 104844454.31007     -1518.451 7        43.721
C34        28.000                                                                                                                                    22312250.606 7 116186135.65807      1302.855 7        44.921                                                                    22312254.771 7  94410509.44407      1058.679 7        44.283
R13        29.000    22333293.488 5                     -4224.102 5        30.868
C24        34.000                                                                                                                                    22249198.605 6 115857445.53606     -2757.128 6        41.990                                                                    22249199.864 6  94143635.61206     -2240.441 6        36.125
R14        35.000    19224778.214 8 102479064.33708      -911.536 8        48.654                                                                    19224783.749 7  79705909.30907      -709.034 7        45.691
R23        36.000    21493954.914 6 114978031.48806     -4158.903 6        38.177
S21        38.000    38423893.507 5 201918887.07505      -854.688 5        34.838
C44        39.000                                                                                                                                    22111028.222 8 115137936.49108     -1981.326 8        48.602                                                                    22111029.838 7  93559024.99207     -1610.062 7        42.516
C35        40.000                                                                                                                                    25559311.681 5                     -3914.124 5        32.617                                                                    25559328.277 4                     -3179.871 4        26.491
C25        41.000                                                                                                                                    21714660.462 7 113073905.55107       327.869 7        42.802                                                                    21714664.780 7  91881917.26607       266.524 7        43.780
R05        42.000    23055347.189 5                     -3530.314 5        35.886
C12        43.000                                                                                                                                    21918139.459 7 114133447.89207      -315.586 7        46.171    21918140.429 7  88255346.29307      -243.972 7        47.038    21918138.507 7  92742907.36207      -256.389 7        42.967
C32        44.000                                                                                                                                    26895481.611 5 140051842.20015     -2110.780 5        34.524
C05        45.000                                                                                                                                    39438210.128 5 205365106.23305      -821.205 5        31.411    39438220.320 5 158801347.22705      -634.930 5        35.019
C23        55.000                                                                                                                                                                                                                                                                    25838247.362 6 109330074.72306      1769.576 6        40.605
I02        57.000    37347729.540 6 146560520.89606      -949.579 6        39.174
I06        58.000    38590638.745 7 151437910.34207      -719.550 7        42.129
> 2025 01 01 14 30 30.0000000  0 37
G06         2.000    23979056.476 4                     -3414.299 4        29.469
G25         3.000    19787801.538 8 103985626.99208      -626.406 8        51.219                                    19787803.691 8  81027733.11308      -488.112 8        48.168    19787805.132 7  81027780.13207      -488.190 7        43.467
G11         4.000    22356107.163 7 117482352.14607     -1177.128 7        47.238                                    22356109.275 5  91544542.17805      -917.240 5        33.198    22356109.009 7  91544559.16807      -917.336 7        42.518
G31         5.000    24124758.925 6 126776742.00306      2568.149 6        38.646                                    24124768.553 3  98786896.72403      2001.150 3        19.791    24124768.014 4  98786955.77104      2001.183 4        29.706
G28         6.000    22251638.395 7 116933175.68007      1542.262 7        46.984                                    22251641.922 5  91116811.01405      1201.760 5        33.036    22251642.647 7  91116907.02307      1201.824 7        43.007
G12         7.000    21289449.169 6 111876772.07506     -2989.672 6        40.572                                    21289445.349 5  87176720.27105     -2329.600 5        31.992    21289442.997 5  87176720.24405     -2329.896 5        35.948
G29         8.000    21366531.144 7 112281888.23807      1412.752 7        46.190                                    21366531.950 6  87492549.96906      1100.842 6        41.890    21366533.078 7  87492380.97507      1100.855 7        42.701
E30         9.000    23805016.815 8 125096330.02408     -1583.777 8        48.931                                                                    23805022.974 7  93416063.66207     -1182.681 7        43.010    23805019.469 6  95853007.95806     -1213.510 6        39.243
E15        10.000    26641805.512 5 140003646.05805      2321.771 5        32.509                                                                    26641821.687 6 104548240.62906      1733.629 6        40.553    26641820.475 7 107275665.36507      1778.979 7        42.946
