     3.04           OBSERVATION DATA    M                   RINEX VERSION / TYPE
ssrcrin-15.6.1x                         20250101 111500 UTC PGM / RUN BY / DATE 
(00000000023479385599111004) Septentrio proprietary         COMMENT             
ract                                                        MARKER NAME         
01                                                          MARKER NUMBER       
geodetic                                                    MARKER TYPE         
NFB                 CLIMERS@TUW                             OBSERVER / AGENCY   
3296359             SEPT ASTERX SB3 PROB4.14.4              REC # / TYPE / VERS 
Unknown             Unknown                                 ANT # / TYPE        
  4127446.3259  1206915.1554  4695541.7588                  APPROX POSITION XYZ 
        0.0000        0.0000        0.0000                  ANTENNA: DELTA H/E/N
G   23 X1  C1C L1C D1C S1C C1W S1W C2W L2W D2W S2W C2L L2L  SYS / # / OBS TYPES 
       D2L S2L C5Q L5Q D5Q S5Q C1L L1L D1L S1L              SYS / # / OBS TYPES 
E   21 X1  C1C L1C D1C S1C C6C L6C D6C S6C C5Q L5Q D5Q S5Q  SYS / # / OBS TYPES 
       C7Q L7Q D7Q S7Q C8Q L8Q D8Q S8Q                      SYS / # / OBS TYPES 
S    9 X1  C1C L1C D1C S1C C5I L5I D5I S5I                  SYS / # / OBS TYPES 
R   17 X1  C1C L1C D1C S1C C2P L2P D2P S2P C2C L2C D2C S2C  SYS / # / OBS TYPES 
       C3Q L3Q D3Q S3Q                                      SYS / # / OBS TYPES 
C   25 X1  C1P L1P D1P S1P C5P L5P D5P S5P C2I L2I D2I S2I  SYS / # / OBS TYPES 
       C7I L7I D7I S7I C6I L6I D6I S6I C7D L7D D7D S7D      SYS / # / OBS TYPES 
J   17 X1  C1C L1C D1C S1C C2L L2L D2L S2L C5Q L5Q D5Q S5Q  SYS / # / OBS TYPES 
       C1L L1L D1L S1L                                      SYS / # / OBS TYPES 
I    5 X1  C5A L5A D5A S5A                                  SYS / # / OBS TYPES 
SEPTENTRIO RECEIVERS OUTPUT ALIGNED CARRIER PHASES.         COMMENT             
NO FURTHER PHASE SHIFT APPLIED IN THE RINEX ENCODER.        COMMENT             
G L1C                                                       SYS / PHASE SHIFT   
G L2W                                                       SYS / PHASE SHIFT   
G L2L  0.00000                                              SYS / PHASE SHIFT   
G L5Q  0.00000                                              SYS / PHASE SHIFT   
G L1L  0.00000                                              SYS / PHASE SHIFT   
E L1C  0.00000                                              SYS / PHASE SHIFT   
E L6C  0.00000                                              SYS / PHASE SHIFT   
E L5Q  0.00000                                              SYS / PHASE SHIFT   
E L7Q  0.00000                                              SYS / PHASE SHIFT   
E L8Q  0.00000                                              SYS / PHASE SHIFT   
S L1C                                                       SYS / PHASE SHIFT   
S L5I                                                       SYS / PHASE SHIFT   
R L1C                                                       SYS / PHASE SHIFT   
R L2P  0.00000                                              SYS / PHASE SHIFT   
R L2C                                                       SYS / PHASE SHIFT   
R L3Q  0.00000                                              SYS / PHASE SHIFT   
C L1P  0.00000                                              SYS / PHASE SHIFT   
C L5P  0.00000                                              SYS / PHASE SHIFT   
C L2I                                                       SYS / PHASE SHIFT   
C L7I                                                       SYS / PHASE SHIFT   
C L6I                                                       SYS / PHASE SHIFT   
C L7D                                                       SYS / PHASE SHIFT   
J L1C                                                       SYS / PHASE SHIFT   
J L2L  0.00000                                              SYS / PHASE SHIFT   
J L5Q  0.00000                                              SYS / PHASE SHIFT   
J L1L  0.00000                                              SYS / PHASE SHIFT   
I L5A                                                       SYS / PHASE SHIFT   
  2025     1     1    11    15    0.0000000     GPS         TIME OF FIRST OBS   
 C1C    0.000 C2C    0.000 C2P    0.000                     GLONASS COD/PHS/BIS 
DBHZ                                                        SIGNAL STRENGTH UNIT
    18                                                      LEAP SECONDS        
 24 R01  1 R02 -4 R03  5 R04  6 R05  1 R06 -4 R07  5 R08  6 GLONASS SLOT / FRQ #
    R09 -2 R10 -7 R11  0 R12 -1 R13 -2 R14 -7 R15  0 R16 -1 GLONASS SLOT / FRQ #
    R17  4 R18 -3 R19  3 R20  2 R21  4 R22 -3 R23  3 R24  2 GLONASS SLOT / FRQ #
                                                            END OF HEADER       
> 2025 01 01 11 15  0.0000000  0 37
G19         1.000    21203522.134 6 111425280.82506       -14.775 6        36.616                                    21203526.513 3  86824865.06203       -11.519 3        22.286
G13         2.000    23113184.216 6 121460700.41806     -4572.875 6        41.187                                    23113187.903 2  94644676.68402     -3563.307 2        15.286
G17         5.000    22350287.142 7 117451718.78907     -2525.387 7        42.093                                    22350290.019 5  91520725.26305     -1967.834 5        32.569    22350292.566 6  91520703.27506     -1968.005 6        37.327
G15         6.000    21757741.211 5 114337936.01105     -3980.357 5        30.075                                    21757747.384 3  89094313.37803     -3101.567 3        21.762    21757746.976 5  89094392.38205     -3101.713 5        31.660
G12         7.000    21769278.512 7 114398369.63107      1912.478 7        45.093                                    21769292.569 5  89141617.31105      1490.247 5        32.719    21769281.881 6  89141566.22606      1490.283 6        38.012
E30         9.000    25041093.380 7 131591896.89107      1164.525 7        43.113                                                                    25041100.130 7  98266656.39207       869.566 7        44.563    25041098.736 7 100830138.93607       892.296 7        46.365
G23        10.000    23989779.300 4                     -3187.049 4        28.284                                                                                                    23989784.530 4                     -2482.676 4        25.068
G32        11.000    26021238.271 5 136742545.20905      2678.578 5        33.287
G10        12.000    24246176.327 5                     -1023.484 5        33.054                                                                                                    24246175.880 5  99284065.98205      -797.668 5        31.457
E02        13.000    23109840.027 7 121443055.88307     -1336.682 7        43.693                                                                    23109845.186 8  90688087.08408      -998.206 8        49.968    23109843.249 8  93053868.52608     -1024.244 8        50.363
E25        14.000    26138385.564 5 137358206.72305     -3320.951 5        31.660                                                                    26138392.066 6 102572619.00906     -2479.586 6        36.851    26138388.020 5 105248351.06805     -2544.295 5        32.347
G24        16.000    20059770.043 7 105414946.19807       -15.085 7        44.575                                    20059773.902 6  82141350.93306       -11.757 6        39.123    20059774.246 6  82141423.91706       -11.683 6        40.546
E08        17.000    23857965.418 7 125374433.32707     -2278.440 7        43.128                                                                    23857971.282 7  93623773.05607     -1701.398 7        47.133    23857970.578 8  96066170.79808     -1745.780 8        49.236
E07        18.000    24711099.647 6 129857942.80406       627.280 6        36.454                                                                    24711103.429 4  96971699.09104       468.819 4        28.436    24711096.878 6  99501395.94206       480.730 6        36.295
R22        22.000    22093506.107 6 117936688.52306      1967.037 6        36.238                                                                    22093502.880 6  91728478.81906      1530.023 6        36.722
S36        23.000    38110537.737 5 200272193.85905      -836.191 5        34.629
S23        24.000    38045461.727 5 199930259.27205      -839.205 5        35.429
R04        25.000    22455949.914 5                      2548.032 5        32.838
E03        27.000    26868272.800 5                     -3962.187 5        33.114                                                                    26868286.860 5 105436893.69205     -2958.835 5        33.587
R13        29.000    19712021.204 7 105261083.90607       401.006 7        42.171
R21        30.000                                                                                                                                    22241875.911 5                     -1357.885 5        31.102
R12        31.000    19887394.186 7 106234879.80807     -2603.521 7        46.797                                                                    19887400.151 7  82627128.85307     -2024.963 7        43.120
C10        32.000                                                                                                                                    38517556.480 6 200571012.25106     -1203.267 6        38.384    38517564.187 5 155094266.65305      -930.314 5        35.514    38517559.329 6 162980382.49306      -977.533 6        38.312
R03        33.000    20070553.581 7 107439582.98807      -887.308 7        44.256                                                                    20070552.940 6  83563847.07506      -690.071 6        39.408
C24        34.000                                                                                                                                    22398717.982 7 116635975.19107       980.975 7        47.114                                                                    22398721.541 6  94776334.34506       797.334 6        38.135
R14        35.000    23850940.917 5 127138923.84105      2501.213 5        31.992                                                                    23850955.765 5  98885923.41205      1945.632 5        32.186
C26        37.000                                                                                                                                    21732010.680 7 113164356.97907     -1593.673 7        44.546                                                                    21732013.300 7  91955335.21707     -1294.907 7        45.561
C35        40.000                                                                                                                                    23924388.987 6 124580561.95906      1401.936 6        36.359                                                                    23924395.931 6 101231949.12806      1139.230 6        37.233
C42        41.000                                                                                                                                    24249974.983 5 126275980.96305     -3655.088 5        31.479                                                                    24249991.586 6 102609641.03206     -2970.025 6        37.017
R02        43.000    21248174.829 7 113384291.33507     -4668.489 7        43.079                                                                    21248175.571 4  88187816.14004     -3630.130 4        26.575
C40        44.000                                                                                                                                    39413521.482 5                     -1804.853 5        32.844
C33        46.000                                                                                                                                    23878423.648 6 124341169.12106      -960.165 6        40.291                                                                    23878441.840 6 101037477.72006      -780.010 6        40.498
C14        48.000                                                                                                                                                                                                    23578103.058 7  94939366.12807     -1916.042 7        42.918    23578098.654 6  99766646.53406     -2013.359 6        37.977
C41        50.000                                                                                                                                    26357338.133 5                      1500.685 5        34.471                                                                    26357350.686 5 111526699.61405      1219.211 5        31.887
C07        53.000                                                                                                                                    39180068.807 5                     -1544.623 5        30.604    39180045.034 5                     -1194.532 5        30.468
I02        56.000    36802540.001 7 144421067.65407      -580.343 7        44.184
I06        58.000    38198569.767 6 149899379.83506      -734.291 6        38.622
> 2025 01 01 11 15  5.0000000  0 39
G19         1.000    21203538.854 5 111425363.72105       -18.382 5        34.157                                    21203542.204 3  86824929.63203       -14.292 3        21.286
G13         2.000    23117535.780 6 121483568.19906     -4574.115 6        41.955                                    23117539.377 2  94662495.73202     -3564.240 2        14.810
G14         4.000    24234104.380 3                     -4142.981 3        23.010
G17         5.000    22352691.263 6 117464353.55206     -2528.397 6        40.989                                    22352694.849 5  91530570.52605     -1970.181 5        32.629    22352696.572 6  91530548.52506     -1970.205 6        37.902
G15         6.000    21761530.459 5 114357843.56905     -3982.337 5        30.189                                    21761534.397 3  89109825.73303     -3103.113 3        21.952    21761538.118 5  89109904.72305     -3103.355 5        32.108
G12         7.000    21767459.323 7 114388812.27807      1910.403 7        43.192                                    21767470.616 5  89134170.01005      1488.629 5        32.353    21767462.339 6  89134118.92206      1488.622 6        36.885
E30         9.000    25039985.635 7 131586077.81007      1163.045 7        42.756                                                                    25039992.856 7  98262310.97907       868.470 7        44.689    25039991.516 7 100825680.16507       891.178 7        46.575
G23        10.000    23992817.911 5                     -3188.465 5        31.245                                                                                                    23992811.707 3                     -2484.743 3        21.857
G32        11.000    26018689.409 5 136729154.68805      2677.711 5        33.557
G10        12.000    24247151.154 5                     -1026.972 5        34.652                                                                                                    24247152.700 5  99288059.95405      -800.091 5        32.353
E02        13.000    23111113.196 7 121449744.13507     -1338.644 7        44.438                                                                    23111117.975 8  90693081.53708      -999.596 8        50.186    23111116.019 8  93058993.27408     -1025.676 8        50.371
E25        14.000    26141548.218 4 137374810.63804     -3320.881 4        29.365                                                                    26141551.912 6 102585018.03806     -2479.867 6        36.567    26141547.546 5 105261073.54305     -2544.620 5        32.240
G24        16.000    20059784.959 7 105415028.58607       -17.842 7        43.799                                    20059789.535 6  82141415.12306       -13.900 6        39.273    20059789.944 6  82141488.11406       -13.926 6        40.727
E08        17.000    23860135.111 7 125385831.04907     -2280.787 7        44.153                                                                    23860140.284 7  93632284.32507     -1703.159 7        47.180    23860139.522 8  96074904.09508     -1747.554 8        49.191
E07        18.000    24710503.623 6 129854812.48306       625.182 6        37.474                                                                    24710505.877 4  96969361.61704       465.916 4        27.090    24710505.354 6  99498997.40506       478.840 6        37.395
R22        22.000    22091667.717 5 117926861.35505      1963.908 5        35.052                                                                    22091663.531 6  91720835.55606      1527.271 6        37.962
S36        23.000    38111331.012 5 200276374.74005      -836.196 5        34.890
S23        24.000    38046257.210 5 199934456.15805      -839.557 5        35.214
R04        25.000    22453574.244 5 120237868.64815      2545.206 5        34.757
E03        27.000    26872043.116 5                     -3962.680 5        33.036                                                                    26872057.195 5 105451688.54605     -2959.281 5        33.084
R13        29.000    19711646.768 7 105259084.71407       398.673 7        42.859
R21        30.000    22243474.020 5 119029417.84215     -1750.314 5        35.267                                                                    22243514.841 5                     -1361.447 5        31.147
R12        31.000    19889831.938 7 106247902.32607     -2605.491 7        44.783                                                                    19889837.656 7  82637257.48007     -2026.496 7        42.377
C10        32.000                                                                                                                                    38518712.336 6 200577030.46706     -1204.029 6        38.171    38518719.565 5 155098920.29805      -931.128 5        35.010    38518715.147 6 162985272.78906      -978.337 6        38.535
R03        33.000    20071384.599 7 107444031.81707      -892.245 7        43.784                                                                    20071383.659 6  83567307.24306      -693.922 6        39.045
C24        34.000                                                                                                                                    22397777.004 7 116631074.11907       979.528 7        46.134                                                                    22397782.146 6  94772351.80406       796.109 6        38.685
R14        35.000    23848598.327 4 127126418.89404      2500.743 4        28.066                                                                    23848616.583 4  98876197.21704      1944.954 4        29.687
C26        37.000                                                                                                                                    21733542.135 7 113172329.72607     -1595.358 7        46.103                                                                    21733544.281 7  91961813.72607     -1296.349 7        45.514
C35        40.000                                                                                                                                    23923043.445 6 124573557.47106      1399.852 6        37.440                                                                    23923050.683 6 101226257.43406      1137.370 6        36.442
C42        41.000                                                                                                                                    24253484.868 4 126294261.09504     -3657.057 4        29.213                                                                    24253502.076 6 102624495.07006     -2971.418 6        37.085
R02        43.000    21252553.567 7 113407640.51807     -4671.248 7        42.404                                                                    21252551.946 4  88205976.61204     -3632.844 4        29.706
C40        44.000                                                                                                                                    39415255.890 5                     -1805.530 5        32.748
C33        46.000                                                                                                                                    23879347.280 6 124345978.26706      -963.319 6        39.195                                                                    23879365.075 6 101041385.52206      -782.869 6        39.940
C45        47.000                                                                                                                                    25222213.735 5                     -3534.660 5        30.309
C14        48.000                                                                                                                                    23580484.547 6 122789668.77916     -2480.459 6        37.395    23580483.612 6  94948952.02706     -1918.265 6        41.449    23580480.617 6  99776719.89506     -2015.710 6        38.144
C41        50.000                                                                                                                                    26355901.316 5 137242073.99415      1498.367 5        35.690                                                                    26355911.843 5 111520607.81305      1217.136 5        32.359
C07        53.000                                                                                                                                    39181547.752 5                     -1545.050 5        30.755    39181528.915 5                     -1194.758 5        30.958
I02        56.000    36803279.844 7 144423970.96907      -580.797 7        44.321
I06        58.000    38199505.797 6 149903052.12206      -734.465 6        38.868
> 2025 01 01 11 15 10.0000000  0 40
G19         1.000    21203556.609 5 111425463.75805       -20.989 5        30.875                                    21203560.927 3  86825007.57203       -16.363 3        21.619
G13         2.000    23121888.878 7 121506441.49707     -4575.074 7        42.332                                    23121891.867 2  94680319.00802     -3564.905 2        14.048
G14         4.000    24238043.293 3                     -4140.568 3        23.238
G17         5.000    22355098.850 6 117477002.66406     -2531.012 6        40.091                                    22355102.478 5  91540426.96405     -1972.218 5        32.790    22355104.235 6  91540404.97006     -1972.331 6        38.658
G15         6.000    21765323.289 5 114377761.91505     -3984.800 5        33.725                                    21765323.990 3  89125346.47803     -3105.022 3        22.514    21765328.864 5  89125425.42405     -3104.595 5        33.455
G12         7.000    21765642.636 7 114379264.57307      1908.730 7        42.408                                    21765650.361 5  89126730.21605      1487.330 5        30.838    21765644.970 5  89126679.13505      1487.186 5        34.514
E30         9.000    25038878.844 6 131580265.43706      1161.995 6        41.692                                                                    25038886.922 7  98257970.57307       867.728 7        44.927    25038885.269 7 100821226.54007       890.330 7        46.539
G23        10.000    23995855.900 5                     -3190.413 5        32.485                                                                                                    23995841.419 3                     -2485.936 3        20.548
G32        11.000    26016142.247 5 136715767.54505      2676.891 5        33.988
G10        12.000    24248126.865 5 127424781.07015     -1029.984 5        33.701
E02        13.000    23112387.676 7 121456440.68107     -1339.963 7        45.264                                                                    23112392.392 8  90698082.18508     -1000.621 8        50.410    23112390.352 8  93064124.37408     -1026.669 8        50.313
E25        14.000    26144718.123 4 137391417.38404     -3321.291 4        26.455                                                                    26144712.279 6 102597419.12706     -2480.396 6        36.767    26144707.669 5 105273798.13805     -2544.798 5        32.180
G24        16.000    20059803.982 7 105415124.34707       -20.182 7        43.600                                    20059807.761 6  82141489.73206       -15.726 6        39.012    20059808.126 6  82141562.71806       -15.724 6        40.906
E08        17.000    23862306.115 7 125397239.92307     -2282.660 7        44.632                                                                    23862311.310 7  93640803.93307     -1704.642 7        47.289    23862310.383 8  96083645.95808     -1749.102 8        48.952
E07        18.000    24709908.772 6 129851692.41606       623.292 6        37.747                                                                    24709909.292 4  96967031.62504       465.519 4        25.233    24709913.493 6  99496606.69006       477.636 6        38.009
R22        22.000    22089832.204 5 117917049.88505      1961.044 5        34.052                                                                    22089826.676 6  91713204.42506      1525.047 6        36.975
S36        23.000    38112127.493 5 200280555.49705      -836.055 5        35.119
S23        24.000    38047058.834 5 199938653.83005      -839.340 5        35.162
R04        25.000    22451199.585 5 120225149.49405      2542.642 5        35.362
E03        27.000    26875814.701 5                     -3963.472 5        32.527                                                                    26875826.630 5 105466486.01805     -2959.941 5        32.090    26875824.466 3                     -3036.601 3        23.238
R13        29.000    19711274.539 7 105257096.71407       396.652 7        43.335
R21        30.000                                                                                                                                    22245149.867 5                     -1364.978 5        32.617
R12        31.000    19892271.091 7 106260934.06707     -2607.022 7        42.428                                                                    19892277.543 6  82647393.29506     -2027.815 6        41.342
C10        32.000                                                                                                                                    38519868.278 6 200583051.59406     -1204.256 6        37.943    38519875.506 5 155103576.21705      -931.161 5        34.519    38519871.390 6 162990165.45406      -978.610 6        38.766
R03        33.000    20072220.456 7 107448504.87207      -896.800 7        45.320                                                                    20072218.974 6  83570786.29806      -697.666 6        38.670
C24        34.000                                                                                                                                    22396837.799 7 116626179.37607       978.448 7        45.815                                                                    22396842.688 6  94768374.42406       795.074 6        38.997
R14        35.000    23846252.398 4 127113917.02404      2500.553 4        24.466
C26        37.000                                                                                                                                    21735074.800 7 113180310.37907     -1596.765 7        47.370                                                                    21735076.610 7  91968298.66207     -1297.549 7        45.467
C29        39.000                                                                                                                                    24576664.685 5 127977306.91615     -1643.875 5        31.857
C35        40.000                                                                                                                                    23921699.256 6 124566563.18006      1398.151 6        38.766                                                                    23921707.491 6 101220574.04206      1135.751 6        36.095
C42        41.000                                                                                                                                    24257000.234 5 126312549.02305     -3658.325 5        31.057                                                                    24257014.330 6 102639355.49406     -2972.686 6        37.168
R02        43.000                                                                                                                                    21256933.845 5  88224146.98205     -3635.017 5        34.138
C40        44.000                                                                                                                                    39416992.530 5                     -1805.892 5        33.054
C33        46.000                                                                                                                                    23880273.142 6 124350802.87506      -966.228 6        38.366                                                                    23880291.398 6 101045305.88806      -785.281 6        39.396
C45        47.000                                                                                                                                    25225612.732 5                     -3535.195 5        31.155
C14        48.000                                                                                                                                    23582861.948 6 122802078.57006     -2483.135 6        38.958    23582865.675 6  94958548.03406     -1920.234 6        39.249    23582864.917 6  99786803.88006     -2017.809 6        38.072
C41        50.000                                                                                                                                    26354463.839 6 137234587.51806      1496.478 6        36.454                                                                    26354475.451 5 111514524.33305      1216.201 5        32.665
C07        53.000                                                                                                                                    39183027.295 5                     -1545.319 5        32.156    39183012.541 5                     -1195.040 5        31.426
I02        56.000    36804020.055 7 144426875.82507      -580.890 7        44.375
I06        58.000    38200441.861 6 149906725.00606      -734.504 6        38.985
> 2025 01 01 11 15 15.0000000  0 38
G19         1.000    21203579.835 5 111425580.71705       -25.142 5        32.323                                    21203582.614 3  86825098.69703       -19.595 3        20.810
G13         2.000    23126242.337 7 121529319.94907     -4576.285 7        42.525                                    23126245.394 2  94698146.34102     -3565.942 2        14.238
G14         4.000    24241977.302 3                     -4142.417 3        21.286
G17         5.000    22357508.893 6 117489665.79306     -2534.207 6        41.740                                    22357512.866 5  91550294.32705     -1974.707 5        33.329    22357514.103 6  91550272.34306     -1974.814 6        39.036
G15         6.000    21769116.762 6 114397690.65106     -3986.898 6        37.622                                    21769115.903 3  89140875.34703     -3106.671 3        23.562    21769120.511 5  89140954.31305     -3106.687 5        34.771
G12         7.000    21763828.745 7 114369726.20907      1906.551 7        42.028                                    21763831.860 4  89119297.68404      1485.625 4        29.697    21763829.609 5  89119246.62205      1485.785 5        32.976
E30         9.000    25037773.950 6 131574459.43806      1160.407 6        40.415                                                                    25037782.222 7  98253634.93607       866.519 7        44.978    25037780.434 7 100816777.79807       889.180 7        46.589
G23        10.000    23998900.212 5                     -3192.583 5        31.849                                                                                                    23998889.349 3                     -2487.155 3        23.029
G32        11.000    26013595.541 5 136702383.41905      2676.605 5        32.713
G10        12.000    24249096.666 5 127429938.71505     -1033.069 5        34.286                                    24249120.840 2  99296101.45112      -804.971 2        12.121    24249130.387 5  99296085.46605      -805.389 5        32.778
E02        13.000    23113663.521 7 121463145.21907     -1341.828 7        45.621                                                                    23113668.270 8  90703088.80208     -1001.990 8        50.644    23113666.222 8  93069261.60808     -1028.181 8        50.290
E25        14.000    26147886.629 4 137408026.72504     -3322.552 4        25.564                                                                    26147872.935 6 102609821.97806     -2480.826 6        36.461    26147868.999 5 105286524.53905     -2545.400 5        32.168
G24        16.000    20059825.604 7 105415233.18407       -23.127 7        43.505                                    20059828.474 6  82141574.53106       -18.022 6        39.000    20059829.528 6  82141647.55206       -18.215 6        41.006
E08        17.000    23864478.932 7 125408659.67207     -2285.214 7        44.790                                                                    23864484.359 7  93649331.64807     -1706.442 7        47.235    23864483.339 8  96092396.14008     -1750.975 8        48.768
E07        18.000    24709314.369 6 129848582.28906       620.962 6        37.142                                                                    24709314.198 4  96964709.16304       463.893 4        24.301    24709322.311 6  99494223.61706       475.721 6        38.772
R22        22.000                                                                                                                                    22087994.594 5  91705585.18505      1522.461 5        34.767
S36        23.000    38112920.083 5 200284736.65605      -836.503 5        34.619
S23        24.000    38047854.393 5 199942851.96805      -839.730 5        34.971
R04        25.000    22448828.880 6 120212444.59406      2539.364 6        37.093
E03        27.000    26879587.284 5                     -3964.231 5        31.909                                                                    26879597.392 5 105481285.75905     -2960.201 5        30.891    26879597.241 4                     -3037.660 4        26.168
R13        29.000    19710904.054 7 105255119.57007       394.284 7        43.308
R21        30.000    22246787.043 5 119046967.12515     -1759.255 5        32.647                                                                    22246789.513 5                     -1368.467 5        31.781
R12        31.000    19894711.202 6 106273974.77806     -2609.288 6        40.949                                                                    19894718.823 6  82657536.05306     -2029.282 6        40.753
C10        32.000                                                                                                                                    38521024.783 6 200589075.42406     -1205.023 6        37.750    38521032.480 5 155108234.19505      -932.003 5        34.533    38521028.367 6 162995060.31006      -979.336 6        38.799
R03        33.000    20073063.914 7 107453001.98307      -902.019 7        44.623                                                                    20073058.655 5  83574284.03205      -701.461 5        35.995
C24        34.000                                                                                                                                    22395899.307 7 116621290.65707       977.046 7        45.178                                                                    22395903.412 6  94764401.95106       793.727 6        39.213
C26        37.000                                                                                                                                    21736608.772 8 113188298.63208     -1598.544 8        48.406                                                                    21736610.583 7  91974789.78407     -1299.093 7        45.403
C35        40.000                                                                                                                                    23920357.859 6 124559578.81506      1395.732 6        39.111                                                                    23920366.480 5 101214898.68705      1134.223 5        35.781
C42        41.000                                                                                                                                    24260517.312 5 126330844.47705     -3659.913 5        34.133                                                                    24260527.766 6 102654222.07306     -2974.153 6        37.229
R02        43.000    21261298.851 6 113454376.89706     -4676.235 6        41.468
C40        44.000                                                                                                                                    39418727.872 5                     -1806.486 5        33.659
C33        46.000                                                                                                                                    23881201.518 6 124355642.63806      -969.720 6        38.318                                                                    23881220.370 6 101049238.60906      -787.990 6        38.766
C45        47.000                                                                                                                                    25229013.370 5                     -3535.635 5        30.657
C14        48.000                                                                                                                                    23585248.678 6 122814501.19106     -2485.988 6        40.610    23585248.750 5  94968153.91605     -1922.219 5        35.795    23585248.911 6  99796898.26606     -2020.046 6        37.028
C41        50.000                                                                                                                                    26353028.435 6 137227111.16006      1493.813 6        36.556                                                                    26353040.329 5 111508449.12305      1213.940 5        32.856
C07        53.000                                                                                                                                    39184509.450 5                     -1546.064 5        32.551    39184497.880 5                     -1195.486 5        31.517
I02        56.000    36804760.615 7 144429781.95307      -581.491 7        44.479
I06        58.000    38201377.504 6 149910398.20406      -734.708 6        38.751
> 2025 01 01 11 15 20.0000000  0 40
G19         1.000    21203607.465 6 111425714.20206       -28.233 6        36.057                                    21203607.526 3  86825202.68103       -21.971 3        21.452
G13         2.000    23130596.967 7 121552203.18307     -4576.973 7        42.362                                    23130599.891 2  94715977.41802     -3566.420 2        13.455
G14         4.000    24245914.498 3                     -4143.060 3        22.019
G17         5.000    22359922.020 7 117502342.61807     -2536.615 7        43.839                                    22359925.843 5  91560172.36305     -1976.579 5        33.910    22359927.049 6  91560150.34706     -1976.463 6        39.039
G15         6.000    21772910.844 6 114417629.50706     -3988.651 6        38.610                                    21772910.080 4  89156412.08604     -3108.042 4        25.068    21772914.268 5  89156491.09805     -3108.192 5        35.857
G12         7.000    21762015.736 7 114360196.86307      1905.139 7        42.123                                    21762016.001 4  89111872.20104      1484.527 4        28.967    21762016.455 5  89111821.16305      1484.711 5        32.731
E30         9.000    25036670.732 6 131568659.51406      1159.491 6        39.697                                                                    25036678.621 7  98249303.82707       865.927 7        45.105    25036676.730 7 100812333.71107       888.487 7        46.509
G23        10.000                                                                                                                                                                    24001923.667 3                     -2489.116 3        22.876
G32        11.000    26011048.197 5 136689002.00505      2675.982 5        32.443
G10        12.000    24250079.868 5 127435111.93205     -1035.854 5        35.819                                    24250103.738 2  99300132.47002      -807.156 2        12.485    24250124.098 5  99300116.40105      -807.547 5        30.423
E02        13.000    23114940.398 7 121469857.39007     -1343.068 7        45.267                                                                    23114945.576 8  90708101.12108     -1002.966 8        50.695    23114943.624 8  93074404.68408     -1029.142 8        50.257
E25        14.000    26151050.040 4 137424637.94304     -3322.231 4        27.413                                                                    26151033.558 6 102622226.35406     -2480.969 6        36.125    26151030.240 5 105299252.50705     -2545.575 5        32.443
G24        16.000    20059848.655 7 105415354.80907       -25.543 7        43.953                                    20059851.722 6  82141669.29306       -19.904 6        38.898    20059852.289 6  82141742.30206       -19.769 6        41.039
E08        17.000    23866653.822 7 125420089.91007     -2286.945 7        44.939                                                                    23866659.467 7  93657867.19807     -1707.848 7        47.255    23866658.333 8  96101154.36308     -1752.418 8        48.516
E07        18.000    24708724.026 6 129845481.74606       619.397 6        36.386                                                                    24708720.308 4  96962393.82704       462.731 4        24.662    24708732.915 6  99491847.85506       474.628 6        39.231
R22        22.000    22086147.451 5 117897472.56505      1955.051 5        34.829                                                                    22086164.467 5  91697977.63905      1520.355 5        33.042
S36        23.000    38113720.575 5 200288918.25705      -836.493 5        34.805
S23        24.000    38048653.115 5 199947050.13105      -839.206 5        35.033
R04        25.000    22446466.000 6 120199753.42106      2536.812 6        39.538
E03        27.000    26883361.021 5                     -3964.255 5        30.913                                                                    26883367.339 5 105496087.64805     -2960.305 5        30.091    26883366.909 4                     -3037.965 4        28.076
R13        29.000    19710535.878 7 105253153.08207       392.371 7        42.974
R21        30.000                                                                                                                                    22248428.233 5                     -1371.769 5        30.264
R12        31.000    19897154.327 6 106287024.01506     -2610.594 6        40.999                                                                    19897161.772 6  82667685.44506     -2030.423 6        40.734
C10        32.000                                                                                                                                    38522182.737 6 200595101.56406     -1205.363 6        37.849    38522189.392 5 155112893.98205      -932.247 5        34.524    38522185.568 6 162999957.00606      -979.271 6        38.685
R03        33.000    20073906.694 6 107457522.82806      -906.392 6        41.507                                                                    20073903.533 5  83577800.21705      -705.037 5        35.943
C24        34.000                                                                                                                                    22394961.539 7 116616407.61307       976.227 7        44.053                                                                    22394965.454 6  94760434.05606       793.217 6        38.498
R14        35.000    23841582.991 4                      2499.091 4        27.078                                                                    23841554.435 4                      1944.625 4        25.113
C26        37.000                                                                                                                                    21738143.671 8 113196294.13808     -1599.733 8        49.009                                                                    21738146.098 7  91981286.76607     -1299.913 7        45.222
C29        39.000                                                                                                                                    24579805.925 5 127993774.28605     -1649.449 5        33.335
C35        40.000                                                                                                                                    23919018.443 6 124552604.02806      1394.075 6        38.568                                                                    23919027.530 5 101209231.09905      1132.775 5        35.490
C42        41.000                                                                                                                                    24264031.491 6 126349147.12306     -3661.088 6        36.945                                                                    24264042.819 6 102669094.47506     -2974.961 6        36.900
R02        43.000    21265685.545 7 113477763.52007     -4678.270 7        43.141                                                                    21265712.040 6  88260516.51006     -3638.606 6        36.673
C40        44.000                                                                                                                                    39420462.750 5                     -1806.683 5        33.641
C33        46.000                                                                                                                                    23882133.333 6 124360497.20406      -972.463 6        37.285                                                                    23882151.687 6 101053183.37106      -790.260 6        37.493
C45        47.000                                                                                                                                    25232414.745 5                     -3535.633 5        30.053
C14        48.000                                                                                                                                    23587638.496 7 122826936.25307     -2488.105 7        42.068    23587634.577 5  94977769.39805     -1923.897 5        33.192    23587635.394 5  99807002.72905     -2021.660 5        35.724
C41        50.000                                                                                                                                    26351593.899 6 137219644.53606      1492.480 6        36.223                                                                    26351606.281 5 111502381.84605      1212.907 5        32.988
C07        53.000                                                                                                                                    39185994.096 5                     -1546.373 5        32.509    39185982.673 5                     -1195.808 5        31.721
I02        56.000    36805501.487 7 144432689.15507      -581.586 7        44.626
I06        58.000    38202313.669 6 149914071.50006      -734.603 6        38.865
> 2025 01 01 11 15 25.0000000  0 39
G19         1.000    21203637.957 6 111425864.54106       -31.880 6        39.270                                    21203634.982 3  86825319.78603       -24.846 3        23.143
G13         2.000    23134951.955 7 121575091.54307     -4578.203 7        42.267                                    23134955.256 2  94733812.44302     -3567.439 2        13.212
G14         4.000    24249856.699 3                     -4142.849 3        20.190
G17         5.000    22362337.143 7 117515033.43507     -2539.646 7        44.006                                    22362341.405 5  91570061.30905     -1978.938 5        33.701    22362341.104 6  91570039.29306     -1978.950 6        38.904
G15         6.000    21776705.342 6 114437578.84406     -3990.972 6        38.529                                    21776706.380 4  89171956.99504     -3109.844 4        25.970    21776710.126 6  89172035.98906     -3110.000 6        36.639
G12         7.000    21760204.705 6 114350676.91406      1902.986 6        41.421                                    21760202.915 4  89104454.04804      1482.857 4        28.190    21760205.671 5  89104403.03605      1482.952 5        31.789
E30         9.000    25035568.669 6 131562865.98406      1158.081 6        39.366                                                                    25035576.129 7  98244977.51607       864.697 7        44.922    25035574.224 7 100807894.53307       887.313 7        46.423
G32        11.000    26008502.304 5 136675623.68005      2675.808 5        32.245
G10        12.000    24251071.994 6 127440300.92906     -1039.495 6        37.815                                    24251088.461 1  99304175.82801      -809.959 1        11.556    24251108.428 4  99304159.76204      -810.499 4        27.916
E02        13.000    23116218.849 7 121476577.55307     -1344.875 7        44.819                                                                    23116224.362 8  90713119.41808     -1004.311 8        50.577    23116222.484 8  93079553.89708     -1030.537 8        50.253
E25        14.000    26154209.074 4 137441251.56104     -3323.302 4        29.592                                                                    26154195.127 5 102634632.51505     -2481.177 5        35.243    26154191.504 5 105311982.32405     -2546.210 5        32.832
G24        16.000    20059874.159 7 105415489.51807       -28.343 7        43.388                                    20059877.492 6  82141774.25506       -22.079 6        38.709    20059877.995 6  82141847.27606       -22.131 6        41.075
E08        17.000    23868831.398 7 125431531.01607     -2289.350 7        45.324                                                                    23868836.535 7  93666410.85907     -1709.599 7        47.053    23868835.445 8  96109920.90508     -1754.199 8        48.274
E07        18.000    24708136.485 5 129842391.15605       617.137 5        35.981                                                                    24708133.508 4  96960085.96304       460.565 4        24.962    24708145.260 6  99489479.74606       472.776 6        39.853
R22        22.000    22084315.804 6 117887706.70606      1951.572 6        38.655                                                                    22084339.091 5  91690382.05805      1518.078 5        30.679
S36        23.000    38114517.168 5 200293100.21505      -836.622 5        34.667
S23        24.000    38049451.120 5 199951248.71705      -839.776 5        34.905
R04        25.000    22444103.499 6 120187076.52706      2533.823 6        39.934
E03        27.000    26887136.201 4                     -3965.273 4        28.957                                                                    26887137.016 4 105510891.89804     -2961.104 4        28.322    26887138.190 4                     -3038.211 4        28.815
R13        29.000    19710169.405 7 105251197.39007       389.999 7        43.052
R21        30.000                                                                                                                                    22250072.538 5                     -1375.663 5        30.785
R12        31.000    19899598.805 6 106300082.21506     -2612.611 6        41.354                                                                    19899606.590 6  82677841.80306     -2032.015 6        41.051
C10        32.000                                                                                                                                    38523340.301 6 200601130.35706     -1206.190 6        37.535    38523346.996 5 155117555.81905      -932.824 5        34.052    38523343.332 6 163004855.88606      -980.143 6        38.898
R03        33.000    20074748.517 6 107462067.39306      -911.319 6        40.632                                                                    20074754.591 6  83581334.87906      -709.013 6        36.215
C24        34.000                                                                                                                                    22394025.114 7 116611530.61307       974.674 7        43.437                                                                    22394028.714 6  94756471.10006       792.183 6        38.222
R14        35.000    23839232.639 5                      2498.307 5        33.162                                                                    23839224.425 4                      1942.825 4        26.251
C26        37.000                                                                                                                                    21739679.799 8 113204297.26308     -1601.436 8        49.233                                                                    21739682.960 7  91987789.92307     -1301.194 7        45.225
C29        39.000                                                                                                                                    24581393.490 5 128002028.97105     -1652.327 5        31.615
C35        40.000                                                                                                                                    23917681.470 6 124545639.19006      1391.915 6        38.318                                                                    23917690.944 5 101203571.61605      1130.972 5        35.781
C42        41.000                                                                                                                                    24267546.987 6 126367457.34806     -3662.855 6        38.721                                                                    24267559.563 6 102683972.99506     -2976.146 6        37.085
R02        43.000    21270073.443 7 113501162.59707     -4681.190 7        44.889                                                                    21270092.933 6  88278715.74306     -3641.164 6        36.389
C40        44.000                                                                                                                                    39422198.535 5 205281729.31115     -1807.515 5        33.641
C33        46.000                                                                                                                                    23883067.258 5 124365366.95805      -975.357 5        34.410                                                                    23883085.308 6 101057140.44706      -792.628 6        36.484
C45        47.000                                                                                                                                    25235813.505 4                     -3536.040 4        26.982
C14        48.000                                                                                                                                    23590029.058 7 122839384.14007     -2490.953 7        43.100    23590027.161 5  94987394.86605     -1926.237 5        32.186    23590025.180 5  99817117.61005     -2023.729 5        35.076
C41        50.000                                                                                                                                    26350162.116 6 137212187.99806      1490.158 6        36.121                                                                    26350174.706 5 111496322.72005      1210.740 5        33.563
C07        53.000                                                                                                                                    39187478.688 5                     -1546.960 5        32.018    39187468.142 5                     -1196.197 5        31.841
I02        56.000    36806242.843 7 144435597.72307      -581.963 7        44.564
I06        58.000    38203250.075 6 149917745.13306      -734.882 6        38.474
> 2025 01 01 11 15 30.0000000  0 40
G19         1.000    21203670.632 6 111426031.40306       -34.886 6        41.285                                    21203666.001 3  86825449.79803       -27.182 3        23.771
G13         2.000    23139307.135 6 121597984.81106     -4579.136 6        41.721                                    23139311.654 2  94751651.29102     -3568.122 2        12.848
G14         4.000    24253794.087 3                     -4142.642 3        20.810
G17         5.000    22364753.469 7 117527737.94507     -2542.226 7        43.482                                    22364759.569 5  91579960.90705     -1980.953 5        33.269    22364757.982 6  91579938.89406     -1980.921 6        37.811
G15         6.000    21780504.025 5 114457538.26905     -3992.942 5        35.662                                    21780504.665 4  89187509.75904     -3111.381 4        25.880    21780507.350 6  89187588.75006     -3111.197 6        36.457
G12         7.000    21758393.009 6 114341166.03506      1901.160 6        39.670                                    21758392.153 4  89097042.95804      1481.425 4        28.607    21758396.302 5  89096991.94305      1481.693 5        30.928
E30         9.000    25034467.541 6 131557078.62106      1156.766 6        38.784                                                                    25034474.856 7  98240655.76407       863.975 7        44.916    25034472.860 7 100803460.05307       886.463 7        46.386
G23        10.000                                                                                                                                                                    24008016.735 4                     -2492.354 4        26.443
G32        11.000    26005956.653 5 136662248.19005      2675.180 5        33.096
G10        12.000    24252062.917 6 127445505.50006     -1042.585 6        38.372                                    24252075.755 2  99308231.26702      -812.451 2        12.061    24252096.078 4  99308215.21904      -812.369 4        26.120
E02        13.000    23117498.897 7 121483305.40207     -1346.327 7        44.233                                                                    23117504.608 8  90718143.44908     -1005.420 8        50.634    23117502.874 8  93084708.99308     -1031.608 8        50.287
E25        14.000    26157367.361 5 137457867.27805     -3323.240 5        30.936                                                                    26157356.694 5 102647040.23805     -2481.617 5        34.786    26157353.686 5 105324713.74305     -2546.120 5        33.084
G24        16.000    20059902.389 6 105415637.03306       -30.732 6        41.692                                    20059905.677 6  82141889.18606       -23.946 6        38.237    20059905.694 6  82141962.21506       -23.997 6        40.176
