     3.04           OBSERVATION DATA    M                   RINEX VERSION / TYPE
ssrcrin-15.6.1x                         20250101 073000 UTC PGM / RUN BY / DATE 
(00000000023479385599111004) Septentrio proprietary         COMMENT             
ract                                                        MARKER NAME         
01                                                          MARKER NUMBER       
geodetic                                                    MARKER TYPE         
NFB                 CLIMERS@TUW                             OBSERVER / AGENCY   
3296359             SEPT ASTERX SB3 PROB4.14.4              REC # / TYPE / VERS 
Unknown             Unknown                                 ANT # / TYPE        
  4127445.7734  1206915.3036  4695543.0463                  APPROX POSITION XYZ 
        0.0000        0.0000        0.0000                  ANTENNA: DELTA H/E/N
G   23 X1  C1C L1C D1C S1C C1W S1W C2W L2W D2W S2W C2L L2L  SYS / # / OBS TYPES 
       D2L S2L C5Q L5Q D5Q S5Q C1L L1L D1L S1L              SYS / # / OBS TYPES 
E   21 X1  C1C L1C D1C S1C C6C L6C D6C S6C C5Q L5Q D5Q S5Q  SYS / # / OBS TYPES 
       C7Q L7Q D7Q S7Q C8Q L8Q D8Q S8Q                      SYS / # / OBS TYPES 
S    9 X1  C1C L1C D1C S1C C5I L5I D5I S5I                  SYS / # / OBS TYPES 
R   17 X1  C1C L1C D1C S1C C2P L2P D2P S2P C2C L2C D2C S2C  SYS / # / OBS TYPES 
       C3Q L3Q D3Q S3Q                                      SYS / # / OBS TYPES 
C   25 X1  C1P L1P D1P S1P C5P L5P D5P S5P C2I L2I D2I S2I  SYS / # / OBS TYPES 
       C7I L7I D7I S7I C6I L6I D6I S6I C7D L7D D7D S7D      SYS / # / OBS TYPES 
J   17 X1  C1C L1C D1C S1C C2L L2L D2L S2L C5Q L5Q D5Q S5Q  SYS / # / OBS TYPES 
       C1L L1L D1L S1L                                      SYS / # / OBS TYPES 
I    5 X1  C5A L5A D5A S5A                                  SYS / # / OBS TYPES 
SEPTENTRIO RECEIVERS OUTPUT ALIGNED CARRIER PHASES.         COMMENT             
NO FURTHER PHASE SHIFT APPLIED IN THE RINEX ENCODER.        COMMENT             
G L1C                                                       SYS / PHASE SHIFT   
G L2W                                                       SYS / PHASE SHIFT   
G L2L  0.00000                                              SYS / PHASE SHIFT   
G L5Q  0.00000                                              SYS / PHASE SHIFT   
G L1L  0.00000                                              SYS / PHASE SHIFT   
E L1C  0.00000                                              SYS / PHASE SHIFT   
E L6C  0.00000                                              SYS / PHASE SHIFT   
E L5Q  0.00000                                              SYS / PHASE SHIFT   
E L7Q  0.00000                                              SYS / PHASE SHIFT   
E L8Q  0.00000                                              SYS / PHASE SHIFT   
S L1C                                                       SYS / PHASE SHIFT   
S L5I                                                       SYS / PHASE SHIFT   
R L1C                                                       SYS / PHASE SHIFT   
R L2P  0.00000                                              SYS / PHASE SHIFT   
R L2C                                                       SYS / PHASE SHIFT   
R L3Q  0.00000                                              SYS / PHASE SHIFT   
C L1P  0.00000                                              SYS / PHASE SHIFT   
C L5P  0.00000                                              SYS / PHASE SHIFT   
C L2I                                                       SYS / PHASE SHIFT   
C L7I                                                       SYS / PHASE SHIFT   
C L6I                                                       SYS / PHASE SHIFT   
C L7D                                                       SYS / PHASE SHIFT   
J L1C                                                       SYS / PHASE SHIFT   
J L2L  0.00000                                              SYS / PHASE SHIFT   
J L5Q  0.00000                                              SYS / PHASE SHIFT   
J L1L  0.00000                                              SYS / PHASE SHIFT   
I L5A                                                       SYS / PHASE SHIFT   
  2025     1     1     7    30    0.0000000     GPS         TIME OF FIRST OBS   
 C1C    0.000 C2C    0.000 C2P    0.000                     GLONASS COD/PHS/BIS 
DBHZ                                                        SIGNAL STRENGTH UNIT
    18                                                      LEAP SECONDS        
 24 R01  1 R02 -4 R03  5 R04  6 R05  1 R06 -4 R07  5 R08  6 GLONASS SLOT / FRQ #
    R09 -2 R10 -7 R11  0 R12 -1 R13 -2 R14 -7 R15  0 R16 -1 GLONASS SLOT / FRQ #
    R17  4 R18 -3 R19  3 R20  2 R21  4 R22 -3 R23  3 R24  2 GLONASS SLOT / FRQ #
                                                            END OF HEADER       
> 2025 01 01 07 30  0.0000000  0 34
G18         1.000    25179241.512 5 132317929.90705      -275.596 5        35.495
G13         2.000    21210836.324 6 111463668.64606      1418.168 6        38.249                                    21210833.763 3  86854727.67103      1105.063 3        20.929
G30         3.000    20753176.961 8 109058657.17908     -1684.849 8        48.209                                    20753171.644 5  84980719.74505     -1312.864 5        35.148    20753174.804 4  84980755.67604     -1312.296 4        28.626
G14         4.000    21672003.746 5 113887172.44405      1573.710 5        33.587                                    21672006.587 2  88743268.03402      1226.287 2        12.970    21672007.772 6  88743275.02006      1226.338 6        37.395
G07         5.000    22751077.290 6 119557894.85406     -3181.634 6        41.271                                    22751077.832 6  93161912.06206     -2479.190 6        36.023    22751076.578 6  93161785.07006     -2479.120 6        41.592
G15         6.000    23937923.516 4 125794737.93804      2804.754 4        29.848                                    23937950.958 1  98021927.08201      2185.606 1         9.619    23937935.411 5  98021867.13005      2185.527 5        33.216
G05         7.000    21223479.209 8 111530477.55008      -815.813 8        51.731                                    21223475.222 7  86906586.97907      -635.694 7        45.028    21223476.652 6  86906614.97506      -635.775 6        41.168
G20        10.000    21719302.504 6 114135690.00306     -3156.648 6        37.569                                    21719294.163 2  88936857.49602     -2459.723 2        14.810
E25        14.000    24691948.198 7 129757051.52107      1186.871 7        46.809                                                                    24691951.561 8  96896620.79708       886.271 8        48.685    24691950.847 8  99424283.80808       909.368 8        48.520
E24        15.000    25392559.053 7 133438829.29607     -1630.072 7        44.057                                                                    25392563.824 7  99645837.66707     -1217.236 7        43.723    25392560.800 6 102245409.62806     -1249.050 6        37.879
E15        16.000    27587313.475 3                     -3505.400 3        22.648                                                                    27587293.547 4 108258412.63504     -2616.645 4        29.318    27587278.908 5                     -2685.543 5        31.140
E08        17.000    26623169.801 4                      1554.618 4        27.808                                                                    26623173.195 5 104475043.56705      1160.831 5        34.086    26623168.154 5 107200501.09505      1190.944 5        34.024
E05        21.000    23394059.865 7 122936652.97807     -2555.581 7        44.847                                                                    23394062.265 5  91803295.89805     -1908.239 5        34.705    23394065.754 6  94198169.06006     -1958.135 6        39.315
E13        22.000    27159471.787 5 142723897.56405     -1549.946 5        35.214                                                                    27159459.902 6 106579541.67806     -1157.360 6        40.276    27159457.519 5 109359924.40205     -1187.545 5        35.981
S23        24.000    38325445.912 6 201401517.36906      -814.172 6        38.601
E03        27.000    23557790.693 7 123797010.98307      -224.224 7        45.353                                                                    23557791.143 6  92445804.45106      -167.502 6        41.981    23557791.370 7  94857453.57207      -171.745 7        43.903
R11        28.000    19747571.528 7 105525098.83307      1115.664 7        45.926                                                                    19747574.589 6  82075030.88606       867.764 6        40.942
R17        29.000    23864156.197 7 127702554.94807     -2873.727 7        42.599                                                                    23864133.656 5  99323629.41505     -2235.148 5        30.491
R10        30.000    20293003.937 6 108173089.00506     -3204.889 6        41.743
R09        32.000                                                                                                                                    23658756.445 4                     -3876.644 4        28.663
R08        35.000    20068810.786 6 107467751.63006     -2794.714 6        38.201                                                                    20068802.472 3                     -2169.899 3        21.857
C05        36.000                                                                                                                                    39491362.400 5 205641917.76205      -872.623 5        34.133    39491368.269 5 159015165.34205      -674.771 5        32.377
C26        37.000                                                                                                                                                                                                                                                                    25530044.890 5                      1964.008 5        31.328
R01        38.000    19996356.912 7 106891963.06207      1392.506 7        44.143                                                                    19996359.480 7  83138287.85707      1083.119 7        42.389
R18        39.000    23842636.447 5                       -73.903 5        31.834                                                                    23842641.613 5  98990576.29605       -57.613 5        34.348
C09        40.000                                                                                                                                                                                                    40589734.719 3                     -1173.822 3        19.851
C42        41.000                                                                                                                                    25419905.791 6 132368084.67206      2186.882 6        36.824                                                                    25419911.235 6 107559976.09006      1777.104 6        40.479
C36        42.000                                                                                                                                    22858084.137 8 119028058.49008     -2699.792 8        48.347                                                                    22858089.083 7  96720038.58507     -2193.738 7        45.759
R02        43.000    23959060.491 6 127850119.37606      3165.143 6        40.977                                                                    23959058.798 6  99439104.89506      2461.719 6        40.491
C40        44.000                                                                                                                                    39873045.075 4                       522.405 4        24.977
C10        45.000                                                                                                                                                                                                    40028420.711 4                       444.126 4        29.090
C21        47.000                                                                                                                                    22276733.279 7 116000765.72507        46.216 7        42.485                                                                    22276729.303 5  94260114.49405        37.811 5        35.952
C45        49.000                                                                                                                                    21998213.914 8 114550418.17608       286.021 8        50.911                                                                    21998207.059 7  93081587.34807       232.436 7        46.892
C22        50.000                                                                                                                                    22785216.263 7 118648516.11707     -3037.896 7        45.768                                                                    22785214.423 7  96411614.88407     -2468.437 7        47.044
> 2025 01 01 07 30  5.0000000  0 34
G18         1.000    25179499.681 5 132319316.40105      -278.727 5        35.486
G13         2.000    21209485.910 6 111456581.58906      1416.792 6        36.715                                    21209485.520 3  86849205.25503      1103.993 3        19.552
G30         3.000    20754780.711 7 109067086.33807     -1686.698 7        47.412                                    20754774.881 5  84987287.90905     -1314.307 5        34.810    20754780.516 4  84987323.94804     -1314.504 4        28.483
G14         4.000    21670507.917 6 113879309.53306      1571.438 6        36.809                                    21670510.302 1  88737141.10801      1224.471 1        10.444    21670513.739 6  88737148.09006      1224.504 6        37.739
G07         5.000    22754105.836 7 119573805.03407     -3182.374 7        42.662                                    22754105.814 6  93174309.57706     -2479.764 6        36.548    22754104.212 6  93174182.57106     -2479.665 6        41.523
G15         6.000    23935261.665 5 125780715.00805      2804.418 5        31.223                                    23935282.012 1  98011000.03801      2185.251 1        10.889    23935265.946 5  98010940.18805      2185.136 5        31.751
G05         7.000    21224257.061 8 111534565.73908      -819.258 8        51.827                                    21224253.145 7  86909772.57107      -638.379 7        44.855    21224253.560 6  86909800.57606      -638.485 6        40.081
G20        10.000    21722308.364 6 114151479.36706     -3159.023 6        36.960                                    21722299.120 2  88949160.82602     -2461.568 2        13.818
E25        14.000    24690819.624 7 129751122.05407      1185.080 7        46.975                                                                    24690823.336 8  96892192.94608       884.992 8        49.006    24690822.783 8  99419740.45308       908.130 8        48.805
E24        15.000    25394110.653 7 133446985.26107     -1632.159 7        43.725                                                                    25394115.337 7  99651928.15707     -1218.841 7        43.185    25394113.364 6 102251658.98306     -1250.532 6        39.318
E15        16.000    27590651.322 3                     -3506.599 3        21.476                                                                    27590627.315 4 108271500.75704     -2618.014 4        29.725    27590614.667 5                     -2686.119 5        31.102
E08        17.000    26621694.774 5                      1554.200 5        31.955                                                                    26621691.821 5 104469240.06105      1160.621 5        33.653    26621688.066 5 107194546.18405      1190.665 5        34.219
E05        21.000    23396491.728 7 122949433.16507     -2556.323 7        44.072                                                                    23396494.318 5  91812839.54905     -1908.979 5        34.724    23396498.104 6  94207961.67306     -1958.754 6        39.634
E13        22.000    27160950.347 6 142731653.08906     -1552.193 6        36.378                                                                    27160936.582 6 106585333.16806     -1159.046 6        41.063    27160932.591 5 109365866.93905     -1189.198 5        34.652
S23        24.000    38326220.526 6 201405588.60306      -814.198 6        38.661
E03        27.000    23558004.408 7 123798134.94607      -225.220 7        45.789                                                                    23558005.165 6  92446643.76006      -168.090 6        41.805    23558005.204 7  94858314.78807      -172.598 7        44.015
R11        28.000    19746529.839 7 105519529.70307      1112.082 7        45.944                                                                    19746531.765 6  82070699.33806       864.947 6        41.435
R17        29.000    23866846.237 7 127716932.14407     -2876.995 7        42.190                                                                    23866820.654 5  99334811.66305     -2237.626 5        30.860
R10        30.000    20296011.159 6 108189121.48006     -3207.970 6        40.422
R09        32.000                                                                                                                                    23663428.530 4                     -3877.197 4        28.853
R08        35.000    20071425.029 6 107481733.02006     -2797.862 6        36.480                                                                    20071401.536 4                     -2176.141 4        25.880
C05        36.000                                                                                                                                    39492199.667 5 205646280.68405      -872.367 5        34.486    39492206.090 5 159018538.98905      -674.422 5        32.790
C26        37.000                                                                                                                                                                                                                                                                    25527724.940 5                      1963.181 5        30.853
R01        38.000    19995055.754 7 106885007.00907      1390.017 7        44.003                                                                    19995057.938 7  83132877.58207      1081.128 7        42.207
R18        39.000    23842709.169 5                       -77.978 5        33.671                                                                    23842719.700 5  98990871.71605       -60.542 5        33.347
C09        40.000                                                                                                                                                                                                    40591192.544 3                     -1167.281 3        18.776
C42        41.000                                                                                                                                    25417807.008 6 132357151.98906      2186.191 6        36.737                                                                    25417812.314 6 107551092.41206      1776.586 6        40.658
C36        42.000                                                                                                                                    22860677.467 8 119041561.99008     -2701.475 8        48.857                                                                    22860682.443 7  96731011.29207     -2195.268 7        46.045
R02        43.000    23956094.455 6 127834293.68706      3165.414 6        41.619                                                                    23956093.255 6  99426796.02606      2461.789 6        39.787
C40        44.000                                                                                                                                    39872543.225 4                       520.430 4        24.797
C10        45.000                                                                                                                                                                                                    40027869.253 4                       443.442 4        28.872
C21        47.000                                                                                                                                    22276689.898 7 116000540.24307        44.077 7        43.177                                                                    22276686.022 6  94259931.32606        35.635 6        36.200
C45        49.000                                                                                                                                    21997940.728 8 114548994.13208       283.753 8        51.245                                                                    21997933.502 7  93080430.20807       230.506 7        46.993
C22        50.000                                                                                                                                    22788135.199 7 118663710.12807     -3039.584 7        45.762                                                                    22788132.350 7  96423961.27107     -2470.081 7        46.926
> 2025 01 01 07 30 10.0000000  0 34
G18         1.000    25179760.934 5 132320718.33305      -282.203 5        35.890                                                                                                    25179776.114 5                      -219.540 5        30.015
G13         2.000    21208138.483 5 111449502.14505      1414.703 5        34.443                                    21208138.690 2  86843688.75402      1102.383 2        17.887
G30         3.000    20756386.866 7 109075525.50307     -1689.163 7        46.999                                    20756380.623 5  84993863.87005     -1316.229 5        34.862    20756387.465 5  84993899.87305     -1316.481 5        31.026
G14         4.000    21669017.281 6 113871458.35706      1568.794 6        38.526                                    21669016.185 1  88731023.26401      1222.418 1        10.518    21669022.797 6  88731030.28606      1222.380 6        36.367
G07         5.000    22757134.788 7 119589719.63007     -3183.662 7        44.489                                    22757134.547 6  93186710.54206     -2480.767 6        37.429    22757132.782 6  93186583.53306     -2480.703 6        41.709
G15         6.000    23932594.703 5 125766694.64605      2803.337 5        30.709                                    23932613.589 2  98000074.99202      2184.442 2        12.121    23932595.933 4  98000015.16904      2184.358 4        29.678
G05         7.000    21225038.347 8 111538671.68108      -823.291 8        51.856                                    21225034.329 7  86912971.99707      -641.520 7        44.715    21225034.911 6  86912999.99206      -641.538 6        38.769
G20        10.000    21725318.621 6 114167281.53006     -3162.213 6        39.177                                    21725306.291 2  88961474.12702     -2464.049 2        15.000
E25        14.000    24689692.856 7 129745201.97507      1182.774 7        47.126                                                                    24689696.843 8  96887772.10508       883.213 8        49.309    24689696.468 8  99415204.29808       906.191 8        48.770
E24        15.000    25395664.352 7 133455152.82307     -1635.138 7        42.990                                                                    25395669.007 7  99658027.28507     -1221.018 7        42.775    25395667.886 6 102257917.23606     -1252.858 6        40.458
E15        16.000    27593976.698 3                     -3509.275 3        20.310                                                                    27593961.604 5 108284592.03805     -2618.688 5        30.400    27593950.641 5                     -2686.901 5        31.185
E08        17.000    26620219.496 5                      1553.916 5        33.186                                                                    26620213.739 5 104463437.50805      1160.526 5        33.317    26620209.265 5 107188592.30005      1190.347 5        34.286
E05        21.000    23398924.789 7 122962218.41707     -2557.872 7        43.257                                                                    23398927.471 5  91822386.93705     -1910.068 5        35.033    23398931.463 6  94217758.14306     -1960.050 6        39.486
E13        22.000    27162426.062 6 142739420.70306     -1555.085 6        36.673                                                                    27162415.739 7 106591133.65407     -1161.247 7        42.040    27162410.118 5 109371818.76705     -1191.687 5        33.323
S23        24.000    38326994.010 6 201409659.69806      -814.388 6        38.498
E03        27.000    23558219.692 7 123799264.92307      -226.863 7        46.094                                                                    23558220.340 6  92447487.55706      -169.420 6        41.909    23558220.128 7  94859180.60807      -173.923 7        43.670
R11        28.000    19745491.389 7 105513979.35707      1107.872 7        46.838                                                                    19745492.643 6  82066382.40706       861.772 6        41.950
R17        29.000    23869534.270 6 127731326.32006     -2880.708 6        39.375                                                                    23869511.703 4  99346007.15104     -2241.094 4        29.270
R10        30.000    20299018.705 5 108205170.03305     -3211.333 5        35.181
R09        32.000    23668118.584 4                     -4985.809 4        26.790                                                                    23668099.663 4                     -3877.502 4        29.517
R08        35.000    20074034.667 5 107495729.62905     -2801.218 5        32.144                                                                    20074020.194 5                     -2178.363 5        31.208
C05        36.000                                                                                                                                    39493036.661 5 205650643.54405      -872.770 5        34.233    39493043.652 5 159021912.64705      -674.917 5        32.832
C26        37.000                                                                                                                                                                                                                                                                    25525405.040 5                      1962.641 5        31.766
R01        38.000    19993756.612 7 106878064.03407      1386.959 7        43.922                                                                    19993759.442 7  83127477.46607      1078.774 7        42.377
R18        39.000    23842785.239 6 127274401.44816       -82.435 6        36.526                                                                    23842793.033 5  98991183.39805       -64.004 5        30.528
C09        40.000                                                                                                                                                                                                    40592650.589 3                     -1173.279 3        20.476
C42        41.000                                                                                                                                    25415707.865 6 132346222.73206      2185.131 6        36.333                                                                    25415713.577 6 107542211.47906      1775.736 6        41.240
C36        42.000                                                                                                                                    22863272.179 8 119055074.45208     -2703.685 8        49.532                                                                    22863277.334 7  96741991.23807     -2196.830 7        46.324
R02        43.000    23953129.420 7 127818467.63907      3165.059 7        42.688                                                                    23953126.042 6  99414486.86306      2461.584 6        38.426
C40        44.000                                                                                                                                    39872046.365 4                       519.646 4        24.932
C10        45.000                                                                                                                                                                                                    40027315.143 4                       443.183 4        29.308
C21        47.000                                                                                                                                    22276648.844 7 116000326.19207        41.386 7        44.051                                                                    22276644.892 6  94259757.40606        33.640 6        36.529
C45        49.000                                                                                                                                    21997670.107 8 114547581.91008       280.998 8        51.613                                                                    21997662.241 7  93079282.64007       228.439 7        47.120
C22        50.000                                                                                                                                    22791055.825 7 118678913.56407     -3041.989 7        46.216                                                                    22791052.021 7  96436315.27307     -2471.791 7        47.108
> 2025 01 01 07 30 15.0000000  0 34
G18         1.000    25180029.554 5 132322136.50905      -285.146 5        35.995                                                                                                    25180051.759 5                      -222.613 5        31.675
G13         2.000    21206793.382 5 111442431.07505      1412.789 5        31.464                                    21206793.429 2  86838178.80802      1100.907 2        15.286
G30         3.000    20757994.853 7 109083975.38607     -1691.144 7        45.701                                    20757989.106 5  85000448.18805     -1317.773 5        35.338    20757996.156 5  85000484.19705     -1317.961 5        34.281
G14         4.000    21667524.170 6 113863619.67506      1566.336 6        37.713                                    21667524.568 1  88724915.17001      1220.546 1        11.111    21667532.456 5  88724922.20205      1220.620 5        33.144
G07         5.000    22760163.985 7 119605639.38007     -3184.574 7        45.606                                    22760164.134 6  93199115.51406     -2481.477 6        38.216    22760162.506 6  93198988.49906     -2481.391 6        41.757
G15         6.000    23929927.635 5 125752677.50605      2802.901 5        32.934                                    23929945.801 2  97989152.49802      2184.123 2        12.667    23929928.849 4  97989092.69204      2184.215 4        27.964
G05         7.000    21225822.962 8 111542796.12608      -826.821 8        51.464                                    21225818.978 7  86916185.84107      -644.277 7        44.575    21225820.516 6  86916213.85106      -644.199 6        38.264
G20        10.000    21728328.479 6 114183097.14406     -3164.479 6        41.304                                    21728315.979 2  88973797.87502     -2465.812 2        15.381
E25        14.000    24688568.122 7 129739291.99507      1180.855 7        47.155                                                                    24688572.230 8  96883358.80208       881.842 8        49.478    24688572.087 8  99410675.87408       904.806 8        49.048
E24        15.000    25397221.169 7 133463332.72407     -1637.232 7        42.402                                                                    25397225.123 7  99664135.62607     -1222.613 7        42.064    25397224.432 6 102264184.93806     -1254.469 6        41.645
E15        16.000                                                                                                                                    27597298.054 5 108297687.00505     -2619.122 5        31.464    27597287.263 5                     -2687.675 5        31.011
E08        17.000    26618740.985 5                      1553.404 5        33.485                                                                    26618735.906 5 104457636.53405      1160.163 5        33.269    26618731.444 5 107182639.97205      1190.244 5        34.057
E05        21.000    23401359.214 7 122975009.41807     -2558.837 7        42.483                                                                    23401361.203 5  91831938.62505     -1910.943 5        35.010    23401366.079 6  94227559.02306     -1960.638 6        39.718
E13        22.000    27163902.181 6 142747201.08506     -1557.499 6        36.234                                                                    27163897.297 7 106596943.67707     -1163.047 7        42.491    27163890.194 5 109377780.34805     -1193.283 5        32.473
S23        24.000    38327771.719 6 201413731.35606      -814.467 6        38.751
E03        27.000    23558435.941 7 123800401.62707      -228.200 7        46.102                                                                    23558436.704 6  92448336.39106      -170.363 6        41.859    23558436.308 7  94860051.57407      -174.788 7        43.774
R11        28.000    19744457.558 7 105508448.55607      1104.129 7        47.479                                                                    19744457.503 7  82062080.64507       858.858 7        42.146
R17        29.000                                                                                                                                    23872203.477 4  99357216.28104     -2243.466 4        27.329
R10        30.000    20302027.473 5 108221235.22505     -3214.834 5        34.281
R09        32.000    23672777.434 4                     -4986.074 4        26.431                                                                    23672766.222 4                     -3878.379 4        28.436
R08        35.000                                                                                                                                    20076639.076 5                     -2185.363 5        34.033
C05        36.000                                                                                                                                    39493875.296 5 205655007.13305      -872.708 5        34.581    39493881.527 5 159025286.82405      -674.913 5        32.347
C26        37.000                                                                                                                                                                                                                                                                    25523087.242 5                      1961.900 5        32.132
R01        38.000    19992461.248 7 106871134.69407      1384.417 7        43.365                                                                    19992463.214 7  83122087.97007      1076.839 7        42.586
R18        39.000    23842868.354 5 127274823.50705       -86.571 5        35.400
C09        40.000                                                                                                                                                                                                    40594101.787 3                     -1172.566 3        20.214
C42        41.000                                                                                                                                    25413609.143 5 132335297.60205      2184.450 5        35.148                                                                    25413615.673 6 107533333.89006      1775.112 6        41.509
C36        42.000                                                                                                                                    22865869.034 8 119068596.57608     -2705.469 8        50.094                                                                    22865874.211 7  96752979.04207     -2198.361 7        46.482
R02        43.000    23950166.219 7 127802641.97307      3165.037 7        43.336                                                                    23950159.564 6  99402177.98906      2461.658 6        36.110
C40        44.000                                                                                                                                    39871546.071 4                       518.126 4        25.759
C10        45.000                                                                                                                                                                                                    40026759.830 5                       442.309 5        30.196
C21        47.000                                                                                                                                    22276610.176 7 116000124.32207        39.010 7        44.006                                                                    22276606.240 6  94259593.33706        31.900 6        37.244
C45        49.000                                                                                                                                    21997401.674 8 114546182.24008       278.586 8        51.836                                                                    21997393.477 7  93078145.27307       226.423 7        47.192
C22        50.000                                                                                                                                    22793977.823 7 118694127.10207     -3043.772 7        47.036                                                                    22793973.735 7  96448677.50707     -2473.336 7        47.223
> 2025 01 01 07 30 20.0000000  0 34
G18         1.000    25180300.181 5 132323570.41105      -288.231 5        33.365                                                                                                    25180327.443 5                      -224.633 5        32.222
G13         2.000    21205447.928 4 111435367.65904      1412.660 4        27.713                                    21205449.434 2  86832674.77902      1100.775 2        14.143
G30         3.000    20759604.780 7 109092435.43307     -1693.022 7        45.449                                    20759599.914 5  85007040.41905     -1319.236 5        35.767    20759604.706 6  85007076.41506     -1319.042 6        36.662
G14         4.000    21666031.037 6 113855792.95006      1564.179 6        37.860                                    21666035.196 1  88718816.42501      1218.923 1         9.524    21666043.240 5  88718823.40605      1218.852 5        30.528
G07         5.000    22763194.149 7 119621563.69107     -3185.297 7        46.320                                    22763194.427 6  93211524.04606     -2482.043 6        38.694    22763192.641 6  93211397.05006     -2482.139 6        41.502
G15         6.000    23927261.577 5 125738662.99605      2802.431 5        33.731                                    23927278.952 2  97978232.02802      2183.743 2        14.048    23927266.129 4  97978172.30504      2183.593 4        27.713
G05         7.000    21226611.033 8 111546938.56908      -830.285 8        50.791                                    21226607.084 7  86919413.71107      -646.977 7        44.224    21226609.293 6  86919441.71806      -646.806 6        39.048
G20        10.000    21731339.270 7 114198925.71107     -3166.992 7        42.186                                    21731328.345 2  88986131.75002     -2467.788 2        16.981
E25        14.000    24687445.195 7 129733391.56507      1179.146 7        47.417                                                                    24687449.461 8  96878952.64008       880.507 8        49.599    24687449.465 8  99406154.77608       903.455 8        49.368
E24        15.000    25398780.559 7 133471524.35407     -1639.520 7        42.391                                                                    25398783.623 6  99670252.73706     -1224.340 6        41.459    25398783.335 7 102270461.63307     -1256.211 7        42.444
E15        16.000                                                                                                                                    27600634.944 5 108310785.30005     -2619.755 5        31.977    27600625.177 5                     -2688.301 5        31.268
E08        17.000    26617262.694 5 139874657.57515      1553.426 5        34.671                                                                    26617257.657 5 104451836.69105      1159.823 5        33.287    26617254.650 5 107176688.82705      1190.193 5        34.186
E05        21.000    23403794.618 7 122987805.63007     -2559.750 7        42.305                                                                    23403796.593 5  91841494.21305     -1911.547 5        35.057    23403801.362 6  94237363.90006     -1961.374 6        40.076
E13        22.000    27165381.125 5 142754993.69405     -1559.559 5        35.543                                                                    27165380.383 7 106602762.80207     -1164.705 7        42.889    27165373.484 5 109383751.29205     -1195.417 5        31.509
S23        24.000    38328544.281 6 201417803.07606      -814.221 6        38.637
E03        27.000    23558653.113 7 123801544.49007      -229.154 7        46.525                                                                    23558654.375 6  92449189.80506      -171.195 6        41.905    23558653.604 7  94860927.26007      -175.538 7        43.683
R11        28.000    19743425.956 7 105502936.79107      1100.498 7        47.164                                                                    19743425.748 7  82057793.72507       856.024 7        42.584
R17        29.000    23874905.318 6 127760167.05806     -2887.369 6        37.939                                                                    23874905.460 4  99368438.76304     -2245.973 4        28.066
R10        30.000    20305048.463 6 108237316.88906     -3218.060 6        36.465
R09        32.000                                                                                                                                    23677429.350 4                     -3878.936 4        27.952
R08        35.000    20079259.736 5 107523770.29915     -2807.389 5        30.679                                                                    20079258.607 5  83629403.35215     -2183.395 5        35.433
C05        36.000                                                                                                                                    39494713.698 5 205659370.83805      -872.831 5        34.262    39494719.035 5 159028661.10905      -675.020 5        32.683
C26        37.000                                                                                                                                                                                                                                                                    25520769.998 5                      1961.142 5        32.395
R01        38.000    19991166.576 7 106864218.45407      1381.925 7        42.766                                                                    19991169.450 7  83116708.65507      1074.959 7        42.536
R18        39.000    23842955.158 5 127275266.45805       -90.616 5        33.377                                                                    23842917.708 4  98991856.37904       -70.267 4        28.645
C09        40.000                                                                                                                                                                                                    40595566.373 3                     -1176.286 3        21.762
C42        41.000                                                                                                                                    25411510.415 5 132324376.12905      2183.925 5        32.251                                                                    25411518.427 6 107524459.23006      1774.626 6        41.678
C36        42.000                                                                                                                                    22868467.399 8 119082127.82008     -2707.163 8        50.068                                                                    22868472.804 7  96763974.28907     -2199.856 7        46.538
R02        43.000    23947204.667 7 127786816.23007      3165.146 7        42.663                                                                    23947193.205 5  99389869.06605      2461.785 5        33.347
C40        44.000                                                                                                                                    39871047.954 4                       517.981 4        25.895
C10        45.000                                                                                                                                                                                                    40026204.320 4                       442.355 4        29.507
C21        47.000                                                                                                                                    22276573.143 7 115999934.07607        36.882 7        43.329                                                                    22276569.692 6  94259438.76706        29.768 6        37.766
C45        49.000                                                                                                                                    21997135.049 8 114544794.56908       276.362 8        51.553                                                                    21997126.971 7  93077017.68207       224.488 7        47.039
C22        50.000                                                                                                                                    22796901.439 7 118709350.23607     -3045.574 7        47.512                                                                    22796897.264 7  96461047.55607     -2474.859 7        47.488
> 2025 01 01 07 30 25.0000000  0 33
G18         1.000    25180571.055 4 132325019.62104      -291.984 4        29.791                                                                                                    25180605.350 5                      -227.071 5        32.659
G13         2.000    21204104.300 4 111428311.87404      1411.151 4        25.158                                    21204106.874 2  86827176.72502      1099.622 2        13.394
G30         3.000    20761216.974 7 109100905.26907     -1695.112 7        44.810                                    20761212.891 6  85013640.28206     -1320.862 6        36.533    20761215.956 6  85013676.28206     -1320.802 6        37.796
G14         4.000    21664545.348 6 113847977.82206      1561.777 6        39.288                                    21664548.086 1  88712726.70201      1217.006 1         8.095    21664557.976 4  88712733.72704      1216.488 4        29.336
G07         5.000    22766225.177 7 119637492.24907     -3186.168 7        46.611                                    22766225.405 6  93223935.88306     -2482.723 6        39.054    22766223.248 6  93223808.89406     -2482.859 6        41.333
G15         6.000    23924593.888 5 125724650.91605      2802.009 5        32.359                                    23924612.904 2  97967313.45002      2183.367 2        14.095    23924609.528 4  97967253.74404      2183.425 4        27.437
G05         7.000    21227402.598 8 111551098.67908      -833.938 8        49.971                                    21227398.659 7  86922655.34607      -649.822 7        43.951    21227400.791 6  86922683.34606      -649.800 6        40.138
G20        10.000    21734352.349 6 114214766.77206     -3169.785 6        41.866                                    21734342.899 3  88998475.34703     -2469.974 3        18.090
E25        14.000    24686324.210 7 129727500.36407      1177.126 7        47.524                                                                    24686328.490 8  96874553.36208       879.023 8        49.966    24686328.610 8  99401640.73808       902.004 8        49.730
E24        15.000    25400341.817 7 133479727.38307     -1641.950 7        42.150                                                                    25400344.265 6  99676378.34906     -1226.160 6        41.166    25400344.175 7 102276747.05007     -1258.149 7        43.164
E15        16.000                                                                                                                                    27603973.736 5 108323886.66805     -2620.949 5        32.461    27603963.959 5                     -2688.694 5        30.596
E08        17.000    26615783.887 6 139866891.91506      1552.969 6        36.287                                                                    26615779.806 5 104446037.72705      1159.281 5        33.222    26615777.501 5 107170738.56505      1189.616 5        34.600
E05        21.000    23406230.710 7 123000606.71407     -2560.778 7        42.411                                                                    23406232.320 5  91851053.43005     -1912.248 5        35.452    23406237.271 6  94247172.49806     -1962.280 6        40.081
E13        22.000    27166862.988 5 142762798.14505     -1562.102 5        35.800                                                                    27166865.356 7 106608590.77407     -1166.575 7        43.289    27166858.532 5 109389731.30505     -1197.187 5        30.294
S23        24.000    38329318.842 6 201421874.81706      -814.468 6        38.697
E03        27.000    23558871.487 7 123802693.16507      -230.449 7        46.528                                                                    23558873.086 7  92450047.56307      -172.150 7        42.222    23558872.260 7  94861807.41607      -176.631 7        43.566
R11        28.000    19742397.192 7 105497443.61707      1096.561 7        46.165                                                                    19742397.058 7  82053521.27607       852.842 7        42.402
R17        29.000    23877608.143 6 127774612.63906     -2890.910 6        36.699                                                                    23877604.478 4  99379674.24304     -2248.091 4        28.749
R10        30.000    20308074.934 6 108253414.31506     -3221.214 6        36.053
R09        32.000                                                                                                                                    23682098.972 4                     -3878.943 4        27.617
R08        35.000    20081882.826 5 107537813.34205     -2810.148 5        34.548                                                                    20081882.066 6  83640325.67706     -2185.966 6        36.026
C05        36.000                                                                                                                                    39495550.862 5 205663734.31905      -872.987 5        34.024    39495557.397 5 159032035.20205      -674.882 5        32.838
C26        37.000                                                                                                                                                                                                                                                                    25518453.639 5                      1960.671 5        32.473
R01        38.000    19989874.557 7 106857315.04307      1379.183 7        42.768                                                                    19989878.076 7  83111339.34407      1072.723 7        42.231
C09        40.000                                                                                                                                                                                                    40597025.078 3                     -1175.184 3        23.333
C42        41.000                                                                                                                                                                                                                                                                    25409421.713 6 107515587.22206      1773.835 6        41.654
C36        42.000                                                                                                                                    22871067.026 8 119095667.82208     -2709.033 8        49.665                                                                    22871073.119 7  96774976.63907     -2201.457 7        46.469
R02        43.000    23944240.528 6 127770989.79906      3165.193 6        40.408                                                                    23944228.795 5  99377559.64905      2461.694 5        31.019
C40        44.000                                                                                                                                    39870550.696 4                       517.532 4        25.188
C10        45.000                                                                                                                                                                                                    40025652.383 5                       441.802 5        30.045
C21        47.000                                                                                                                                    22276538.593 7 115999755.10007        34.556 7        42.449                                                                    22276535.432 6  94259293.32406        28.028 6        37.928
C45        49.000                                                                                                                                    21996870.439 8 114543418.55208       273.880 8        50.912                                                                    21996862.799 7  93075899.55307       222.421 7        46.991
C22        50.000                                                                                                                                    22799826.724 7 118724582.58707     -3047.599 7        47.988                                                                    22799822.658 7  96473425.07907     -2476.480 7        47.803
> 2025 01 01 07 30 30.0000000  0 33
G18         1.000    25180847.790 3                      -293.276 3        21.738                                                                                                    25180881.759 5                      -229.648 5        32.473
G30         3.000    20762830.566 7 109109385.48707     -1697.213 7        45.255                                    20762827.876 6  85020248.23006     -1322.503 6        37.214    20762829.219 6  85020284.23006     -1322.503 6        38.297
G14         4.000    21663062.895 6 113840174.86306      1559.246 6        40.470                                    21663063.279 1  88706646.39601      1214.932 1         8.952    21663074.930 5  88706653.42205      1214.684 5        30.634
G07         5.000    22769257.091 7 119653425.58307     -3187.223 7        46.877                                    22769257.142 6  93236351.44006     -2483.545 6        39.222    22769256.238 6  93236224.43606     -2483.524 6        41.008
G15         6.000    23921926.905 5 125710641.81605      2801.365 5        31.291                                    23921947.486 2  97956397.21202      2182.933 2        14.476    23921953.049 4  97956337.38804      2183.147 4        26.587
G05         7.000    21228197.757 8 111555276.93808      -837.571 8        48.906                                    21228193.785 7  86925911.12607      -652.652 7        43.714    21228195.473 6  86925939.11906      -652.622 6        39.832
G20        10.000    21737368.743 6 114230620.90706     -3172.217 6        40.246                                    21737359.983 3  89010829.15303     -2471.835 3        18.507
E25        14.000    24685204.994 7 129721618.91607      1175.260 7        47.447                                                                    24685209.413 8  96870161.36508       877.576 8        50.160    24685209.578 8  99397134.17808       900.537 8        50.244
E24        15.000    25401904.966 6 133487942.31806     -1644.266 6        41.712                                                                    25401907.574 6  99682512.85706     -1227.861 6        41.037    25401907.427 7 102283041.60807     -1259.866 7        43.691
E15        16.000                                                                                                                                    27607313.677 5 108336991.48205     -2621.783 5        32.557    27607303.250 5                     -2689.681 5        30.189
E08        17.000    26614306.867 6 139859128.06206      1552.402 6        37.698                                                                    26614301.801 5 104440240.01205      1159.198 5        33.156    26614300.345 5 107164789.60105      1189.661 5        34.914
E05        21.000    23408668.037 7 123013413.19307     -2561.899 7        42.459                                                                    23408669.287 5  91860616.67505     -1913.079 5        35.314    23408673.789 6  94256985.20806     -1963.071 6        40.019
E13        22.000    27168352.566 5 142770614.98505     -1564.842 5        35.243                                                                    27168352.559 7 106614428.00307     -1168.442 7        43.369    27168345.771 5 109395720.77105     -1198.666 5        30.196
S23        24.000    38330091.968 6 201425946.89806      -814.417 6        38.526
E03        27.000    23559091.362 7 123803848.21007      -231.734 7        46.429                                                                    23559093.020 7  92450910.08407      -173.003 7        42.502    23559092.136 7  94862692.44407      -177.466 7        43.816
R11        28.000    19741372.539 7 105491969.66407      1092.822 7        45.121                                                                    19741372.970 6  82049263.75206       849.990 6        41.805
R17        29.000    23880318.833 5 127789075.42905     -2894.328 5        35.705                                                                    23880302.915 4  99390922.98404     -2251.028 4        29.043
R10        30.000    20311098.753 6 108269528.14906     -3224.635 6        36.786
R09        32.000                                                                                                                                    23686772.873 4                     -3879.238 4        27.581
R08        35.000    20084510.311 6 107551871.96206     -2813.504 6        37.607                                                                    20084508.482 6  83651260.05106     -2188.023 6        37.860
C05        36.000                                                                                                                                    39496388.388 5 205668098.13905      -873.031 5        34.229    39496397.418 5 159035409.55205      -674.496 5        32.994
