     3.04           OBSERVATION DATA    M                   RINEX VERSION / TYPE
ssrcrin-15.6.1x                         20250101 121500 UTC PGM / RUN BY / DATE 
(00000000023479385599111004) Septentrio proprietary         COMMENT             
ract                                                        MARKER NAME         
01                                                          MARKER NUMBER       
geodetic                                                    MARKER TYPE         
NFB                 CLIMERS@TUW                             OBSERVER / AGENCY   
3296359             SEPT ASTERX SB3 PROB4.14.4              REC # / TYPE / VERS 
Unknown             Unknown                                 ANT # / TYPE        
  4127446.3217  1206915.7776  4695541.6196                  APPROX POSITION XYZ 
        0.0000        0.0000        0.0000                  ANTENNA: DELTA H/E/N
G   23 X1  C1C L1C D1C S1C C1W S1W C2W L2W D2W S2W C2L L2L  SYS / # / OBS TYPES 
       D2L S2L C5Q L5Q D5Q S5Q C1L L1L D1L S1L              SYS / # / OBS TYPES 
E   21 X1  C1C L1C D1C S1C C6C L6C D6C S6C C5Q L5Q D5Q S5Q  SYS / # / OBS TYPES 
       C7Q L7Q D7Q S7Q C8Q L8Q D8Q S8Q                      SYS / # / OBS TYPES 
S    9 X1  C1C L1C D1C S1C C5I L5I D5I S5I                  SYS / # / OBS TYPES 
R   17 X1  C1C L1C D1C S1C C2P L2P D2P S2P C2C L2C D2C S2C  SYS / # / OBS TYPES 
       C3Q L3Q D3Q S3Q                                      SYS / # / OBS TYPES 
C   25 X1  C1P L1P D1P S1P C5P L5P D5P S5P C2I L2I D2I S2I  SYS / # / OBS TYPES 
       C7I L7I D7I S7I C6I L6I D6I S6I C7D L7D D7D S7D      SYS / # / OBS TYPES 
J   17 X1  C1C L1C D1C S1C C2L L2L D2L S2L C5Q L5Q D5Q S5Q  SYS / # / OBS TYPES 
       C1L L1L D1L S1L                                      SYS / # / OBS TYPES 
I    5 X1  C5A L5A D5A S5A                                  SYS / # / OBS TYPES 
SEPTENTRIO RECEIVERS OUTPUT ALIGNED CARRIER PHASES.         COMMENT             
NO FURTHER PHASE SHIFT APPLIED IN THE RINEX ENCODER.        COMMENT             
G L1C                                                       SYS / PHASE SHIFT   
G L2W                                                       SYS / PHASE SHIFT   
G L2L  0.00000                                              SYS / PHASE SHIFT   
G L5Q  0.00000                                              SYS / PHASE SHIFT   
G L1L  0.00000                                              SYS / PHASE SHIFT   
E L1C  0.00000                                              SYS / PHASE SHIFT   
E L6C  0.00000                                              SYS / PHASE SHIFT   
E L5Q  0.00000                                              SYS / PHASE SHIFT   
E L7Q  0.00000                                              SYS / PHASE SHIFT   
E L8Q  0.00000                                              SYS / PHASE SHIFT   
S L1C                                                       SYS / PHASE SHIFT   
S L5I                                                       SYS / PHASE SHIFT   
R L1C                                                       SYS / PHASE SHIFT   
R L2P  0.00000                                              SYS / PHASE SHIFT   
R L2C                                                       SYS / PHASE SHIFT   
R L3Q  0.00000                                              SYS / PHASE SHIFT   
C L1P  0.00000                                              SYS / PHASE SHIFT   
C L5P  0.00000                                              SYS / PHASE SHIFT   
C L2I                                                       SYS / PHASE SHIFT   
C L7I                                                       SYS / PHASE SHIFT   
C L6I                                                       SYS / PHASE SHIFT   
C L7D                                                       SYS / PHASE SHIFT   
J L1C                                                       SYS / PHASE SHIFT   
J L2L  0.00000                                              SYS / PHASE SHIFT   
J L5Q  0.00000                                              SYS / PHASE SHIFT   
J L1L  0.00000                                              SYS / PHASE SHIFT   
I L5A                                                       SYS / PHASE SHIFT   
  2025     1     1    12    15    0.0000000     GPS         TIME OF FIRST OBS   
 C1C    0.000 C2C    0.000 C2P    0.000                     GLONASS COD/PHS/BIS 
DBHZ                                                        SIGNAL STRENGTH UNIT
    18                                                      LEAP SECONDS        
 24 R01  1 R02 -4 R03  5 R04  6 R05  1 R06 -4 R07  5 R08  6 GLONASS SLOT / FRQ #
    R09 -2 R10 -7 R11  0 R12 -1 R13 -2 R14 -7 R15  0 R16 -1 GLONASS SLOT / FRQ #
    R17  4 R18 -3 R19  3 R20  2 R21  4 R22 -3 R23  3 R24  2 GLONASS SLOT / FRQ #
                                                            END OF HEADER       
> 2025 01 01 12 15  0.0000000  0 38
G19         1.000    21739719.748 7 114242967.96107     -2383.391 7        45.410                                    21739720.003 4  89020499.51504     -1857.181 4        29.630
G25         3.000                                                                                                                                                                    22828004.532 4                      1777.867 4        28.227
G17         5.000    24339656.718 4 127905804.60704     -3968.954 4        29.687                                                                                                    24339673.291 4                     -3093.191 4        24.556
G15         6.000    24521886.022 4                     -4724.802 4        28.929                                                                                                    24521902.355 5                     -3681.445 5        30.506
G12         7.000    20654505.263 8 108540151.38708       412.883 8        51.317                                    20654506.560 8  84576747.35508       321.726 8        49.352    20654507.471 7  84576771.35907       321.771 7        45.621
E30         9.000    24250211.358 7 127435744.17907       268.958 7        45.886                                                                    24250218.806 7  95163078.61007       200.751 7        47.464    24250217.644 7  97645598.01407       206.023 7        46.580
G32        11.000    24150777.606 6 126913198.80106      1709.928 6        38.565                                    24150782.570 3  98893439.72703      1332.405 3        23.352    24150786.072 4  98893450.73704      1332.540 4        27.090
G10        12.000    25340752.493 5                     -2891.816 5        30.830
E02        13.000    24056348.091 6 126416966.46606     -2230.304 6        41.249                                                                    24056355.141 8  94402363.52708     -1665.422 8        48.094    24056353.421 8  96865039.99108     -1708.910 8        49.134
E27        15.000    27920843.969 4 146725060.93504      1672.089 4        27.689                                                                    27920879.645 5                      1248.323 5        30.604
G24        16.000    20436219.476 7 107393068.43407     -1983.214 7        42.908                                    20436222.054 5  83682951.60205     -1545.360 5        32.371    20436224.895 6  83682908.56906     -1545.317 6        36.628
E08        17.000    25585880.813 6 134454693.34606     -3541.509 6        36.359                                                                    25585891.043 7 100404423.72807     -2644.723 7        43.602    25585888.370 6 103023709.82206     -2713.788 6        41.743
E07        18.000    24513082.284 8 128817197.73008      -984.691 8        48.455                                                                    24513091.520 8  96194679.99108      -735.341 8        48.897    24513089.425 8  98704075.86708      -754.522 8        50.121
R22        22.000    21375533.619 6 114104283.41606      -920.791 6        39.186                                                                    21375541.678 6  88747629.81306      -716.174 6        40.896
S36        23.000    38386292.800 5 201721261.97305      -839.913 5        35.257
S23        24.000    38323745.716 5 201392632.76105      -844.179 5        35.071
R04        25.000    21301878.556 7 114070682.65807      -234.328 7        44.655                                                                    21301885.056 6  88721618.58406      -182.324 6        40.996
E29        26.000    27384139.625 5 143904656.64605      1533.146 5        35.752                                                                    27384156.204 6 107461360.03406      1144.842 6        40.553    27384152.424 6 110264612.01706      1174.788 6        38.619
R13        29.000    19653928.169 6 104950871.20506     -1111.939 6        40.164
R12        31.000    21696760.772 7 115900177.55507     -3571.717 7        44.826                                                                    21696767.750 6  90144599.64606     -2778.071 6        40.951
C10        32.000                                                                                                                                    39146578.224 4 203846530.57804     -1454.030 4        28.749    39146585.153 6 157627046.11006     -1123.962 6        40.269    39146579.036 5 165641948.93805     -1181.375 5        33.707
R03        33.000    21445733.468 7 114801037.45407     -3898.176 7        46.573                                                                    21445737.623 6  89289432.78906     -3031.980 6        38.318
C24        34.000                                                                                                                                    21726857.785 7 113137431.41507        61.983 7        46.589                                                                    21726858.650 6  91933490.80506        50.193 6        38.072
R14        35.000    22008621.821 6 117318611.07506      2022.116 6        41.707                                                                    22008627.463 4  91247725.57204      1571.975 4        25.594
R23        36.000    21693115.083 6 116043454.48606      2490.745 6        41.545
C26        37.000                                                                                                                                    22877509.282 7 119129140.66207     -2559.303 7        44.206                                                                    22877510.915 5  96802279.17605     -2079.589 5        35.133
S21        38.000    38614420.585 5 202920160.05005      -839.540 5        34.662
C44        39.000                                                                                                                                    23845334.825 5 124168914.53605      2000.905 5        34.143                                                                    23845331.783 5 100897423.83905      1625.866 5        34.214
C35        40.000                                                                                                                                    23234364.286 7 120987768.66707      -387.011 7        45.257
C42        41.000                                                                                                                                    26698459.345 3                     -4091.182 3        23.048
R05        42.000    24065063.986 4                      2700.595 4        29.242                                                                    24065096.882 4                      2100.449 4        29.441
C12        43.000                                                                                                                                                                                                    25776027.759 5                      2030.165 5        33.000    25776026.909 5                      2133.371 5        31.336
C40        44.000                                                                                                                                    40448948.639 3                     -2015.581 3        22.971                                                                    40448939.671 3                     -1633.295 3        19.224
C33        46.000                                                                                                                                    24935331.151 7 129845074.32507     -2853.591 7        43.276                                                                    24935347.848 5 105509708.70305     -2319.129 5        35.962
C14        48.000                                                                                                                                    25497907.610 4                     -3753.803 4        29.905    25497879.744 5 102669360.98805     -2902.166 5        33.862    25497886.231 5 107889848.86805     -3050.187 5        31.668
C41        50.000                                                                                                                                    25597379.426 7 133292224.47907      -272.241 7        44.140                                                                    25597394.035 6 108310931.82006      -221.261 6        40.877
C07        53.000                                                                                                                                    40024056.238 5                     -1732.287 5        30.928    40024074.104 5                     -1339.374 5        31.479
I06        58.000    38575936.576 6 151380220.33206      -737.494 6        41.120
> 2025 01 01 12 15  5.0000000  0 39
G19         1.000    21741988.383 7 114254891.87007     -2386.263 7        46.008                                    21741989.244 4  89029790.86904     -1859.430 4        29.924
G25         3.000    22825826.872 6 119950532.10716      2280.567 6        38.273                                    22825830.795 3  93468033.91513      1777.037 3        19.821    22825836.161 4                      1777.080 4        29.166
G17         5.000    24343436.325 5 127925651.71205     -3969.864 5        31.064                                                                                                    24343456.740 4                     -3093.562 4        26.874
G15         6.000    24526381.076 4                     -4724.483 4        29.943                                                                                                    24526396.998 5                     -3681.308 5        30.204
G12         7.000    20654113.303 8 108538092.06108       410.714 8        51.506                                    20654114.752 8  84575142.69008       320.037 8        49.805    20654115.832 7  84575166.70107       320.001 7        45.837
E30         9.000    24249956.130 7 127434402.41807       267.721 7        46.512                                                                    24249963.552 7  95162076.63607       199.934 7        47.524    24249962.533 7  97644569.91007       205.140 7        46.965
G32        11.000    24149151.576 6 126904653.80306      1707.905 6        41.097                                    24149155.821 3  98886781.30403      1330.825 3        22.819
G10        12.000    25343499.340 3                     -2890.307 3        19.821                                                                                                    25343518.195 5                     -2254.700 5        31.087
E02        13.000    24058470.856 7 126428119.49307     -2231.091 7        42.068                                                                    24058477.482 8  94410692.08808     -1666.149 8        48.198    24058475.844 8  96873585.81508     -1709.571 8        49.552
E27        15.000    27919252.790 4 146716702.32204      1670.946 4        25.429                                                                    27919287.966 5                      1248.164 5        30.340    27919313.711 4 112419371.60814      1280.945 4        24.256
G24        16.000    20438107.322 7 107402990.97507     -1986.010 7        42.214                                    20438110.568 5  83690683.45105     -1547.544 5        32.515    20438113.516 6  83690640.41106     -1547.631 6        37.142
E08        17.000    25589250.008 6 134472404.28706     -3542.853 6        36.733                                                                    25589261.304 7 100417649.39607     -2645.703 7        43.869    25589259.090 7 103037280.51107     -2714.652 7        42.445
E07        18.000    24514020.177 8 128822126.97108      -987.086 8        48.077                                                                    24514029.621 8  96198360.91608      -737.146 8        49.064    24514027.441 8  98707852.81108      -756.353 8        50.106
R22        22.000    21376400.476 6 114108898.25106      -925.301 6        38.351                                                                    21376406.528 6  88751219.06506      -719.576 6        41.361
S36        23.000    38387094.280 5 201725460.94005      -839.679 5        35.300
S23        24.000    38324547.809 5 201396853.22105      -844.179 5        34.967
R04        25.000    21302109.363 7 114071865.50807      -238.956 7        43.611                                                                    21302106.805 7  88722538.57807      -185.746 7        42.576
E29        26.000    27382680.937 6 143896993.90006      1531.904 6        36.522                                                                    27382698.013 6 107455637.87506      1143.834 6        40.760    27382693.829 6 110258740.59606      1173.682 6        38.300
R13        29.000    19654972.141 6 104956435.44406     -1113.914 6        41.812
R21        30.000                                                                                                                                    24082818.271 3                     -3392.881 3        23.600
R12        31.000    21700103.716 7 115918038.18107     -3572.740 7        45.037                                                                    21700110.838 6  90158491.20506     -2778.638 6        40.710
C10        32.000                                                                                                                                    39147973.238 4 203853798.68704     -1453.991 4        29.384    39147980.943 6 157632666.27706     -1124.227 6        40.212    39147974.808 5 165647854.89905     -1181.162 5        33.497
R03        33.000    21449378.201 7 114820535.82307     -3901.293 7        46.415                                                                    21449379.574 6  89304598.12006     -3034.346 6        36.862
C24        34.000                                                                                                                                    21726799.408 7 113137124.88407        60.589 7        45.714                                                                    21726799.815 6  91933241.73306        49.095 6        38.174
R14        35.000    22006725.902 7 117308501.83107      2021.543 7        42.273                                                                    22006730.437 4  91239862.72804      1571.284 4        26.168
R23        36.000    21690786.780 6 116031007.49806      2487.983 6        39.420
C26        37.000                                                                                                                                    22879966.566 7 119141939.93207     -2560.466 7        44.445                                                                    22879968.956 6  96812679.63206     -2080.507 6        36.004
S21        38.000    38615223.438 5 202924356.74205      -839.345 5        34.552
C44        39.000                                                                                                                                    23843409.548 5 124158913.54605      1999.415 5        33.641                                                                    23843412.853 5 100889297.28805      1624.946 5        35.229
C35        40.000                                                                                                                                    23234736.316 7 120989710.30707      -389.758 7        43.937
C42        41.000                                                                                                                                    26702389.919 3                     -4092.023 3        23.467
R05        42.000                                                                                                                                    24062567.736 5                      2099.108 5        30.317
C12        43.000                                                                                                                                                                                                    25773507.812 5                      2030.120 5        34.100    25773510.222 5                      2133.281 5        30.936
C40        44.000                                                                                                                                    40450886.381 3                     -2017.085 3        23.219                                                                    40450875.933 3                     -1639.201 3        20.881
C33        46.000                                                                                                                                    24938072.110 7 129859347.32107     -2855.659 7        43.101                                                                    24938087.944 6 105521306.65306     -2320.412 6        36.242
C14        48.000                                                                                                                                                                                                    25501481.834 5 102683875.04205     -2902.844 5        32.174    25501491.396 5 107905101.04005     -3050.757 5        30.498
C41        50.000                                                                                                                                    25597642.009 7 133293592.21307      -274.964 7        43.227                                                                    25597656.809 6 108312043.21606      -223.430 6        40.708
C07        53.000                                                                                                                                    40025719.879 5                     -1732.626 5        31.004    40025735.724 5                     -1339.504 5        31.411
I06        58.000    38576876.563 6 151383907.09006      -737.332 6        41.344
> 2025 01 01 12 15 10.0000000  0 38
G19         1.000    21744259.997 7 114266830.52307     -2389.343 7        45.911                                    21744261.325 5  89039093.71405     -1861.829 5        30.174
G25         3.000    22823660.029 6 119939131.42406      2279.344 6        40.243                                    22823662.327 3  93459150.29203      1776.111 3        22.057    22823665.962 5                      1776.330 5        30.498
G17         5.000    24347214.853 5 127945504.68605     -3971.160 5        30.355                                                                                                    24347236.115 4                     -3094.245 4        29.043
G15         6.000    24530878.647 4                     -4724.791 4        29.772                                                                                                    24530893.246 5                     -3681.683 5        30.249
G12         7.000    20653723.560 8 108536043.96108       408.322 8        51.565                                    20653725.099 8  84573546.77208       318.172 8        49.889    20653725.867 7  84573570.77207       318.142 7        46.059
E30         9.000    24249701.308 7 127433066.72807       266.377 7        46.449                                                                    24249709.400 7  95161079.21307       198.900 7        47.439    24249708.496 7  97643546.46707       204.060 7        47.338
G32        11.000    24147526.860 7 126896119.58207      1705.583 7        42.806                                    24147531.008 3  98880131.25903      1329.025 3        22.362
G10        12.000    25346240.543 4                     -2895.461 4        27.521                                                                                                    25346272.580 5                     -2256.419 5        33.216
E02        13.000    24060594.088 7 126439277.21907     -2232.224 7        42.614                                                                    24060600.773 8  94419024.14708     -1666.900 8        48.153    24060599.249 8  96882135.23408     -1710.437 8        50.007
E27        15.000    27917662.475 4 146708345.76604      1670.867 4        24.632                                                                    27917697.084 5                      1247.951 5        30.430
G24        16.000    20439998.301 6 107412927.21506     -1988.759 6        41.557                                    20440001.935 5  83698425.97605     -1549.683 5        32.778    20440004.259 6  83698382.92106     -1549.882 6        37.051
E08        17.000    25592621.232 6 134490121.62106     -3544.406 6        37.319                                                                    25592632.763 7 100430879.83807     -2646.788 7        43.913    25592630.473 7 103050856.09707     -2715.818 7        42.974
E07        18.000    24514960.338 8 128827068.24408      -989.663 8        48.076                                                                    24514970.047 8  96202050.81508      -739.066 8        49.271    24514967.732 8  98711638.97308      -758.347 8        50.042
R22        22.000    21377266.359 6 114113535.73506      -930.062 6        39.186                                                                    21377274.947 6  88754826.02106      -723.439 6        40.918
S36        23.000    38387889.559 5 201729659.53005      -839.827 5        35.090
S23        24.000    38325352.947 5 201401073.40005      -844.062 5        34.981
R04        25.000    21302339.205 7 114073071.44607      -243.731 7        42.372                                                                    21302331.850 7  88723476.52707      -189.455 7        43.257
E29        26.000    27381223.260 6 143889337.90506      1530.409 6        36.779                                                                    27381240.940 6 107449920.74406      1142.666 6        40.632    27381236.677 6 110252874.30906      1172.405 6        38.333
R13        29.000    19656016.386 7 104962010.03907     -1116.105 7        42.222
R21        30.000    24086883.004 5                     -4365.384 5        31.887                                                                    24086901.998 4                     -3395.434 4        24.992
R12        31.000    21703448.917 7 115935903.94007     -3573.823 7        45.324                                                                    21703455.798 6  90172386.78506     -2779.627 6        39.808
C10        32.000                                                                                                                                    39149369.584 4 203861067.87504     -1454.319 4        29.583    39149376.852 6 157638287.28306     -1124.387 6        39.850    39149371.052 5 165653761.69505     -1181.474 5        33.946
R03        33.000    21453024.536 7 114840049.78707     -3904.556 7        46.043                                                                    21453027.462 5  89319775.58805     -3037.107 5        35.190
C24        34.000                                                                                                                                    21726742.479 7 113136825.42707        59.017 7        45.267                                                                    21726742.665 6  91932998.36506        47.969 6        38.715
R14        35.000    22004833.961 7 117298396.98307      2020.380 7        42.360                                                                    22004838.880 5  91232003.44305      1571.171 5        33.635
C26        37.000                                                                                                                                    22882425.763 7 119154745.25407     -2561.787 7        45.087                                                                    22882427.884 6  96823085.02806     -2081.753 6        36.715
S21        38.000    38616022.315 5 202928553.33405      -839.589 5        34.786
C44        39.000                                                                                                                                    23841493.172 5 124148919.79605      1997.648 5        33.832                                                                    23841494.648 6 100881176.60106      1623.514 6        36.582
C35        40.000                                                                                                                                    23235111.310 7 120991666.19307      -392.681 7        42.838
C42        41.000                                                                                                                                    26706318.897 3                     -4091.061 3        22.667
R05        42.000                                                                                                                                    24060038.202 5                      2096.865 5        31.155
C12        43.000                                                                                                                                                                                                    25770987.776 5                      2029.513 5        34.933    25770992.775 5                      2132.860 5        31.192
C40        44.000                                                                                                                                    40452825.009 3                     -2015.470 3        22.476                                                                    40452812.132 3                     -1633.911 3        20.095
C33        46.000                                                                                                                                    24940814.858 7 129873630.58807     -2857.992 7        42.516                                                                    24940831.335 6 105532912.92706     -2322.193 6        36.934
C14        48.000                                                                                                                                    25505074.208 5                     -3756.002 5        33.970    25505085.134 5 102698392.73505     -2904.067 5        30.060    25505097.348 4 107920356.99504     -3051.942 4        29.716
C41        50.000                                                                                                                                    25597907.028 7 133294973.85407      -277.919 7        42.571                                                                    25597922.234 6 108313165.89706      -225.864 6        40.956
C07        53.000                                                                                                                                    40027383.474 5                     -1732.586 5        31.155    40027400.057 5                     -1339.782 5        31.706
I06        58.000    38577815.565 6 151387593.76606      -737.484 6        41.364
> 2025 01 01 12 15 15.0000000  0 39
G19         1.000    21746534.623 7 114278783.96107     -2392.239 7        45.527                                    21746536.236 5  89048408.08305     -1864.088 5        30.709
G25         3.000    22821492.602 6 119927736.18806      2278.337 6        41.826                                    22821494.967 3  93450270.92303      1775.311 3        23.981    22821499.179 5                      1775.449 5        31.494
G17         5.000    24350993.301 4 127965363.65704     -3972.121 4        28.341                                                                                                    24351014.439 5                     -3095.296 5        30.219
G15         6.000    24535374.877 5                     -4724.619 5        30.166                                                                                                    24535386.721 5                     -3681.855 5        30.619
G12         7.000    20653335.893 8 108534007.13208       406.133 8        51.418                                    20653337.620 8  84571959.63308       316.466 8        49.678    20653338.227 7  84571983.63607       316.477 7        46.222
E30         9.000    24249447.787 7 127431737.13607       265.246 7        46.106                                                                    24249456.231 7  95160086.33807       198.076 7        47.297    24249455.473 7  97642527.68807       203.273 7        47.625
G32        11.000    24145905.709 7 126887596.17407      1703.522 7        43.027                                    24145908.417 3  98873489.64703      1327.407 3        21.690    24145906.646 3                      1328.030 3        22.514
G10        12.000    25348998.689 5                     -2897.594 5        30.755                                                                                                    25349032.881 5                     -2257.628 5        33.581
E02        13.000    24062717.568 7 126450439.67507     -2232.991 7        42.919                                                                    24062724.877 8  94427359.74708     -1667.577 8        48.157    24062723.446 8  96890688.27908     -1711.035 8        50.272
E27        15.000                                                                                                                                    27916106.635 5                      1247.703 5        30.513
G24        16.000    20441892.076 6 107422877.14506     -1991.277 6        41.917                                    20441896.047 5  83706179.16405     -1551.639 5        33.269    20441898.468 6  83706136.12806     -1551.759 6        36.223
E08        17.000    25595993.248 6 134507845.36806     -3545.420 6        37.569                                                                    25596005.060 7 100444115.05407     -2647.516 7        43.433    25596003.082 7 103064436.58507     -2716.551 7        43.187
E07        18.000    24515903.069 8 128832021.58508      -991.918 8        48.343                                                                    24515912.754 8  96205749.73008      -740.756 8        49.475    24515910.321 8  98715434.37808      -760.058 8        50.044
R22        22.000    21378138.977 6 114118196.11206      -934.556 6        38.979                                                                    21378147.942 6  88758450.76906      -726.726 6        41.240
S36        23.000    38388691.861 5 201733858.13305      -839.783 5        35.281
S23        24.000    38326154.691 5 201405293.49105      -843.972 5        35.124
R04        25.000    21302564.373 7 114074300.20307      -248.092 7        43.573                                                                    21302560.700 7  88724432.25707      -193.008 7        43.211
E29        26.000    27379767.213 6 143881688.68106      1529.085 6        37.297                                                                    27379785.190 6 107444208.66906      1141.868 6        40.701    27379781.064 6 110247013.20306      1171.917 6        38.153
R13        29.000    19657060.753 7 104967594.94407     -1118.185 7        42.106
R21        30.000    24090961.987 4                     -4367.417 4        28.900                                                                    24090980.489 4                     -3396.979 4        28.654
R12        31.000    21706794.524 7 115953774.82007     -3574.747 7        44.852                                                                    21706800.849 6  90186286.35306     -2780.557 6        38.480
C10        32.000                                                                                                                                    39150765.738 4 203868338.18204     -1454.923 4        29.763    39150772.641 6 157643909.14506     -1124.575 6        39.889    39150767.549 5 165659669.42605     -1181.865 5        33.677
R03        33.000    21456672.258 7 114859579.41907     -3907.570 7        46.300                                                                    21456674.432 5  89334965.23005     -3039.214 5        33.533
C24        34.000                                                                                                                                    21726686.126 7 113136533.09507        57.664 7        44.662                                                                    21726686.777 6  91932760.80306        46.859 6        39.240
R14        35.000    22002941.465 6 117288296.49106      2019.610 6        40.505
R23        36.000    21686128.213 5 116006156.29805      2482.250 5        35.786
C26        37.000                                                                                                                                    22884886.822 7 119167556.69907     -2562.917 7        45.800                                                                    22884888.265 6  96833495.34806     -2082.498 6        36.915
S21        38.000    38616818.528 5 202932749.64605      -839.081 5        34.424
C44        39.000                                                                                                                                    23839579.087 5 124138933.21905      1996.511 5        35.100                                                                    23839577.160 6 100873061.75106      1622.251 6        37.531
C35        40.000                                                                                                                                    23235491.171 7 120993636.34207      -395.573 7        42.025
C42        41.000                                                                                                                                    26710248.957 3                     -4092.796 3        21.905
R05        42.000    24057524.575 5                      2693.475 5        30.906                                                                    24057517.508 5                      2095.284 5        31.849
C12        43.000                                                                                                                                                                                                    25768466.443 5 103758937.88115      2029.626 5        34.938    25768473.158 5                      2132.900 5        31.358
C40        44.000                                                                                                                                    40454762.142 3                     -2016.027 3        21.976                                                                    40454750.701 3                     -1642.112 3        18.119
C33        46.000                                                                                                                                    24943559.065 6 129887924.12806     -2859.730 6        40.996                                                                    24943576.546 6 105544527.54906     -2323.786 6        37.399
C14        48.000                                                                                                                                    25508683.590 5 132830390.71315     -3756.317 5        34.424    25508691.060 4 102712914.09804     -2905.030 4        28.957    25508705.156 4 107935616.72004     -3051.988 4        28.616
C41        50.000                                                                                                                                    25598175.540 7 133296369.47907      -280.670 7        42.400                                                                    25598190.269 6 108314299.94606      -227.985 6        40.632
C07        53.000                                                                                                                                    40029045.872 5                     -1732.632 5        31.283    40029063.130 5                     -1339.769 5        31.260
I06        58.000    38578755.126 6 151391280.35206      -737.388 6        41.611
> 2025 01 01 12 15 20.0000000  0 39
G19         1.000    21748812.081 7 114290752.34407     -2395.301 7        45.803                                    21748814.009 5  89057734.09005     -1866.464 5        31.570
G25         3.000    22819325.501 7 119916346.57007      2277.330 7        42.423                                    22819328.354 4  93441395.91804      1774.534 4        25.865    22819333.769 5                      1774.610 5        32.084
G17         5.000    24354770.564 3                     -3974.650 3        23.905                                                                                                    24354793.421 5                     -3096.347 5        31.087
G15         6.000    24539871.975 5                     -4724.864 5        30.045                                                                                                    24539882.620 5                     -3681.785 5        30.498
G12         7.000    20652950.127 8 108531981.73108       403.821 8        51.049                                    20652952.327 8  84570381.40408       314.665 8        49.707    20652952.676 7  84570405.40707       314.618 7        46.276
E30         9.000    24249196.339 7 127430413.82007       263.894 7        46.049                                                                    24249204.168 7  95159098.15207       197.043 7        46.997    24249203.774 7  97641513.72307       202.198 7        47.883
G32        11.000    24144286.968 7 126879083.77307      1701.319 7        42.745                                    24144288.259 3  98866856.61703      1325.699 3        21.643    24144291.590 4                      1326.027 4        26.371
G10        12.000    25351762.312 4                     -2898.991 4        29.772                                                                                                    25351789.972 5                     -2259.083 5        33.838
E02        13.000    24064842.511 7 126461607.00607     -2234.050 7        42.993                                                                    24064849.993 8  94435698.98408     -1668.307 8        48.221    24064848.542 8  96899245.06308     -1711.884 8        50.438
E27        15.000                                                                                                                                    27914516.316 4                      1247.473 4        29.204
G24        16.000    20443788.437 7 107432840.95407     -1994.291 7        42.375                                    20443792.717 5  83713943.16605     -1553.993 5        34.324    20443794.641 6  83713900.13506     -1554.094 6        36.227
E08        17.000    25599367.144 6 134525575.69606     -3547.010 6        37.100                                                                    25599378.705 7 100457355.17407     -2648.617 7        43.045    25599376.711 7 103078022.10607     -2717.709 7        43.211
E07        18.000    24516847.889 8 128836987.15308      -994.429 8        48.080                                                                    24516857.790 8  96209457.77208      -742.589 8        49.635    24516855.229 8  98719239.16108      -762.001 8        49.978
R22        22.000    21379018.610 6 114122879.45606      -939.131 6        40.479                                                                    21379025.940 7  88762093.40307      -730.624 7        42.210
S36        23.000    38389488.168 5 201738057.40205      -839.999 5        35.048
S23        24.000    38326957.633 5 201409513.59205      -844.221 5        34.919
R04        25.000    21302794.368 7 114075552.14807      -252.856 7        43.592                                                                    21302794.420 7  88725406.00707      -196.752 7        43.695
E29        26.000    27378312.360 6 143874046.42106      1527.517 6        37.331                                                                    27378330.776 6 107438501.79206      1140.716 6        40.338    27378327.354 6 110241157.46906      1170.446 6        38.147
R13        29.000    19658107.819 7 104973190.31907     -1120.264 7        42.483
R21        30.000    24095048.527 4                     -4369.905 4        28.483                                                                    24095066.953 5                     -3399.070 5        30.264
R12        31.000    21710140.559 7 115971650.84407     -3575.954 7        43.917                                                                    21710147.814 6  90200189.89406     -2781.365 6        37.561
C10        32.000                                                                                                                                    39152161.624 5 203875609.75805     -1454.788 5        30.347    39152169.006 6 157649531.95606     -1124.700 6        39.577    39152163.806 5 165665578.14905     -1181.888 5        33.802
R03        33.000    21460322.142 7 114879124.81107     -3910.823 7        46.675                                                                    21460325.219 5  89350167.15705     -3041.675 5        34.224
C24        34.000                                                                                                                                    21726630.696 7 113136248.00107        56.194 7        44.030                                                                    21726632.106 6  91932529.13106        45.629 6        39.946
R14        35.000    22001044.908 5 117278200.56205      2018.519 5        35.671                                                                    22001066.244 5  91216295.10405      1570.152 5        35.205
R23        36.000    21683812.629 5 115993752.56105      2479.388 5        34.810
C26        37.000                                                                                                                                    22887349.077 7 119180374.41607     -2564.328 7        45.604                                                                    22887349.671 6  96843910.77706     -2083.630 6        37.690
S21        38.000    38617621.810 5 202936946.14205      -839.213 5        34.467
C44        39.000                                                                                                                                    23837664.830 6 124128954.05906      1994.910 6        36.563                                                                    23837660.856 6 100864952.92006      1621.182 6        38.571
C35        40.000                                                                                                                                    23235872.819 6 120995620.90006      -398.472 6        40.632                                                                    23235903.606 5                      -323.691 5        35.229
C42        41.000                                                                                                                                    26714174.997 3                     -4089.038 3        22.171
R05        42.000    24055003.260 4                      2691.425 4        29.754                                                                    24055002.078 5                      2093.372 5        32.575
C12        43.000                                                                                                                                                                                                    25765945.604 5 103748790.68905      2029.387 5        35.071    25765954.244 5                      2132.261 5        31.275
C40        44.000                                                                                                                                    40456697.738 3                     -2015.004 3        22.114                                                                    40456684.875 3                     -1636.130 3        20.310
C33        46.000                                                                                                                                    24946304.443 6 129902228.13006     -2861.914 6        38.766                                                                    24946323.552 6 105556150.66606     -2325.473 6        37.626
C14        48.000                                                                                                                                    25512292.752 5 132849174.92505     -3757.552 5        33.964    25512297.450 5 102727439.16105     -2905.542 5        30.302    25512315.793 4 107950880.45104     -3052.935 4        27.090
C41        50.000                                                                                                                                    25598446.512 7 133297779.21307      -283.486 7        42.263                                                                    25598460.930 6 108315445.45606      -230.336 6        40.646
C07        53.000                                                                                                                                    40030709.780 5                     -1733.026 5        31.200    40030726.551 5                     -1340.010 5        31.600
I06        58.000    38579694.326 6 151394966.96806      -737.435 6        41.590
> 2025 01 01 12 15 25.0000000  0 39
G19         1.000    21751093.042 7 114302735.67207     -2398.129 7        46.594                                    21751094.671 5  89067071.74705     -1868.669 5        31.947
G25         3.000    22817159.579 7 119904962.59207      2276.251 7        42.444                                    22817162.917 4  93432525.30804      1773.702 4        26.335    22817167.411 5                      1773.604 5        32.018
G17         5.000                                                                                                                                                                    24358574.719 5                     -3097.288 5        31.457
G15         6.000    24544368.540 5                     -4725.293 5        30.385                                                                                                    24544377.057 4                     -3681.897 4        29.972
G12         7.000    20652566.700 8 108529967.72408       401.625 8        50.059                                    20652569.154 8  84568812.05208       312.954 8        49.061    20652569.387 7  84568836.05807       312.906 7        46.424
E30         9.000    24248945.704 7 127429096.73807       262.793 7        45.657                                                                    24248953.306 7  95158114.61607       196.189 7        46.598    24248953.085 8  97640504.53208       201.259 8        48.108
G32        11.000    24142667.695 6 126870582.37206      1699.174 6        40.920                                    24142670.291 3  98860232.14003      1324.028 3        21.024    24142675.541 4                      1324.186 4        29.365
G10        12.000                                                                                                                                                                    25354547.456 5                     -2260.687 5        32.826
E02        13.000    24066968.641 7 126472779.19607     -2235.157 7        43.120                                                                    24066976.069 8  94444041.85308     -1668.989 8        48.294    24066974.673 8  96907805.57108     -1712.520 8        50.565
E27        15.000    27912916.703 3                      1668.371 3        21.405                                                                    27912926.828 4                      1246.717 4        28.872
G24        16.000    20445687.406 7 107442818.64707     -1997.012 7        42.387                                    20445691.896 5  83721717.98305     -1556.109 5        34.962    20445692.937 6  83721674.95506     -1556.444 6        36.136
E08        17.000    25602743.804 6 134543312.53806     -3548.034 6        37.077                                                                    25602753.634 7 100470600.19107     -2649.676 7        42.368    25602751.675 7 103091612.64007     -2718.643 7        43.007
E07        18.000    24517794.710 7 128841964.94807      -996.834 7        47.775                                                                    24517805.113 8  96213174.94108      -744.405 8        49.792    24517802.388 8  98723053.30808      -763.882 8        49.843
R22        22.000    21379902.308 6 114127585.80306      -943.563 6        41.836                                                                    21379908.405 7  88765753.87107      -734.000 7        42.849
S36        23.000    38390289.975 5 201742256.26005      -839.948 5        35.171
S23        24.000    38327758.411 5 201413733.74305      -844.173 5        34.857
R04        25.000    21303025.188 6 114076827.30506      -257.388 6        41.523                                                                    21303032.925 7  88726397.80807      -200.211 7        44.721
E29        26.000    27376858.727 6 143866411.03106      1526.188 6        37.527                                                                    27376877.717 6 107432800.06406      1139.763 6        40.174    27376874.669 6 110235306.98706      1169.606 6        37.448
R13        29.000    19659158.252 7 104978796.14307     -1122.276 7        42.263
R21        30.000                                                                                                                                    24099150.059 5                     -3400.803 5        30.045
R12        31.000    21713487.637 7 115989532.30007     -3576.924 7        43.029                                                                    21713496.149 6  90214097.65406     -2781.906 6        37.913
C10        32.000                                                                                                                                    39153558.191 5 203882882.54905     -1454.721 5        30.951    39153565.736 6 157655155.76606     -1124.860 6        39.637    39153560.237 5 165671487.93705     -1182.239 5        33.748
R03        33.000    21463976.258 7 114898686.06307     -3913.848 7        46.886                                                                    21463977.325 5  89365381.43605     -3043.942 5        35.243
C24        34.000                                                                                                                                    21726576.277 7 113135970.16107        54.741 7        43.837                                                                    21726578.614 6  91932303.36606        44.473 6        40.417
R14        35.000                                                                                                                                    21999173.369 5  91208446.09615      1569.187 5        34.081
R23        36.000    21681499.282 5 115981363.34005      2476.487 5        34.538
C26        37.000                                                                                                                                    22889811.613 7 119193198.37707     -2565.463 7        44.796                                                                    22889812.317 6  96854331.29906     -2084.920 6        38.165
S21        38.000    38618416.377 5 202941142.83005      -839.206 5        34.467
C44        39.000                                                                                                                                    23835750.572 6 124118982.23706      1993.490 6        36.318                                                                    23835746.051 6 100856850.08306      1619.865 6        39.655
C35        40.000                                                                                                                                    23236254.826 6 120997619.83906      -401.316 6        38.976                                                                    23236285.525 5  98320335.10815      -326.179 5        35.171
C42        41.000                                                                                                                                    26718095.496 3                     -4090.874 3        21.429
R05        42.000    24052485.258 5                      2688.778 5        30.430                                                                    24052490.685 5                      2091.183 5        31.502
C12        43.000                                                                                                                                                                                                    25763424.739 5 103738644.61905      2028.989 5        34.786    25763435.473 5                      2132.313 5        30.989
C40        44.000                                                                                                                                    40458624.538 3                     -2017.952 3        23.048                                                                    40458623.403 3                     -1643.839 3        19.851
C33        46.000                                                                                                                                    24949051.399 6 129916542.53506     -2864.213 6        36.537                                                                    24949072.287 6 105567782.25906     -2327.487 6        37.584
C14        48.000                                                                                                                                    25515899.175 5 132867963.89905     -3758.282 5        33.611    25515907.452 5 102741967.95605     -2906.544 5        31.525    25515931.313 4 107966148.01404     -3054.063 4        24.556
C41        50.000                                                                                                                                    25598719.393 6 133299203.04506      -286.301 6        41.909                                                                    25598734.157 6 108316602.44906      -232.781 6        40.543
C07        53.000                                                                                                                                    40032375.433 5                     -1733.094 5        31.426    40032389.221 5                     -1340.255 5        31.804
I06        58.000    38580634.394 6 151398653.62006      -737.508 6        41.623
> 2025 01 01 12 15 30.0000000  0 40
G19         1.000    21753376.529 7 114314733.88607     -2401.106 7        47.060                                    21753378.096 5  89076421.00105     -1870.986 5        32.245
