     3.04           OBSERVATION DATA    M                   RINEX VERSION / TYPE
ssrcrin-15.6.1x                         20250101 144500 UTC PGM / RUN BY / DATE 
(00000000023479385599111004) Septentrio proprietary         COMMENT             
ract                                                        MARKER NAME         
01                                                          MARKER NUMBER       
geodetic                                                    MARKER TYPE         
NFB                 CLIMERS@TUW                             OBSERVER / AGENCY   
3296359             SEPT ASTERX SB3 PROB4.14.4              REC # / TYPE / VERS 
Unknown             Unknown                                 ANT # / TYPE        
  4127446.8211  1206916.0167  4695544.1449                  APPROX POSITION XYZ 
        0.0000        0.0000        0.0000                  ANTENNA: DELTA H/E/N
G   23 X1  C1C L1C D1C S1C C1W S1W C2W L2W D2W S2W C2L L2L  SYS / # / OBS TYPES 
       D2L S2L C5Q L5Q D5Q S5Q C1L L1L D1L S1L              SYS / # / OBS TYPES 
E   21 X1  C1C L1C D1C S1C C6C L6C D6C S6C C5Q L5Q D5Q S5Q  SYS / # / OBS TYPES 
       C7Q L7Q D7Q S7Q C8Q L8Q D8Q S8Q                      SYS / # / OBS TYPES 
S    9 X1  C1C L1C D1C S1C C5I L5I D5I S5I                  SYS / # / OBS TYPES 
R   17 X1  C1C L1C D1C S1C C2P L2P D2P S2P C2C L2C D2C S2C  SYS / # / OBS TYPES 
       C3Q L3Q D3Q S3Q                                      SYS / # / OBS TYPES 
C   25 X1  C1P L1P D1P S1P C5P L5P D5P S5P C2I L2I D2I S2I  SYS / # / OBS TYPES 
       C7I L7I D7I S7I C6I L6I D6I S6I C7D L7D D7D S7D      SYS / # / OBS TYPES 
J   17 X1  C1C L1C D1C S1C C2L L2L D2L S2L C5Q L5Q D5Q S5Q  SYS / # / OBS TYPES 
       C1L L1L D1L S1L                                      SYS / # / OBS TYPES 
I    5 X1  C5A L5A D5A S5A                                  SYS / # / OBS TYPES 
SEPTENTRIO RECEIVERS OUTPUT ALIGNED CARRIER PHASES.         COMMENT             
NO FURTHER PHASE SHIFT APPLIED IN THE RINEX ENCODER.        COMMENT             
G L1C                                                       SYS / PHASE SHIFT   
G L2W                                                       SYS / PHASE SHIFT   
G L2L  0.00000                                              SYS / PHASE SHIFT   
G L5Q  0.00000                                              SYS / PHASE SHIFT   
G L1L  0.00000                                              SYS / PHASE SHIFT   
E L1C  0.00000                                              SYS / PHASE SHIFT   
E L6C  0.00000                                              SYS / PHASE SHIFT   
E L5Q  0.00000                                              SYS / PHASE SHIFT   
E L7Q  0.00000                                              SYS / PHASE SHIFT   
E L8Q  0.00000                                              SYS / PHASE SHIFT   
S L1C                                                       SYS / PHASE SHIFT   
S L5I                                                       SYS / PHASE SHIFT   
R L1C                                                       SYS / PHASE SHIFT   
R L2P  0.00000                                              SYS / PHASE SHIFT   
R L2C                                                       SYS / PHASE SHIFT   
R L3Q  0.00000                                              SYS / PHASE SHIFT   
C L1P  0.00000                                              SYS / PHASE SHIFT   
C L5P  0.00000                                              SYS / PHASE SHIFT   
C L2I                                                       SYS / PHASE SHIFT   
C L7I                                                       SYS / PHASE SHIFT   
C L6I                                                       SYS / PHASE SHIFT   
C L7D                                                       SYS / PHASE SHIFT   
J L1C                                                       SYS / PHASE SHIFT   
J L2L  0.00000                                              SYS / PHASE SHIFT   
J L5Q  0.00000                                              SYS / PHASE SHIFT   
J L1L  0.00000                                              SYS / PHASE SHIFT   
I L5A                                                       SYS / PHASE SHIFT   
  2025     1     1    14    45    0.0000000     GPS         TIME OF FIRST OBS   
 C1C    0.000 C2C    0.000 C2P    0.000                     GLONASS COD/PHS/BIS 
DBHZ                                                        SIGNAL STRENGTH UNIT
    18                                                      LEAP SECONDS        
 24 R01  1 R02 -4 R03  5 R04  6 R05  1 R06 -4 R07  5 R08  6 GLONASS SLOT / FRQ #
    R09 -2 R10 -7 R11  0 R12 -1 R13 -2 R14 -7 R15  0 R16 -1 GLONASS SLOT / FRQ #
    R17  4 R18 -3 R19  3 R20  2 R21  4 R22 -3 R23  3 R24  2 GLONASS SLOT / FRQ #
                                                            END OF HEADER       
> 2025 01 01 14 45  0.0000000  0 39
G25         3.000    19925169.609 7 104707508.43807     -1034.755 7        46.877                                    19925170.596 6  81590239.41006      -806.309 6        39.006    19925173.888 6  81590286.41706      -806.326 6        37.939
G11         4.000    22599060.776 6 118759075.96206     -1755.302 6        39.952                                    22599060.755 3  92539393.97603     -1367.771 3        21.905    22599062.235 6  92539411.01906     -1367.786 6        40.882
G31         5.000    23718494.636 6 124641679.24806      2327.266 6        40.787                                    23718501.527 4  97123406.04304      1813.434 4        27.425    23718502.363 6  97123431.08506      1813.456 6        38.898
G28         6.000    22031454.572 6 115775997.24306      1106.857 6        38.697                                    22031440.793 1  90215047.88801       862.463 1         5.857    22031451.199 4                       862.595 4        26.790
G12         7.000    21807509.425 6 114599515.22606     -3265.299 6        41.371                                    21807506.747 3  89298095.10303     -2544.378 3        23.924
G29         8.000    21164644.066 8 111220986.91308      1021.888 8        48.346                                    21164646.152 7  86665876.72007       796.272 7        42.282    21164646.447 6  86665678.74206       796.290 6        39.928
E30         9.000    24082819.003 7 126556189.71307     -1772.850 7        43.812                                                                    24082824.693 7  94506218.07807     -1323.727 7        47.389    24082824.249 7  96971601.29407     -1358.366 7        46.479
E15        10.000    26267447.994 5 138036412.63105      2191.499 5        32.868                                                                    26267461.718 6 103079210.96606      1636.403 6        41.840    26267459.883 7 105768312.18707      1679.107 7        43.615
G32        11.000    24139289.159 6 126852503.78706     -3293.335 6        37.966                                                                                                    24139311.560 5                     -2566.653 5        30.113
E34        12.000    24773918.208 7 130187866.44607         4.229 7        42.919                                                                    24773922.833 7  97218325.36507         3.073 7        43.884    24773921.873 7  99754439.87707         3.114 7        43.670
E02        13.000    27403820.044 3                     -3256.505 3        22.248
E19        14.000    26941673.714 4                      -184.000 4        25.805                                                                    26941690.159 6 105725002.28406      -137.205 6        36.268    26941686.982 5 108483009.67405      -140.633 5        30.694
E27        15.000    24409330.147 5 128271888.75005       573.851 5        33.293                                                                    24409339.390 7  95787518.61707       428.837 7        44.903    24409334.141 5  98286373.22005       440.251 5        34.452
R17        17.000    21739726.657 7 116333671.88807      3181.007 7        42.808                                                                    21739737.666 5  90481780.34005      2474.140 5        32.778
E07        18.000                                                                                                                                                                                                    27772181.440 5 111827073.43205     -2935.518 5        31.291
E36        19.000                                                                                                                                    26870233.155 5                     -2039.078 5        30.838    26870199.520 5 108195261.36505     -2092.293 5        34.286
R15        20.000    20836120.237 8 111342513.38408      2019.782 8        49.421                                                                    20836127.173 7  86599462.50107      1570.938 7        46.727
R24        21.000    19513920.626 7 104349688.21507      -452.364 7        45.476                                                                    19513927.177 7  81160955.79907      -351.805 7        46.610
E21        22.000                                                                                                                                                                                                    28674908.427 4                      1262.647 4        27.066
S36        23.000    38338666.224 6 201470865.45406      -855.685 6        36.454
S23        24.000    38283929.830 6 201183356.02906      -860.215 6        36.068
E29        26.000    26399171.619 5 138728526.64105     -2350.633 5        33.934                                                                    26399185.770 6 103596051.15106     -1755.314 6        36.098    26399184.794 6 106298563.05306     -1800.823 6        36.998
C34        28.000                                                                                                                                    22125092.235 7 115211577.38307       919.550 7        46.558                                                                    22125097.744 7  93618603.55007       747.248 7        44.194
C10        32.000                                                                                                                                                                                                    40323788.907 4                     -1203.069 4        25.609
C24        34.000                                                                                                                                    22737833.069 8 118401882.77508     -3056.065 8        48.504                                                                    22737834.421 6  96211197.64306     -2483.283 6        38.198
R14        35.000    19416606.038 7 103501465.00607     -1430.298 7        42.262                                                                    19416612.643 6  80501228.20506     -1112.517 6        41.185
R23        36.000    22211047.074 5                     -4590.790 5        32.144
S21        38.000    38566256.278 5 202667021.41005      -855.669 5        34.943
C44        39.000                                                                                                                                    22478639.278 7 117052184.46707     -2387.275 7        47.576                                                                    22478641.890 8  95114508.30908     -1939.847 8        48.947
C35        40.000                                                                                                                                    26227884.979 3                     -4034.247 3        22.210
C25        41.000                                                                                                                                    21688381.499 7 112937057.40207       -21.128 7        47.450                                                                    21688383.003 7  91770670.49507       -17.118 7        44.533
R05        42.000    23672041.692 4                     -3983.938 4        29.005                                                                    23672010.979 5                     -3098.523 5        33.084
C12        43.000                                                                                                                                    22011354.987 7 114618862.43407      -793.072 7        47.295    22011356.208 7  88630701.13807      -613.237 7        46.892    22011355.399 8  93137347.85408      -644.418 8        48.943
C32        44.000                                                                                                                                    27282732.532 4                     -2490.533 4        28.209
C05        45.000                                                                                                                                    39575931.783 5 206082269.93605      -818.392 5        31.864    39575944.748 5 159355906.40805      -632.455 5        32.713
C38        47.000                                                                                                                                    40062614.696 4 208616500.62904       793.473 4        29.621
C23        55.000                                                                                                                                    25477781.571 7 132669721.06507      2105.751 7        45.232                                                                    25477785.861 6 107804914.79806      1711.103 6        41.297
I02        57.000    37561700.539 5 147400202.62105      -969.701 5        34.033
I06        58.000    38750552.173 6 152065450.05706      -714.936 6        39.447
> 2025 01 01 14 45  5.0000000  0 39
G06         2.000    24580080.009 4                     -3792.657 4        28.768                                                                                                    24580100.295 3                     -2954.621 3        22.457
G25         3.000    19926154.901 7 104712688.03607     -1037.175 7        46.968                                    19926156.088 6  81594275.47606      -808.192 6        39.453    19926159.735 6  81594322.47406      -808.168 6        38.628
G11         4.000    22600731.910 6 118767860.33106     -1758.502 6        37.614                                    22600733.124 3  92546238.99603     -1370.268 3        20.929    22600733.827 6  92546256.05406     -1370.339 6        41.411
G31         5.000    23716281.229 6 124630046.99306      2325.637 6        41.149                                    23716288.946 4  97114342.01204      1812.163 4        27.533    23716287.794 6  97114367.07306      1812.159 6        39.099
G28         6.000    22030407.309 5 115770469.66505      1104.414 5        35.571                                    22030390.163 1  90210740.89601       860.554 1         5.000    22030401.383 5                       860.275 5        30.702
G12         7.000    21810615.384 6 114615845.02306     -3266.898 6        38.709                                    21810612.785 3  89310819.61803     -2545.628 3        23.714    21810615.897 4  89310903.60014     -2545.191 4        26.467
G29         8.000    21163672.842 7 111215883.17607      1019.546 7        47.963                                    21163674.554 6  86661899.81806       794.446 6        41.905    21163674.476 6  86661701.84406       794.278 6        39.411
E30         9.000    24084505.220 7 126565055.82007     -1773.818 7        43.198                                                                    24084511.862 7  94512838.90507     -1324.658 7        47.197    24084511.455 7  96978394.82407     -1359.187 7        46.214
E15        10.000    26265364.548 5 138025457.78105      2190.492 5        31.638                                                                    26265377.183 6 103071030.43006      1635.877 6        41.428    26265375.491 7 105759918.24507      1678.449 7        43.628
G32        11.000    24142425.627 6 126868975.25006     -3295.261 6        39.351                                                                                                    24142443.091 4                     -2567.425 4        28.853
E34        12.000    24773915.435 7 130187851.86207         1.573 7        42.959                                                                    24773920.428 7  97218314.49307         1.082 7        44.101    24773919.217 7  99754428.70507         1.236 7        43.865
E02        13.000    27406921.360 3                     -3256.833 3        21.952
E19        14.000    26941849.628 4                      -186.389 4        24.617                                                                    26941865.913 6 105725693.16506      -138.938 6        36.556    26941863.603 5 108483718.59205      -142.609 5        30.604
E27        15.000    24408783.231 5 128269019.64205       573.199 5        33.275                                                                    24408793.477 7  95785376.14007       428.163 7        45.196    24408788.356 5  98284174.86505       439.327 5        34.071
R17        17.000    21736755.798 7 116317772.03507      3178.919 7        43.437                                                                    21736763.099 5  90469413.78405      2472.708 5        31.985
E07        18.000                                                                                                                                    27775827.980 4 108998311.94314     -2859.998 4        25.398    27775827.205 5 111841750.77605     -2935.257 5        30.000
E36        19.000                                                                                                                                    26872835.371 5                     -2040.554 5        30.981    26872797.786 5 108205726.90405     -2093.866 5        33.240
R15        20.000    20834230.468 8 111332418.39908      2018.150 8        49.451                                                                    20834238.605 7  86591610.89607      1569.619 7        46.381
R24        21.000    19514346.092 7 104351960.72307      -456.781 7        46.201                                                                    19514351.852 7  81162723.31507      -355.320 7        46.342
E21        22.000                                                                                                                                                                                                    28673337.886 4                      1262.712 4        25.955
S36        23.000    38339477.251 6 201475143.52106      -855.702 6        36.469
S23        24.000    38284747.211 6 201187657.34006      -860.332 6        36.011
E29        26.000    26401411.863 5 138740283.08805     -2352.498 5        32.760                                                                    26401422.935 6 103604830.28006     -1756.637 6        37.146    26401421.660 6 106307571.22906     -1802.431 6        36.507
C34        28.000                                                                                                                                    22124210.309 7 115206985.26707       917.198 7        46.102                                                                    22124215.907 7  93614872.12807       745.012 7        44.462
C10        32.000                                                                                                                                                                                                    40325282.724 4                     -1202.992 4        25.158
C24        34.000                                                                                                                                    22740767.750 8 118417167.07308     -3057.750 8        48.010                                                                    22740769.561 6  96223617.39206     -2484.813 6        38.480
R14        35.000    19417948.381 7 103508623.75507     -1433.307 7        42.728                                                                    19417955.517 7  80506796.12507     -1114.782 7        42.574
S21        38.000    38567070.421 5 202671299.29505      -855.547 5        35.305
C44        39.000                                                                                                                                    22480931.811 7 117064126.50507     -2389.619 7        47.097                                                                    22480935.258 8  95124212.23108     -1942.007 8        48.998
C35        40.000                                                                                                                                    26231760.444 3                     -4033.516 3        21.238
C25        41.000                                                                                                                                    21688402.617 8 112937168.18608       -23.297 8        48.310                                                                    21688404.700 7  91770760.58207       -19.214 7        44.746
R05        42.000    23675768.472 4                     -3986.137 4        28.929                                                                    23675742.128 5                     -3100.531 5        33.245
C12        43.000                                                                                                                                    22012117.398 7 114622834.26907      -795.839 7        47.270    22012118.895 7  88633772.42607      -615.424 7        46.779    22012118.105 8  93140575.34008      -646.929 8        48.712
C32        44.000                                                                                                                                    27285120.333 4                     -2493.196 4        24.346
C05        45.000                                                                                                                                    39576717.992 5 206086360.74405      -818.260 5        31.570    39576730.041 5 159359069.71005      -632.473 5        32.335
C38        47.000                                                                                                                                    40061859.611 4 208612534.41304       792.771 4        29.621
C23        55.000                                                                                                                                    25475759.796 7 132659193.68307      2105.166 7        45.658                                                                    25475764.221 6 107796360.60206      1710.350 6        41.890
I02        57.000    37562935.542 5 147405052.09105      -970.451 5        34.195
I06        58.000    38751462.387 6 152069024.86306      -715.152 6        39.306
> 2025 01 01 14 45 10.0000000  0 38
G06         2.000    24583697.846 4                     -3794.513 4        29.934                                                                                                    24583708.317 3                     -2957.667 3        23.543
G25         3.000    19927142.998 7 104717879.04607     -1039.341 7        47.106                                    19927143.941 6  81598320.42606      -809.879 6        39.700    19927147.149 6  81598367.42306      -809.970 6        39.252
G11         4.000    22602405.052 6 118776660.64806     -1761.796 6        36.749                                    22602408.033 3  92553096.39203     -1372.839 3        19.493    22602407.532 6  92553113.46506     -1372.831 6        40.715
G31         5.000    23714069.215 6 124618422.25806      2324.059 6        41.204                                    23714077.532 4  97105283.88404      1810.932 4        27.078    23714075.705 6  97105308.95506      1810.824 6        38.649
G28         6.000    22029363.503 4 115764955.11504      1101.931 4        29.611                                    22029340.951 1  90206443.90801       858.579 1         3.600    22029352.626 5                       858.257 5        33.449
G12         7.000    21813721.874 5 114632181.95605     -3267.968 5        33.982                                    21813720.809 3  89323549.69903     -2546.461 3        22.438    21813725.710 4  89323633.69104     -2546.760 4        28.749
G29         8.000    21162703.789 7 111210790.58007      1017.329 7        47.919                                    21162705.102 6  86657931.59306       792.717 6        41.120    21162705.729 6  86657733.61506       792.665 6        39.610
E30         9.000    24086192.470 7 126573926.95907     -1774.808 7        42.787                                                                    24086199.949 7  94519463.47807     -1325.404 7        46.937    24086199.702 7  96985192.20307     -1359.962 7        46.118
E15        10.000    26263281.147 5 138014507.01205      2189.922 5        31.555                                                                    26263293.310 6 103062852.96906      1635.055 6        41.015    26263291.550 7 105751527.43907      1677.785 7        43.761
G32        11.000    24145562.716 6 126885454.57706     -3296.735 6        40.389                                                                                                    24145575.154 4                     -2569.370 4        25.098
E34        12.000    24773914.398 7 130187849.28807        -0.803 7        42.536                                                                    24773920.481 7  97218312.58707        -0.584 7        44.355    24773919.235 7  99754426.74907        -0.627 7        44.126
E19        14.000    26942024.106 3                      -188.122 3        23.219                                                                    26942044.114 6 105726392.67806      -140.687 6        36.306    26942042.295 5 108484436.40005      -144.945 5        30.128
E27        15.000    24408238.554 5 128266154.27205       572.621 5        33.551                                                                    24408248.300 7  95783236.44607       427.501 7        45.228    24408243.537 5  98281979.35205       438.912 5        34.300
R17        17.000    21733785.650 7 116301881.75107      3177.010 7        43.149                                                                    21733792.153 5  90457054.76605      2470.876 5        30.725
E07        18.000                                                                                                                                    27779473.315 4 109012616.32004     -2861.124 4        25.955    27779472.215 4 111856428.20904     -2935.327 4        28.626
E36        19.000                                                                                                                                    26875437.963 5                     -2042.268 5        30.166    26875397.796 5 108216199.62605     -2095.446 5        32.162
R15        20.000    20832342.186 8 111322330.36908      2016.713 8        49.537                                                                    20832350.879 7  86583764.70507      1568.560 7        46.617
R24        21.000    19514775.883 7 104354255.00007      -461.104 7        47.249                                                                    19514780.898 7  81164507.75807      -358.611 7        46.412
E21        22.000                                                                                                                                    28671765.635 3                      1230.200 3        21.976    28671768.140 4                      1263.351 4        25.865
S36        23.000    38340288.027 6 201479421.17106      -855.629 6        36.533
S23        24.000    38285564.959 6 201191958.02506      -860.088 6        36.314
E29        26.000    26403656.331 5 138752049.08105     -2354.394 5        31.351                                                                    26403662.097 6 103613616.57406     -1758.071 6        37.936    26403660.134 6 106316586.71906     -1803.866 6        36.423
C34        28.000                                                                                                                                    22123330.842 7 115202404.06807       915.058 7        45.564                                                                    22123336.157 7  93611149.52607       743.474 7        44.769
C10        32.000                                                                                                                                                                                                    40326779.994 4                     -1203.470 4        26.012
C24        34.000                                                                                                                                    22743703.810 7 118432459.21307     -3059.384 7        47.215                                                                    22743706.504 6  96236043.48306     -2485.997 6        39.015
R14        35.000    19419295.381 7 103515797.24507     -1436.365 7        43.814                                                                    19419301.188 7  80512375.49107     -1117.100 7        43.399
S21        38.000    38567888.420 5 202675576.50305      -855.308 5        34.957
C44        39.000                                                                                                                                    22483226.565 7 117076079.08707     -2391.658 7        46.659                                                                    22483230.592 8  95133924.68008     -1943.445 8        49.092
C35        40.000                                                                                                                                    26235636.076 3                     -4034.353 3        21.548
C25        41.000                                                                                                                                    21688425.667 8 112937288.98208       -25.266 8        49.072                                                                    21688427.969 7  91770858.74907       -20.620 7        45.195
R05        42.000                                                                                                                                    23679471.640 5                     -3102.120 5        32.784
C12        43.000                                                                                                                                    22012882.792 7 114626819.17007      -798.399 7        47.194    22012884.130 7  88636853.82207      -617.396 7        46.921    22012883.169 8  93143813.39608      -648.766 8        48.419
C32        44.000                                                                                                                                    27287520.504 3                     -2493.833 3        23.886
C05        45.000                                                                                                                                    39577505.137 5 206090451.05905      -817.874 5        31.849    39577515.848 5 159362232.62405      -632.456 5        32.377
C38        47.000                                                                                                                                    40061106.382 4 208608571.76904       792.394 4        28.967
C23        55.000                                                                                                                                    25473738.374 7 132648668.44307      2104.690 7        46.048                                                                    25473742.886 7 107787808.08307      1710.121 7        42.370
I02        57.000    37564172.207 5 147409902.04505      -969.924 5        33.898
I06        58.000    38752373.542 6 152072599.18706      -714.995 6        39.333
> 2025 01 01 14 45 15.0000000  0 38
G06         2.000    24587307.604 4                     -3796.204 4        28.682                                                                                                    24587315.732 4                     -2957.321 4        25.564
G25         3.000    19928133.195 7 104723082.76307     -1042.030 7        47.644                                    19928134.379 6  81602375.27706      -811.972 6        40.117    19928137.246 6  81602422.27206      -812.023 6        39.453
G11         4.000    22604083.296 6 118785478.09706     -1765.108 6        38.949                                    22604086.054 3  92559967.20603     -1375.411 3        19.313    22604082.898 6  92559984.25706     -1375.375 6        39.580
G31         5.000    23711857.851 6 124606806.41906      2322.296 6        40.527                                    23711867.459 4  97096232.68204      1809.556 4        26.611    23711865.638 6  97096257.75706      1809.479 6        38.432
G28         6.000                                                                                                                                                                    22028302.166 5  90202229.05615       856.051 5        35.262
G12         7.000    21816830.685 4 114648527.37104     -3270.256 4        29.318                                    21816831.158 3  89336286.37303     -2548.229 3        20.810    21816837.906 5  89336370.35005     -2548.075 5        31.358
G29         8.000    21161736.949 7 111205710.43307      1014.807 7        47.421                                    21161738.033 6  86653973.06606       790.753 6        40.632    21161738.803 6  86653775.07306       790.792 6        39.784
E30         9.000    24087882.034 7 126582804.40007     -1776.075 7        42.345                                                                    24087889.212 7  94526092.75407     -1326.247 7        46.953    24087888.991 7  96991994.41507     -1360.929 7        45.899
E15        10.000    26261198.471 5 138003561.67305      2188.394 5        31.472                                                                    26261210.350 6 103054679.53306      1634.276 6        40.439    26261208.689 7 105743140.77707      1676.897 7        43.900
G32        11.000    24148699.374 6 126901943.13106     -3298.632 6        40.105                                                                                                    24148711.542 3                     -2570.103 3        22.590
E34        12.000    24773916.062 6 130187860.01806        -3.406 6        41.864                                                                    24773923.021 7  97218320.63507        -2.578 7        44.516    24773921.694 7  99754435.00407        -2.615 7        44.486
E19        14.000    26942201.558 3                      -190.989 3        22.533                                                                    26942224.794 6 105727101.70206      -142.674 6        36.401    26942223.324 5 108485163.84405      -145.837 5        30.717
E27        15.000    24407694.829 5 128263293.97205       571.658 5        34.767                                                                    24407703.938 7  95781100.51007       426.887 7        45.442    24407700.190 5  98279787.71305       438.173 5        34.662
R17        17.000    21730817.553 6 116286002.44506      3174.701 6        41.793                                                                    21730823.499 5  90444704.24305      2469.164 5        30.815
E07        18.000                                                                                                                                    27783122.906 4 109026921.69104     -2860.621 4        25.218    27783117.515 4 111871106.77204     -2935.934 4        26.922
E36        19.000                                                                                                                                    26878041.167 4                     -2043.110 4        28.701    26877998.552 5 108226680.52105     -2096.810 5        30.679
R15        20.000    20830455.942 8 111312250.92208      2015.030 8        49.875                                                                    20830464.584 7  86575925.18707      1567.313 7        46.907
R24        21.000    19515210.246 8 104356572.50408      -465.760 8        48.836                                                                    19515214.237 7  81166310.27307      -362.226 7        46.411
E21        22.000                                                                                                                                    28670197.777 4                      1231.556 4        24.120    28670200.027 4                      1262.848 4        25.429
S36        23.000    38341102.721 6 201483700.47706      -856.021 6        36.938
S23        24.000    38286385.309 6 201196259.78506      -860.371 6        36.533
E29        26.000    26405899.798 5 138763825.91105     -2356.736 5        30.166                                                                    26405903.343 6 103622410.95806     -1759.775 6        38.973    26405900.621 5 106325610.50705     -1805.307 5        35.776
C34        28.000                                                                                                                                    22122453.756 7 115197835.07907       912.585 7        44.965                                                                    22122458.999 7  93607436.86407       741.620 7        44.957
C10        32.000                                                                                                                                                                                                    40328282.132 4                     -1203.461 4        26.251
C24        34.000                                                                                                                                    22746642.073 7 118447760.45707     -3061.076 7        46.353                                                                    22746644.908 6  96248476.98706     -2487.412 6        39.258
R14        35.000    19420645.327 7 103522986.72907     -1439.602 7        43.771                                                                    19420649.573 7  80517967.31307     -1119.655 7        43.911
R23        36.000    22223967.926 5 118883155.78715     -4597.284 5        34.533
S21        38.000    38568700.203 5 202679854.64205      -855.448 5        35.386
C44        39.000                                                                                                                                    22485523.748 7 117088043.48307     -2394.042 7        46.330                                                                    22485528.224 8  95143646.75008     -1945.308 8        48.875
C25        41.000                                                                                                                                    21688451.107 8 112937421.09208       -27.541 8        49.492                                                                    21688453.172 7  91770966.12007       -22.304 7        45.105
R05        42.000                                                                                                                                    23683197.467 5                     -3104.131 5        30.196
C12        43.000                                                                                                                                    22013650.146 7 114630818.40707      -801.282 7        46.831    22013652.125 7  88639946.29607      -619.573 7        47.418    22013650.982 7  93147063.11307      -651.012 7        47.809
C32        44.000                                                                                                                                    27289919.301 3                     -2496.995 3        21.143
C05        45.000                                                                                                                                    39578291.391 5 206094542.15005      -818.152 5        31.774    39578301.392 5 159365396.12905      -632.602 5        32.569
C38        47.000                                                                                                                                    40060348.200 4 208604613.94204       791.076 4        27.737
C23        55.000                                                                                                                                    25471717.942 7 132638146.67407      2104.043 7        46.214                                                                    25471722.232 7 107779258.38007      1709.778 7        42.554
I02        57.000    37565408.468 5 147414753.20805      -970.402 5        33.868
I06        58.000    38753284.058 6 152076173.99906      -714.900 6        39.111
> 2025 01 01 14 45 20.0000000  0 40
G06         2.000    24590911.987 4                     -3797.778 4        29.185                                                                                                    24590933.637 4                     -2960.103 4        26.168
G25         3.000    19929125.649 7 104728297.95407     -1044.156 7        47.974                                    19929127.061 6  81606439.06606      -813.629 6        40.358    19929128.913 6  81606486.06206      -813.589 6        38.859
G11         4.000    22605764.049 6 118794311.50706     -1768.176 6        41.292                                    22605766.941 3  92566850.43503     -1377.813 3        18.896    22605762.454 6  92566867.46306     -1377.736 6        37.656
G31         5.000    23709647.160 6 124595198.17906      2320.859 6        39.544                                    23709658.544 4  97087187.39204      1808.432 4        26.096    23709655.089 6  97087212.45206      1808.784 6        37.667
G28         6.000                                                                                                                                                                    22027257.008 5  90197953.32805       854.076 5        34.957
G12         7.000    21819944.399 4 114664879.94504     -3271.693 4        27.569                                    21819942.772 3  89349028.67903     -2549.324 3        18.716    21819948.312 5  89349112.65905     -2549.038 5        32.784
G29         8.000    21160771.992 7 111200641.47107      1012.758 7        46.041                                    21160773.083 6  86650023.25406       789.155 6        40.138    21160774.235 6  86649825.26606       789.091 6        40.284
E30         9.000    24089572.866 7 126591686.92207     -1776.946 7        42.533                                                                    24089579.631 7  94532725.83007     -1326.862 7        46.909    24089579.160 7  96998800.51807     -1361.543 7        45.631
E15        10.000    26259115.682 5 137992620.49105      2187.835 5        32.689                                                                    26259128.401 6 103046509.21606      1633.822 6        39.745    26259126.702 7 105734757.31507      1676.375 7        44.149
G32        11.000    24151834.099 6 126918439.64306     -3299.990 6        37.543                                                                                                    24151856.791 3                     -2570.599 3        22.000
E34        12.000    24773920.484 6 130187882.85206        -5.708 6        41.769                                                                    24773927.810 7  97218337.71607        -4.258 7        44.578    24773926.546 7  99754452.52907        -4.366 7        44.752
E02        13.000    27416271.975 3                     -3256.516 3        21.452
E19        14.000    26942387.336 4                      -194.069 4        25.519                                                                    26942407.599 6 105727819.52506      -144.256 6        36.582    26942405.940 5 108485900.40605      -147.984 5        30.536
E27        15.000    24407151.867 6 128260437.44106       570.915 6        37.115                                                                    24407160.378 7  95778967.40707       426.389 7        45.673    24407157.747 5  98277598.98705       437.588 5        35.362
R17        17.000    21727849.913 6 116270132.81006      3173.027 6        39.991                                                                    21727857.430 5  90432361.24805      2467.875 5        30.060
E07        18.000                                                                                                                                                                                                    27786762.576 4 111885785.51604     -2935.444 4        26.060
E36        19.000                                                                                                                                    26880647.099 4                     -2044.747 4        26.790    26880600.796 4 108237168.63804     -2098.282 4        28.976
R15        20.000    20828571.453 8 111302178.74708      2013.805 8        49.879                                                                    20828578.955 7  86568091.33007      1566.274 7        46.827
R24        21.000    19515648.790 8 104358911.78608      -469.945 8        49.272                                                                    19515651.783 7  81168129.73007      -365.536 7        46.054
E21        22.000                                                                                                                                    28668629.525 4                      1231.118 4        24.827    28668633.037 4                      1263.101 4        25.789
S36        23.000    38341919.043 6 201487979.50106      -855.632 6        36.722
S23        24.000    38287204.198 6 201200561.20406      -860.038 6        36.480
E29        26.000                                                                                                                                    26408146.352 6 103631212.51006     -1760.923 6        39.793    26408143.180 5 106334641.68605     -1806.787 5        35.514
C34        28.000                                                                                                                                    22121578.360 7 115193277.09107       910.536 7        44.867                                                                    22121583.845 7  93603733.13607       739.707 7        45.371
C10        32.000                                                                                                                                                                                                    40329782.058 4                     -1202.875 4        26.850
C24        34.000                                                                                                                                    22749582.055 7 118463069.60207     -3062.532 7        45.145                                                                    22749584.713 6  96260916.89206     -2488.854 6        39.916
R14        35.000    19421996.836 7 103530190.93707     -1442.240 7        43.372                                                                    19422000.644 7  80523570.59207     -1121.732 7        43.934
R23        36.000    22228268.483 5 118906146.64605     -4599.281 5        34.281
S21        38.000    38569513.613 5 202684132.34405      -855.303 5        35.362
C44        39.000                                                                                                                                    22487823.443 7 117100018.46907     -2395.966 7        45.997                                                                    22487827.870 8  95153377.41608     -1947.125 8        48.802
C35        40.000                                                                                                                                    26243402.323 3                     -4034.329 3        18.746
C25        41.000                                                                                                                                    21688478.119 8 112937563.31608       -29.318 8        49.465                                                                    21688480.399 7  91771081.70607       -24.065 7        45.199
R05        42.000                                                                                                                                    23686927.078 4                     -3104.852 4        24.827
C12        43.000                                                                                                                                    22014419.700 7 114634830.79307      -803.727 7        46.695    22014422.488 7  88643048.94307      -621.416 7        47.770    22014421.175 7  93150323.50507      -653.209 7        47.256
C32        44.000                                                                                                                                    27292317.790 4                     -2498.934 4        25.248
C05        45.000                                                                                                                                    39579076.120 5 206098632.76005      -818.230 5        31.909    39579087.454 5 159368559.28805      -632.443 5        31.977
C38        47.000                                                                                                                                    40059589.069 4 208600659.70304       790.225 4        27.844
C23        55.000                                                                                                                                    25469697.839 7 132627627.20207      2103.713 7        46.286                                                                    25469702.092 7 107770710.54207      1709.266 7        43.024
I02        57.000    37566644.273 5 147419604.35005      -970.157 5        33.868
I06        58.000    38754195.484 6 152079748.44106      -714.830 6        39.132
> 2025 01 01 14 45 25.0000000  0 38
G06         2.000    24594520.268 5                     -3800.023 5        30.543                                                                                                    24594557.395 4                     -2961.232 4        25.293
G25         3.000    19930120.347 8 104733525.49308     -1046.564 8        48.298                                    19930122.113 6  81610512.47406      -815.504 6        40.367    19930123.442 6  81610559.47606      -815.588 6        38.664
G11         4.000    22607447.619 7 118803161.68707     -1771.627 7        42.360                                    22607450.610 3  92573746.73303     -1380.478 3        19.224    22607446.661 6  92573763.74206     -1380.352 6        36.268
G31         5.000    23707438.458 6 124583598.50106      2319.106 6        38.751                                    23707450.712 4  97078148.80204      1807.064 4        25.383    23707447.723 6  97078173.87306      1807.243 6        36.605
G28         6.000    22026285.493 5                      1093.562 5        31.917                                                                                                    22026212.339 5  90193688.48605       852.172 5        33.796
G12         7.000                                                                                                                                                                    21823061.419 5  89361861.25305     -2550.191 5        34.705
G29         8.000    21159809.730 7 111195584.57207      1010.290 7        45.306                                    21159810.477 6  86646082.84506       787.229 6        39.631    21159811.907 6  86645884.87006       787.224 6        40.064
E30         9.000    24091264.800 7 126600575.38107     -1778.152 7        43.103                                                                    24091271.088 7  94539363.34307     -1327.812 7        46.677    24091270.374 7  97005611.17507     -1362.440 7        45.284
E15        10.000    26257034.531 5 137981684.34905      2186.889 5        33.545                                                                    26257047.069 6 103038342.68106      1633.141 6        38.958    26257045.561 7 105726377.73207      1675.621 7        44.349
G32        11.000    24154970.192 5 126934945.08705     -3301.878 5        35.648                                                                                                    24155000.754 4                     -2572.426 4        26.012
E34        12.000    24773927.961 6 130187918.66406        -8.365 6        41.840                                                                    24773934.723 7  97218364.48307        -6.212 7        44.290    24773933.656 7  99754479.98507        -6.306 7        44.879
E19        14.000    26942575.766 4                      -195.546 4        27.461                                                                    26942592.766 6 105728546.59006      -146.258 6        36.805    26942591.641 5 108486646.47305      -150.385 5        30.664
E27        15.000    24406608.484 6 128257585.62606       570.225 6        38.892                                                                    24406617.707 7  95776837.82607       425.704 7        45.615    24406615.952 5  98275413.86405       436.690 5        35.871
R17        17.000    21724886.042 5 116254273.70305      3170.933 5        35.743                                                                    21724898.181 4  90420026.43004      2466.097 4        28.777
E07        18.000                                                                                                                                    27790450.146 5 109055533.93205     -2861.543 5        30.060    27790409.075 4 111900465.02604     -2935.731 4        25.083
E36        19.000                                                                                                                                    26883254.614 4                     -2045.786 4        25.444    26883205.067 4 108247664.67104     -2099.794 4        25.835
R15        20.000    20826687.578 8 111292114.57408      2012.114 8        49.544                                                                    20826695.430 7  86560263.69207      1564.892 7        46.684
R24        21.000    19516089.124 8 104361273.77308      -474.561 8        48.878                                                                    19516092.759 7  81169966.84407      -369.068 7        44.989
E21        22.000                                                                                                                                    28667061.958 4                      1231.128 4        25.850    28667065.912 4                      1263.067 4        26.898
S36        23.000    38342733.339 6 201492258.18306      -855.256 6        36.983
S23        24.000    38288022.522 6 201204863.02206      -860.249 6        36.631
E29        26.000    26410370.681 5 138787409.44105     -2360.166 5        31.751                                                                    26410391.887 6 103640021.91706     -1762.582 6        40.453    26410388.054 5 106343680.90305     -1808.725 5        35.067
C34        28.000                                                                                                                                    22120705.206 7 115188730.96007       908.277 7        45.421                                                                    22120710.915 7  93600039.04307       738.149 7        45.731
C10        32.000                                                                                                                                                                                                    40331276.782 4                     -1202.656 4        25.970
C24        34.000                                                                                                                                    22752524.230 7 118478387.52707     -3064.359 7        44.089                                                                    22752526.193 6  96273363.92706     -2489.937 6        40.453
R14        35.000    19423350.892 6 103537410.86106     -1445.394 6        41.552                                                                    19423354.791 7  80529186.13507     -1124.247 7        43.782
R23        36.000    22232568.741 5 118929148.51805     -4601.401 5        33.940
S21        38.000    38570333.972 5 202688410.56905      -855.507 5        35.638
C44        39.000                                                                                                                                    22490124.855 7 117112004.91507     -2398.217 7        45.502                                                                    22490129.568 8  95163117.37708     -1948.610 8        48.679
C35        40.000                                                                                                                                    26247282.850 3                     -4035.511 3        19.343
C25        41.000                                                                                                                                    21688506.963 8 112937716.56708       -31.654 8        49.116                                                                    21688509.673 7  91771206.21507       -25.551 7        45.162
C12        43.000                                                                                                                                    22015193.085 7 114638857.14607      -806.515 7        46.923    22015195.410 8  88646162.38808      -623.629 8        48.019    22015194.149 7  93153595.24307      -655.202 7        46.769
C32        44.000                                                                                                                                    27294711.400 3                     -2499.336 3        23.943                                                                    27294764.999 4                     -2031.421 4        27.030
C05        45.000                                                                                                                                    39579862.379 5 206102723.80905      -818.007 5        31.826    39579872.147 5 159371722.74605      -632.904 5        32.647
C38        47.000                                                                                                                                    40058830.415 4 208596709.91504       789.913 4        26.587
C23        55.000                                                                                                                                    25467677.967 7 132617110.92807      2103.058 7        46.181                                                                    25467682.379 7 107762165.31707      1709.012 7        43.319
I02        57.000    37567881.936 5 147424456.42505      -970.277 5        33.653
I06        58.000    38755106.284 6 152083323.09206      -714.864 6        39.003
> 2025 01 01 14 45 30.0000000  0 37
G06         2.000    24598132.213 5                     -3802.142 5        31.849                                                                                                    24598181.846 4                     -2961.845 4        24.241
G25         3.000    19931117.548 8 104738764.71508     -1049.118 8        48.378                                    19931119.339 6  81614594.98506      -817.495 6        40.381    19931120.342 6  81614641.98406      -817.447 6        38.724
