     3.04           OBSERVATION DATA    M                   RINEX VERSION / TYPE
ssrcrin-15.6.1x                         20250101 050000 UTC PGM / RUN BY / DATE 
(00000000023479385599111004) Septentrio proprietary         COMMENT             
ract                                                        MARKER NAME         
01                                                          MARKER NUMBER       
geodetic                                                    MARKER TYPE         
NFB                 CLIMERS@TUW                             OBSERVER / AGENCY   
3296359             SEPT ASTERX SB3 PROB4.14.4              REC # / TYPE / VERS 
Unknown             Unknown                                 ANT # / TYPE        
  4127445.5233  1206914.7573  4695542.1304                  APPROX POSITION XYZ 
        0.0000        0.0000        0.0000                  ANTENNA: DELTA H/E/N
G   23 X1  C1C L1C D1C S1C C1W S1W C2W L2W D2W S2W C2L L2L  SYS / # / OBS TYPES 
       D2L S2L C5Q L5Q D5Q S5Q C1L L1L D1L S1L              SYS / # / OBS TYPES 
E   21 X1  C1C L1C D1C S1C C6C L6C D6C S6C C5Q L5Q D5Q S5Q  SYS / # / OBS TYPES 
       C7Q L7Q D7Q S7Q C8Q L8Q D8Q S8Q                      SYS / # / OBS TYPES 
S    9 X1  C1C L1C D1C S1C C5I L5I D5I S5I                  SYS / # / OBS TYPES 
R   17 X1  C1C L1C D1C S1C C2P L2P D2P S2P C2C L2C D2C S2C  SYS / # / OBS TYPES 
       C3Q L3Q D3Q S3Q                                      SYS / # / OBS TYPES 
C   25 X1  C1P L1P D1P S1P C5P L5P D5P S5P C2I L2I D2I S2I  SYS / # / OBS TYPES 
       C7I L7I D7I S7I C6I L6I D6I S6I C7D L7D D7D S7D      SYS / # / OBS TYPES 
J   17 X1  C1C L1C D1C S1C C2L L2L D2L S2L C5Q L5Q D5Q S5Q  SYS / # / OBS TYPES 
       C1L L1L D1L S1L                                      SYS / # / OBS TYPES 
I    5 X1  C5A L5A D5A S5A                                  SYS / # / OBS TYPES 
SEPTENTRIO RECEIVERS OUTPUT ALIGNED CARRIER PHASES.         COMMENT             
NO FURTHER PHASE SHIFT APPLIED IN THE RINEX ENCODER.        COMMENT             
G L1C                                                       SYS / PHASE SHIFT   
G L2W                                                       SYS / PHASE SHIFT   
G L2L  0.00000                                              SYS / PHASE SHIFT   
G L5Q  0.00000                                              SYS / PHASE SHIFT   
G L1L  0.00000                                              SYS / PHASE SHIFT   
E L1C  0.00000                                              SYS / PHASE SHIFT   
E L6C  0.00000                                              SYS / PHASE SHIFT   
E L5Q  0.00000                                              SYS / PHASE SHIFT   
E L7Q  0.00000                                              SYS / PHASE SHIFT   
E L8Q  0.00000                                              SYS / PHASE SHIFT   
S L1C                                                       SYS / PHASE SHIFT   
S L5I                                                       SYS / PHASE SHIFT   
R L1C                                                       SYS / PHASE SHIFT   
R L2P  0.00000                                              SYS / PHASE SHIFT   
R L2C                                                       SYS / PHASE SHIFT   
R L3Q  0.00000                                              SYS / PHASE SHIFT   
C L1P  0.00000                                              SYS / PHASE SHIFT   
C L5P  0.00000                                              SYS / PHASE SHIFT   
C L2I                                                       SYS / PHASE SHIFT   
C L7I                                                       SYS / PHASE SHIFT   
C L6I                                                       SYS / PHASE SHIFT   
C L7D                                                       SYS / PHASE SHIFT   
J L1C                                                       SYS / PHASE SHIFT   
J L2L  0.00000                                              SYS / PHASE SHIFT   
J L5Q  0.00000                                              SYS / PHASE SHIFT   
J L1L  0.00000                                              SYS / PHASE SHIFT   
I L5A                                                       SYS / PHASE SHIFT   
  2025     1     1     5     0    0.0000000     GPS         TIME OF FIRST OBS   
 C1C    0.000 C2C    0.000 C2P    0.000                     GLONASS COD/PHS/BIS 
DBHZ                                                        SIGNAL STRENGTH UNIT
    18                                                      LEAP SECONDS        
 24 R01  1 R02 -4 R03  5 R04  6 R05  1 R06 -4 R07  5 R08  6 GLONASS SLOT / FRQ #
    R09 -2 R10 -7 R11  0 R12 -1 R13 -2 R14 -7 R15  0 R16 -1 GLONASS SLOT / FRQ #
    R17  4 R18 -3 R19  3 R20  2 R21  4 R22 -3 R23  3 R24  2 GLONASS SLOT / FRQ #
                                                            END OF HEADER       
> 2025 01 01 05 00  0.0000000  0 40
G16         1.000    23509389.937 5                     -1305.207 5        32.263
G30         3.000    22538531.364 4                      2227.854 4        29.289                                                                                                    22538536.426 4  92291551.87904      1735.019 4        28.265
G07         5.000    20943964.265 8 110061298.94408       217.693 8        51.081                                    20943958.879 7  85762053.77007       169.624 7        46.230    20943958.855 7  85762025.78407       169.629 7        42.762
E34         6.000    24674579.377 7 129666002.98307     -2600.136 7        45.640                                                                    24674578.918 6  96828403.04806     -1941.658 6        41.054    24674580.053 7  99354316.60507     -1992.289 7        46.166
G05         7.000    25149387.834 4 132161006.02504      2863.100 4        29.943                                    25149393.502 2 102982534.13502      2231.000 2        12.485
G09         9.000    20472553.415 8 107583989.44308     -2293.508 8        50.820                                    20472549.875 7  83831690.40907     -1787.148 7        47.860    20472551.062 6  83831681.40606     -1787.210 6        41.430
G20        10.000    22167382.977 7 116490353.09207      1939.488 7        45.961                                    22167377.373 5  90771743.43705      1511.293 5        31.358
G04        11.000    22308590.853 7 117232654.24607     -3494.347 7        44.318                                    22308588.473 4  91349957.37404     -2722.865 4        28.028    22308587.752 6  91349925.37106     -2722.887 6        41.897
E09        12.000    25455624.138 6 133770155.25406     -2839.426 6        39.805                                                                    25455621.440 7  99893392.69807     -2120.424 7        44.799    25455621.673 7 102499284.34207     -2175.595 7        47.059
E31        13.000    26361302.971 4                         2.308 4        29.204                                                                    26361311.898 5 103447458.64905         1.617 5        30.241    26361317.922 4 106146054.64804         1.845 4        29.716
E06        14.000                                                                                                                                    27291404.014 3                     -2444.088 3        20.548
E24        15.000                                                                                                                                    27265897.253 5                      1426.721 5        30.604    27265880.820 5 109788430.45105      1463.835 5        32.599
E15        16.000    25587949.516 7 134465569.55207       255.663 7        44.503                                                                    25587948.534 7 100412651.24707       190.885 7        46.005    25587949.775 7 103032128.30607       195.860 7        47.531
G06        19.000    22241133.542 6 116877944.27106     -3396.385 6        38.877                                    22241132.566 4  91073749.08404     -2646.535 4        29.460    22241134.488 6  91073751.09706     -2646.554 6        38.541
E36        20.000    27287602.999 4                     -4128.762 4        24.195                                                                    27287603.560 3                     -3082.413 3        22.133
E05        21.000    21790648.708 7 114510634.52207      -683.891 7        45.952                                                                    21790648.528 8  85511242.49308      -510.661 8        52.328    21790647.959 8  87741957.77208      -524.005 8        52.416
R07        23.000    19540252.253 8 104600586.58108     -1447.117 8        50.653                                                                    19540249.855 7  81355937.53607     -1125.532 7        46.212
S23        24.000    38119935.456 6 200321528.45506      -825.872 6        40.560
S36        25.000    38180856.095 5 200641814.78205      -829.917 5        33.335
G11        26.000    22085678.742 6 116061013.63406      -998.724 6        41.197                                    22085670.612 2  90437152.65402      -778.286 2        16.981    22085673.675 4  90437138.65004      -778.134 4        28.758
E03        27.000    25803788.992 6 135599832.83906      1282.197 6        40.050                                                                    25803790.557 7 101259643.32007       957.586 7        43.572    25803789.816 7 103901236.09507       982.448 7        44.504
R06        29.000    22184044.105 5                     -3814.206 5        30.619
R10        30.000    22133159.643 6 117982206.21606      3397.241 6        36.866
R24        31.000                                                                                                                                    22826070.773 5  94936538.14005       906.320 5        31.230
R09        32.000    20176983.872 7 107743955.96507       716.643 7        47.415                                                                    20176980.954 6  83800844.42506       557.356 6        41.902
C19        33.000                                                                                                                                    22730863.020 5 118365554.47405     -2416.153 5        30.362                                                                    22730859.989 6  96181692.72506     -1962.906 6        39.246
R08        35.000    20700406.916 8 110849764.94408      1485.197 8        52.136                                                                    20700400.718 7  86216468.55307      1155.137 7        43.863
C05        36.000                                                                                                                                                                                                    39175662.178 5 157744162.76805      -677.126 5        32.425
R22        37.000    23066907.658 5 123132644.87405     -4976.751 5        34.133                                                                    23066876.777 4                     -3871.730 4        24.180
R16        39.000    21777776.162 6 116332924.15206     -3404.773 6        37.198                                                                    21777770.881 5  90480852.40905     -2648.126 5        35.671
C06        41.000                                                                                                                                                                                                    39612916.030 4                     -1447.627 4        27.389
C36        42.000                                                                                                                                    23094540.686 7 120259325.27807      1635.680 7        44.138                                                                    23094547.867 6  97720600.31706      1329.068 6        38.598
R23        44.000    21446677.533 6 114725276.82206     -2886.921 6        40.801
C16        45.000                                                                                                                                    40193455.249 4                     -1861.220 4        24.180    40193494.923 4                     -1440.171 4        26.491
C09        46.000                                                                                                                                    39049066.360 3                     -1547.320 3        22.724    39049065.269 5 157234423.63805     -1196.900 5        34.781
C21        47.000                                                                                                                                    25839758.881 6 134554435.22106      2008.947 6        36.242                                                                    25839757.293 5 109336440.56705      1632.604 5        35.090
C44        48.000                                                                                                                                    25333416.397 6 131917771.12406     -3166.013 6        36.223                                                                    25333407.633 5 107193965.22205     -2572.733 5        32.545
C22        50.000                                                                                                                                    21847229.769 8 113764223.72108       381.684 8        51.209                                                                    21847222.882 8  92442741.79008       310.157 8        48.177
C12        56.000                                                                                                                                    25089271.035 4 130646496.34304     -2153.628 4        26.108                                                                    25089268.846 4 106160992.13904     -1749.855 4        29.062
I06        60.000    37936643.341 6 148871542.31406      -602.073 6        36.764
> 2025 01 01 05 00  5.0000000  0 40
G16         1.000    23510637.676 5                     -1309.094 5        31.283
G30         3.000    22536420.190 4 118429685.50414      2225.412 4        29.156                                                                                                    22536420.304 4  92282879.00404      1734.003 4        29.981
G07         5.000    20943758.443 8 110060218.12508       214.770 8        50.498                                    20943753.095 7  85761211.59207       167.349 7        46.133    20943752.989 7  85761183.58707       167.353 7        42.614
E34         6.000    24677054.685 7 129679010.46507     -2602.639 7        45.144                                                                    24677054.172 6  96838116.44906     -1943.683 6        41.473    24677055.316 7  99364283.38007     -1994.346 7        45.889
G05         7.000    25146663.373 4 132146690.78204      2862.699 4        27.569                                    25146669.470 1 102971379.38401      2230.732 1        11.259
G09         9.000    20474736.625 8 107595463.01608     -2295.767 8        49.820                                    20474733.091 7  83840630.85307     -1788.910 7        47.077    20474734.475 6  83840621.84006     -1788.879 6        41.661
G20        10.000    22165538.288 7 116480661.18707      1937.409 7        46.098                                    22165533.164 5  90764191.29705      1509.671 5        31.170
G04        11.000    22311916.095 7 117250129.32207     -3495.629 7        44.126                                    22311913.558 4  91363574.30504     -2723.861 4        27.413    22311912.647 6  91363542.30706     -2723.835 6        41.359
E09        12.000    25458326.147 6 133784354.79906     -2840.141 6        40.017                                                                    25458323.619 7  99903996.24607     -2120.992 7        45.058    25458323.604 7 102510164.50907     -2176.323 7        46.844
E31        13.000    26361304.500 5                        -0.459 5        31.117                                                                    26361313.042 5 103447455.58305        -0.057 5        30.226    26361320.064 4 106146051.57304        -0.331 4        29.772
E06        14.000                                                                                                                                    27294524.491 3                     -2445.901 3        21.762
E24        15.000                                                                                                                                    27264080.071 4                      1425.854 4        29.393    27264063.824 5 109781113.16305      1463.157 5        33.395
E15        16.000    25587707.957 7 134464298.57107       252.891 7        44.495                                                                    25587706.631 7 100411702.13407       188.788 7        45.664    25587707.972 7 103031154.43907       193.728 7        47.462
G06        19.000    22244365.354 6 116894933.63206     -3399.118 6        37.353                                    22244365.938 4  91086987.55904     -2648.667 4        28.190    22244367.580 6  91086989.57506     -2648.727 6        38.799
E36        20.000    27291532.262 4                     -4128.601 4        26.072                                                                    27291531.455 3                     -3083.737 3        23.810
E05        21.000    21791300.217 7 114514058.04407      -685.347 7        46.082                                                                    21791299.976 8  85513799.02508      -511.898 8        52.167    21791299.497 8  87744580.99108      -525.192 8        52.322
R07        23.000    19541604.628 8 104607829.04508     -1449.682 8        50.029                                                                    19541602.941 7  81361570.57007     -1127.564 7        46.624
S23        24.000    38120720.695 6 200325659.37106      -826.358 6        40.756
S36        25.000    38181644.030 5 200645965.78505      -830.429 5        33.329
G11        26.000    22086630.005 6 116066017.50806     -1002.509 6        39.096                                    22086622.567 2  90441051.76902      -781.174 2        17.434    22086626.270 5  90441037.80905      -781.469 5        30.928
E03        27.000    25802569.448 6 135593424.80506      1281.078 6        38.384                                                                    25802571.321 7 101254858.10907       956.718 7        43.805    25802570.308 7 103896326.04607       981.698 7        44.423
R06        29.000    22187622.708 5                     -3815.639 5        30.045
R10        30.000    22129974.723 6 117965225.36306      3395.203 6        37.353
R24        31.000    22824983.016 6 122055648.50416      1160.992 6        41.921                                                                    22824984.893 5  94932015.21305       902.917 5        32.557
R09        32.000    20176315.626 7 107740384.81107       711.982 7        47.617                                                                    20176312.474 6  83798066.87706       553.786 6        41.311
C19        33.000                                                                                                                                    22733184.105 5 118377638.05005     -2417.642 5        34.038                                                                    22733180.323 6  96191511.75506     -1964.477 6        38.904
R08        35.000    20699020.981 8 110842343.73508      1483.496 8        51.717                                                                    20699014.279 7  86210696.48107      1153.892 7        42.643
C05        36.000                                                                                                                                                                                                    39176501.927 5 157747549.63205      -677.874 5        32.701
R22        37.000                                                                                                                                    23071544.918 4                     -3871.617 4        28.142
R16        39.000    21780968.600 5 116349958.58505     -3408.712 5        33.557                                                                    21780960.775 5  90494101.46705     -2651.392 5        35.429
C06        41.000                                                                                                                                                                                                    39614712.675 4                     -1447.848 4        28.218
C36        42.000                                                                                                                                    23092971.707 7 120251153.04707      1633.342 7        44.420                                                                    23092978.373 6  97713959.70106      1327.016 6        38.057
R23        44.000    21449377.504 6 114739723.06806     -2891.382 6        41.449
C16        45.000                                                                                                                                    40195243.996 3                     -1862.236 3        23.962    40195287.408 4                     -1439.316 4        26.862
C09        46.000                                                                                                                                    39050551.381 3                     -1549.459 3        21.762    39050551.902 5 157240409.17905     -1197.156 5        34.833
C21        47.000                                                                                                                                    25837831.335 6 134544392.34006      2008.330 6        37.675                                                                    25837830.007 5 109328279.91605      1631.891 5        35.414
C44        48.000                                                                                                                                    25336456.310 6 131933605.69006     -3167.704 6        36.994                                                                    25336447.681 5 107206832.07305     -2574.051 5        32.377
C22        50.000                                                                                                                                    21846864.589 8 113762320.36508       379.873 8        50.760                                                                    21846857.320 8  92441195.14708       308.627 8        48.106
C12        56.000                                                                                                                                    25091339.554 4 130657273.19004     -2156.845 4        25.414    25091381.209 5                     -1667.703 5        32.509    25091336.677 4 106169749.18104     -1752.201 4        27.844
I06        60.000    37937410.766 6 148874553.08706      -602.218 6        36.461
> 2025 01 01 05 00 10.0000000  0 38
G30         3.000                                                                                                                                                                    22534307.641 5  92274212.56605      1732.619 5        31.857
G07         5.000    20943555.022 8 110059150.62208       212.080 8        50.097                                    20943549.797 7  85760379.79007       165.253 7        45.914    20943549.948 7  85760351.78207       165.258 7        42.557
E34         6.000    24679532.134 7 129692029.37507     -2604.990 7        45.153                                                                    24679531.632 6  96847838.34706     -1945.161 6        41.480    24679532.561 7  99374258.90207     -1996.042 7        45.699
G09         9.000    20476921.873 8 107606945.96208     -2297.629 8        48.774                                    20476918.114 7  83849578.59707     -1790.356 7        46.281    20476918.969 6  83849569.59106     -1790.467 6        41.821
G20        10.000    22163695.698 7 116470978.19907      1935.546 7        46.077                                    22163690.632 5  90756646.10605      1508.217 5        30.868
G04        11.000    22315242.311 7 117267609.59107     -3496.660 7        43.774                                    22315239.886 4  91377195.29104     -2724.670 4        27.138    22315238.942 6  91377163.28806     -2724.578 6        41.244
E09        12.000    25461029.708 6 133798557.67006     -2840.970 6        40.543                                                                    25461026.398 7  99914602.27507     -2121.536 7        45.124    25461026.237 7 102521047.21807     -2176.888 7        46.667
E31        13.000    26361305.877 5                        -2.898 5        32.832                                                                    26361314.205 5 103447461.68505        -1.601 5        30.400    26361322.769 4 106146057.93904        -2.176 4        29.156
E06        14.000                                                                                                                                    27297643.077 3                     -2447.768 3        22.590
E24        15.000                                                                                                                                    27262265.111 4                      1425.162 4        28.303    27262247.573 5 109773799.33905      1462.705 5        33.790
E15        16.000    25587468.619 7 134463040.17107       250.390 7        44.935                                                                    25587467.102 7 100410762.41107       187.044 7        45.514    25587468.452 7 103030190.20607       191.846 7        47.567
G06        19.000    22247601.158 6 116911935.21306     -3401.499 6        36.159                                    22247601.694 4  91100235.54804     -2650.522 4        27.186    22247603.155 6  91100237.54906     -2650.589 6        39.255
E36        20.000    27295460.865 4                     -4129.255 4        28.066                                                                    27295461.077 3                     -3083.923 3        23.029
E05        21.000    21791952.963 7 114517488.08607      -686.765 7        46.565                                                                    21791952.621 8  85516360.40808      -512.855 8        51.969    21791952.263 8  87747209.19808      -526.173 8        52.324
R07        23.000    19542958.766 8 104615082.88808     -1451.902 8        48.956                                                                    19542957.569 7  81367212.45507     -1129.302 7        46.874
S23        24.000    38121508.232 6 200329790.85206      -826.397 6        40.572
S36        25.000    38182433.419 5 200650116.89505      -830.353 5        33.311
G11        26.000    22087586.720 6 116071039.17906     -1006.098 6        40.043                                    22087577.894 3  90444964.76303      -783.971 3        18.090    22087583.434 5  90444950.72405      -783.866 5        32.958
E03        27.000    25801351.503 6 135587020.73006      1280.323 6        38.021                                                                    25801352.543 7 101250075.84107       956.196 7        44.051    25801351.632 7 103891419.02407       981.092 7        44.433
R06        29.000    22191196.778 4                     -3817.023 4        27.976
R10        30.000    22126790.618 6 117948253.19706      3393.373 6        37.750
R24        31.000    22823906.896 6 122049853.50706      1156.972 6        41.569                                                                    22823901.155 5  94927507.96705       899.984 5        33.557
R09        32.000    20175650.954 8 107736835.59108       707.604 8        48.275                                                                    20175648.516 7  83795306.37907       550.344 7        43.027
C19        33.000                                                                                                                                    22735508.280 6 118389729.44906     -2418.980 6        36.215                                                                    22735502.643 6  96201337.03106     -1965.747 6        38.676
R08        35.000    20697635.857 8 110834929.43908      1482.026 8        50.874                                                                    20697629.393 6  86204929.81806      1152.675 6        41.199
C05        36.000                                                                                                                                                                                                    39177343.093 5 157750937.09605      -677.311 5        32.431
R22        37.000    23076268.568 5                     -4979.645 5        32.958                                                                    23076211.902 4                     -3872.429 4        29.602
R16        39.000                                                                                                                                    21784156.864 5  90507365.14705     -2654.227 5        34.733
C06        41.000                                                                                                                                                                                                    39616511.045 4                     -1448.000 4        28.123
C36        42.000                                                                                                                                    23091403.960 7 120242991.05807      1631.308 7        44.310                                                                    23091410.511 6  97707327.38706      1325.690 6        37.180
R23        44.000    21452083.510 7 114754189.84107     -2895.440 7        42.965
C16        45.000                                                                                                                                    40197035.194 3                     -1862.197 3        23.771    40197081.629 4                     -1440.078 4        26.766
C09        46.000                                                                                                                                    39052036.081 3                     -1550.453 3        20.619    39052039.132 5 157246396.11505     -1197.363 5        35.200
C21        47.000                                                                                                                                    25835903.833 6 134534350.86406      2008.093 6        39.120                                                                    25835903.784 5 109320120.38405      1631.663 5        35.219
C44        48.000                                                                                                                                    25339497.924 6 131949447.70606     -3169.348 6        38.315                                                                    25339489.730 5 107219705.03105     -2575.217 5        31.909
C22        50.000                                                                                                                                    21846500.796 8 113760424.72608       378.264 8        50.670                                                                    21846493.353 8  92439654.76308       307.366 8        48.085
C12        56.000                                                                                                                                    25093414.979 4 130668062.82404     -2159.798 4        27.257    25093453.068 5                     -1669.634 5        32.102    25093408.482 4 106178516.63004     -1754.660 4        27.353
I06        60.000    37938177.919 6 148877564.63406      -602.504 6        36.979
> 2025 01 01 05 00 15.0000000  0 38
G16         1.000    23513150.996 4                     -1316.038 4        29.242
G30         3.000                                                                                                                                                                    22532197.825 5  92265551.40305      1731.440 5        33.186
G07         5.000    20943354.324 8 110058094.96208       209.570 8        49.689                                    20943348.735 7  85759557.21607       163.299 7        45.589    20943349.000 7  85759529.20607       163.253 7        42.322
E34         6.000    24682011.648 7 129705058.23507     -2607.172 7        45.398                                                                    24682011.070 6  96857567.70606     -1946.975 6        41.509    24682011.738 7  99384242.04207     -1997.652 7        45.786
G05         7.000    25141218.077 4 132118063.16304      2862.485 4        28.227                                    25141221.657 1 102949072.03501      2230.489 1        10.074
G09         9.000    20479108.554 7 107618436.84207     -2299.382 7        47.977                                    20479104.652 7  83858532.51807     -1791.723 7        45.541    20479105.410 6  83858523.50406     -1791.779 6        41.650
G20        10.000    22161854.445 7 116461302.66407      1933.975 7        46.340                                    22161849.584 5  90749106.71905      1506.991 5        30.747
G04        11.000    22318568.924 7 117285093.58207     -3497.476 7        43.228                                    22318566.769 4  91390819.16304     -2725.307 4        26.910    22318566.240 6  91390787.17506     -2725.454 6        40.913
E09        12.000    25463734.802 6 133812762.36706     -2841.421 6        40.744                                                                    25463729.704 7  99925209.67207     -2121.843 7        45.180    25463729.115 7 102531931.33307     -2177.289 7        46.659
E31        13.000    26361307.026 5                        -4.982 5        32.778                                                                    26361314.250 5 103447475.97205        -3.969 5        30.913    26361328.690 4 106146072.55604        -3.771 4        27.030
E06        14.000                                                                                                                                    27300762.946 3                     -2448.527 3        22.476
E24        15.000                                                                                                                                    27260448.684 4                      1425.120 4        27.689    27260431.772 5 109766487.87805      1461.803 5        33.910
E15        16.000    25587231.049 7 134461792.85107       247.999 7        45.142                                                                    25587229.711 7 100409830.96507       185.187 7        45.303    25587230.962 7 103029234.45707       189.948 7        47.652
G06        19.000    22250839.503 5 116928947.53505     -3404.033 5        34.581                                    22250839.667 4  91113491.91404     -2652.496 4        26.551    22250841.061 6  91113493.87106     -2652.283 6        38.784
E36        20.000    27299390.656 4                     -4129.400 4        27.653                                                                    27299391.669 3                     -3084.351 3        23.200
E05        21.000    21792606.870 7 114520923.13807      -687.863 7        47.015                                                                    21792606.162 8  85518925.54608      -513.718 8        51.728    21792605.955 8  87749841.25408      -527.117 8        52.470
R07        23.000    19544316.270 8 104622346.48908     -1454.068 8        48.746                                                                    19544314.393 7  81372861.91907     -1130.967 7        46.227
S23        24.000    38122291.911 6 200333921.81506      -826.506 6        40.739
S36        25.000    38183226.681 5 200654267.40105      -830.470 5        33.521
G11        26.000    22088546.888 7 116076077.15207     -1009.584 7        42.155                                    22088536.641 3  90448890.43503      -786.681 3        19.343    22088541.823 5  90448876.40205      -786.686 5        33.186
E03        27.000    25800133.785 6 135580619.16206      1279.479 6        36.688                                                                    25800134.354 7 101245295.43507       955.514 7        44.266    25800133.676 7 103886513.90407       980.509 7        44.668
R10        30.000    22123607.056 6 117931288.11606      3392.077 6        37.115
R24        31.000    22822830.438 7 122044077.23707      1153.092 7        42.645                                                                    22822822.005 5  94923015.28005       896.795 5        34.790
R09        32.000    20174990.287 8 107733306.69908       703.314 8        49.369                                                                    20174988.782 7  83792561.69107       547.045 7        44.626
C19        33.000                                                                                                                                    22737831.878 6 118401827.17006     -2420.371 6        37.323                                                                    22737825.911 6  96211167.41106     -1966.856 6        38.886
R08        35.000    20696251.927 8 110827520.60108      1480.872 8        50.275                                                                    20696246.610 6  86199167.39906      1151.676 6        40.851
C05        36.000                                                                                                                                                                                                    39178184.303 5 157754324.06405      -677.657 5        32.784
R22        37.000                                                                                                                                    23080882.350 4                     -3873.411 4        29.621
C06        41.000                                                                                                                                                                                                    39618310.448 4                     -1448.201 4        27.784
C36        42.000                                                                                                                                    23089837.660 7 120234837.85207      1629.401 7        44.504                                                                    23089844.097 6  97700702.24006      1324.159 6        36.083
R23        44.000    21454794.841 7 114768675.72907     -2899.436 7        43.384
C16        45.000                                                                                                                                    40198822.761 4                     -1861.872 4        24.180    40198877.634 4                     -1440.026 4        26.802
C09        46.000                                                                                                                                                                                                    39053526.477 5 157252383.32405     -1197.877 5        35.514
C21        47.000                                                                                                                                    25833974.418 6 134524309.32406      2007.903 6        40.031                                                                    25833977.545 5 109311960.83105      1631.537 5        35.314
C44        48.000                                                                                                                                    25342541.795 6 131965295.70106     -3170.462 6        39.297                                                                    25342533.281 5 107232582.80805     -2575.902 5        31.721
C22        50.000                                                                                                                                    21846137.934 8 113758535.32308       376.849 8        50.625                                                                    21846130.552 8  92438119.48808       306.311 8        48.124
C12        56.000                                                                                                                                    25095493.612 4 130678863.72704     -2161.736 4        29.896                                                                    25095483.304 4 106187293.35104     -1756.510 4        27.377
I06        60.000    37938944.692 6 148880575.81006      -602.423 6        36.786
> 2025 01 01 05 00 20.0000000  0 39
G16         1.000    23514400.144 4                     -1320.041 4        29.005
G30         3.000    22530068.208 5 118396341.53505      2220.766 5        35.248                                    22530081.364 3  92256915.41013      1730.468 3        19.403    22530086.819 5  92256896.43405      1730.339 5        33.898
G07         5.000    20943155.780 8 110057052.21208       207.374 8        48.820                                    20943150.182 7  85758744.69607       161.588 7        45.106    20943150.649 7  85758716.68207       161.591 7        42.159
E34         6.000    24684493.290 7 129718098.11807     -2608.967 7        45.809                                                                    24684492.718 6  96867305.25906     -1948.183 6        41.623    24684492.859 7  99394233.64007     -1999.114 7        45.430
G05         7.000    25138496.352 4 132103750.35004      2862.263 4        29.071                                    25138498.067 1 102937919.24401      2230.279 1         7.875
G09         9.000    20481296.888 7 107629936.70207     -2300.827 7        47.216                                    20481292.904 7  83867493.43707     -1792.848 7        44.944    20481293.393 6  83867484.42206     -1792.788 6        41.447
G20        10.000    22160014.725 7 116451635.66307      1932.676 7        46.632                                    22160010.124 5  90741573.99305      1505.984 5        30.687
G04        11.000    22321897.624 7 117302582.35307     -3498.079 7        42.732                                    22321894.644 4  91404446.76804     -2725.780 4        26.491    22321893.892 6  91404414.75706     -2725.750 6        40.839
E09        12.000    25466439.083 6 133826970.00306     -2841.799 6        40.222                                                                    25466433.407 7  99935819.25407     -2122.037 7        44.965    25466432.627 7 102542817.68207     -2177.358 7        46.537
E31        13.000    26361311.547 5                        -7.416 5        32.497                                                                    26361319.428 5 103447499.10105        -5.554 5        31.042    26361338.004 4 106146096.37104        -6.228 4        25.233
E06        14.000                                                                                                                                    27303880.977 3                     -2447.632 3        21.762
E24        15.000    27258619.626 4 143245034.67914      1907.418 4        29.725                                                                    27258633.581 4                      1423.929 4        26.587    27258616.406 5 109759179.58305      1461.243 5        33.760
E15        16.000    25586996.039 7 134460557.73507       245.970 7        45.822                                                                    25586994.685 7 100408908.63607       183.651 7        45.020    25586995.798 7 103028288.06407       188.433 7        47.686
G06        19.000    22254080.562 5 116945971.61305     -3405.727 5        32.653                                    22254079.903 4  91126757.40804     -2653.807 4        26.503    22254080.450 6  91126759.40106     -2654.150 6        38.480
E36        20.000    27303320.640 4                     -4129.873 4        28.095                                                                    27303321.246 3                     -3084.710 3        23.486
E05        21.000    21793261.962 7 114524364.29107      -688.736 7        47.358                                                                    21793260.883 8  85521495.23408      -514.314 8        51.298    21793260.845 8  87752477.97608      -527.737 8        52.461
R07        23.000    19545675.436 8 104629620.82008     -1455.781 8        48.915                                                                    19545673.363 7  81378519.72807     -1132.263 7        45.964
S23        24.000    38123079.722 6 200338053.21506      -826.097 6        40.777
S36        25.000    38184017.706 5 200658418.53905      -829.967 5        33.150
G11        26.000    22089509.361 7 116081132.50507     -1012.724 7        43.687                                    22089498.947 3  90452829.64803      -789.143 3        20.381    22089505.408 5  90452815.64505      -789.249 5        33.599
E03        27.000    25798916.070 5 135574221.11905      1279.249 5        34.805                                                                    25798916.884 7 101240517.66707       955.348 7        44.072    25798916.469 7 103881611.50507       980.321 7        44.688
R06        29.000    22198340.320 3                     -3817.498 3        22.705
R10        30.000    22120424.797 6 117914331.31306      3390.552 6        36.594
R24        31.000    22821754.904 7 122038320.59607      1149.470 7        42.074                                                                    22821746.410 5  94918537.90305       893.979 5        35.410
R09        32.000    20174333.650 8 107729799.29408       699.461 8        50.313                                                                    20174332.126 7  83789833.73007       544.008 7        44.834
C19        33.000                                                                                                                                    22740157.376 6 118413932.23906     -2421.582 6        37.459                                                                    22740150.925 6  96221003.71506     -1967.777 6        39.234
R08        35.000    20694870.345 8 110820118.33508      1479.923 8        50.116                                                                    20694864.654 6  86193410.06706      1151.071 6        41.371
C05        36.000                                                                                                                                                                                                    39179026.574 5 157757711.31805      -677.271 5        32.419
R16        39.000    21790641.907 5 116401171.97105     -3419.634 5        34.529                                                                    21790573.026 4  90533933.64504     -2659.877 4        27.964
C06        41.000                                                                                                                                                                                                    39620107.790 4                     -1448.085 4        28.483
C36        42.000                                                                                                                                    23088273.566 7 120226694.47607      1627.848 7        44.581                                                                    23088279.737 5  97694085.05305      1322.727 5        34.719
R23        44.000    21457507.380 7 114783181.58607     -2903.072 7        42.538
C16        45.000                                                                                                                                    40200608.534 4                     -1861.861 4        25.985    40200675.401 4                     -1440.087 4        26.683
C09        46.000                                                                                                                                                                                                    39055013.396 5 157258371.62605     -1197.794 5        35.790
C21        47.000                                                                                                                                    25832044.901 6 134514268.82706      2008.056 6        39.438                                                                    25832051.776 5 109303802.04005      1631.654 5        34.900
C44        48.000                                                                                                                                    25345587.062 6 131981150.76906     -3171.434 6        39.724                                                                    25345578.445 5 107245466.34205     -2577.393 5        31.962
C22        50.000                                                                                                                                    21845776.198 8 113756653.22808       375.723 8        50.480                                                                    21845769.204 8  92436590.10608       305.362 8        48.218
C12        56.000                                                                                                                                    25097573.013 5 130689677.12605     -2164.402 5        30.513                                                                    25097561.241 4 106196080.01904     -1758.521 4        28.521
I06        60.000    37939712.434 6 148883587.43106      -602.374 6        37.009
> 2025 01 01 05 00 25.0000000  0 38
G16         1.000    23515651.291 4                     -1323.254 4        29.678
G30         3.000    22527963.789 6 118385241.26006      2219.402 6        37.248                                    22527969.828 3  92248265.83703      1729.405 3        21.000    22527976.677 5  92248246.85305      1729.429 5        34.290
G07         5.000    20942959.560 8 110056021.37308       205.069 8        48.541                                    20942953.945 7  85757941.45707       159.791 7        44.453    20942955.071 7  85757913.44407       159.706 7        42.637
E34         6.000    24686976.633 7 129731148.03907     -2610.979 7        45.926                                                                    24686976.211 6  96877050.32606     -1949.681 6        41.995    24686976.021 7  99404232.92807     -2000.643 7        45.412
G05         7.000    25135771.107 4 132089437.63904      2862.755 4        28.493                                    25135774.469 1 102926766.41401      2230.865 1         5.286
G09         9.000    20483487.224 7 107641444.58607     -2302.334 7        47.314                                    20483482.671 7  83876460.60707     -1794.025 7        44.606    20483483.267 6  83876451.60406     -1793.988 6        41.108
G20        10.000    22158176.837 7 116441976.27207      1931.138 7        46.915                                    22158172.073 5  90734047.19305      1504.781 5        30.445
G04        11.000    22325227.226 7 117320074.93307     -3498.874 7        42.808                                    22325223.275 4  91418077.35404     -2726.398 4        26.515    22325222.898 6  91418045.35006     -2726.373 6        40.930
E09        12.000    25469141.669 6 133841179.56506     -2842.106 6        39.901                                                                    25469137.433 7  99946430.28807     -2122.344 7        44.983    25469136.568 7 102553705.53707     -2177.674 7        46.513
E31        13.000    26361317.602 5                        -9.467 5        31.781                                                                    26361329.377 5 103447530.43205        -7.223 5        31.562
E06        14.000                                                                                                                                    27306998.941 3                     -2446.834 3        22.495
E24        15.000    27256806.485 5 143235499.90705      1906.563 5        30.060                                                                    27256819.117 4                      1424.045 4        26.611    27256801.050 5 109751873.74905      1460.761 5        33.527
E15        16.000    25586762.839 7 134459333.83807       243.687 7        46.264                                                                    25586761.780 7 100407994.68307       181.961 7        45.184    25586762.745 7 103027350.27407       186.663 7        47.730
G06        19.000    22257321.706 5 116963006.51405     -3408.221 5        32.144                                    22257321.968 4  91140031.35004     -2655.764 4        26.766    22257321.691 6  91140033.33606     -2655.519 6        37.543
E36        20.000    27307249.716 4                     -4129.825 4        27.509                                                                    27307252.017 3                     -3084.321 3        23.086
E05        21.000    21793917.859 8 114527810.57808      -689.760 8        48.008                                                                    21793916.647 8  85524068.76008      -515.105 8        51.280    21793916.681 8  87755118.63908      -528.506 8        52.647
R07        23.000    19547035.353 8 104636904.96908     -1457.867 8        49.274                                                                    19547033.882 7  81384185.17907     -1133.949 7        45.165
S23        24.000    38123866.334 6 200342183.72306      -825.962 6        40.908
S36        25.000    38184804.023 5 200662569.35505      -830.117 5        33.754
G11        26.000    22090473.751 7 116086204.25607     -1015.940 7        43.556                                    22090464.545 3  90456781.65403      -791.640 3        21.167    22090469.924 5  90456767.65105      -791.592 5        34.395
E03        27.000    25797698.467 5 135567825.68005      1278.805 5        33.347                                                                    25797699.806 7 101235741.83407       954.978 7        44.242    25797699.560 7 103876711.08807       979.876 7        44.787
R06        29.000    22201925.363 3                     -3819.590 3        23.124
R10        30.000    22117245.607 5 117897381.79205      3389.186 5        35.267
R24        31.000    22820681.044 6 122032582.69906      1145.699 6        41.895                                                                    22820672.720 5  94914075.12305       890.975 5        33.946
R09        32.000    20173680.762 8 107726312.38708       695.322 8        50.040                                                                    20173679.222 7  83787121.69207       540.829 7        44.156
C19        33.000                                                                                                                                    22742484.024 6 118426043.64406     -2422.953 6        38.997                                                                    22742477.135 6  96230845.20906     -1968.599 6        39.592
R08        35.000    20693490.982 8 110812721.66408      1478.822 8        48.692                                                                    20693483.981 6  86187657.11406      1150.120 6        41.959
C05        36.000                                                                                                                                                                                                    39179867.256 5 157761098.15905      -677.281 5        32.222
C06        41.000                                                                                                                                                                                                    39621905.763 4                     -1448.324 4        28.559
C36        42.000                                                                                                                                    23086711.701 7 120218560.01807      1625.986 7        44.722                                                                    23086717.094 5  97687475.09705      1321.259 5        32.665
R23        44.000    21460220.894 6 114797706.64306     -2906.934 6        40.584
C16        45.000                                                                                                                                    40202397.385 4                     -1861.633 4        26.599    40202466.585 4                     -1440.024 4        26.599
C09        46.000                                                                                                                                                                                                    39056500.851 6 157264360.29606     -1197.874 6        36.083
C21        47.000                                                                                                                                    25830115.596 6 134504228.40206      2008.110 6        38.174                                                                    25830124.507 5 109295643.35605      1631.629 5        34.648
C44        48.000                                                                                                                                    25348632.322 6 131997011.93306     -3172.727 6        38.850                                                                    25348624.756 5 107258354.82505     -2578.135 5        32.335
C22        50.000                                                                                                                                    21845415.611 8 113754777.50408       374.549 8        50.089                                                                    21845409.104 8  92435065.93808       304.454 8        48.234
C12        56.000                                                                                                                                    25099649.986 5 130700501.85105     -2165.979 5        30.641    25099652.651 4                     -1675.126 4        28.171    25099645.642 4 106204875.98504     -1760.290 4        29.517
I06        60.000    37940479.906 6 148886598.75006      -602.094 6        37.062
> 2025 01 01 05 00 30.0000000  0 38
G16         1.000    23516919.970 4                     -1326.643 4        29.090
G30         3.000    22525857.786 6 118374148.55106      2217.907 6        38.297                                    22525860.202 3  92239622.13303      1728.237 3        21.548    22525870.917 5  92239603.15705      1728.096 5        33.874
G07         5.000    20942765.724 8 110055003.12708       202.429 8        48.281                                    20942760.180 7  85757148.02807       157.738 7        43.772    20942761.041 7  85757120.00507       157.781 7        43.060
E34         6.000    24689462.054 7 129744208.65407     -2613.218 7        45.368                                                                    24689461.755 7  96886803.38507     -1951.366 7        42.186    24689461.151 7  99414240.41307     -2002.285 7        45.226
G09         9.000    20485678.821 8 107652961.15408     -2304.181 8        48.374                                    20485674.052 7  83885434.54307     -1795.465 7        44.646    20485675.389 6  83885425.54906     -1795.526 6        41.035
G20        10.000    22156340.046 7 116432325.12907      1929.408 7        46.892                                    22156335.600 5  90726526.82705      1503.436 5        30.294
G04        11.000    22328557.466 7 117337571.97107     -3499.729 7        43.318                                    22328552.796 4  91431711.40704     -2727.060 4        26.790    22328552.788 6  91431679.41006     -2727.071 6        41.144
