     3.04           OBSERVATION DATA    M                   RINEX VERSION / TYPE
ssrcrin-15.6.1x                         20250101 091500 UTC PGM / RUN BY / DATE 
(00000000023479385599111004) Septentrio proprietary         COMMENT             
ract                                                        MARKER NAME         
01                                                          MARKER NUMBER       
geodetic                                                    MARKER TYPE         
NFB                 CLIMERS@TUW                             OBSERVER / AGENCY   
3296359             SEPT ASTERX SB3 PROB4.14.4              REC # / TYPE / VERS 
Unknown             Unknown                                 ANT # / TYPE        
  4127445.8220  1206915.4692  4695542.1720                  APPROX POSITION XYZ 
        0.0000        0.0000        0.0000                  ANTENNA: DELTA H/E/N
G   23 X1  C1C L1C D1C S1C C1W S1W C2W L2W D2W S2W C2L L2L  SYS / # / OBS TYPES 
       D2L S2L C5Q L5Q D5Q S5Q C1L L1L D1L S1L              SYS / # / OBS TYPES 
E   21 X1  C1C L1C D1C S1C C6C L6C D6C S6C C5Q L5Q D5Q S5Q  SYS / # / OBS TYPES 
       C7Q L7Q D7Q S7Q C8Q L8Q D8Q S8Q                      SYS / # / OBS TYPES 
S    9 X1  C1C L1C D1C S1C C5I L5I D5I S5I                  SYS / # / OBS TYPES 
R   17 X1  C1C L1C D1C S1C C2P L2P D2P S2P C2C L2C D2C S2C  SYS / # / OBS TYPES 
       C3Q L3Q D3Q S3Q                                      SYS / # / OBS TYPES 
C   25 X1  C1P L1P D1P S1P C5P L5P D5P S5P C2I L2I D2I S2I  SYS / # / OBS TYPES 
       C7I L7I D7I S7I C6I L6I D6I S6I C7D L7D D7D S7D      SYS / # / OBS TYPES 
J   17 X1  C1C L1C D1C S1C C2L L2L D2L S2L C5Q L5Q D5Q S5Q  SYS / # / OBS TYPES 
       C1L L1L D1L S1L                                      SYS / # / OBS TYPES 
I    5 X1  C5A L5A D5A S5A                                  SYS / # / OBS TYPES 
SEPTENTRIO RECEIVERS OUTPUT ALIGNED CARRIER PHASES.         COMMENT             
NO FURTHER PHASE SHIFT APPLIED IN THE RINEX ENCODER.        COMMENT             
G L1C                                                       SYS / PHASE SHIFT   
G L2W                                                       SYS / PHASE SHIFT   
G L2L  0.00000                                              SYS / PHASE SHIFT   
G L5Q  0.00000                                              SYS / PHASE SHIFT   
G L1L  0.00000                                              SYS / PHASE SHIFT   
E L1C  0.00000                                              SYS / PHASE SHIFT   
E L6C  0.00000                                              SYS / PHASE SHIFT   
E L5Q  0.00000                                              SYS / PHASE SHIFT   
E L7Q  0.00000                                              SYS / PHASE SHIFT   
E L8Q  0.00000                                              SYS / PHASE SHIFT   
S L1C                                                       SYS / PHASE SHIFT   
S L5I                                                       SYS / PHASE SHIFT   
R L1C                                                       SYS / PHASE SHIFT   
R L2P  0.00000                                              SYS / PHASE SHIFT   
R L2C                                                       SYS / PHASE SHIFT   
R L3Q  0.00000                                              SYS / PHASE SHIFT   
C L1P  0.00000                                              SYS / PHASE SHIFT   
C L5P  0.00000                                              SYS / PHASE SHIFT   
C L2I                                                       SYS / PHASE SHIFT   
C L7I                                                       SYS / PHASE SHIFT   
C L6I                                                       SYS / PHASE SHIFT   
C L7D                                                       SYS / PHASE SHIFT   
J L1C                                                       SYS / PHASE SHIFT   
J L2L  0.00000                                              SYS / PHASE SHIFT   
J L5Q  0.00000                                              SYS / PHASE SHIFT   
J L1L  0.00000                                              SYS / PHASE SHIFT   
I L5A                                                       SYS / PHASE SHIFT   
  2025     1     1     9    15    0.0000000     GPS         TIME OF FIRST OBS   
 C1C    0.000 C2C    0.000 C2P    0.000                     GLONASS COD/PHS/BIS 
DBHZ                                                        SIGNAL STRENGTH UNIT
    18                                                      LEAP SECONDS        
 24 R01  1 R02 -4 R03  5 R04  6 R05  1 R06 -4 R07  5 R08  6 GLONASS SLOT / FRQ #
    R09 -2 R10 -7 R11  0 R12 -1 R13 -2 R14 -7 R15  0 R16 -1 GLONASS SLOT / FRQ #
    R17  4 R18 -3 R19  3 R20  2 R21  4 R22 -3 R23  3 R24  2 GLONASS SLOT / FRQ #
                                                            END OF HEADER       
> 2025 01 01 09 15  0.0000000  0 31
G17         1.000    23054557.689 5 121152645.31005      1583.463 5        34.352                                    23054572.524 1  94404563.87201      1233.813 1         7.250
G13         2.000    19866438.074 5 104398828.91605     -1455.246 5        35.614                                    19866440.983 2  81349755.11502     -1133.952 2        17.434
G30         3.000    22787368.934 6 119748436.09406     -3463.323 6        40.741                                    22787380.559 2  93310456.00302     -2698.683 2        16.226
G14         4.000    20743175.281 7 109006098.37607     -2090.590 7        47.766                                    20743176.514 5  84939813.99605     -1629.027 5        33.802    20743176.398 7  84939818.98607     -1629.150 7        43.386
G15         6.000    20401186.266 6 107208971.83006       531.410 6        39.985                                    20401252.379 2  83539776.72702       414.075 2        16.566    20401184.571 6  83539451.66106       414.016 6        38.462
G05         7.000    23363558.541 5 122776308.29105     -4217.947 5        32.970                                    23363577.216 2  95669907.47502     -3286.691 2        17.019    23363568.196 5                     -3286.679 5        31.404
G23        10.000    23597249.362 6 124004417.72506      1114.347 6        36.983                                    23597251.645 2  96626830.23102       868.334 2        14.143    23597250.520 6  96626784.24706       868.445 6        39.441
E02        13.000    24217670.230 6 127264738.59706      1247.463 6        39.135                                                                    24217674.320 7  95035447.57407       931.650 7        45.655    24217674.832 7  97514638.49107       955.948 7        47.652
E25        14.000    23707360.440 7 124583004.02607     -1571.403 7        46.105                                                                    23707366.578 6  93032884.94106     -1173.474 6        40.300    23707365.567 7  95459751.15907     -1204.108 7        44.855
E24        15.000    27539137.645 3                     -3582.052 3        21.190                                                                    27539138.304 3                     -2675.018 3        19.910    27539176.744 3                     -2744.068 3        23.371
G24        16.000    23196204.033 5                      2420.249 5        32.024                                                                                                    23196144.649 5  94984385.74005      1885.727 5        33.922
E08        17.000    24007054.183 7 126157914.87807       568.526 7        42.457                                                                    24007058.659 7  94208849.13307       424.488 7        43.634    24007061.071 4                       435.619 4        29.393
E07        18.000    28013265.437 5 147210727.38805      1986.395 5        35.662                                                                    28013274.927 6 109930075.93006      1483.279 6        40.338    28013299.271 4 112797853.71904      1521.902 4        28.853
E26        20.000                                                                                                                                    28507338.701 5 111868909.87005     -1603.786 5        30.506    28507344.321 5 114787239.78905     -1645.911 5        34.600
E05        21.000    25967477.943 4                     -3642.673 4        24.962                                                                                                                                    25967486.084 4                     -2791.091 4        25.023
S23        24.000    38108039.522 6 200259048.38206      -820.473 6        37.490
E03        27.000    23706929.981 7 124580733.41807     -2127.278 7        43.651                                                                    23706935.144 7  93031016.37907     -1588.497 7        45.836    23706935.350 8  95457933.53708     -1629.962 8        48.712
R11        28.000    19992874.799 8 106835889.84308     -3200.922 8        48.079                                                                    19992878.363 7  83094526.45707     -2489.632 7        42.008
R12        31.000    19809127.873 8 105816914.84708      1033.180 8        50.242                                                                    19809131.496 7  82302232.16507       803.602 7        45.470
R03        33.000    23711997.906 6                      3435.897 6        37.380                                                                    23712020.636 4                      2672.283 4        29.355
C05        36.000                                                                                                                                                                                                    39348552.644 5 158440379.21005      -671.147 5        32.910
C26        37.000                                                                                                                                    22300010.139 7 116122005.84007       746.288 7        46.898                                                                    22300012.476 7  94358748.36507       606.326 7        44.060
R01        38.000    19742692.632 6 105535949.61506     -3247.502 6        40.667                                                                    19742700.069 6  82083536.99106     -2525.840 6        40.045
C24        39.000                                                                                                                                    25898252.350 5                      2195.792 5        30.030
C42        41.000                                                                                                                                    22659019.368 7 117991388.97607       -51.085 7        44.050                                                                    22659028.302 7  95877720.53007       -41.575 7        44.476
R02        43.000    19789619.320 8 105601203.57208      1055.542 8        48.549                                                                    19789621.565 7  82134271.69907       820.981 7        42.506
C40        44.000                                                                                                                                    38781189.713 5 201943787.25805      -715.871 5        34.319                                                                    38781183.183 5                      -581.543 5        30.989
C33        46.000                                                                                                                                    26340279.274 6 137160840.57706      2279.156 6        38.760                                                                    26340313.165 5 111454385.10405      1851.539 5        31.208
C21        47.000                                                                                                                                    22957052.042 7 119543305.29207     -3120.874 7        43.583                                                                    22957050.345 7  97138706.95507     -2535.969 7        46.340
C14        48.000                                                                                                                                    24123681.410 7 125618302.59807      1402.534 7        45.204    24123677.415 6  97136026.16406      1084.444 6        40.427    24123676.078 7 102075147.97907      1139.521 7        46.313
C45        49.000                                                                                                                                    22161977.907 7 115403143.26107     -2340.025 7        47.259                                                                    22161973.130 7  93774497.70907     -1901.450 7        45.114
> 2025 01 01 09 15  5.0000000  0 30
G17         1.000    23053050.461 5 121144733.09805      1581.488 5        35.014                                    23053067.009 1  94398398.50401      1232.343 1         6.250
G13         2.000    19867822.181 5 104406112.10605     -1457.880 5        33.413                                    19867826.081 2  81355430.31702     -1135.995 2        16.151
G30         3.000    22790664.757 6 119765754.40606     -3464.058 6        39.874                                    22790675.228 2  93323950.79002     -2699.251 2        14.476
G14         4.000    20745165.989 7 109016557.95007     -2093.264 7        47.011                                    20745166.717 5  84947964.31705     -1631.110 5        32.910    20745167.081 7  84947969.29007     -1631.140 7        43.348
G15         6.000    20400682.405 6 107206322.48906       528.316 6        39.739                                    20400746.513 2  83537712.26502       411.677 2        14.667    20400680.691 6  83537387.24806       411.671 6        38.730
G05         7.000    23367572.943 5 122797400.35805     -4219.167 5        32.371                                    23367588.654 3  95686342.84603     -3287.652 3        18.269    23367580.883 5                     -3287.546 5        31.547
G23        10.000    23596190.803 6 123998852.57306      1111.439 6        36.934                                    23596192.528 2  96622493.72502       866.086 2        14.905    23596190.353 6  96622447.75006       866.177 6        37.501
E02        13.000    24216484.097 6 127258504.87006      1245.792 6        40.005                                                                    24216487.690 7  95030792.52107       930.334 7        45.168    24216488.574 8  97509861.99408       954.641 8        48.164
E25        14.000    23708856.968 7 124590866.47607     -1573.515 7        46.478                                                                    23708863.234 6  93038756.23206     -1175.003 6        41.266    23708861.782 7  95465775.63007     -1205.660 7        45.017
E24        15.000    27542544.901 3                     -3583.294 3        22.171                                                                    27542545.278 3                     -2674.969 3        19.343    27542585.538 3                     -2746.082 3        23.867
E08        17.000    24006514.551 7 126155075.94107       567.061 7        43.149                                                                    24006518.486 7  94206729.15207       423.475 7        43.422    24006522.232 5                       434.539 5        31.419
E07        18.000    28011375.349 5 147200796.26005      1986.177 5        34.790                                                                    28011385.089 6 109922659.76506      1483.258 6        40.451    28011410.024 4 112790244.08504      1521.260 4        26.707
E26        20.000    28509377.664 5                     -2150.095 5        30.928                                                                    28509383.189 5 111876933.55205     -1605.273 5        30.815    28509390.062 5 114795472.77005     -1647.236 5        34.652
E05        21.000    25970944.210 4                     -3642.966 4        24.541                                                                                                                                    25970953.197 4                     -2791.800 4        24.376
S23        24.000    38108819.203 6 200263150.69106      -820.491 6        37.346
E03        27.000    23708954.967 7 124591373.73907     -2128.880 7        43.410                                                                    23708959.933 7  93038962.06707     -1589.799 7        46.043    23708960.434 8  95466086.50508     -1631.171 8        48.628
R11        28.000    19995871.287 8 106851900.09908     -3203.095 8        48.679                                                                    19995874.529 7  83106978.85207     -2491.246 7        43.587
R12        31.000    19808161.428 8 105811756.13508      1030.251 8        49.822                                                                    19808165.920 7  82298219.84307       801.299 7        45.673
R03        33.000    23708788.357 6 126915011.25016      3435.363 6        38.051                                                                    23708815.069 5                      2672.000 5        30.204
C05        36.000                                                                                                                                                                                                    39349386.942 5 158443736.16105      -671.097 5        33.024
C26        37.000                                                                                                                                    22299294.556 8 116118278.41408       744.676 8        48.136                                                                    22299296.784 7  94355719.52007       604.993 7        44.474
R01        38.000    19745733.887 6 105552196.02006     -3251.117 6        41.812                                                                    19745739.016 6  82096173.06406     -2528.619 6        39.526
C24        39.000                                                                                                                                    25896140.384 4                      2195.023 4        29.659
C42        41.000                                                                                                                                    22659069.047 7 117991650.85707       -53.742 7        44.253                                                                    22659078.504 7  95877933.33007       -43.827 7        44.138
R02        43.000    19788631.130 8 105595934.72608      1052.026 8        48.647                                                                    19788634.716 7  82130173.71407       818.143 7        42.309
C40        44.000                                                                                                                                    38781877.633 5 201947368.71905      -716.895 5        34.505                                                                    38781870.543 5                      -582.380 5        31.411
C33        46.000                                                                                                                                    26338091.534 6 137149447.18506      2278.095 6        38.775                                                                    26338127.585 5 111445126.96905      1850.675 5        31.313
C21        47.000                                                                                                                                    22960050.264 7 119558915.11807     -3123.028 7        44.003                                                                    22960048.338 7  97151391.19407     -2537.870 7        46.648
C14        48.000                                                                                                                                    24122334.297 7 125611294.99507      1400.471 7        45.341    24122330.839 6  97130607.43806      1082.987 6        39.910    24122330.279 7 102069453.68907      1137.857 7        46.258
C45        49.000                                                                                                                                    22164224.984 7 115414846.80407     -2341.479 7        47.523                                                                    22164220.394 7  93784007.78307     -1902.738 7        45.117
> 2025 01 01 09 15 10.0000000  0 31
G17         1.000    23051545.420 5 121136830.81705      1579.304 5        35.090                                    23051563.408 1  94392240.95301      1230.626 1         6.750
G13         2.000    19869209.903 5 104413409.88605     -1461.496 5        34.762                                    19869214.194 2  81361116.90802     -1138.813 2        17.358
G30         3.000    22793961.524 6 119783077.75506     -3465.465 6        38.096                                    22793970.983 2  93337449.50902     -2700.294 2        13.091
G14         4.000    20747159.167 7 109027031.61407     -2096.388 7        46.270                                    20747159.585 5  84956125.61705     -1633.553 5        32.371    20747159.616 7  84956130.58907     -1633.668 7        43.029
G15         6.000    20400181.159 6 107203689.41706       524.764 6        39.018                                    20400244.386 1  83535660.48001       408.835 1        11.259    20400179.994 6  83535335.51206       408.791 6        39.682
G05         7.000    23371587.727 5 122818498.96105     -4220.875 5        30.951                                    23371601.337 3  95702783.30303     -3288.994 3        18.448    23371593.757 5                     -3288.613 5        30.355
G23        10.000    23595136.708 6 123993302.37606      1108.414 6        38.258                                    23595136.138 2  96618168.89302       863.716 2        13.636    23595133.636 6  96618122.92206       863.635 6        36.442
E02        13.000    24215298.636 6 127252280.15506      1243.818 6        40.815                                                                    24215303.053 7  95026144.21207       928.820 7        44.864    24215303.960 8  97505092.42208       953.074 8        48.745
E25        14.000    23710355.494 7 124598739.75907     -1576.065 7        46.613                                                                    23710361.452 6  93044635.61406     -1176.809 6        41.955    23710359.900 7  95471808.40307     -1207.599 7        45.245
E24        15.000    27545951.933 3                     -3582.591 3        22.457                                                                                                                                    27545994.372 4                     -2745.630 4        24.752
G24        16.000                                                                                                                                                                    23191528.419 5  94965534.05705      1884.207 5        33.563
E08        17.000    24005976.239 7 126152244.76707       565.215 7        42.936                                                                    24005979.662 7  94204614.96007       422.139 7        43.086    24005984.161 5                       433.211 5        32.575
E07        18.000    28009486.020 5 147190866.12205      1985.702 5        33.952                                                                    28009495.439 6 109915244.35606      1482.813 6        40.577    28009520.616 4 112782635.14604      1521.044 4        26.251
E26        20.000    28511427.067 5                     -2152.314 5        31.464                                                                    28511430.501 5 111884965.33105     -1607.103 5        30.898    28511436.423 5 114803714.07105     -1649.032 5        34.767
E05        21.000    25974413.103 3                     -3643.860 3        23.867                                                                                                                                    25974419.724 4                     -2791.902 4        25.880
S23        24.000    38109600.628 6 200267253.78406      -821.104 6        37.384
E03        27.000    23710981.592 7 124602023.10907     -2130.989 7        43.507                                                                    23710986.465 7  93046914.51707     -1591.379 7        46.121    23710987.108 8  95474246.41408     -1632.844 8        48.655
R11        28.000    19998870.055 8 106867922.05208     -3205.792 8        48.895                                                                    19998872.846 7  83119440.36207     -2493.442 7        44.710
R12        31.000    19807198.320 8 105806612.69908      1026.911 8        48.653                                                                    19807203.041 7  82294219.39407       798.658 7        45.285
R03        33.000    23705579.147 6 126897836.68006      3434.254 6        38.498                                                                    23705609.671 5                      2671.144 5        31.223
C05        36.000                                                                                                                                                                                                    39350221.346 5 158447093.64505      -672.171 5        33.096
C26        37.000                                                                                                                                    22298580.549 8 116114560.04808       742.525 8        48.879                                                                    22298582.896 7  94352698.05107       603.409 7        44.799
R01        38.000    19748777.805 7 105568461.39607     -3255.244 7        43.572                                                                    19748781.982 6  82108823.89506     -2531.840 6        39.147
C24        39.000                                                                                                                                    25894028.799 4                      2194.720 4        29.270
C42        41.000                                                                                                                                    22659121.820 7 117991927.10007       -56.888 7        44.432                                                                    22659131.365 7  95878157.79507       -46.173 7        43.845
R02        43.000    19787647.406 8 105590685.02208      1047.707 8        48.887                                                                    19787651.520 7  82126090.62207       814.903 7        42.758
C40        44.000                                                                                                                                    38782567.951 5 201950955.70305      -718.205 5        34.948                                                                    38782558.824 5                      -583.376 5        31.924
C33        46.000                                                                                                                                    26335903.945 6 137138059.45106      2276.718 6        38.667                                                                    26335941.299 5 111435873.42005      1850.156 5        31.336
C21        47.000                                                                                                                                    22963050.750 7 119574536.33007     -3125.652 7        44.691                                                                    22963048.344 7  97164084.68607     -2539.713 7        46.958
C14        48.000                                                                                                                                    24120988.809 7 125604298.07007      1398.048 7        45.193    24120986.589 6  97125196.95706      1081.119 6        39.210    24120986.641 7 102063768.09807      1136.116 7        46.295
C45        49.000                                                                                                                                    22166473.621 7 115426558.51707     -2343.379 7        47.943                                                                    22166469.415 7  93793524.50107     -1904.070 7        45.219
> 2025 01 01 09 15 15.0000000  0 31
G17         1.000    23050042.195 5 121128937.66305      1578.016 5        35.943                                    23050061.752 1  94386090.34201      1229.694 1         6.875
G13         2.000    19870602.581 6 104420721.43206     -1463.554 6        37.395                                    19870605.101 2  81366814.20502     -1140.429 2        17.849
G30         3.000    22797256.512 5 119800405.22705     -3465.839 5        35.486                                    22797267.593 1  93350951.44201     -2700.637 1        11.704
G14         4.000    20749154.594 7 109037518.49007     -2098.649 7        46.509                                    20749154.944 5  84964297.20105     -1635.311 5        31.713    20749154.757 7  84964302.17407     -1635.312 7        42.790
G15         6.000    20399683.201 6 107201071.72906       522.037 6        39.595                                    20399745.742 1  83533620.45301       406.888 1         8.476    20399681.673 6  83533295.74906       406.707 6        40.129
G05         7.000    23375602.790 4 122839603.14204     -4221.317 4        29.886                                    23375615.812 2  95719228.10202     -3289.309 2        17.208    23375612.686 4                     -3289.589 4        29.355
G23        10.000    23594086.520 6 123987766.34906      1105.966 6        38.568                                    23594082.400 2  96613855.08602       861.781 2        14.571    23594082.014 6  96613809.09906       861.752 6        37.013
E02        13.000    24214115.293 6 127246063.59006      1242.567 6        41.611                                                                    24214119.940 7  95021501.98907       927.959 7        44.752    24214120.982 8  97500329.08608       952.176 8        49.105
E25        14.000    23711855.483 7 124606622.96307     -1577.570 7        46.631                                                                    23711861.422 7  93050522.42207     -1178.006 7        42.665    23711859.849 7  95477848.78207     -1208.774 7        45.199
E24        15.000    27549362.341 4                     -3584.241 4        24.000                                                                                                                                    27549403.747 4                     -2746.136 4        25.203
G24        16.000                                                                                                                                                                    23189230.541 5  94956113.24005      1883.962 5        33.994
E08        17.000    24005438.085 7 126149420.47807       564.185 7        42.923                                                                    24005442.136 7  94202505.91707       421.380 7        42.982    24005447.110 5                       432.178 5        32.593
E07        18.000    28007596.600 5 147180936.10105      1985.858 5        33.156                                                                    28007605.966 6 109907829.01406      1483.070 6        40.620    28007630.699 4 112775026.31804      1521.071 4        25.534
E26        20.000    28513476.908 5                     -2153.986 5        32.419                                                                    28513479.414 5 111893004.64405     -1608.717 5        30.966    28513482.825 5 114811963.03305     -1650.657 5        34.752
E05        21.000    25977878.615 3                     -3643.885 3        22.533                                                                                                                                    25977887.525 4                     -2792.253 4        26.934
S23        24.000    38110383.001 6 200271356.71206      -820.601 6        37.614
E03        27.000    23713009.800 7 124612680.65307     -2132.221 7        43.827                                                                    23713014.531 7  93054873.06307     -1592.195 7        46.243    23713015.185 8  95482412.57708     -1633.776 8        48.548
R11        28.000    20001870.383 8 106883954.74608     -3207.485 8        48.198                                                                    20001872.968 7  83131910.21507     -2494.757 7        46.079
R12        31.000    19806238.284 8 105801483.68008      1024.482 8        48.146                                                                    19806242.801 7  82290230.15207       796.814 7        44.924
R03        33.000    23702370.912 6                      3434.092 6        38.892                                                                    23702403.674 5                      2671.101 5        31.532
C05        36.000                                                                                                                                                                                                    39351054.124 5 158450450.85005      -671.435 5        32.982
C26        37.000                                                                                                                                    22297867.911 8 116110849.88408       741.305 8        49.190                                                                    22297870.427 7  94349683.24407       602.404 7        45.297
R01        38.000    19751823.716 7 105584744.95207     -3258.454 7        44.366                                                                    19751828.363 6  82121488.85706     -2534.440 6        39.348
C24        39.000                                                                                                                                    25891920.751 4                      2194.408 4        29.943
C42        41.000                                                                                                                                    22659176.714 7 117992216.80407       -59.143 7        44.453                                                                    22659186.947 7  95878393.21207       -48.138 7        43.647
R02        43.000    19786666.908 8 105585453.45708      1044.632 8        48.683                                                                    19786671.335 7  82122021.63007       812.439 7        43.336
C40        44.000                                                                                                                                    38783258.658 5 201954547.35905      -718.428 5        34.914                                                                    38783248.102 5                      -584.056 5        31.947
C33        46.000                                                                                                                                    26333717.036 6 137126676.47706      2276.244 6        38.276                                                                    26333756.295 5 111426623.74905      1849.762 5        32.497
C21        47.000                                                                                                                                    22966053.128 7 119590168.03207     -3127.281 7        44.807                                                                    22966050.246 7  97176786.72007     -2541.218 7        47.317
C14        48.000                                                                                                                                    24119645.615 7 125597310.97907      1396.594 7        44.631    24119645.178 6  97119794.07206      1080.100 6        38.895    24119644.800 7 102058090.52107      1134.720 7        46.283
C45        49.000                                                                                                                                    22168723.936 8 115438277.51008     -2344.435 8        48.226                                                                    22168719.910 7  93803047.14407     -1905.005 7        45.333
> 2025 01 01 09 15 20.0000000  0 31
G17         1.000    23048542.082 6 121121053.56706      1576.094 6        36.764                                    23048561.800 1  94379946.87701      1228.096 1         7.750
G13         2.000    19871997.196 6 104428046.62906     -1466.253 6        38.961                                    19871998.687 3  81372522.13003     -1142.527 3        18.328
G30         3.000    22800550.096 5 119817736.88605     -3466.597 5        32.952                                    22800565.008 2  93364456.56202     -2701.261 2        12.970    22800563.367 3                     -2700.184 3        20.167
G14         4.000    20751153.087 7 109048018.45407     -2101.311 7        46.824                                    20751152.762 5  84972478.99105     -1637.386 5        31.117    20751152.527 7  84972483.96607     -1637.313 7        42.305
G15         6.000    20399188.337 6 107198469.29006       518.993 6        40.882                                    20399249.969 1  83531592.40401       404.410 1         6.875    20399186.913 6  83531267.89606       404.464 6        40.970
G05         7.000    23379619.875 4 122860712.73504     -4222.464 4        29.611                                    23379631.839 2  95735677.12702     -3290.278 2        13.939    23379624.840 4                     -3290.488 4        27.689
G23        10.000    23593033.187 6 123982244.34306      1103.036 6        37.792                                    23593031.404 2  96609552.23202       859.507 2        14.952    23593032.757 6  96609506.23906       859.486 6        38.324
E02        13.000    24212934.326 7 127239855.08107      1240.983 7        42.372                                                                    24212938.271 7  95016865.78407       926.628 7        44.531    24212939.548 8  97495571.93008       950.860 8        49.379
E25        14.000    23713357.436 7 124614516.00707     -1579.460 7        46.973                                                                    23713363.433 7  93056416.57607     -1179.456 7        43.202    23713361.740 7  95483896.70007     -1210.264 7        45.097
E24        15.000    27552770.048 4                     -3584.479 4        24.647                                                                                                                                    27552814.142 4                     -2747.133 4        25.323
G24        16.000    23186917.484 5                      2416.960 5        32.245                                                                                                    23186932.639 5  94946695.46005      1883.625 5        35.190
E08        17.000    24004901.234 7 126146602.98407       562.816 7        42.629                                                                    24004905.853 7  94200401.95607       420.283 7        42.423    24004911.079 5                       431.278 5        32.497
E07        18.000    28005707.550 5 147171006.09705      1986.213 5        32.138                                                                    28005716.225 6 109900413.68506      1483.192 6        41.039    28005739.323 4 112767417.44004      1521.240 4        24.857
E26        20.000    28515525.872 5                     -2155.926 5        32.018                                                                    28515530.116 5 111901051.33905     -1610.314 5        31.645    28515529.517 5 114820219.62305     -1652.076 5        34.405
E05        21.000    25981345.271 3                     -3644.307 3        20.905                                                                                                                                    25981356.539 4                     -2792.298 4        27.006
S23        24.000    38111162.986 6 200275459.36906      -820.531 6        37.456
E03        27.000    23715039.520 7 124623346.26107     -2133.930 7        44.378                                                                    23715044.179 7  93062837.63207     -1593.491 7        46.476    23715044.765 8  95490584.92008     -1635.063 8        48.401
R11        28.000    20004871.139 7 106899998.11807     -3209.793 7        46.208                                                                    20004875.467 7  83144388.38107     -2496.437 7        46.851
R12        31.000    19805281.252 8 105796368.95008      1021.558 8        48.262                                                                    19805284.799 7  82286252.02307       794.476 7        44.459
R03        33.000    23699163.617 6 126863495.78516      3433.722 6        39.508                                                                    23699194.064 5                      2670.564 5        32.222
C05        36.000                                                                                                                                                                                                    39351887.719 5 158453807.81105      -671.293 5        33.323
C26        37.000                                                                                                                                    22297156.949 8 116107147.80808       739.660 8        49.689                                                                    22297159.581 7  94346675.01507       601.125 7        45.667
R01        38.000    19754873.866 7 105601046.59807     -3262.041 7        45.857                                                                    19754877.500 6  82134167.89506     -2537.126 6        39.435
C24        39.000                                                                                                                                    25889813.633 4                      2194.183 4        29.602
C42        41.000                                                                                                                                    22659233.970 7 117992519.89307       -61.922 7        44.895                                                                    22659245.065 7  95878639.51107       -50.253 7        43.372
R02        43.000    19785689.713 7 105580239.94207      1040.978 7        47.847                                                                    19785694.253 7  82117966.67507       809.664 7        43.543
C40        44.000                                                                                                                                    38783950.192 5 201958143.59805      -719.806 5        35.057                                                                    38783937.948 5                      -584.703 5        32.365
C33        46.000                                                                                                                                    26331532.396 6 137115298.12206      2275.298 6        37.834                                                                    26331571.842 5 111417377.78705      1848.872 5        32.719
C21        47.000                                                                                                                                    22969056.890 7 119605810.13307     -3129.357 7        45.636                                                                    22969054.165 7  97189497.20507     -2542.851 7        47.432
C14        48.000                                                                                                                                    24118305.364 7 125590333.65407      1394.495 7        44.218    24118305.950 6  97114398.75906      1078.483 6        39.321    24118304.786 7 102052420.87307      1133.251 7        46.166
C45        49.000                                                                                                                                    22170976.001 8 115450003.67808     -2345.917 8        48.731                                                                    22170971.962 7  93812575.61807     -1906.155 7        45.555
> 2025 01 01 09 15 25.0000000  0 31
G17         1.000    23047043.946 6 121113178.76606      1574.164 6        36.715                                    23047063.435 1  94373810.63201      1226.606 1        10.667
G13         2.000    19873393.516 6 104435385.68506     -1469.115 6        39.589                                    19873394.830 3  81378240.88303     -1144.803 3        18.537
G30         3.000    22803849.905 5 119835072.75805     -3467.476 5        33.533                                    22803863.116 2  93377964.98602     -2701.876 2        12.182    22803859.561 3                     -2701.712 3        22.857
G14         4.000    20753153.450 7 109058531.68507     -2103.829 7        46.203                                    20753153.044 5  84980671.11805     -1639.352 5        30.272    20753152.912 7  84980676.10607     -1639.412 7        42.195
G15         6.000    20398695.986 7 107195882.40207       516.037 7        42.224                                    20398757.044 1  83529576.49201       402.107 1         9.143    20398694.725 6  83529252.13606       402.166 6        41.650
G05         7.000    23383642.496 5 122881828.10005     -4223.826 5        30.551                                    23383649.283 1  95752130.66101     -3291.278 1        10.370    23383644.731 4                     -3291.815 4        25.955
G23        10.000    23591981.258 6 123976736.61406      1100.186 6        38.381                                    23591983.224 2  96605260.49802       857.259 2        15.238    23591984.078 6  96605214.49206       857.312 6        38.111
E02        13.000    24211755.237 7 127233654.84107      1239.255 7        42.899                                                                    24211758.379 7  95012235.74807       925.480 7        44.510    24211759.583 8  97490821.11008       949.597 8        49.608
E25        14.000    23714861.451 7 124622419.08707     -1581.443 7        47.158                                                                    23714867.141 7  93062318.22807     -1180.964 7        43.473    23714865.583 7  95489952.30307     -1211.806 7        45.090
E24        15.000    27556182.317 4                     -3584.948 4        24.301                                                                    27556183.463 3                     -2676.972 3        21.476    27556225.136 4                     -2746.773 4        25.444
G24        16.000                                                                                                                                                                    23184634.218 6  94937280.93706      1882.778 6        36.068
E08        17.000    24004366.399 6 126143792.49206       561.504 6        41.583                                                                    24004370.533 6  94198303.21706       419.319 6        41.914    24004376.787 5                       430.197 5        32.323
E07        18.000    28003818.707 5 147161076.34005      1986.214 5        30.657                                                                    28003826.801 6 109892998.53806      1483.072 6        40.961    28003846.207 4 112759808.78104      1521.861 4        25.519
E26        20.000    28517576.545 5                     -2158.094 5        30.521                                                                    28517582.262 5 111909105.59905     -1611.555 5        31.774    28517580.433 5 114828483.94905     -1653.474 5        34.638
E05        21.000    25984813.310 3                     -3641.061 3        19.134                                                                                                                                    25984824.711 4                     -2793.407 4        27.497
S23        24.000    38111943.087 6 200279561.98506      -820.391 6        37.444
E03        27.000    23717070.729 7 124634020.12807     -2135.563 7        44.984                                                                    23717075.367 7  93070808.37807     -1594.690 7        46.536    23717075.816 8  95498763.60008     -1636.307 8        48.165
R11        28.000    20007874.612 7 106916052.39607     -3211.795 7        45.731                                                                    20007879.801 7  83156875.01407     -2498.083 7        47.576
R12        31.000    19804326.923 8 105791268.71508      1018.697 8        48.200                                                                    19804329.980 7  82282285.19307       792.283 7        44.182
R03        33.000    23695957.962 6 126846329.73506      3433.001 6        40.191                                                                    23695980.685 5                      2670.082 5        32.701
C05        36.000                                                                                                                                                                                                    39352721.337 5 158457164.67205      -671.537 5        33.144
C26        37.000                                                                                                                                    22296448.210 8 116103454.04008       738.042 8        50.071                                                                    22296450.002 7  94343673.52407       599.719 7        45.977
R01        38.000    19757928.689 7 105617366.37707     -3265.669 7        46.587                                                                    19757930.526 6  82146861.03906     -2539.961 6        40.079
C24        39.000                                                                                                                                    25887706.614 4                      2193.286 4        29.763
C42        41.000                                                                                                                                    22659295.340 7 117992836.57007       -64.657 7        45.469                                                                    22659305.829 7  95878896.83807       -52.459 7        42.940
R02        43.000    19784716.209 7 105575044.68807      1037.296 7        47.683                                                                    19784720.330 7  82113925.92807       806.768 7        42.863
C40        44.000                                                                                                                                    38784643.814 5 201961744.58905      -720.432 5        35.181                                                                    38784628.930 5                      -585.561 5        32.766
C33        46.000                                                                                                                                    26329349.256 6 137103924.64106      2274.243 6        36.764                                                                    26329388.082 5 111408135.79905      1847.970 5        32.623
C21        47.000                                                                                                                                    22972062.525 7 119621462.81107     -3131.472 7        45.749                                                                    22972059.988 7  97202216.27407     -2544.530 7        47.433
C14        48.000                                                                                                                                    24116967.092 7 125583366.27507      1392.543 7        44.253    24116970.070 6  97109011.12606      1076.878 6        40.429    24116966.738 7 102046759.28007      1131.670 7        46.158
C45        49.000                                                                                                                                    22173229.775 8 115461737.22708     -2347.327 8        48.714                                                                    22173225.525 7  93822110.07507     -1907.412 7        45.824
> 2025 01 01 09 15 30.0000000  0 32
G17         1.000    23045547.610 6 121105313.34106      1571.941 6        36.692                                    23045566.792 1  94367681.71901      1224.863 1        11.630
G13         2.000    19874792.183 6 104442738.67406     -1472.180 6        39.474                                    19874793.585 3  81383970.48603     -1147.176 3        18.119
G30         3.000    22807152.476 5 119852412.92505     -3468.579 5        35.452                                    22807161.975 2  93391476.79902     -2702.776 2        14.333    22807158.827 4                     -2703.505 4        24.677
G14         4.000    20755156.229 7 109069058.28407     -2106.807 7        45.115                                    20755155.696 4  84988873.66204     -1641.665 4        29.450    20755156.297 7  84988878.66707     -1641.654 7        42.279
G15         6.000    20398205.656 7 107193311.08507       512.567 7        43.158                                    20398267.093 1  83527572.77401       399.409 1        10.593    20398205.437 7  83527248.52907       399.310 7        42.047
G05         7.000                                                                                                                                                                    23387667.563 4                     -3292.071 4        25.008
G23        10.000    23590936.875 6 123971243.24006      1097.005 6        39.754                                    23590937.629 2  96600979.92502       854.796 2        16.226    23590937.630 6  96600933.95706       854.771 6        37.244
E02        13.000    24210577.056 7 127227462.95207      1237.292 7        43.515                                                                    24210579.930 7  95007611.95507       923.912 7        44.656    24210581.214 8  97486076.67908       948.029 8        49.611
E25        14.000    23716367.260 7 124630332.27507     -1583.852 7        47.149                                                                    23716372.960 7  93068227.42807     -1182.801 7        43.520    23716371.536 7  95496015.65507     -1213.733 7        45.056
E24        15.000    27559591.893 4                     -3586.014 4        25.248                                                                    27559595.477 3                     -2677.991 3        22.990    27559636.420 4                     -2747.300 4        26.275
G24        16.000                                                                                                                                                                    23182335.905 5  94927869.63405      1881.728 5        35.657
E08        17.000    24003832.608 6 126140989.09606       559.796 6        40.424                                                                    24003836.693 6  94196209.77506       417.983 6        41.159    24003843.636 5                       429.004 5        31.819
E07        18.000    28001928.257 4 147151146.94304      1985.414 4        28.474                                                                    28001937.160 6 109885583.62306      1482.883 6        40.996    28001947.563 4 112752200.37504      1521.415 4        26.862
E26        20.000    28519632.065 5                     -2160.142 5        30.098                                                                    28519636.334 5 111917167.43805     -1613.434 5        30.415    28519634.205 5 114836756.11605     -1655.510 5        34.143
E05        21.000    25988283.231 3                     -3645.565 3        20.738                                                                                                                                    25988294.011 4                     -2793.545 4        28.417
S23        24.000    38112724.387 6 200283664.54406      -820.710 6        37.682
E03        27.000    23719103.734 7 124644702.34607     -2137.498 7        45.339                                                                    23719108.201 7  93078785.35607     -1596.208 7        46.617    23719108.461 8  95506948.66608     -1637.804 8        48.036
R11        28.000    20010882.148 7 106932117.61607     -3214.404 7        45.767                                                                    20010886.314 8  83169370.15608     -2500.039 8        48.043
R12        31.000    19803374.799 8 105786182.98608      1015.492 8        48.494                                                                    19803378.329 7  82278329.63007       789.757 7        44.108
R03        33.000    23692752.148 6                      3432.118 6        39.970                                                                    23692768.915 5                      2669.468 5        32.916
C05        36.000                                                                                                                                                                                                    39353555.120 5 158460521.45205      -671.680 5        33.096
C26        37.000                                                                                                                                    22295740.707 8 116099768.64308       736.071 8        50.087                                                                    22295742.240 7  94340678.83907       598.163 7        45.880
R01        38.000    19760986.001 7 105633704.51207     -3269.726 7        45.929                                                                    19760987.327 6  82159568.47806     -2543.160 6        40.579
C24        39.000                                                                                                                                    25885602.737 5                      2192.890 5        30.626
C42        41.000                                                                                                                                    22659359.798 7 117993166.91307       -67.631 7        45.637                                                                    22659369.213 7  95879165.27407       -54.947 7        42.669
C36        42.000                                                                                                                                    25831569.170 3                     -3798.001 3        19.254
R02        43.000    19783746.934 8 105569867.88208      1033.356 8        48.523                                                                    19783749.896 7  82109899.51707       803.655 7        42.567
C40        44.000                                                                                                                                    38785336.546 5 201965350.44705      -722.168 5        34.881                                                                    38785321.214 5                      -586.436 5        32.748
C33        46.000                                                                                                                                    26327165.545 5 137092556.14505      2273.124 5        35.333                                                                    26327204.763 5 111398897.87405      1846.838 5        32.820
