     3.04           OBSERVATION DATA    M                   RINEX VERSION / TYPE
ssrcrin-15.6.1x                         20250101 123000 UTC PGM / RUN BY / DATE 
(00000000023479385599111004) Septentrio proprietary         COMMENT             
ract                                                        MARKER NAME         
01                                                          MARKER NUMBER       
geodetic                                                    MARKER TYPE         
NFB                 CLIMERS@TUW                             OBSERVER / AGENCY   
3296359             SEPT ASTERX SB3 PROB4.14.4              REC # / TYPE / VERS 
Unknown             Unknown                                 ANT # / TYPE        
  4127445.9124  1206915.8294  4695543.1923                  APPROX POSITION XYZ 
        0.0000        0.0000        0.0000                  ANTENNA: DELTA H/E/N
G   23 X1  C1C L1C D1C S1C C1W S1W C2W L2W D2W S2W C2L L2L  SYS / # / OBS TYPES 
       D2L S2L C5Q L5Q D5Q S5Q C1L L1L D1L S1L              SYS / # / OBS TYPES 
E   21 X1  C1C L1C D1C S1C C6C L6C D6C S6C C5Q L5Q D5Q S5Q  SYS / # / OBS TYPES 
       C7Q L7Q D7Q S7Q C8Q L8Q D8Q S8Q                      SYS / # / OBS TYPES 
S    9 X1  C1C L1C D1C S1C C5I L5I D5I S5I                  SYS / # / OBS TYPES 
R   17 X1  C1C L1C D1C S1C C2P L2P D2P S2P C2C L2C D2C S2C  SYS / # / OBS TYPES 
       C3Q L3Q D3Q S3Q                                      SYS / # / OBS TYPES 
C   25 X1  C1P L1P D1P S1P C5P L5P D5P S5P C2I L2I D2I S2I  SYS / # / OBS TYPES 
       C7I L7I D7I S7I C6I L6I D6I S6I C7D L7D D7D S7D      SYS / # / OBS TYPES 
J   17 X1  C1C L1C D1C S1C C2L L2L D2L S2L C5Q L5Q D5Q S5Q  SYS / # / OBS TYPES 
       C1L L1L D1L S1L                                      SYS / # / OBS TYPES 
I    5 X1  C5A L5A D5A S5A                                  SYS / # / OBS TYPES 
SEPTENTRIO RECEIVERS OUTPUT ALIGNED CARRIER PHASES.         COMMENT             
NO FURTHER PHASE SHIFT APPLIED IN THE RINEX ENCODER.        COMMENT             
G L1C                                                       SYS / PHASE SHIFT   
G L2W                                                       SYS / PHASE SHIFT   
G L2L  0.00000                                              SYS / PHASE SHIFT   
G L5Q  0.00000                                              SYS / PHASE SHIFT   
G L1L  0.00000                                              SYS / PHASE SHIFT   
E L1C  0.00000                                              SYS / PHASE SHIFT   
E L6C  0.00000                                              SYS / PHASE SHIFT   
E L5Q  0.00000                                              SYS / PHASE SHIFT   
E L7Q  0.00000                                              SYS / PHASE SHIFT   
E L8Q  0.00000                                              SYS / PHASE SHIFT   
S L1C                                                       SYS / PHASE SHIFT   
S L5I                                                       SYS / PHASE SHIFT   
R L1C                                                       SYS / PHASE SHIFT   
R L2P  0.00000                                              SYS / PHASE SHIFT   
R L2C                                                       SYS / PHASE SHIFT   
R L3Q  0.00000                                              SYS / PHASE SHIFT   
C L1P  0.00000                                              SYS / PHASE SHIFT   
C L5P  0.00000                                              SYS / PHASE SHIFT   
C L2I                                                       SYS / PHASE SHIFT   
C L7I                                                       SYS / PHASE SHIFT   
C L6I                                                       SYS / PHASE SHIFT   
C L7D                                                       SYS / PHASE SHIFT   
J L1C                                                       SYS / PHASE SHIFT   
J L2L  0.00000                                              SYS / PHASE SHIFT   
J L5Q  0.00000                                              SYS / PHASE SHIFT   
J L1L  0.00000                                              SYS / PHASE SHIFT   
I L5A                                                       SYS / PHASE SHIFT   
  2025     1     1    12    30    0.0000000     GPS         TIME OF FIRST OBS   
 C1C    0.000 C2C    0.000 C2P    0.000                     GLONASS COD/PHS/BIS 
DBHZ                                                        SIGNAL STRENGTH UNIT
    18                                                      LEAP SECONDS        
 24 R01  1 R02 -4 R03  5 R04  6 R05  1 R06 -4 R07  5 R08  6 GLONASS SLOT / FRQ #
    R09 -2 R10 -7 R11  0 R12 -1 R13 -2 R14 -7 R15  0 R16 -1 GLONASS SLOT / FRQ #
    R17  4 R18 -3 R19  3 R20  2 R21  4 R22 -3 R23  3 R24  2 GLONASS SLOT / FRQ #
                                                            END OF HEADER       
> 2025 01 01 12 30  0.0000000  0 41
G19         1.000    21892324.202 6 115044888.47806     -2889.825 6        39.709                                    21892322.827 3  89645370.89703     -2251.830 3        18.448
G06         2.000    23504803.073 4                      1033.205 4        26.204                                                                                                    23504810.101 5                       804.909 5        32.731
G25         3.000    22155249.757 7 116426638.56007      2068.656 7        44.280                                    22155257.571 4  90721995.71904      1611.930 4        29.517    22155255.495 5  90722101.75205      1612.076 5        32.455
G17         5.000    24736120.414 4                     -4150.075 4        28.645                                                                                                    24736139.412 3                     -3232.937 3        23.181
G15         6.000    25029913.362 4                     -4695.163 4        26.108
G12         7.000    20319062.677 8 106777384.68608         2.628 8        48.027                                    20319061.813 7  83203163.22107         2.048 7        42.692    20319063.592 7  83203187.22307         1.972 7        43.151
E30         9.000    23923234.832 8 125717475.44408        49.202 8        49.952                                                                    23923241.789 8  93879955.97508        36.726 8        48.926    23923240.484 8  96329002.51908        37.692 8        50.264
G32        11.000    23593571.973 7 123985066.98507      1284.526 7        44.324                                    23593583.952 5  96611781.63805      1000.929 5        30.868    23593586.575 5  96611798.60305      1000.904 5        35.890
G10        12.000    25562284.198 5                     -3181.161 5        32.347
E02        13.000    24152605.786 8 126922794.56608     -2391.227 8        48.764                                                                    24152612.007 6  94780090.70306     -1785.773 6        39.640    24152611.168 7  97252621.06007     -1832.172 7        45.579
E27        15.000    27341597.173 4                      1590.469 4        29.943                                                                    27341619.360 6 107294397.96506      1187.601 6        39.264    27341614.064 6 110093386.02806      1218.620 6        38.417
G24        16.000    20518056.958 7 107823113.19207     -2470.056 7        46.108                                    20518058.822 6  84018049.83306     -1924.716 6        41.037    20518059.951 6  84018006.85306     -1924.797 6        41.128
E08        17.000    25911187.667 6 136164200.15906     -3749.839 6        36.975                                                                    25911200.872 6 101681095.94806     -2800.249 6        39.201    25911220.473 5 104333566.66405     -2873.038 5        30.000
E07        18.000    24419291.899 7 128324322.68607     -1420.400 7        46.051                                                                    24419302.114 8  95826622.43508     -1060.744 8        50.565    24419300.229 8  98326417.04408     -1088.377 8        49.931
E36        19.000    26821626.861 4                      1076.858 4        27.018                                                                    26821640.217 4 105253890.81704       804.389 4        29.365    26821645.000 5 107999597.95905       825.028 5        31.260
R22        22.000    21300200.812 6 113701994.69506     -1739.306 6        36.030                                                                    21300291.224 4  88434850.74804     -1352.759 4        28.142
S36        23.000    38230285.209 5 200901428.83105      -839.071 5        35.252
S23        24.000    38168455.427 5 200576591.10505      -843.590 5        34.538
R04        25.000                                                                                                                                    21111628.891 6  87929279.32606      -832.280 6        37.384
E29        26.000    26844151.049 6 141066984.11606      1263.807 6        37.119                                                                    26844165.856 6 105342336.18206       943.583 6        41.087    26844164.460 6 108090309.08906       968.217 6        41.395
R13        29.000    19573003.355 7 104518727.52207     -1485.004 7        45.172
R21        30.000                                                                                                                                    24546253.349 3                     -3689.492 3        22.724
R12        31.000                                                                                                                                    22013837.240 5  91462039.47605     -2914.503 5        34.186
C10        32.000                                                                                                                                    39101333.734 5 203610959.27505     -1490.163 5        31.396    39101345.510 6 157444874.63506     -1152.525 6        40.737    39101337.838 5 165450513.46505     -1211.103 5        35.900
R03        33.000    21845427.210 6                     -4400.896 6        36.752                                                                    21845434.065 4                     -3422.935 4        29.867
C24        34.000                                                                                                                                    21439050.593 7 111638952.03907      -203.286 7        45.708                                                                    21439051.239 7  90715681.63907      -165.104 7        42.910
R14        35.000    21381350.928 6 113974965.37506      1852.963 6        38.006                                                                    21381338.838 5  88646919.76305      1441.025 5        33.108
R23        36.000    21021429.125 6 112450424.01206      1909.054 6        40.179
C26        37.000                                                                                                                                    23038935.857 7 119969731.41107     -2776.179 7        43.736                                                                    23038944.222 6  97485304.75806     -2255.665 6        36.170
S21        38.000    38458326.535 5 202099870.22205      -838.485 5        33.862
C44        39.000                                                                                                                                    23224200.400 7 120934580.56707      1706.506 7        44.679                                                                    23224202.244 6  98269260.45406      1386.764 6        38.655
C35        40.000                                                                                                                                    23046208.508 7 120007650.05007      -905.938 7        46.072                                                                    23046214.185 7  97516203.37007      -735.984 7        42.413
R05        42.000    23349836.779 6 124818154.40506      2214.411 6        37.822
C12        43.000                                                                                                                                    25028488.791 6 130329937.27506      2543.711 6        39.123    25028495.608 6 100779380.45006      1967.021 6        38.598    25028494.114 6 105903753.84406      2067.175 6        40.112
C40        44.000                                                                                                                                    40499189.295 3                     -2033.359 3        20.024
C33        46.000                                                                                                                                                                                                                                                                    25159021.952 5 106456018.10405     -2593.579 5        31.215
C14        48.000                                                                                                                                                                                                    25859395.139 6 104125048.16806     -3004.689 6        37.486    25859391.188 5                     -3157.240 5        31.057
C41        50.000                                                                                                                                    25388399.686 6 132203999.22006      -779.271 6        41.495                                                                    25388413.575 7 107426657.98307      -633.176 7        45.126
C07        53.000                                                                                                                                    40025565.076 3                     -1751.950 3        23.181    40025602.407 5                     -1355.211 5        30.257
I06        58.000    38445050.160 6 150866594.21806      -735.463 6        37.115
I02        60.000    36971964.442 6 145085924.87406      -749.171 6        41.578
> 2025 01 01 12 30  5.0000000  0 40
G19         1.000    21895073.711 6 115059343.33006     -2892.125 6        38.691                                    21895073.707 3  89656634.35203     -2253.622 3        18.746
G06         2.000    23503822.853 4                      1030.248 4        26.766                                                                                                    23503829.639 5                       802.924 5        30.906
G25         3.000    22153281.313 7 116416297.86107      2067.678 7        44.131                                    22153288.613 4  90713938.04504      1611.167 4        29.024    22153287.830 5  90714044.08405      1610.944 5        31.170
G17         5.000    24740066.925 4                     -4150.668 4        27.222                                                                                                    24740094.469 3                     -3234.012 3        23.010
G15         6.000    25034379.699 4                     -4695.117 4        26.192
G12         7.000    20319061.488 8 106777376.65508         0.612 8        48.317                                    20319060.807 7  83203156.96107         0.480 7        43.860    20319062.962 7  83203180.95007         0.553 7        43.922
E30         9.000    23923188.533 8 125717231.56708        48.281 8        50.106                                                                    23923195.463 8  93879773.85608        36.053 8        49.027    23923194.126 8  96328815.65808        36.976 8        50.106
G32        11.000    23592350.865 7 123978649.52407      1282.478 7        43.799                                    23592363.423 5  96606781.04405       999.328 5        31.728    23592366.588 6  96606798.02506       999.200 6        37.085
G10        12.000                                                                                                                                                                    25565291.362 3                     -2479.298 3        21.738
E02        13.000    24154881.040 8 126934751.80508     -2391.727 8        48.618                                                                    24154887.357 6  94789019.79706     -1785.947 6        40.072    24154886.501 7  97261783.08907     -1832.708 7        45.645
E27        15.000    27340084.311 5                      1590.078 5        30.128                                                                    27340106.439 6 107288460.20806      1187.308 6        39.276    27340100.460 6 110087293.35206      1218.438 6        38.595
G24        16.000    20520408.131 7 107835469.59507     -2472.499 7        46.096                                    20520410.337 6  84027678.19106     -1926.620 6        41.428    20520411.087 6  84027635.21706     -1926.652 6        40.493
E08        17.000    25914755.964 6 136182950.83206     -3750.608 6        37.766                                                                    25914769.402 6 101695098.00606     -2800.675 6        39.844    25914794.911 4 104347934.08404     -2873.480 4        27.784
E07        18.000    24420644.235 7 128331430.30107     -1422.537 7        45.989                                                                    24420654.698 8  95831930.05208     -1062.282 8        50.681    24420652.714 8  98331863.12508     -1090.004 8        49.743
E36        19.000    26820602.493 4                      1075.337 4        28.682                                                                    26820617.232 4 105249872.75604       802.913 4        27.281    26820618.227 5 107995474.98205       823.921 5        32.365
R22        22.000    21301831.251 5 113710700.38105     -1743.012 5        34.552
S36        23.000    38231080.425 5 200905623.75305      -838.872 5        34.852
S23        24.000    38169259.402 5 200580807.24405      -843.338 5        34.752
R04        25.000                                                                                                                                    21112628.422 6  87933448.24506      -835.602 6        38.937
E29        26.000    26842949.829 6 141060669.31006      1262.309 6        36.771                                                                    26842964.203 6 105337620.61606       942.664 6        40.963    26842963.001 6 108085470.49606       967.237 6        41.392
R13        29.000    19574395.611 7 104526156.87607     -1486.742 7        44.956
R21        30.000    24550692.787 4                     -4745.159 4        26.826                                                                    24550675.525 3                     -3692.477 3        20.071
R12        31.000    22017345.572 6 117612788.63316     -3748.159 6        40.200                                                                    22017345.763 5  91476614.15905     -2915.162 5        34.995
C10        32.000                                                                                                                                    39102766.567 5 203618411.45905     -1490.385 5        31.502    39102776.905 6 157450637.11806     -1152.437 6        40.822    39102768.868 6 165456568.96206     -1210.936 6        36.011
R03        33.000    21849539.835 6 116962325.24016     -4403.159 6        39.402                                                                    21849548.007 5                     -3424.753 5        33.407
C24        34.000                                                                                                                                    21439245.461 7 111639971.57707      -204.574 7        45.294                                                                    21439247.477 7  90716510.12407      -166.103 7        43.191
R14        35.000    21379619.384 6 113965702.22406      1852.229 6        40.489                                                                    21379601.873 5  88639715.24005      1440.624 5        32.323
R23        36.000    21019646.811 6 112440886.84606      1905.752 6        40.205
C26        37.000                                                                                                                                    23041600.040 7 119983614.57007     -2777.069 7        42.593                                                                    23041610.197 6  97496586.00806     -2256.751 6        36.847
S21        38.000    38459125.672 5 202104062.07305      -838.203 5        34.167
C44        39.000                                                                                                                                    23222563.796 7 120926051.97407      1704.949 7        45.219                                                                    23222564.704 6  98262330.31406      1385.419 6        38.532
C35        40.000                                                                                                                                    23047079.530 7 120012185.57507      -908.402 7        46.281                                                                    23047084.923 7  97519888.88707      -738.204 7        42.495
R05        42.000    23347769.160 6 124807090.13606      2211.497 6        38.952                                                                    23347774.715 5  97072441.91415      1719.418 5        30.294
C12        43.000                                                                                                                                    25026046.804 6 130317219.29406      2543.432 6        38.637    25026052.300 6 100769546.15306      1966.523 6        37.255    25026051.719 6 105893419.49306      2066.755 6        39.802
C33        46.000                                                                                                                                    25162087.426 6 131025497.49816     -3193.484 6        39.913                                                                    25162091.187 5 106468989.86005     -2594.822 5        32.737
C14        48.000                                                                                                                                    25863100.236 3                     -3883.887 3        20.690    25863128.111 6 104140072.29906     -3004.811 6        38.204    25863123.190 5                     -3157.812 5        31.736
C41        50.000                                                                                                                                    25389148.453 6 132207901.33506      -781.810 6        40.701                                                                    25389162.917 7 107429828.78607      -635.183 7        45.132
C07        53.000                                                                                                                                    40027249.871 4                     -1752.922 4        25.128    40027284.121 4                     -1355.259 4        29.782
I06        58.000    38445987.509 6 150870270.85706      -735.310 6        36.881
I02        60.000    36972919.236 6 145089670.66606      -749.285 6        41.600
> 2025 01 01 12 30 10.0000000  0 40
G19         1.000    21897826.850 6 115073811.58506     -2895.088 6        37.932                                    21897827.108 3  89667908.27303     -2255.906 3        19.075
G06         2.000    23502842.021 4                      1027.828 4        27.281                                                                                                    23502850.824 4                       800.883 4        28.692
G25         3.000    22151314.057 7 116405963.71507      2065.831 7        44.665                                    22151320.849 4  90705885.49204      1609.732 4        28.161    22151320.774 5  90705991.50905      1609.731 5        30.475
G17         5.000    24744016.396 4                     -4150.394 4        26.455                                                                                                    24744045.545 4                     -3235.491 4        24.256
G15         6.000    25038844.511 4                     -4694.084 4        26.108
G12         7.000    20319061.864 8 106777380.30108        -2.112 8        48.187                                    20319062.032 7  83203159.81307        -1.645 7        44.388    20319064.205 7  83203183.79507        -1.646 7        44.280
E30         9.000    23923143.289 8 125716993.95908        46.626 8        50.203                                                                    23923150.309 8  93879596.42708        34.802 8        49.105    23923148.813 8  96328633.60508        35.714 8        49.951
G32        11.000    23591131.777 7 123972245.05307      1279.484 7        42.294                                    23591145.268 5  96601790.56505       996.991 5        32.066    23591146.907 6  96601807.54806       997.048 6        37.686
G10        12.000                                                                                                                                                                    25568328.068 4                     -2480.427 4        25.008
E02        13.000    24157157.325 8 126946713.43508     -2392.986 8        48.305                                                                    24157163.689 6  94797952.16906     -1786.987 6        40.424    24157162.541 7  97270948.48207     -1833.597 7        45.640
E27        15.000    27338569.612 5                      1589.513 5        30.566                                                                    27338593.841 6 107282524.34806      1186.882 6        38.961    27338587.765 6 110081202.65106      1217.678 6        38.538
G24        16.000    20522762.185 7 107847839.41107     -2475.539 7        46.196                                    20522764.360 6  84037317.00706     -1928.991 6        41.201    20522765.564 6  84037274.03406     -1929.074 6        40.572
E08        17.000    25918325.296 6 136201706.75706     -3751.987 6        38.285                                                                    25918338.451 6 101709104.01906     -2801.765 6        40.153    25918366.192 4 104362305.68004     -2875.049 4        26.850
E07        18.000    24421999.168 7 128338550.18207     -1425.515 7        45.684                                                                    24422009.568 8  95837246.83808     -1064.504 8        50.622    24422007.474 8  98337318.60408     -1092.232 8        49.589
E36        19.000    26819581.022 4                      1073.811 4        28.844                                                                    26819594.368 4 105245861.63404       801.394 4        26.084    26819587.487 5 107991359.16805       822.516 5        33.707
R22        22.000    21303469.059 5 113719428.67305     -1748.283 5        34.000
S36        23.000    38231882.938 5 200909817.98105      -839.121 5        35.219
S23        24.000    38170058.070 5 200585023.35805      -843.450 5        34.657
R04        25.000                                                                                                                                    21113632.858 6  87937635.39206      -839.409 6        39.574
E29        26.000    26841748.912 6 141054362.86106      1260.106 6        36.446                                                                    26841764.179 6 105332911.27306       940.997 6        40.648    26841763.060 6 108080638.30506       965.570 6        41.199
R13        29.000    19575788.361 7 104533596.84307     -1489.327 7        43.966
R21        30.000    24555120.502 4                     -4746.913 4        27.198
R12        31.000    22020850.793 6 117631532.32206     -3749.510 6        40.837                                                                    22020854.206 5  91491192.58605     -2916.344 5        34.033
C10        32.000                                                                                                                                    39104198.232 5 203625864.71005     -1490.848 5        31.366    39104208.113 6 157456400.46506     -1153.110 6        40.763    39104199.771 5 165462625.33405     -1211.452 5        35.486
R03        33.000    21853655.198 6 116984347.23206     -4405.900 6        41.066                                                                    21853663.004 5  90987837.91115     -3426.723 5        35.609
C24        34.000                                                                                                                                    21439441.960 7 111640998.91607      -206.441 7        45.633                                                                    21439444.843 7  90717344.92607      -167.658 7        43.018
R14        35.000    21377883.125 6 113956444.36106      1850.767 6        41.657                                                                    21377867.650 5  88632514.80105      1439.508 5        33.784
R23        36.000    21017867.233 6 112431367.80806      1901.637 6        39.402
C26        37.000                                                                                                                                    23044266.819 6 119997503.84806     -2778.681 6        40.646                                                                    23044277.616 6  97507872.16906     -2257.974 6        37.172
S21        38.000    38459924.147 5 202108254.08605      -838.899 5        34.190
C44        39.000                                                                                                                                    23220927.252 7 120917532.68107      1702.741 7        45.427                                                                    23220929.160 6  98255407.70106      1383.589 6        38.637
C35        40.000                                                                                                                                    23047953.117 7 120016735.76407      -911.698 7        45.989                                                                    23047958.573 7  97523586.27507      -740.801 7        42.210
R05        42.000    23345701.732 6 124796041.22106      2208.091 6        40.081                                                                    23345710.302 4  97063848.22404      1717.447 4        28.711
C12        43.000                                                                                                                                    25023605.348 6 130304504.77506      2542.287 6        38.171    25023610.657 6 100759714.50706      1965.877 6        36.934    25023609.820 6 105883087.92006      2065.918 6        39.318
C33        46.000                                                                                                                                    25165149.577 6 131041469.74106     -3195.565 6        38.661
C14        48.000                                                                                                                                    25866836.308 3                     -3887.411 3        22.533    25866860.229 6 104155098.58206     -3005.470 6        38.586    25866856.146 5                     -3158.252 5        32.299
C41        50.000                                                                                                                                    25389900.624 6 132211817.75406      -784.923 6        39.976                                                                    25389914.954 7 107433011.17507      -637.761 7        45.037
C07        53.000                                                                                                                                    40028935.745 3                     -1753.850 3        23.790    40028967.280 4                     -1355.052 4        29.318
I06        58.000    38446923.982 6 150873947.60206      -735.561 6        36.922
I02        60.000    36973873.542 6 145093417.44706      -749.728 6        41.435
> 2025 01 01 12 30 15.0000000  0 40
G19         1.000    21900583.738 6 115088293.17906     -2897.739 6        37.433                                    21900583.059 3  89679192.61603     -2257.975 3        19.821
G06         2.000                                                                                                                                                                    23501872.160 3                       799.351 3        23.562
G25         3.000    22149349.172 7 116395636.03107      2064.888 7        44.775                                    22149354.399 4  90697837.97804      1608.994 4        27.713    22149354.751 5  90697944.00605      1608.985 5        32.144
G17         5.000    24747973.773 4                     -4152.470 4        26.599                                                                                                    24747998.348 4                     -3234.537 4        24.150
G15         6.000    25043306.198 4                     -4694.068 4        26.180
G12         7.000    20319064.202 7 106777395.65307        -4.293 7        47.615                                    20319065.421 7  83203171.77907        -3.347 7        44.787    20319066.195 7  83203195.77007        -3.328 7        44.107
E30         9.000    23923099.162 8 125716762.50508        45.616 8        50.471                                                                    23923106.343 8  93879423.58708        34.070 8        49.184    23923104.765 8  96328456.26308        34.975 8        49.740
G32        11.000    23589915.360 6 123965853.45206      1276.919 6        41.499                                    23589929.496 5  96596810.12705       995.002 5        32.425    23589929.070 6  96596827.08806       995.132 6        37.815
G10        12.000    25571345.181 4                     -3185.312 4        28.853
E02        13.000    24159434.445 8 126958679.35508     -2393.660 8        48.123                                                                    24159440.567 6  94806887.72906     -1787.357 6        40.908    24159439.427 7  97280117.15407     -1834.090 7        45.634
E27        15.000    27337056.102 5                      1589.308 5        30.679                                                                    27337081.585 6 107276590.36906      1186.565 6        38.501    27337075.634 6 110075113.85306      1217.361 6        38.414
G24        16.000    20525118.700 7 107860222.56707     -2477.952 7        45.300                                    20525120.914 6  84046966.21906     -1930.871 6        40.825    20525122.391 6  84046923.24406     -1930.865 6        41.035
E08        17.000    25921895.654 6 136220467.87906     -3752.859 6        38.895                                                                    25921908.795 6 101723113.90506     -2802.469 6        40.648    25921935.290 4 104376681.18104     -2875.753 4        26.754
E07        18.000    24423356.615 7 128345682.20907     -1427.658 7        45.934                                                                    24423366.717 8  95842572.68508     -1066.098 8        50.476    24423364.580 8  98342783.38908     -1093.961 8        49.375
E36        19.000    26818564.072 4                      1071.439 4        29.355                                                                    26818574.323 3 105241857.36703       800.510 3        23.943    26818565.224 5 107987250.34405       821.443 5        34.681
R22        22.000    21305106.629 5 113728179.50705     -1752.330 5        33.509
S36        23.000    38232677.286 5 200914012.56005      -838.933 5        34.905
S23        24.000    38170866.396 5 200589239.48605      -843.251 5        34.771
R04        25.000                                                                                                                                    21114640.756 6  87941840.58306      -843.007 6        39.517
E29        26.000    26840549.133 5 141048064.73405      1258.690 5        35.114                                                                    26840565.457 6 105328208.16606       940.010 6        40.615    26840564.593 6 108075812.49306       964.674 6        40.937
R13        29.000    19577182.988 7 104541047.25007     -1491.111 7        42.271
R21        30.000    24559557.559 4                     -4748.717 4        27.497
R12        31.000    22024360.082 6 117650280.84506     -3750.058 6        40.589                                                                    22024364.582 5  91505774.73905     -2916.851 5        32.042
C10        32.000                                                                                                                                    39105629.309 5 203633319.10405     -1490.986 5        31.034    39105639.554 6 157462164.62906     -1152.838 6        40.820    39105631.365 5 165468682.60605     -1211.526 5        35.043
R03        33.000    21857774.018 7 117006381.63007     -4408.022 7        42.144                                                                    21857780.096 6  91004975.74806     -3428.330 6        37.410
C24        34.000                                                                                                                                    21439640.244 7 111642033.96407      -207.802 7        46.403                                                                    21439643.419 7  90718186.01607      -168.870 7        42.781
R14        35.000    21376140.304 7 113947191.97207      1849.964 7        42.182                                                                    21376133.087 5  88625318.52405      1438.849 5        34.981
R23        36.000    21016087.180 6 112421866.73806      1898.325 6        39.273
C26        37.000                                                                                                                                    23046935.158 6 120011399.12506     -2779.646 6        38.420                                                                    23046946.532 6  97519163.21706     -2258.790 6        37.009
S21        38.000    38460716.545 5 202112446.37605      -838.605 5        33.994
C44        39.000                                                                                                                                    23219291.683 7 120909022.61407      1701.043 7        45.765                                                                    23219295.319 6  98248492.60106      1382.161 6        38.468
C35        40.000                                                                                                                                    23048829.632 7 120021300.52107      -914.432 7        45.953                                                                    23048834.836 6  97527295.51506      -743.100 6        41.471
R05        42.000    23343635.978 6 124785007.70506      2205.075 6        39.781                                                                    23343648.745 5  97055266.55905      1715.415 5        30.309
C12        43.000                                                                                                                                    25021163.009 6 130291793.61206      2541.805 6        37.164    25021170.538 6 100749885.50606      1965.464 6        36.957    25021168.613 6 105872759.09106      2065.417 6        38.423
C33        46.000                                                                                                                                                                                                                                                                    25168243.149 5 106494954.17805     -2597.856 5        34.271
C14        48.000                                                                                                                                    25870572.729 3                     -3888.734 3        21.619    25870592.085 6 104170126.95406     -3005.791 6        38.550    25870589.329 5                     -3158.633 5        32.497
C41        50.000                                                                                                                                    25390655.507 6 132215748.38306      -787.621 6        39.288                                                                    25390669.847 7 107436205.11607      -640.076 7        44.892
C07        53.000                                                                                                                                    40030617.920 3                     -1752.594 3        23.638    40030651.548 4                     -1355.653 4        29.147
I06        58.000    38447861.353 6 150877624.38606      -735.389 6        36.820
I02        60.000    36974828.421 6 145097165.12206      -749.737 6        41.483
> 2025 01 01 12 30 20.0000000  0 40
G19         1.000    21903341.861 6 115102787.99406     -2900.194 6        39.102                                    21903341.500 3  89690487.26903     -2259.891 3        20.000
G06         2.000    23500866.860 4                      1022.887 4        28.607
G25         3.000    22147385.429 7 116385314.72407      2063.752 7        44.575                                    22147389.380 4  90689795.43804      1608.103 4        27.509    22147396.401 5  90689901.45205      1608.327 5        32.701
G17         5.000                                                                                                                                                                    24751947.220 3                     -3235.731 3        23.962
G15         6.000    25047777.212 4                     -4693.460 4        27.042
G12         7.000    20319069.009 7 106777422.42007        -6.295 7        47.472                                    20319070.872 7  83203192.64507        -4.910 7        45.175    20319071.789 7  83203216.64607        -4.957 7        44.623
E30         9.000    23923056.474 8 125716537.11708        44.650 8        50.742                                                                    23923063.580 8  93879255.28708        33.323 8        49.278    23923061.720 8  96328283.57308        34.213 8        49.849
G32        11.000    23588702.256 7 123959474.67607      1274.628 7        42.318                                    23588716.139 5  96591839.67705       993.215 5        33.156    23588716.318 6  96591856.64306       993.328 6        38.844
G10        12.000    25574377.334 4                     -3186.823 4        27.042
E02        13.000    24161712.442 7 126970649.46307     -2394.297 7        47.897                                                                    24161718.258 6  94815826.44706     -1787.953 6        41.354    24161717.072 7  97289289.06207     -1834.651 7        45.591
E27        15.000    27335545.377 5                      1588.486 5        31.758                                                                    27335568.874 6 107270658.16606      1186.445 6        37.796    27335563.777 6 110069026.87306      1217.313 6        38.420
G24        16.000    20527476.891 7 107872618.97007     -2480.410 7        44.623                                    20527480.066 6  84056625.75006     -1932.786 6        40.372    20527481.044 6  84056582.77106     -1932.835 6        41.189
E08        17.000    25925467.045 6 136239234.08606     -3753.572 6        39.685                                                                    25925480.081 6 101737127.57706     -2803.051 6        41.013
E07        18.000    24424715.639 7 128352826.28907     -1429.734 7        46.025                                                                    24424726.144 8  95847907.55108     -1067.739 8        50.369    24424723.914 8  98348257.42408     -1095.572 8        49.449
E36        19.000    26817548.808 4                      1070.012 4        29.232                                                                    26817550.974 3                       799.518 3        22.819    26817548.556 5 107983148.55105       820.057 5        35.681
R22        22.000                                                                                                                                    21306742.764 5  88462040.41805     -1366.155 5        32.874
S36        23.000    38233474.911 5 200918207.57205      -838.986 5        34.814
S23        24.000    38171665.350 5 200593455.78705      -843.307 5        34.924
R04        25.000    21115641.642 5 113073291.77715     -1088.132 5        34.571                                                                    21115653.240 6  87946063.84806      -846.335 6        36.896
E29        26.000    26839352.228 5 141041774.83305      1257.303 5        34.048                                                                    26839368.282 6 105323511.19406       938.987 6        40.405    26839367.897 6 108070992.99606       963.383 6        41.402
R13        29.000    19578578.445 6 104548508.12206     -1492.976 6        39.201
R21        30.000    24563998.922 4                     -4750.629 4        26.395
R12        31.000    22027870.627 6 117669033.90406     -3751.000 6        38.814                                                                    22027873.696 4  91520360.36504     -2917.323 4        28.967
C10        32.000                                                                                                                                    39107060.640 5 203640774.30405     -1491.053 5        31.358    39107071.468 6 157467929.49006     -1152.887 6        40.849    39107063.075 5 165474740.60405     -1211.507 5        35.162
R03        33.000    21861900.161 7 117028427.92007     -4410.355 7        42.326                                                                    21861899.572 6  91022122.78806     -3430.215 6        38.631
C24        34.000                                                                                                                                    21439839.702 7 111643076.64107      -209.155 7        46.959                                                                    21439843.302 7  90719033.30607      -170.067 7        42.637
R14        35.000    21374396.652 6 113937944.54806      1848.906 6        41.018                                                                    21374397.759 5  88618126.10505      1438.001 5        34.081
R23        36.000    21014313.204 6 112412383.57406      1895.016 6        39.568
C26        37.000                                                                                                                                    23049606.908 6 120025300.32006     -2780.739 6        36.268                                                                    23049614.707 6  97530459.08706     -2259.620 6        37.047
S21        38.000    38461523.347 5 202116638.92105      -838.299 5        33.796
C44        39.000                                                                                                                                    23217658.269 7 120900521.69007      1699.419 7        46.086                                                                    23217662.929 6  98241584.92306      1380.773 6        38.985
C35        40.000                                                                                                                                    23049709.325 7 120025879.74007      -917.154 7        46.261                                                                    23049713.910 6  97531016.50706      -745.276 6        40.987
R05        42.000    23341574.135 6 124773989.47006      2202.275 6        38.925                                                                    23341588.953 5  97046696.81205      1712.909 5        30.755
C12        43.000                                                                                                                                    25018721.097 6 130279085.80006      2541.226 6        36.344    25018731.200 6 100740059.06906      1965.029 6        37.251    25018727.736 6 105862433.00706      2064.878 6        37.274
C33        46.000                                                                                                                                                                                                                                                                    25171307.440 6 106507946.74706     -2599.163 6        36.121
C14        48.000                                                                                                                                    25874298.914 3                     -3890.842 3        21.738    25874323.569 6 104185157.31706     -3006.182 6        38.387    25874323.384 5                     -3159.242 5        32.856
C41        50.000                                                                                                                                    25391412.563 6 132219693.07906      -790.232 6        39.474                                                                    25391427.400 7 107439410.49707      -642.228 7        45.102
C07        53.000                                                                                                                                    40032299.236 4                     -1752.956 4        24.722    40032334.819 4                     -1355.538 4        29.014
I06        58.000    38448798.195 6 150881301.11906      -735.318 6        36.904
I02        60.000    36975783.994 6 145100913.56806      -749.716 6        41.569
> 2025 01 01 12 30 25.0000000  0 40
G19         1.000    21906102.859 6 115117296.24506     -2902.808 6        41.101                                    21906102.177 3  89701792.38103     -2261.917 3        20.452
G06         2.000    23499900.538 4                      1020.310 4        29.166
G25         3.000    22145422.390 7 116375000.01407      2062.387 7        44.512                                    22145425.855 4  90681758.04904      1607.047 4        27.377
G17         5.000                                                                                                                                                                    24755902.433 4                     -3237.382 4        24.827
G15         6.000    25052245.213 4                     -4693.570 4        26.946
G12         7.000    20319075.793 7 106777460.83607        -8.713 7        47.222                                    20319078.456 7  83203222.58307        -6.792 7        45.190    20319079.409 7  83203246.58107        -6.875 7        44.880
E30         9.000    23923014.835 8 125716318.02308        43.299 8        50.745                                                                    23923021.943 8  93879091.67608        32.392 8        49.298    23923020.011 8  96328115.70508        33.159 8        49.930
G32        11.000    23587491.763 7 123953108.90307      1272.017 7        43.424                                    23587505.018 5  96586879.36905       991.177 5        33.677    23587505.248 6  96586896.36606       991.018 6        39.712
G10        12.000    25577409.233 4                     -3188.446 4        26.395
E02        13.000    24163990.980 7 126982624.00107     -2395.186 7        47.331                                                                    24163996.886 6  94824768.46306     -1788.611 6        41.521    24163995.722 7  97298464.34807     -1835.255 7        45.624
E27        15.000    27334037.627 5                      1588.165 5        32.257                                                                    27334056.406 6 107264727.92406      1185.929 6        36.507    27334052.180 6 110062941.90006      1216.957 6        38.162
G24        16.000    20529838.081 7 107885028.83107     -2483.168 7        43.261                                    20529841.780 6  84066295.77506     -1934.937 6        39.742    20529842.749 6  84066252.79106     -1934.912 6        40.992
E08        17.000    25929040.015 6 136258005.58206     -3754.758 6        40.429                                                                    25929052.427 6 101751145.20406     -2803.929 6        41.120    25929044.567 6 104405443.95206     -2877.030 6        36.941
E07        18.000    24426077.426 7 128359982.66807     -1432.351 7        45.929                                                                    24426087.949 8  95853251.58708     -1069.612 8        50.005    24426085.545 8  98353740.86708     -1097.536 8        49.268
E36        19.000    26816536.831 4                      1068.025 4        28.332                                                                    26816529.727 3                       796.363 3        22.686    26816532.630 6 107979053.90506       818.179 6        36.560
R22        22.000                                                                                                                                    21308404.624 5  88468881.64105     -1370.100 5        34.300
S36        23.000    38234277.362 5 200922403.04605      -838.815 5        35.024
S23        24.000    38172467.845 5 200597672.31205      -843.221 5        35.090
R04        25.000    21116666.180 5 113078745.00105     -1092.665 5        33.641                                                                    21116670.694 5  87950305.30105      -850.107 5        33.509
E29        26.000    26838156.338 5 141035493.36505      1255.416 5        32.922                                                                    26838172.845 6 105318820.53006       937.507 6        40.307    26838172.801 6 108066179.95206       961.971 6        41.416
R13        29.000    19579974.923 6 104555979.40606     -1495.100 6        36.760
R21        30.000    24568444.502 4                     -4752.578 4        24.361
R12        31.000    22031384.262 6 117687791.79606     -3751.922 6        36.215                                                                    22031390.838 4  91534949.83004     -2917.775 4        26.994
C10        32.000                                                                                                                                    39108493.042 5 203648230.66305     -1491.028 5        31.426    39108503.086 6 157473695.23806     -1153.250 6        40.989    39108494.534 5 165480799.53205     -1211.852 5        35.057
R03        33.000    21866030.754 6 117050486.60606     -4412.829 6        41.266                                                                    21866020.438 6  91039279.48506     -3432.328 6        38.817
C24        34.000                                                                                                                                    21440040.689 7 111644127.16507      -210.773 7        46.832                                                                    21440044.716 7  90719886.96007      -171.369 7        42.313
R14        35.000    21372657.802 6 113928702.51406      1847.979 6        40.701                                                                    21372662.327 5  88610937.96105      1437.319 5        34.386
R23        36.000    21012545.020 6 112402918.60006      1891.302 6        39.435
C26        37.000                                                                                                                                    23052277.827 5 120039207.65005     -2781.904 5        33.778                                                                    23052282.303 6  97541759.96706     -2260.872 6        36.790
S21        38.000    38462320.624 5 202120831.85405      -838.555 5        34.162
C44        39.000                                                                                                                                    23216027.273 7 120892030.12107      1697.487 7        45.856                                                                    23216032.012 6  98234684.84606      1379.324 6        38.835
C35        40.000                                                                                                                                    23050591.850 7 120030473.63607      -920.099 7        46.139                                                                    23050596.123 6  97534749.44906      -747.758 6        40.496
R05        42.000    23339518.230 6 124762986.62606      2199.078 6        38.598                                                                    23339531.341 4  97038139.05904      1709.956 4        29.441
C12        43.000                                                                                                                                    25016280.913 5 130266381.47005      2540.563 5        35.038    25016290.997 6 100730235.35606      1964.762 6        37.958    25016287.303 6 105852109.74206      2064.521 6        36.023
C33        46.000                                                                                                                                    25174342.410 4 131089437.51804     -3200.089 4        29.318                                                                    25174371.753 6 106520946.26206     -2600.760 6        37.183
C14        48.000                                                                                                                                    25878028.162 3                     -3886.994 3        20.357    25878056.832 6 104200189.83106     -3006.673 6        37.474    25878057.216 5                     -3159.630 5        32.611
C41        50.000                                                                                                                                    25392171.889 6 132223652.08606      -793.114 6        40.012                                                                    25392187.946 7 107442627.52407      -644.599 7        45.058
C07        53.000                                                                                                                                    40033984.260 4                     -1754.566 4        24.586    40034017.656 4                     -1355.596 4        29.043
I06        58.000    38449735.511 6 150884977.98306      -735.488 6        36.737
I02        60.000    36976739.505 6 145104662.95706      -749.881 6        41.442
> 2025 01 01 12 30 30.0000000  0 39
G19         1.000    21908865.431 7 115131817.81507     -2905.553 7        42.798                                    21908865.380 3  89713107.86603     -2264.056 3        21.952
G06         2.000                                                                                                                                                                    23498949.852 3                       793.935 3        22.038
G25         3.000    22143460.920 7 116364691.81507      2061.019 7        45.129                                    22143464.185 4  90673725.74604      1605.980 4        27.844
G17         5.000                                                                                                                                                                    24759864.956 4                     -3237.830 4        24.947
G15         6.000    25056709.707 4                     -4693.066 4        27.437
G12         7.000    20319085.385 7 106777510.83607       -11.122 7        47.512                                    20319088.182 7  83203261.55407        -8.668 7        45.354    20319088.634 7  83203285.54807        -8.638 7        44.640
E30         9.000    23922974.133 8 125716105.11408        42.029 8        50.445                                                                    23922981.498 8  93878932.68908        31.393 8        49.566    23922979.541 8  96327952.57408        32.159 8        49.820
