     3.04           OBSERVATION DATA    M                   RINEX VERSION / TYPE
ssrcrin-15.6.1x                         20250101 080000 UTC PGM / RUN BY / DATE 
(00000000023479385599111004) Septentrio proprietary         COMMENT             
ract                                                        MARKER NAME         
01                                                          MARKER NUMBER       
geodetic                                                    MARKER TYPE         
NFB                 CLIMERS@TUW                             OBSERVER / AGENCY   
3296359             SEPT ASTERX SB3 PROB4.14.4              REC # / TYPE / VERS 
Unknown             Unknown                                 ANT # / TYPE        
  4127445.5875  1206914.9839  4695543.5395                  APPROX POSITION XYZ 
        0.0000        0.0000        0.0000                  ANTENNA: DELTA H/E/N
G   23 X1  C1C L1C D1C S1C C1W S1W C2W L2W D2W S2W C2L L2L  SYS / # / OBS TYPES 
       D2L S2L C5Q L5Q D5Q S5Q C1L L1L D1L S1L              SYS / # / OBS TYPES 
E   21 X1  C1C L1C D1C S1C C6C L6C D6C S6C C5Q L5Q D5Q S5Q  SYS / # / OBS TYPES 
       C7Q L7Q D7Q S7Q C8Q L8Q D8Q S8Q                      SYS / # / OBS TYPES 
S    9 X1  C1C L1C D1C S1C C5I L5I D5I S5I                  SYS / # / OBS TYPES 
R   17 X1  C1C L1C D1C S1C C2P L2P D2P S2P C2C L2C D2C S2C  SYS / # / OBS TYPES 
       C3Q L3Q D3Q S3Q                                      SYS / # / OBS TYPES 
C   25 X1  C1P L1P D1P S1P C5P L5P D5P S5P C2I L2I D2I S2I  SYS / # / OBS TYPES 
       C7I L7I D7I S7I C6I L6I D6I S6I C7D L7D D7D S7D      SYS / # / OBS TYPES 
J   17 X1  C1C L1C D1C S1C C2L L2L D2L S2L C5Q L5Q D5Q S5Q  SYS / # / OBS TYPES 
       C1L L1L D1L S1L                                      SYS / # / OBS TYPES 
I    5 X1  C5A L5A D5A S5A                                  SYS / # / OBS TYPES 
SEPTENTRIO RECEIVERS OUTPUT ALIGNED CARRIER PHASES.         COMMENT             
NO FURTHER PHASE SHIFT APPLIED IN THE RINEX ENCODER.        COMMENT             
G L1C                                                       SYS / PHASE SHIFT   
G L2W                                                       SYS / PHASE SHIFT   
G L2L  0.00000                                              SYS / PHASE SHIFT   
G L5Q  0.00000                                              SYS / PHASE SHIFT   
G L1L  0.00000                                              SYS / PHASE SHIFT   
E L1C  0.00000                                              SYS / PHASE SHIFT   
E L6C  0.00000                                              SYS / PHASE SHIFT   
E L5Q  0.00000                                              SYS / PHASE SHIFT   
E L7Q  0.00000                                              SYS / PHASE SHIFT   
E L8Q  0.00000                                              SYS / PHASE SHIFT   
S L1C                                                       SYS / PHASE SHIFT   
S L5I                                                       SYS / PHASE SHIFT   
R L1C                                                       SYS / PHASE SHIFT   
R L2P  0.00000                                              SYS / PHASE SHIFT   
R L2C                                                       SYS / PHASE SHIFT   
R L3Q  0.00000                                              SYS / PHASE SHIFT   
C L1P  0.00000                                              SYS / PHASE SHIFT   
C L5P  0.00000                                              SYS / PHASE SHIFT   
C L2I                                                       SYS / PHASE SHIFT   
C L7I                                                       SYS / PHASE SHIFT   
C L6I                                                       SYS / PHASE SHIFT   
C L7D                                                       SYS / PHASE SHIFT   
J L1C                                                       SYS / PHASE SHIFT   
J L2L  0.00000                                              SYS / PHASE SHIFT   
J L5Q  0.00000                                              SYS / PHASE SHIFT   
J L1L  0.00000                                              SYS / PHASE SHIFT   
I L5A                                                       SYS / PHASE SHIFT   
  2025     1     1     8     0    0.0000000     GPS         TIME OF FIRST OBS   
 C1C    0.000 C2C    0.000 C2P    0.000                     GLONASS COD/PHS/BIS 
DBHZ                                                        SIGNAL STRENGTH UNIT
    18                                                      LEAP SECONDS        
 24 R01  1 R02 -4 R03  5 R04  6 R05  1 R06 -4 R07  5 R08  6 GLONASS SLOT / FRQ #
    R09 -2 R10 -7 R11  0 R12 -1 R13 -2 R14 -7 R15  0 R16 -1 GLONASS SLOT / FRQ #
    R17  4 R18 -3 R19  3 R20  2 R21  4 R22 -3 R23  3 R24  2 GLONASS SLOT / FRQ #
                                                            END OF HEADER       
> 2025 01 01 08 00  0.0000000  0 33
G18         1.000    25165327.579 5 132244687.58505     -1385.147 5        31.766                                    25165327.722 1 103047802.31501     -1079.238 1         8.000    25165328.410 5 103047802.23905     -1079.365 5        31.585
G13         2.000    20529168.971 6 107881645.60006       783.248 6        39.739                                    20529164.085 3  84063494.47503       610.308 3        21.810
G30         3.000    21147341.686 8 111129985.51608     -2345.948 8        48.474                                    21147342.533 6  86594736.21906     -1828.005 6        40.212    21147343.499 6  86594835.24706     -1828.279 6        37.834
G14         4.000    20991780.929 7 110312573.58807       613.172 7        46.821                                    20991779.639 4  85957864.39904       477.800 4        29.071    20991778.254 6  85957821.41806       477.836 6        40.610
G07         5.000    23589045.258 5 123961235.84905     -3441.572 5        32.485                                    23589051.003 1  96593239.37101     -2681.955 1         4.286
G15         6.000    22722571.142 7 119407943.32107      2499.894 7        46.400                                    22722627.293 2  93045336.50202      1947.999 2        12.545    22722573.681 6  93045125.61206      1948.010 6        41.147
G05         7.000    21421422.037 7 112570300.19707     -2077.480 7        42.777                                    21421422.261 4  87717110.16704     -1618.807 4        26.635
G20        11.000    22641624.894 4 118982475.56404     -3925.207 4        27.772
E26        12.000                                                                                                                                    28451802.940 4 111651079.03604       -21.241 4        26.240    28451789.830 4                       -21.874 4        25.248
E02        13.000    26712386.536 5 140374541.80705      2321.518 5        35.824                                                                    26712390.469 6 104825180.30406      1733.595 6        40.377    26712387.838 6 107559757.09906      1778.759 6        38.204
E25        14.000    24109624.360 6 126696872.59306       442.848 6        38.111                                                                    24109620.405 7  94611425.60307       330.822 7        43.191    24109620.544 7  97079470.94207       339.410 7        46.836
E24        15.000    25787858.088 6 135516114.98606     -2405.945 6        41.068                                                                    25787860.890 5 101197051.03205     -1796.569 5        35.710    25787861.680 7 103837090.28807     -1843.499 7        43.092
E15        16.000    28526792.500 3                     -3685.805 3        19.194
E08        17.000    25812436.949 6 135645278.96506      1414.381 6        41.254                                                                    25812456.227 5 101293563.88705      1056.370 5        34.967    25812434.350 6 103935974.03506      1083.732 6        40.296
E05        21.000    24031672.187 6 126287370.21006     -2915.414 6        37.062                                                                    24031678.348 6  94305441.97606     -2176.826 6        38.649    24031676.866 6  96765571.30606     -2233.813 6        37.989
E13        22.000    27532740.906 6 144685484.78306     -2355.750 6        37.051                                                                    27532735.891 5 108044425.86105     -1759.301 5        34.814    27532719.021 3                     -1806.204 3        20.905
S23        24.000    38304879.502 6 201293423.60206      -816.176 6        38.294
E03        27.000    23413490.018 8 123038689.35608      -696.041 8        49.769                                                                    23413492.624 8  91879520.14708      -519.774 8        49.557    23413492.233 8  94276397.30308      -533.365 8        51.968
R11        28.000    19307001.761 8 103170819.62508      -289.766 8        48.113                                                                    19307002.570 7  80243923.39807      -225.349 7        44.998
R17        29.000                                                                                                                                    24712432.746 3                     -3030.649 3        19.910
R10        30.000    21247552.649 6 113261409.16106     -4152.092 6        38.309
R12        31.000    22564646.763 4 120536268.54404      3165.509 4        26.467                                                                    22564646.600 4  93750454.59304      2462.018 4        28.777
R08        35.000    20886915.841 5 111848539.03905     -3831.992 5        35.348                                                                    20886916.022 5  86993261.54705     -2980.809 5        34.767
C26        37.000                                                                                                                                    24450218.134 4                      2073.646 4        24.180                                                                    24450235.388 5 103456984.03405      1683.742 5        32.820
R01        38.000    19404751.726 7 103729475.56907       285.148 7        45.273                                                                    19404752.900 6  80678509.17506       221.712 6        37.637
C42        41.000                                                                                                                                    24419536.146 8 127158893.10008      1828.948 8        48.039                                                                    24419545.109 7 103327068.68807      1486.262 7        45.795
C36        42.000                                                                                                                                    23591813.355 6 122848810.10006     -3245.671 6        36.284                                                                    23591825.465 7  99824679.75407     -2637.264 7        46.658
R02        43.000    22603287.851 6 120615499.80506      3044.542 6        40.129                                                                    22603291.323 5  93812052.58805      2368.211 5        33.455
C40        44.000                                                                                                                                    39450093.654 5 205426908.94105       186.173 5        31.608
C21        47.000                                                                                                                                    22111417.213 8 115139904.46808      -843.240 8        51.491                                                                    22111415.308 7  93560590.71907      -685.191 7        46.562
C45        49.000                                                                                                                                    21747642.363 6 113245605.91906      -568.290 6        38.366                                                                    21747632.965 6  92021318.52406      -461.725 6        40.598
C22        50.000                                                                                                                                    23646106.720 7 123131411.59207     -3654.234 7        43.374                                                                    23646102.606 6 100054256.92806     -2969.412 6        41.375
I02        56.000    38035087.740 6 149257857.75506         2.615 6        36.068
> 2025 01 01 08 00  5.0000000  0 34
G18         1.000    25166648.473 5 132251622.79505     -1388.974 5        32.102                                    25166647.485 1 103053206.33801     -1082.402 1         6.750    25166648.859 5 103053206.26105     -1081.866 5        30.317
G13         2.000    20528425.000 6 107877734.92306       781.172 6        39.087                                    20528419.336 3  84060447.17503       608.698 3        21.929
G30         3.000    21149573.845 7 111141719.13307     -2347.438 7        47.213                                    21149575.317 6  86603879.28706     -1829.169 6        40.160    21149576.383 6  86603978.30806     -1829.201 6        36.873
G14         4.000    20991198.462 7 110309514.63307       610.520 7        46.551                                    20991197.223 4  85955480.79404       475.730 4        28.844    20991196.476 6  85955437.83206       475.590 6        39.985
G07         5.000    23592318.951 5 123978447.21405     -3442.451 5        32.150                                    23592325.085 1  96606650.72601     -2682.471 1         5.000
G15         6.000    22720193.471 7 119395446.20107      2498.917 7        46.110                                    22720248.591 1  93035598.36801      1947.275 1        11.333    22720194.148 6  93035387.57606      1947.242 6        40.779
G05         7.000    21423399.075 7 112580695.80107     -2080.703 7        43.412                                    21423402.233 4  87725210.61504     -1621.323 4        28.730
G20        11.000    22645361.647 4 119002107.37304     -3926.548 4        29.175
E26        12.000    28451824.411 4 149515384.19614       -30.722 4        24.947                                                                    28451830.318 4 111651190.38904       -22.540 4        26.958    28451821.091 4                       -23.826 4        25.353
E02        13.000    26710179.002 5 140362935.63105      2320.986 5        35.414                                                                    26710182.093 6 104816513.34506      1733.238 6        40.186    26710179.070 6 107550864.04506      1778.469 6        37.845
E25        14.000    24109204.379 6 126694662.89406       440.909 6        38.120                                                                    24109199.859 7  94609775.50507       329.405 7        43.064    24109200.185 7  97077777.80607       337.879 7        46.471
E24        15.000    25790147.130 6 135528149.43306     -2407.651 6        39.736                                                                    25790150.705 5 101206037.77905     -1797.898 5        35.257    25790151.643 7 103846311.47007     -1844.866 7        42.747
E15        16.000    28530302.106 3                     -3688.080 3        22.457
E08        17.000    25811091.250 6 135638207.51806      1414.067 6        41.511                                                                    25811114.573 5 101288283.21405      1056.100 5        35.867    25811088.879 6 103930555.64806      1083.551 6        40.610
E05        21.000    24034444.622 5 126301948.42405     -2915.960 5        33.629                                                                    24034453.257 6  94316328.27506     -2177.461 6        38.739    24034450.864 6  96776741.58406     -2234.511 6        37.977
E13        22.000    27534978.893 6 144697269.27406     -2357.771 6        37.444                                                                    27534978.592 5 108053225.91005     -1760.638 5        35.648    27534967.228 3                     -1806.120 3        20.357
S23        24.000    38305659.585 6 201297504.49506      -815.965 6        38.162
E03        27.000    23414152.997 8 123042172.81008      -697.234 8        50.014                                                                    23414155.505 8  91882121.41508      -520.636 8        49.723    23414154.947 8  94279066.42808      -534.256 8        51.753
R11        28.000    19307274.859 8 103172278.04208      -293.563 8        48.252                                                                    19307276.058 7  80245057.71207      -228.342 7        46.013
R17        29.000    24716082.651 3                     -3874.159 3        19.821                                                                    24716071.480 3                     -3034.944 3        19.194
R10        30.000    21251447.956 6 113282173.58006     -4153.788 6        36.688
R12        31.000    22561684.661 4                      3164.472 4        24.361                                                                    22561687.174 4  93738147.75504      2460.871 4        28.483
R08        35.000    20890490.874 6 111867705.94306     -3834.573 6        36.707                                                                    20890494.705 5  87008169.05005     -2982.702 5        34.890
C26        37.000                                                                                                                                    24448231.361 4                      2070.980 4        26.802                                                                    24448246.327 5 103448566.12405      1683.257 5        30.868
R01        38.000    19404486.744 7 103728058.16507       281.806 7        45.639                                                                    19404487.849 6  80677406.73906       219.285 6        37.478
R18        39.000    23824394.126 5                     -1589.202 5        32.198                                                                    23824438.233 5  98915038.59815     -1235.888 5        34.543
C42        41.000                                                                                                                                    24417780.611 7 127149751.37007      1827.826 7        47.291                                                                    24417789.673 7 103319640.24707      1485.193 7        45.559
C36        42.000                                                                                                                                    23594933.857 6 122865040.92806     -3246.584 6        36.416                                                                    23594942.585 7  99837868.59907     -2638.278 7        46.625
R02        43.000    22600434.417 6 120600278.41606      3044.076 6        38.880                                                                    22600440.696 5  93800213.73105      2367.469 5        35.910
C40        44.000                                                                                                                                    39449916.150 5 205425981.37505       184.699 5        30.075
C21        47.000                                                                                                                                    22112228.346 8 115144126.94808      -845.695 8        51.574                                                                    22112226.216 7  93564021.79707      -687.299 7        46.601
C45        49.000                                                                                                                                    21748190.007 6 113248452.72006      -570.295 6        39.643                                                                    21748180.321 6  92023631.76006      -463.551 6        41.054
C22        50.000                                                                                                                                    23649615.511 7 123149686.39407     -3655.609 7        43.359                                                                    23649612.489 7 100069106.65807     -2970.634 7        42.320
I02        56.000    38035084.977 6 149257845.12106         2.410 6        36.401
> 2025 01 01 08 00 10.0000000  0 33
G18         1.000    25167971.701 5 132258572.79405     -1391.827 5        32.737                                    25167969.954 1 103058621.87901     -1084.539 1         6.750    25167970.249 5 103058621.91205     -1084.659 5        33.437
G13         2.000    20527681.691 6 107873834.31306       779.082 6        38.604                                    20527676.573 3  84057407.72603       607.089 3        21.595
G30         3.000    21151807.985 7 111153461.11007     -2349.492 7        46.461                                    21151809.644 6  86613028.87506     -1830.773 6        40.050    21151811.633 6  86613127.88706     -1830.735 6        36.730
G14         4.000    20990619.263 7 110306470.41707       607.161 7        46.023                                    20990617.831 4  85953108.67804       473.113 4        28.483    20990617.312 6  85953065.71206       473.109 6        39.940
G07         5.000    23595598.071 5 123995661.42505     -3443.033 5        30.966                                    23595600.039 1  96620064.39001     -2682.895 1         3.000
G15         6.000    22717816.405 7 119382955.19207      2497.320 7        45.794                                    22717870.810 2  93025865.00602      1946.004 2        15.238    22717816.912 6  93025654.28406      1946.061 6        40.872
G05         7.000    21425379.767 7 112591108.26407     -2084.412 7        43.422                                    21425385.259 4  87733324.20504     -1624.210 4        29.782    21425382.554 6  87733311.12016     -1624.258 6        36.219
G20        11.000    22649097.028 4 119021747.55404     -3929.616 4        28.910
E26        12.000    28451849.773 3 149515545.23303       -32.468 3        23.543                                                                    28451861.138 4 111651310.63004       -25.367 4        28.322
E02        13.000    26707971.645 5 140351332.57205      2319.997 5        34.581                                                                    26707973.869 6 104807848.75306      1732.448 6        39.444    26707971.500 6 107541973.41306      1777.556 6        37.962
E25        14.000    24108786.046 6 126692464.30806       438.387 6        39.372                                                                    24108781.542 7  94608133.75107       327.402 7        42.392    24108781.933 7  97076093.20807       335.877 7        46.088
E24        15.000    25792438.939 6 135540193.70506     -2410.075 6        38.039                                                                    25792442.917 5 101215031.89205     -1799.779 5        35.876    25792443.542 7 103855540.19107     -1846.672 7        42.491
E15        16.000    28533813.837 3                     -3688.450 3        21.714
E08        17.000    25809747.094 6 135631138.74706      1413.271 6        41.476                                                                    25809770.796 6 101283004.52206      1055.458 6        36.397    25809744.036 6 103925139.31406      1082.870 6        41.089
E05        21.000    24037218.334 5 126316531.54705     -2917.480 5        31.932                                                                    24037229.166 6  94327218.26206     -2178.575 6        38.811    24037226.292 6  96787915.66306     -2235.289 6        38.300
E13        22.000    27537217.455 6 144709063.93206     -2360.183 6        36.749                                                                    27537223.465 6 108062033.56306     -1762.364 6        36.454    27537215.743 3                     -1810.197 3        21.024
S23        24.000    38306431.964 6 201301585.60406      -816.431 6        38.045
E03        27.000    23414817.035 8 123045663.40108      -699.033 8        50.301                                                                    23414819.799 8  91884728.01208      -521.978 8        50.037    23414818.893 8  94281741.02408      -535.614 8        51.373
R11        28.000    19307551.980 8 103173756.16908      -297.807 8        48.634                                                                    19307552.813 7  80246207.36407      -231.604 7        47.101
R10        30.000    21255343.984 6 113302947.97306     -4156.227 6        36.624
R12        31.000    22558728.766 4                      3161.669 4        25.759                                                                    22558726.333 5                      2459.160 5        30.943
R08        35.000    20894069.523 6 111886886.20906     -3837.475 6        36.102                                                                    20894074.781 5  87023087.00205     -2984.624 5        34.181
C26        37.000                                                                                                                                    24446246.640 5                      2070.015 5        31.102
R01        38.000    19404224.810 7 103726658.56307       277.879 7        46.176                                                                    19404226.322 6  80676318.16306       216.099 6        37.577
R18        39.000    23825885.922 4                     -1593.427 4        29.545                                                                    23825927.427 5  98921226.74405     -1239.511 5        33.617
C42        41.000                                                                                                                                    24416025.799 7 127140616.29707      1826.142 7        46.423                                                                    24416035.177 7 103312217.24407      1483.947 7        45.049
C36        42.000                                                                                                                                    23598054.866 6 122881277.98306     -3248.254 6        37.550                                                                    23598060.728 7  99851062.51607     -2639.324 7        46.397
R02        43.000    22597584.276 6 120585061.18506      3042.923 6        37.543                                                                    22597588.809 6  93788378.07206      2366.778 6        37.168
C40        44.000                                                                                                                                    39449741.938 4 205425058.64104       183.916 4        26.611
C21        47.000                                                                                                                                    22113042.040 8 115148362.56108      -848.664 8        51.544                                                                    22113039.636 7  93567463.57807      -689.512 7        46.518
C45        49.000                                                                                                                                    21748738.812 6 113251311.28706      -573.250 6        39.685                                                                    21748730.033 7  92025954.55207      -465.577 7        42.199
C22        50.000                                                                                                                                    23653126.102 7 123167968.81007     -3657.480 7        44.411                                                                    23653123.711 7 100083962.58107     -2971.939 7        42.605
I02        56.000    38035082.594 6 149257833.65606         1.950 6        36.042
> 2025 01 01 08 00 15.0000000  0 32
G18         1.000    25169297.997 5 132265537.67105     -1394.651 5        33.916                                    25169295.603 1 103064049.05001     -1086.778 1         6.625    25169298.721 5 103064049.09905     -1086.571 5        35.038
G13         2.000    20526940.543 6 107869943.60706       776.930 6        37.826                                    20526935.942 3  84054376.00403       605.402 3        22.000
G30         3.000    21154044.101 7 111165211.35307     -2351.089 7        45.827                                    21154045.790 6  86622184.90006     -1832.016 6        39.814    21154047.605 6  86622283.89506     -1831.693 6        38.051
G14         4.000    20990042.291 7 110303440.79007       604.387 7        45.073                                    20990041.246 4  85950747.94704       470.950 4        27.533    20990041.262 6  85950704.97506       470.879 6        39.826
G07         5.000    23598872.760 4 124012878.43704     -3444.435 4        25.323                                    23598874.974 1  96633480.29501     -2683.731 1         1.556
G15         6.000    22715440.063 7 119370470.21707      2496.246 7        45.297                                    22715493.302 3  93016136.45003      1945.133 3        18.149    22715440.689 6  93015925.70006      1945.309 6        40.851
G05         7.000    21427363.889 7 112601537.46907     -2087.699 7        42.703                                    21427370.972 4  87741450.82804     -1626.776 4        29.810    21427366.181 5  87741437.73205     -1626.681 5        34.105
G20        11.000    22652836.258 4 119041396.04804     -3930.417 4        28.341
E26        12.000    28451885.150 3 149515718.23103       -36.425 3        23.029                                                                    28451894.500 4 111651439.70504       -26.103 4        28.000
E02        13.000    26705764.376 5 140339732.55605      2319.704 5        34.267                                                                    26705766.094 6 104799186.41506      1732.164 6        39.012    26705763.672 6 107533085.08806      1777.307 6        37.735
E25        14.000    24108368.500 6 126690276.77406       436.308 6        40.138                                                                    24108365.272 6  94606500.22606       325.779 6        41.969    24108365.779 7  97074417.07207       334.307 7        45.615
E24        15.000    25794732.925 6 135552247.71006     -2412.081 6        37.595                                                                    25794736.720 6 101224033.22906     -1801.138 6        36.113    25794736.775 7 103864776.37107     -1848.130 7        42.320
E15        16.000    28537322.849 3                     -3687.676 3        22.114
E08        17.000    25808402.902 6 135624072.52906      1412.948 6        40.882                                                                    25808425.579 5 101277727.77405      1055.075 5        35.576    25808399.163 6 103919724.92006      1082.602 6        41.199
E05        21.000    24039994.657 5 126331119.58005     -2918.596 5        31.321                                                                    24040005.521 6  94338111.84406     -2179.392 6        39.387    24040002.903 6  96799093.44306     -2235.912 6        38.982
E13        22.000    27539463.267 6 144720868.60406     -2362.210 6        36.907                                                                    27539470.054 6 108070848.71606     -1763.987 6        37.081    27539464.808 3                     -1811.028 3        23.276
S23        24.000    38307211.216 6 201305666.80206      -816.347 6        37.905
E03        27.000    23415482.569 8 123049161.02308      -700.366 8        50.446                                                                    23415485.411 8  91887339.86208      -523.012 8        50.165    23415484.380 8  94284421.00608      -536.641 8        51.370
R11        28.000    19307832.133 8 103175253.92108      -301.693 8        48.282                                                                    19307832.753 7  80247372.29207      -234.601 7        46.580
R10        30.000    21259243.574 6 113323732.50306     -4158.106 6        38.015
R12        31.000    22555768.275 4                      3161.019 4        25.113                                                                    22555766.645 5  93713551.96315      2458.609 5        31.992
R08        35.000    20897654.538 6 111906079.70906     -3839.946 6        37.769                                                                    20897659.356 6  87038015.24006     -2986.756 6        36.155
C26        37.000                                                                                                                                    24444262.362 5                      2068.808 5        34.452                                                                    24444289.591 4 103431744.36204      1680.951 4        29.194
R01        38.000    19403966.592 7 103725276.47407       274.494 7        46.422                                                                    19403968.608 6  80675243.20906       213.254 6        38.057
R18        39.000    23827382.037 4                     -1597.505 4        29.251                                                                    23827417.769 5  98927430.82415     -1242.372 5        32.964
C42        41.000                                                                                                                                    24414272.401 7 127131487.78307      1824.875 7        46.109                                                                    24414282.031 7 103304799.54507      1482.836 7        44.531
C36        42.000                                                                                                                                    23601175.228 6 122897521.07706     -3249.483 6        38.697                                                                    23601179.870 7  99864261.38807     -2640.402 7        46.222
R02        43.000    22594735.590 6 120569847.71106      3042.136 6        38.838                                                                    22594736.738 6  93776545.37706      2366.009 6        37.505
C21        47.000                                                                                                                                    22113857.787 8 115152611.18208      -851.185 8        51.298                                                                    22113855.429 7  93570915.91007      -691.694 7        46.532
C45        49.000                                                                                                                                    21749289.310 6 113254181.43006      -575.239 6        38.165                                                                    21749282.152 7  92028286.78907      -467.576 7        42.859
C22        50.000                                                                                                                                    23656638.548 7 123186258.69007     -3658.847 7        44.259                                                                    23656635.809 7 100098824.58207     -2973.082 7        42.552
I02        56.000    38035079.061 6 149257823.30506         1.651 6        36.189
> 2025 01 01 08 00 20.0000000  0 33
G18         1.000    25170626.117 5 132272517.05205     -1397.325 5        33.808                                    25170623.800 1 103069487.53001     -1088.867 1         6.625    25170631.624 5 103069487.58205     -1088.819 5        34.800
G13         2.000    20526202.500 6 107866062.59006       775.066 6        38.018                                    20526197.342 3  84051351.81803       603.956 3        21.143
G30         3.000    21156281.659 7 111176969.49507     -2352.416 7        45.368                                    21156283.672 6  86631347.08506     -1833.055 6        39.556    21156285.193 6  86631446.10206     -1832.974 6        38.868
G14         4.000    20989467.913 7 110300425.45407       601.615 7        43.901                                    20989467.421 4  85948398.36104       468.788 4        26.371    20989467.293 6  85948355.36006       468.813 6        39.802
G07         5.000                                                                                                                                                                    23602147.840 3                     -2683.822 3        19.224
G15         6.000    22713065.337 7 119357990.91707      2495.263 7        44.895                                    22713115.763 3  93006412.24503      1944.392 3        18.537    22713066.256 6  93006201.56106      1944.309 6        40.696
G05         7.000    21429351.721 7 112611983.09407     -2090.811 7        43.492                                    21429359.109 4  87749590.24104     -1629.196 4        28.455    21429350.161 5  87749577.12005     -1629.098 5        32.323
G20        11.000    22656575.440 4 119061052.58404     -3931.832 4        28.009
E26        12.000                                                                                                                                    28451929.596 4 111651577.43404       -28.030 4        27.210    28451970.309 4                       -29.043 4        28.199
E02        13.000    26703557.382 5 140328135.31305      2318.963 5        32.904                                                                    26703558.911 6 104790526.12306      1731.762 6        38.264    26703555.938 6 107524198.88706      1776.942 6        36.866
E25        14.000    24107952.579 6 126688099.95306       434.154 6        39.339                                                                    24107951.018 6  94604874.71406       324.301 6        41.704    24107951.319 7  97072749.14207       332.750 7        45.183
E24        15.000    25797028.817 6 135564311.02206     -2413.514 6        36.828                                                                    25797032.549 6 101233041.56306     -1802.462 6        36.295    25797032.560 7 103874019.71207     -1849.363 7        42.413
E15        16.000    28540832.219 3                     -3688.388 3        20.643
E08        17.000    25807057.621 6 135617008.55606      1412.542 6        40.899                                                                    25807082.318 5 101272452.62705      1054.946 5        34.490    25807054.999 6 103914312.24106      1082.370 6        41.619
E05        21.000    24042774.106 5 126345712.03905     -2918.772 5        34.138                                                                    24042782.467 6  94349008.78406     -2179.623 6        39.483    24042779.362 6  96810274.66406     -2236.632 6        39.721
E13        22.000    27541713.727 6 144732683.01706     -2363.947 6        37.104                                                                    27541718.553 6 108079671.12006     -1765.267 6        37.161
S23        24.000    38307983.854 6 201309747.66806      -816.230 6        38.495
E03        27.000    23416149.606 8 123052665.37008      -701.587 8        50.833                                                                    23416152.215 8  91889956.72708      -523.870 8        50.167    23416151.225 8  94287106.13508      -537.556 8        51.196
R11        28.000    19308115.033 7 103176770.99707      -305.419 7        47.884                                                                    19308116.237 7  80248552.24407      -237.479 7        46.227
R10        30.000    21263145.628 6 113344526.76906     -4159.845 6        39.970
R12        31.000    22552808.530 4                      3159.425 4        28.227                                                                    22552810.873 5  93701262.66905      2457.408 5        34.605
R08        35.000    20901243.484 6 111925285.95906     -3842.552 6        40.119                                                                    20901247.230 6  87052953.42606     -2988.656 6        37.414
C26        37.000                                                                                                                                    24442276.832 6                      2067.911 6        36.900                                                                    24442305.832 4 103423340.21104      1680.795 4        29.820
R01        38.000    19403711.340 7 103723911.63407       271.206 7        45.949                                                                    19403713.222 6  80674181.66106       210.927 6        38.664
R18        39.000    23828878.462 4                     -1601.321 4        29.251                                                                    23828915.563 5  98933650.69905     -1245.641 5        32.401
C42        41.000                                                                                                                                    24412520.384 7 127122365.48607      1823.733 7        45.669                                                                    24412529.948 7 103297386.91207      1482.017 7        44.393
C36        42.000                                                                                                                                    23604296.342 6 122913769.96106     -3250.394 6        41.521                                                                    23604300.410 7  99877464.95207     -2641.154 7        45.771
R02        43.000    22591886.231 6 120554637.75106      3041.667 6        38.922                                                                    22591885.063 6  93764715.39106      2365.653 6        37.085
C40        44.000                                                                                                                                    39449413.683 4 205423227.77404       182.065 4        27.521
C21        47.000                                                                                                                                    22114675.802 8 115156872.50908      -853.603 8        51.006                                                                    22114673.590 7  93574378.56107      -693.593 7        46.215
C45        49.000                                                                                                                                    21749841.673 5 113257062.93805      -577.584 5        34.786                                                                    21749835.907 7  92030628.20907      -469.156 7        43.084
C22        50.000                                                                                                                                    23660152.089 7 123204555.73007     -3660.171 7        43.096                                                                    23660149.340 7 100113692.39107     -2974.054 7        42.351
I02        56.000    38035077.000 6 149257813.70306         1.787 6        36.711
> 2025 01 01 08 00 25.0000000  0 33
G18         1.000    25171957.776 5 132279511.55005     -1400.759 5        32.575                                    25171954.885 1 103074937.81601     -1091.696 1         4.000    25171970.256 5 103074937.78705     -1091.364 5        33.078
G13         2.000    20525465.983 6 107862191.85206       773.009 6        38.285                                    20525460.763 3  84048335.64703       602.350 3        21.000
G30         3.000    21158521.346 7 111188736.14407     -2354.329 7        45.178                                    21158523.239 6  86640515.89806     -1834.543 6        39.754    21158524.109 6  86640614.90806     -1834.419 6        39.922
G14         4.000    20988896.439 6 110297425.01506       598.436 6        41.912                                    20988896.654 4  85946060.37604       466.309 4        25.398    20988896.835 6  85946017.36906       466.248 6        40.443
G15         6.000    22710692.024 7 119345517.90507      2493.843 7        44.877                                    22710739.180 3  92996692.95803      1943.266 3        20.524    22710692.511 6  92996482.30406      1943.262 6        40.467
G05         7.000    21431343.062 7 112622445.67507     -2094.292 7        44.260                                    21431349.625 4  87757742.85104     -1631.914 4        27.701    21431342.005 5  87757729.76505     -1632.239 5        32.066
G20        11.000    22660316.046 5 119080717.57005     -3933.624 5        30.211
E26        12.000    28451962.682 3                       -39.932 3        21.119                                                                    28451967.296 4 111651724.24604       -30.457 4        29.564    28452000.859 4                       -30.922 4        29.147
E02        13.000    26701350.921 5 140316541.35005      2318.430 5        31.389                                                                    26701352.369 6 104781868.31606      1731.370 6        37.006    26701348.790 6 107515315.19506      1776.583 6        36.302
E25        14.000    24107538.252 6 126685934.42206       431.803 6        38.492                                                                    24107539.009 6  94603257.64606       322.510 6        41.669    24107539.184 7  97071089.88807       330.888 7        44.576
E24        15.000    25799325.970 6 135576384.37406     -2415.781 6        36.877                                                                    25799330.896 6 101242057.39106     -1804.124 6        36.639    25799329.998 6 103883270.72606     -1851.118 6        41.907
E15        16.000    28544338.910 3                     -3687.518 3        19.522
E08        17.000    25805711.251 6 135609947.36806      1411.956 6        39.489                                                                    25805740.334 5 101267179.60905      1054.392 5        34.038    25805711.276 6 103908901.72206      1081.841 6        41.271
E05        21.000    24045553.670 6 126360309.64506     -2920.241 6        36.227                                                                    24045559.941 6  94359909.54306     -2180.537 6        39.904    24045556.747 6  96821459.79306     -2237.519 6        40.737
E13        22.000    27543967.053 6 144744507.73006     -2366.018 6        37.811                                                                    27543969.328 6 108088501.23006     -1766.965 6        37.758    27543980.244 5                     -1812.976 5        31.494
S23        24.000    38308761.957 6 201313828.77106      -816.341 6        38.793
E03        27.000    23416817.851 8 123056177.01808      -703.221 8        51.113                                                                    23416820.486 8  91892579.04908      -525.136 8        50.383    23416819.525 8  94289796.86308      -538.822 8        50.953
R11        28.000    19308402.693 8 103178307.96908      -309.498 8        48.551                                                                    19308404.075 7  80249747.65107      -240.682 7        45.598
R17        29.000    24730545.918 3                     -3886.730 3        20.810
R10        30.000    21267050.127 6 113365331.25706     -4162.002 6        40.212
R12        31.000                                                                                                                                    22549853.036 5  93688979.68015      2455.688 5        34.929
R08        35.000    20904833.473 7 111944505.69007     -3845.513 7        42.470                                                                    20904835.116 6  87067902.02406     -2990.774 6        36.953
C26        37.000                                                                                                                                    24440294.528 6 127267002.73216      2066.665 6        38.982                                                                    24440318.077 4 103414941.06704      1678.447 4        29.156
R01        38.000    19403458.886 7 103722564.68707       267.476 7        45.810                                                                    19403460.848 6  80673134.04006       208.012 6        38.946
R18        39.000    23830379.697 4                     -1605.556 4        26.503                                                                    23830416.264 4  98939886.75004     -1248.853 4        28.578
C42        41.000                                                                                                                                    24410770.076 7 127113250.02307      1822.303 7        46.090                                                                    24410779.091 7 103289979.82207      1480.821 7        43.589
C36        42.000                                                                                                                                    23607418.159 7 122930025.22507     -3251.880 7        43.422                                                                    23607422.103 7  99890673.66107     -2642.396 7        45.758
R02        43.000    22589034.991 6 120539432.24706      3040.688 6        39.264                                                                    22589035.626 6  93752888.86206      2364.869 6        37.202
C40        44.000                                                                                                                                    39449228.695 4 205422319.62904       181.286 4        26.299
C21        47.000                                                                                                                                    22115496.765 8 115161147.09708      -856.383 8        51.644                                                                    22115494.327 7  93577851.98107      -695.878 7        45.806
C45        49.000                                                                                                                                    21750400.823 5 113259956.29005      -579.955 5        32.982                                                                    21750391.217 7  92032979.26807      -471.259 7        43.088
C22        50.000                                                                                                                                    23663665.788 7 123222860.51407     -3661.785 7        42.210                                                                    23663664.549 7 100128566.47507     -2975.611 7        42.070
I02        56.000    38035075.130 6 149257805.45506         1.594 6        37.164
> 2025 01 01 08 00 30.0000000  0 31
G18         1.000    25173290.872 5 132286520.69905     -1403.425 5        34.567                                    25173288.802 1 103080399.43601     -1093.459 1         3.800    25173308.282 5 103080399.48205     -1093.605 5        30.543
G13         2.000    20524731.359 6 107858330.95406       771.145 6        37.043                                    20524726.142 3  84045327.14103       600.907 3        20.214
G30         3.000    21160761.992 7 111200510.88007     -2355.801 7        45.917                                    21160764.332 6  86649691.01006     -1835.696 6        39.844    21160763.883 6  86649790.01706     -1835.577 6        40.160
G14         4.000    20988327.982 6 110294439.04806       595.604 6        39.598                                    20988328.467 3  85943733.64803       464.111 3        23.905    20988328.828 6  85943690.63806       464.161 6        40.753
G15         6.000    22708320.229 7 119333050.76007      2492.858 7        45.384                                    22708364.203 3  92986978.23403      1942.495 3        22.895    22708320.120 6  92986767.61806      1942.484 6        40.033
G05         7.000    21433337.169 7 112632924.85507     -2097.572 7        45.248                                    21433341.872 4  87765908.36404     -1634.461 4        28.038    21433336.548 5  87765895.27805     -1634.506 5        32.742
G20        11.000    22664060.177 5 119100390.68805     -3935.621 5        32.168
E26        12.000    28451994.618 3                       -41.459 3        21.238                                                                    28452007.546 4 111651879.81704       -32.436 4        29.109    28452034.673 4                       -32.687 4        29.289
E02        13.000    26699144.088 4 140304950.34304      2317.690 4        29.678                                                                    26699146.282 6 104773212.68606      1730.840 6        36.034    26699142.255 5 107506433.75105      1776.206 5        35.995
E25        14.000    24107125.456 6 126683779.82906       429.820 6        39.105                                                                    24107129.018 6  94601648.72106       320.923 6        41.411    24107129.084 7  97069438.98607       329.283 7        44.233
E24        15.000    25801624.816 6 135588467.26006     -2417.588 6        37.248                                                                    25801630.129 6 101251080.30806     -1805.117 6        36.760    25801629.158 6 103892529.04006     -1852.392 6        41.633
E15        16.000    28547849.688 3                     -3686.679 3        19.463
E08        17.000    25804366.983 6 135602888.63006      1411.555 6        37.403                                                                    25804397.774 5 101261908.43705      1053.585 5        33.018    25804368.326 6 103903493.06906      1081.518 6        41.347
E05        21.000    24048331.871 6 126374911.88906     -2920.835 6        38.721                                                                    24048338.650 6  94370813.78306     -2181.336 6        40.124    24048335.664 7  96832648.49907     -2238.133 7        42.036
E13        22.000    27546221.172 6 144756342.29506     -2367.897 6        38.201                                                                    27546222.111 6 108097338.70506     -1768.465 6        37.614    27546231.201 5                     -1814.457 5        32.820
S23        24.000    38309541.101 6 201317909.66406      -816.303 6        39.183
E03        27.000    23417487.318 8 123059695.53708      -704.460 8        51.312                                                                    23417490.097 8  91895206.50108      -526.040 8        50.293    23417489.175 8  94292492.86308      -539.809 8        50.896
R11        28.000    19308695.026 8 103179864.41508      -313.318 8        48.767                                                                    19308695.447 7  80250958.20507      -243.662 7        45.684
R10        30.000    21270955.297 6 113386145.63306     -4163.977 6        38.880
R12        31.000    22546923.777 6 120441627.54416      3156.178 6        36.363                                                                    22546898.670 5  93676702.53205      2454.740 5        35.129
R08        35.000    20908425.591 7 111963738.37207     -3847.996 7        42.969                                                                    20908428.063 6  87082860.72906     -2992.712 6        37.966
C26        37.000                                                                                                                                    24438316.212 6 127256671.82906      2065.612 6        40.610                                                                    24438335.436 4 103406546.47904      1678.224 4        27.593
R01        38.000    19403209.559 7 103721235.18707       264.013 7        44.667                                                                    19403213.128 6  80672099.97406       205.449 6        39.568
R18        39.000    23831888.427 5                     -1609.557 5        31.479
C42        41.000                                                                                                                                    24409020.799 7 127104140.97607      1821.093 7        46.709                                                                    24409029.515 7 103282578.00707      1479.886 7        43.134
C36        42.000                                                                                                                                    23610540.494 7 122946286.39807     -3253.021 7        44.509                                                                    23610544.962 7  99903887.23307     -2643.215 7        45.643
R02        43.000    22586184.640 6 120524230.36206      3039.791 6        39.991                                                                    22586187.217 6  93741065.15406      2364.445 6        36.586
C21        47.000                                                                                                                                    22116320.541 8 115165434.55008      -858.817 8        52.093                                                                    22116317.504 7  93581335.92107      -697.867 7        45.839
C45        49.000                                                                                                                                    21750966.973 5 113262861.16505      -582.309 5        31.374                                                                    21750948.683 7  92035339.71107      -473.161 7        42.665
C22        50.000                                                                                                                                    23667179.404 6 123241172.60206     -3663.131 6        40.586                                                                    23667181.096 6 100143446.54506     -2976.734 6        41.857
I02        56.000    38035073.538 6 149257798.25006         1.263 6        37.149
> 2025 01 01 08 00 35.0000000  0 31
G18         1.000    25174626.984 5 132293544.36905     -1406.320 5        35.500                                    25174625.392 1 103085872.18201     -1095.876 1         4.143    25174652.071 5 103085872.45305     -1095.797 5        31.562
G13         2.000    20523996.642 5 107854479.77805       769.390 5        35.271                                    20523993.932 3  84042326.19703       599.519 3        18.806
G30         3.000    21163004.322 7 111212293.50607     -2357.358 7        46.996                                    21163006.873 6  86658872.27406     -1836.905 6        40.307    21163005.646 6  86658971.27106     -1836.831 6        40.255
G14         4.000    20987763.255 6 110291467.38206       592.627 6        36.518                                    20987762.937 3  85941418.08803       461.788 3        21.571    20987763.389 6  85941375.04106       462.087 6        40.698
G15         6.000    22705948.611 7 119320589.29207      2491.780 7        45.949                                    22705990.576 4  92977267.93104      1941.656 4        24.511    22705948.406 6  92977057.34206      1941.642 6        39.877
G05         7.000    21435334.208 7 112643420.34107     -2100.753 7        46.357                                    21435336.819 4  87774086.58904     -1636.940 4        29.858    21435334.391 5  87774073.52605     -1637.072 5        33.311
G20        11.000    22667804.921 5 119120071.72705     -3937.128 5        32.479
E26        12.000                                                                                                                                    28452049.120 4 111652043.90604       -33.739 4        29.772    28452075.938 4                       -34.649 4        29.166
E02        13.000    26696937.993 4 140293362.01004      2317.264 4        25.083                                                                    26696940.497 5 104764559.10205      1730.586 5        34.824    26696936.379 5 107497554.41405      1775.673 5        34.933
