     3.04           OBSERVATION DATA    M                   RINEX VERSION / TYPE
ssrcrin-15.6.1x                         20250101 210000 UTC PGM / RUN BY / DATE 
(00000000023479385599111004) Septentrio proprietary         COMMENT             
ract                                                        MARKER NAME         
01                                                          MARKER NUMBER       
geodetic                                                    MARKER TYPE         
NFB                 CLIMERS@TUW                             OBSERVER / AGENCY   
3296359             SEPT ASTERX SB3 PROB4.14.4              REC # / TYPE / VERS 
Unknown             Unknown                                 ANT # / TYPE        
  4127446.2806  1206915.1000  4695543.3071                  APPROX POSITION XYZ 
        0.0000        0.0000        0.0000                  ANTENNA: DELTA H/E/N
G   23 X1  C1C L1C D1C S1C C1W S1W C2W L2W D2W S2W C2L L2L  SYS / # / OBS TYPES 
       D2L S2L C5Q L5Q D5Q S5Q C1L L1L D1L S1L              SYS / # / OBS TYPES 
E   21 X1  C1C L1C D1C S1C C6C L6C D6C S6C C5Q L5Q D5Q S5Q  SYS / # / OBS TYPES 
       C7Q L7Q D7Q S7Q C8Q L8Q D8Q S8Q                      SYS / # / OBS TYPES 
S    9 X1  C1C L1C D1C S1C C5I L5I D5I S5I                  SYS / # / OBS TYPES 
R   17 X1  C1C L1C D1C S1C C2P L2P D2P S2P C2C L2C D2C S2C  SYS / # / OBS TYPES 
       C3Q L3Q D3Q S3Q                                      SYS / # / OBS TYPES 
C   25 X1  C1P L1P D1P S1P C5P L5P D5P S5P C2I L2I D2I S2I  SYS / # / OBS TYPES 
       C7I L7I D7I S7I C6I L6I D6I S6I C7D L7D D7D S7D      SYS / # / OBS TYPES 
J   17 X1  C1C L1C D1C S1C C2L L2L D2L S2L C5Q L5Q D5Q S5Q  SYS / # / OBS TYPES 
       C1L L1L D1L S1L                                      SYS / # / OBS TYPES 
I    5 X1  C5A L5A D5A S5A                                  SYS / # / OBS TYPES 
SEPTENTRIO RECEIVERS OUTPUT ALIGNED CARRIER PHASES.         COMMENT             
NO FURTHER PHASE SHIFT APPLIED IN THE RINEX ENCODER.        COMMENT             
G L1C                                                       SYS / PHASE SHIFT   
G L2W                                                       SYS / PHASE SHIFT   
G L2L  0.00000                                              SYS / PHASE SHIFT   
G L5Q  0.00000                                              SYS / PHASE SHIFT   
G L1L  0.00000                                              SYS / PHASE SHIFT   
E L1C  0.00000                                              SYS / PHASE SHIFT   
E L6C  0.00000                                              SYS / PHASE SHIFT   
E L5Q  0.00000                                              SYS / PHASE SHIFT   
E L7Q  0.00000                                              SYS / PHASE SHIFT   
E L8Q  0.00000                                              SYS / PHASE SHIFT   
S L1C                                                       SYS / PHASE SHIFT   
S L5I                                                       SYS / PHASE SHIFT   
R L1C                                                       SYS / PHASE SHIFT   
R L2P  0.00000                                              SYS / PHASE SHIFT   
R L2C                                                       SYS / PHASE SHIFT   
R L3Q  0.00000                                              SYS / PHASE SHIFT   
C L1P  0.00000                                              SYS / PHASE SHIFT   
C L5P  0.00000                                              SYS / PHASE SHIFT   
C L2I                                                       SYS / PHASE SHIFT   
C L7I                                                       SYS / PHASE SHIFT   
C L6I                                                       SYS / PHASE SHIFT   
C L7D                                                       SYS / PHASE SHIFT   
J L1C                                                       SYS / PHASE SHIFT   
J L2L  0.00000                                              SYS / PHASE SHIFT   
J L5Q  0.00000                                              SYS / PHASE SHIFT   
J L1L  0.00000                                              SYS / PHASE SHIFT   
I L5A                                                       SYS / PHASE SHIFT   
  2025     1     1    21     0    0.0000000     GPS         TIME OF FIRST OBS   
 C1C    0.000 C2C    0.000 C2P    0.000                     GLONASS COD/PHS/BIS 
DBHZ                                                        SIGNAL STRENGTH UNIT
    18                                                      LEAP SECONDS        
 24 R01  1 R02 -4 R03  5 R04  6 R05  1 R06 -4 R07  5 R08  6 GLONASS SLOT / FRQ #
    R09 -2 R10 -7 R11  0 R12 -1 R13 -2 R14 -7 R15  0 R16 -1 GLONASS SLOT / FRQ #
    R17  4 R18 -3 R19  3 R20  2 R21  4 R22 -3 R23  3 R24  2 GLONASS SLOT / FRQ #
                                                            END OF HEADER       
> 2025 01 01 21 00  0.0000000  0 37
G10         2.000    20890253.661 8 109779163.84608      -968.081 8        52.905                                    20890251.841 8  85542134.41608      -754.351 8        50.287    20890251.585 7  85542094.42207      -754.454 7        44.117
G32         3.000    24368108.330 5                      2242.935 5        34.138
G23         4.000    22365753.068 6 117532837.06406     -3505.538 6        37.006                                    22365749.913 1  91583972.63501     -2731.577 1        10.963    22365753.061 5  91584000.56405     -2732.015 5        31.532
G08         6.000    20779422.398 7 109197130.34207       526.145 7        47.949                                    20779419.771 6  85088239.34506       409.982 6        40.091    20779421.010 6  85088267.37606       410.108 6        36.605
G27         7.000    20418681.571 7 107300926.62807     -1882.210 7        46.977                                    20418678.354 7  83611047.73007     -1466.653 7        45.392    20418678.781 7  83611106.70007     -1466.638 7        42.354
G21         8.000    22356932.161 6 117486407.22206      1355.781 6        41.049                                    22356924.206 3  91547878.98603      1056.457 3        18.478
E03        11.000                                                                                                                                                                                                    27792209.423 4                     -1466.917 4        25.429
E08        12.000                                                                                                                                                                                                    26504194.624 5 106721401.27905       389.263 5        34.852
E13        16.000    24559311.600 7 129060131.95907     -2418.730 7        46.880                                                                    24559312.583 8  96376068.81108     -1806.151 8        48.070    24559312.613 8  98890181.51108     -1853.301 8        48.108
E31        17.000    26701843.984 6 140319113.65306       807.216 6        37.478                                                                    26701843.734 7 104783885.42107       602.715 7        43.863    26701843.393 7 107517270.71707       618.381 7        46.472
G16        18.000    23836447.293 5 125261338.97205     -4511.979 5        34.457                                    23836442.708 1  97606183.71201     -3515.811 1         5.000
E26        19.000    23813511.339 6 125140839.04506       -85.970 6        38.838                                                                    23813512.483 7  93449407.52107       -64.112 7        45.416    23813511.702 7  95887210.99107       -65.820 7        46.381
E21        22.000    26665726.100 4 140129337.84404     -3883.073 4        27.269                                                                    26665731.347 6 104642067.09906     -2899.960 6        40.615    26665726.929 6 107371909.07306     -2975.834 6        36.465
S36        23.000    38393124.098 5 201757084.85405      -852.931 5        34.690
S23        24.000    38348557.283 6 201523002.78906      -852.427 6        40.017
R20        26.000    20663129.059 5 110495071.55405      1189.934 5        33.659                                                                    20663132.779 7  85940786.86607       925.307 7        44.909
R05        27.000    22498526.028 7 120267508.74907      3474.580 7        42.766                                                                    22498526.162 5  93541420.99505      2702.658 5        34.367
E33        28.000    26992368.528 5 141845864.96305      1439.354 5        31.736                                                                    26992425.502 3                      1074.997 3        20.857    26992350.348 3                      1102.075 3        20.976
R19        29.000    20560992.047 5 109987430.63605     -2613.414 5        32.790                                                                    20560989.997 6  85545782.55506     -2032.609 6        36.654
R04        31.000    20373079.995 7 109096871.99707       616.518 7        44.161                                                                    20373076.705 6  84853136.58206       479.583 6        40.048
R03        32.000    21831518.227 5                     -3265.025 5        32.802                                                                    21831518.508 5                     -2539.657 5        33.102
R09        34.000                                                                                                                                    23595206.706 4                     -3863.477 4        27.748
R10        35.000    22074244.077 6 117668131.57706     -3231.965 6        37.437
C33        37.000                                                                                                                                    22962435.580 8 119571384.06508       139.071 8        49.167                                                                    22962446.364 8  97161637.35108       113.111 8        48.942
C28        40.000                                                                                                                                    21647031.110 8 112722030.21408     -1062.844 8        49.765                                                                    21647029.425 7  91595662.13607      -863.629 7        47.913
R11        41.000    22615265.897 6 120849037.63806       463.515 6        38.339                                                                    22615265.647 6  93993745.11106       360.764 6        38.736
C43        42.000                                                                                                                                    25196405.838 5                     -3585.296 5        30.868                                                                    25196398.533 5                     -2913.338 5        30.355
C13        45.000                                                                                                                                    39186198.049 4                     -1883.738 4        26.251    39186163.016 3                     -1456.586 3        23.581    39186175.267 4                     -1529.846 4        27.665
C08        46.000                                                                                                                                    39785619.988 3                     -2081.498 3        22.895    39785640.497 4                     -1612.482 4        24.316    39785599.197 3                     -1694.120 3        23.352
C14        47.000                                                                                                                                    23370679.265 6 121697255.10406     -1560.920 6        38.219    23370676.291 8  94104324.63308     -1206.911 8        49.549    23370674.007 7  98889001.50807     -1268.265 7        43.943
C41        49.000                                                                                                                                    24811550.188 6 129200309.34506      2424.224 6        40.582                                                                    24811556.129 7 104985837.69307      1969.760 7        42.083
C27        52.000                                                                                                                                    22978059.124 7 119652843.29807      1215.423 7        47.209                                                                    22978057.569 6  97227705.75606       987.674 6        40.348
C42        54.000                                                                                                                                    24868974.245 6 129499260.70406     -2995.773 6        37.025                                                                    24869016.831 4                     -2434.387 4        28.123
I09        55.000    38207673.158 6 149935116.04206       -50.213 6        36.783
C36        56.000                                                                                                                                    26371289.139 5 137322223.94405       -94.243 5        33.665                                                                    26371280.526 6 111585525.00506       -76.389 6        37.709
I06        58.000    38752149.150 6 152071916.04606      -549.154 6        38.931
I01        59.000   368998777.728 4 144889562.40104     -2133.726 4        26.707
> 2025 01 01 21 00  5.0000000  0 39
G10         2.000    20891176.289 8 109784011.63708      -971.069 8        52.950                                    20891174.296 8  85545911.92108      -756.679 8        50.130    20891173.913 7  85545871.92107      -756.764 7        43.272
G32         3.000    24365976.706 5 128044067.29315      2242.364 5        32.347
G23         4.000    22369090.104 6 117550369.70406     -3507.529 6        38.162                                    22369086.043 1  91597634.39501     -2733.056 1        10.815    22369093.747 4  91597662.35804     -2733.658 4        28.389
G08         6.000    20778923.097 7 109194505.80107       523.670 7        47.389                                    20778919.906 6  85086194.24306       408.055 6        39.477    20778921.965 5  85086222.26905       408.026 5        35.757
G27         7.000    20420473.784 7 107310344.94707     -1885.094 7        46.760                                    20420470.307 7  83618386.67707     -1468.907 7        45.515    20420470.875 7  83618445.65707     -1469.036 7        42.521
G21         8.000    22355642.594 6 117479631.39306      1354.403 6        40.942                                    22355635.596 3  91542599.12603      1055.368 3        19.612
G02         9.000    24432556.461 4                      1903.666 4        26.096
E03        11.000                                                                                                                                                                                                    27794025.747 4                     -1469.248 4        25.429
E08        12.000                                                                                                                                                                                                    26503712.902 5 106719458.39505       387.973 5        35.686
E13        16.000    24561613.150 7 129072227.14307     -2419.447 7        46.907                                                                    24561614.332 8  96385100.93508     -1806.702 8        48.410    24561614.379 8  98899449.26008     -1853.869 8        48.072
E31        17.000    26701076.922 6 140315082.98806       805.070 6        38.051                                                                    26701076.594 7 104780875.50207       601.182 7        43.628    26701076.262 7 107514182.26807       616.883 7        46.548
G16        18.000    23840740.436 5 125283899.59505     -4512.500 5        35.786                                    23840735.663 1  97623763.31901     -3516.153 1         6.375
E26        19.000    23813593.740 6 125141271.15606       -87.038 6        38.312                                                                    23813594.546 7  93449730.19607       -64.976 7        45.023    23813593.878 7  95887542.08807       -66.690 7        46.789
E21        22.000    26669421.812 4 140148756.99104     -3883.863 4        27.952                                                                    26669426.637 6 104656568.37006     -2900.597 6        40.203    26669422.308 6 107386788.62006     -2976.257 6        36.930
S36        23.000    38393937.330 5 201761348.82305      -852.848 5        34.786
S23        24.000    38349370.268 6 201527264.85506      -852.626 6        40.055
R20        26.000    20662019.967 5 110489126.48305      1188.205 5        33.994                                                                    20662021.640 7  85936162.92807       924.188 7        45.536
R05        27.000    22495276.436 7 120250139.13407      3473.224 7        44.003                                                                    22495278.271 5  93527911.34405      2701.288 5        35.838
E33        28.000    26990999.074 5 141838669.78505      1439.245 5        30.672                                                                    26991057.435 3                      1074.727 3        22.381    26990980.730 3                      1103.191 3        19.940
R19        29.000    20563438.065 5 110000500.04405     -2614.574 5        31.057                                                                    20563432.732 6  85555947.64106     -2033.820 6        36.926
R18        30.000                                                                                                                                    23442215.943 3                     -3150.740 3        22.514
R04        31.000    20372503.006 7 109093800.32707       612.050 7        44.707                                                                    20372503.823 6  84850747.52606       476.010 6        41.776
R03        32.000    21834567.105 6 116881965.72416     -3268.851 6        36.469                                                                    21834567.855 5                     -2542.508 5        33.473
R09        34.000                                                                                                                                    23599855.826 4                     -3865.058 4        25.865
R10        35.000    22077277.803 6 117684301.12706     -3235.754 6        37.626
C33        37.000                                                                                                                                    22962303.790 8 119570695.49808       136.240 8        49.085                                                                    22962314.171 8  97161077.82308       110.667 8        49.008
C28        40.000                                                                                                                                    21648052.439 8 112727348.63908     -1064.533 8        49.759                                                                    21648050.807 8  91599983.77908      -865.069 8        48.162
R11        41.000    22614834.239 6 120846729.76306       459.582 6        36.896                                                                    22614833.177 6  93991950.15206       357.143 6        38.601
C43        42.000                                                                                                                                    25199850.735 5                     -3585.776 5        30.830                                                                    25199841.539 5                     -2913.741 5        30.958
C13        45.000                                                                                                                                    39188003.878 4                     -1882.627 4        26.611    39187969.189 4                     -1454.894 4        24.481    39187985.470 4                     -1530.489 4        26.419
C08        46.000                                                                                                                                    39787623.356 3                     -2083.595 3        23.029    39787638.991 4                     -1612.263 4        24.135    39787599.421 4                     -1694.678 4        24.692
C14        47.000                                                                                                                                    23372178.438 6 121705066.19206     -1563.835 6        37.198    23372176.334 8  94110364.66908     -1209.137 8        49.732    23372173.858 7  98895348.64707     -1270.656 7        43.903
C41        49.000                                                                                                                                    24809223.921 6 129188191.48006      2423.077 6        41.020                                                                    24809229.016 6 104975990.93306      1968.881 6        41.516
C27        52.000                                                                                                                                    22976892.735 7 119646768.56307      1214.379 7        47.389                                                                    22976890.842 6  97222769.51506       986.817 6        39.766
C42        54.000                                                                                                                                    24871852.615 6 129514244.67206     -2998.011 6        37.747                                                                    24871892.675 4                     -2435.958 4        28.199
I09        55.000    38207735.140 6 149935366.42606       -50.307 6        36.499
C36        56.000                                                                                                                                    26371378.206 5 137322701.36905       -96.794 5        32.617                                                                    26371372.107 6 111585912.90006       -78.674 6        37.350
I06        58.000    38752849.002 6 152074661.56006      -549.068 6        39.072
I01        59.000   369001499.404 4 144900231.55004     -2133.943 4        25.654
> 2025 01 01 21 00 10.0000000  0 39
G10         2.000    20892101.473 8 109788873.57808      -973.840 8        52.856                                    20892099.301 8  85549700.45208      -758.839 8        49.911    20892099.355 7  85549660.45107      -758.807 7        42.381
G32         3.000    24363842.065 5 128032857.76405      2241.610 5        30.234
G23         4.000    22372428.580 6 117567911.15706     -3509.231 6        38.652                                    22372423.823 1  91611303.02501     -2734.481 1        11.556
G08         6.000    20778425.704 7 109191893.37607       521.297 7        46.781                                    20778422.465 6  85084158.57906       406.206 6        38.976    20778424.989 6  85084186.60506       406.207 6        36.817
G27         7.000    20422269.020 7 107319776.92107     -1887.788 7        46.699                                    20422264.850 7  83625736.25907     -1471.001 7        45.660    20422265.841 7  83625795.23507     -1471.039 7        42.667
G21         8.000    22354354.294 6 117472861.78106      1353.361 6        41.282                                    22354348.154 3  91537324.12903      1054.560 3        20.548
G02         9.000    24430746.406 4                      1903.232 4        28.796
E03        11.000    27795892.610 4                     -1920.354 4        27.713                                                                                                                                    27795849.735 4                     -1470.980 4        26.719
E08        12.000                                                                                                                                                                                                    26503232.693 6 106717523.35406       386.184 6        36.302
E13        16.000    24563915.316 7 129084325.50807     -2420.017 7        46.644                                                                    24563916.648 8  96394135.43108     -1807.153 8        48.499    24563916.648 7  98908719.44407     -1854.295 7        47.883
E31        17.000    26700311.632 6 140311061.86506       803.294 6        39.264                                                                    26700311.239 7 104777872.72207       599.856 7        42.936    26700310.940 7 107511101.15407       615.503 7        46.429
G16        18.000    23845033.897 6 125306463.41406     -4513.128 6        37.399                                    23845029.310 1  97641345.52401     -3516.708 1         8.667
E26        19.000    23813677.333 6 125141708.24006       -88.020 6        37.376                                                                    23813677.568 7  93450056.58107       -65.637 7        44.239    23813677.058 7  95887876.98107       -67.368 7        47.219
E21        22.000    26673116.835 4 140168179.33004     -3884.675 4        28.844                                                                    26673122.682 6 104671072.01406     -2900.894 6        39.501    26673118.299 6 107401670.62906     -2976.671 6        37.410
S36        23.000    38394745.186 5 201765612.49305      -852.831 5        35.033
S23        24.000    38350179.798 6 201531526.45206      -852.271 6        40.234
R20        26.000    20660906.357 5 110483188.03305      1186.769 5        32.814                                                                    20660911.470 7  85931544.12207       923.222 7        45.437
R05        27.000    22492028.020 7 120232775.86307      3472.113 7        44.885                                                                    22492030.797 6  93514406.59406      2700.393 6        37.607
E33        28.000    26989629.886 4 141831476.52404      1438.411 4        29.232                                                                    26989691.346 3                      1076.266 3        22.762    26989610.388 3                      1097.446 3        18.896
R19        29.000    20565881.424 4 110013577.67604     -2616.303 4        26.467                                                                    20565877.081 6  85566119.18406     -2035.099 6        38.021
R18        30.000                                                                                                                                    23445993.445 3                     -3151.235 3        22.476
R04        31.000    20371934.284 7 109090750.41007       607.714 7        44.250                                                                    20371934.814 7  84848375.37607       472.730 7        42.777
R03        32.000    21837622.301 5 116898319.00705     -3272.672 5        33.539                                                                    21837621.808 5                     -2545.427 5        31.864
R09        34.000    23604519.237 4                     -4968.637 4        25.504                                                                    23604505.973 3                     -3863.905 3        23.543
R10        35.000    22080315.380 6 117700487.53206     -3239.090 6        37.694
C33        37.000                                                                                                                                    22962173.905 8 119570020.74008       133.543 8        49.273                                                                    22962184.660 8  97160529.53708       108.446 8        49.051
C28        40.000                                                                                                                                    21649075.230 8 112732675.03808     -1066.078 8        49.496                                                                    21649073.674 8  91604311.92808      -866.426 8        48.305
R11        41.000    22614406.076 6 120844442.66106       455.459 6        37.214                                                                    22614404.189 6  93990171.31906       354.278 6        37.206
C43        42.000                                                                                                                                    25203294.649 4                     -3586.591 4        29.156                                                                    25203285.082 5                     -2914.343 5        31.132
C13        45.000                                                                                                                                    39189813.883 4                     -1883.438 4        28.351    39189777.696 4                     -1457.251 4        25.594    39189792.743 4                     -1530.600 4        26.443
C08        46.000                                                                                                                                    39789621.889 3                     -2082.536 3        22.514    39789642.510 3                     -1613.469 3        21.952    39789601.456 4                     -1694.012 4        24.376
C14        47.000                                                                                                                                    23373676.955 5 121712891.26305     -1566.433 5        35.271    23373679.275 8  94116415.51608     -1211.294 8        50.137    23373676.576 7  98901707.16307     -1272.881 7        44.214
C41        49.000                                                                                                                                    24806898.112 6 129176078.38906      2422.137 6        40.644                                                                    24806902.657 6 104966148.06606      1968.102 6        41.099
C27        52.000                                                                                                                                    22975726.722 7 119640698.37307      1213.600 7        47.180                                                                    22975725.140 6  97217836.97606       986.027 6        38.739
C42        54.000                                                                                                                                    24874731.921 6 129529238.86906     -2999.744 6        37.448                                                                    24874770.106 4                     -2437.589 4        25.835
I09        55.000    38207800.133 6 149935617.59206       -50.111 6        36.461
C36        56.000                                                                                                                                    26371468.821 5 137323191.32605       -99.476 5        31.547                                                                    26371466.496 6 111586310.99006       -80.743 6        37.626
I06        58.000    38753548.477 6 152077406.67406      -548.881 6        38.916
I01        59.000   369004219.083 4 144910902.07804     -2134.352 4        26.192
> 2025 01 01 21 00 15.0000000  0 39
G10         2.000    20893029.280 8 109793750.46208      -976.805 8        52.991                                    20893026.943 8  85553500.62508      -761.148 8        49.325    20893027.224 6  85553460.61306      -760.987 6        41.454
G32         3.000    24361712.015 4 128021652.54004      2240.611 4        28.303
G23         4.000    22375768.002 6 117585462.22506     -3511.157 6        38.303                                    22375763.459 1  91624979.16201     -2735.956 1        11.481
G08         6.000    20777931.525 7 109189293.89407       518.549 7        47.009                                    20777927.662 6  85082132.99906       404.064 6        38.426    20777929.454 6  85082161.03206       403.969 6        38.018
G27         7.000    20424066.713 7 107329223.36307     -1890.663 7        46.836                                    20424062.232 7  83633097.11607     -1473.242 7        45.788    20424063.189 7  83633156.08707     -1473.235 7        42.711
G21         8.000    22353067.404 6 117466099.20606      1351.841 6        41.697                                    22353062.106 3  91532054.60803      1053.368 3        20.952
G02         9.000    24428934.612 5                      1902.881 5        31.479
E03        11.000    27797718.222 4                     -1922.082 4        27.437                                                                                                                                    27797682.908 4                     -1472.683 4        27.341
E08        12.000                                                                                                                                                                                                    26502753.673 6 106715596.75506       384.485 6        36.752
E13        16.000    24566218.230 7 129096427.86407     -2420.882 7        46.652                                                                    24566219.679 8  96403172.90008     -1807.719 8        48.613    24566219.638 7  98917992.68207     -1854.901 7        47.622
E31        17.000    26699548.118 6 140307051.13606       801.290 6        40.849                                                                    26699547.674 7 104774877.72707       598.273 7        42.417    26699547.703 7 107508028.01307       613.912 7        46.421
G16        18.000    23849329.134 6 125329031.15506     -4513.810 6        39.327                                    23849323.691 1  97658930.73701     -3517.281 1        10.667
E26        19.000    23813761.328 6 125142151.06906       -89.153 6        36.885                                                                    23813761.524 7  93450387.26807       -66.512 7        43.795    23813761.409 7  95888216.29407       -68.300 7        47.535
E21        22.000    26676813.843 4 140187605.64204     -3885.703 4        29.867                                                                    26676818.811 6 104685578.65606     -2901.674 6        38.550    26676815.078 6 107416555.68506     -2977.021 6        37.614
S36        23.000    38395560.480 5 201769877.49105      -853.171 5        35.029
S23        24.000    38350990.476 6 201535788.36506      -852.435 6        40.119
R20        26.000    20659796.865 5 110477257.11105      1185.434 5        32.275                                                                    20659802.239 7  85926931.17107       922.002 7        45.245
R05        27.000    22488781.541 7 120215419.48107      3470.549 7        45.862                                                                    22488784.482 6  93500907.22106      2699.262 6        39.024
E33        28.000                                                                                                                                    26988326.495 3                      1072.457 3        23.029
R19        29.000                                                                                                                                    20568323.681 6                     -2036.435 6        38.694
R18        30.000                                                                                                                                    23449791.055 3                     -3152.738 3        20.952
R04        31.000    20371370.758 7 109087722.99507       603.233 7        42.451                                                                    20371369.673 7  84846020.71907       469.127 7        43.079
R03        32.000    21840677.483 5 116914691.12415     -3276.521 5        32.347                                                                    21840678.797 4                     -2548.070 4        29.934
R09        34.000    23609178.194 4                     -4969.013 4        26.838                                                                    23609160.346 4                     -3864.590 4        24.211
R10        35.000    22083353.821 6 117716691.66806     -3242.632 6        37.493
C33        37.000                                                                                                                                    22962046.897 8 119569360.59308       130.628 8        49.885                                                                    22962057.875 8  97159993.10208       106.103 8        49.103
C28        40.000                                                                                                                                    21650099.710 8 112738010.22108     -1067.835 8        49.430                                                                    21650098.272 8  91608647.17108      -867.742 8        48.387
R11        41.000    22613982.725 6 120842177.23806       451.039 6        38.414                                                                    22613980.996 6  93988409.31506       350.796 6        36.049
C43        42.000                                                                                                                                    25206735.652 4                     -3587.490 4        25.820                                                                    25206729.903 5                     -2914.928 5        30.966
C13        45.000                                                                                                                                    39191620.213 4                     -1883.444 4        28.408    39191589.812 4                     -1456.445 4        25.940    39191600.969 4                     -1530.613 4        26.862
C08        46.000                                                                                                                                    39791621.586 3                     -2084.297 3        22.990    39791645.412 3                     -1611.067 3        22.324    39791603.303 4                     -1693.346 4        24.962
C14        47.000                                                                                                                                    23375180.074 5 121720731.06905     -1569.720 5        34.019    23375185.139 8  94122477.77308     -1213.526 8        50.393    23375182.204 7  98908077.63807     -1275.277 7        44.405
C41        49.000                                                                                                                                    24804572.808 6 129163970.87006      2421.011 6        39.892                                                                    24804577.257 6 104956309.68406      1967.306 6        40.613
C27        52.000                                                                                                                                    22974561.332 7 119634633.53707      1212.502 7        46.801                                                                    22974560.535 6  97212908.78006       985.138 6        38.036
C42        54.000                                                                                                                                    24877613.058 6 129544244.13606     -3002.007 6        36.836                                                                    24877648.963 3                     -2439.892 3        22.533
I09        55.000    38207864.363 6 149935870.21706       -50.515 6        36.280
C36        56.000                                                                                                                                    26371563.508 5 137323694.51505      -101.728 5        31.321                                                                    26371563.625 6 111586719.90106       -83.004 6        37.939
I06        58.000    38754247.786 6 152080151.97206      -549.011 6        38.829
I01        59.000   369006938.189 4 144921574.26404     -2133.719 4        26.024
> 2025 01 01 21 00 20.0000000  0 37
G10         2.000    20893960.234 8 109798641.77108      -979.331 8        52.658                                    20893957.180 8  85557312.04308      -763.115 8        48.854    20893958.119 6  85557272.03006      -763.102 6        40.534
G23         4.000    22379109.159 6 117603022.36006     -3512.447 6        36.427                                    22379104.847 1  91638662.37601     -2736.932 1        11.852    22379135.008 5                     -2737.098 5        34.352
G08         6.000    20777439.854 7 109186706.79207       516.666 7        47.284                                    20777435.421 6  85080117.07106       402.599 6        38.045    20777437.558 6  85080145.10506       402.697 6        38.778
G27         7.000    20425866.684 8 107338683.72708     -1893.086 8        48.203                                    20425862.351 7  83640468.82007     -1475.129 7        46.123    20425863.555 7  83640527.78507     -1475.086 7        42.601
G21         8.000    22351782.148 6 117459343.12706      1350.829 6        41.271                                    22351777.096 3  91526790.12103      1052.599 3        21.452
G02         9.000    24427122.965 5                      1903.229 5        34.205
E03        11.000    27799546.825 4                     -1925.287 4        24.782                                                                                                                                    27799516.412 4                     -1474.538 4        27.425
E08        12.000                                                                                                                                                                                                    26502276.638 6 106713678.17206       383.106 6        36.541
E13        16.000    24568521.559 7 129108533.66207     -2421.052 7        45.946                                                                    24568523.458 8  96412212.94208     -1807.960 8        48.752    24568523.318 7  98927268.56107     -1855.217 7        47.161
E31        17.000    26698786.897 6 140303050.27006       799.545 6        41.735                                                                    26698786.252 6 104771890.07706       597.042 6        41.917    26698786.381 7 107504962.43507       612.573 7        46.241
G16        18.000    23853624.018 6 125351602.33106     -4514.192 6        40.548                                    23853618.850 2  97676518.71102     -3517.565 2        12.667
E26        19.000    23813847.225 6 125142599.17506       -89.739 6        36.212                                                                    23813846.586 7  93450721.87907       -67.024 7        43.060    23813846.703 7  95888559.63007       -68.783 7        47.784
E21        22.000    26680511.830 5 140207035.39105     -3886.082 5        31.109                                                                    26680515.561 6 104700087.85306     -2901.940 6        37.327    26680512.467 6 107431443.39206     -2977.427 6        37.671
S36        23.000    38396370.894 5 201774143.15705      -852.938 5        35.300
S23        24.000    38351801.959 6 201540049.97606      -851.930 6        39.991
R20        26.000    20658689.269 5 110471333.18305      1184.475 5        30.483                                                                    20658695.052 7  85922323.67207       921.252 7        46.218
R05        27.000    22485536.251 7 120198069.94207      3469.720 7        46.568                                                                    22485539.774 6  93487413.14606      2698.658 6        40.212
E33        28.000    26986911.297 4 141817097.13504      1437.394 4        26.240                                                                    26986961.438 3                      1072.956 3        22.533    26986905.736 5 108665083.38115      1101.780 5        31.562
R19        29.000                                                                                                                                    20570771.264 6  85586483.19716     -2037.425 6        38.841
R04        31.000    20370810.795 6 109084717.62306       599.304 6        40.996                                                                    20370807.748 6  84843683.23506       466.053 6        41.776
R03        32.000    21843740.737 6                     -3279.380 6        36.881                                                                    21843737.548 3                     -2548.635 3        23.943
R09        34.000                                                                                                                                    23613813.217 4                     -3864.161 4        25.188
R10        35.000    22086396.249 6 117732913.00306     -3245.539 6        37.206
C33        37.000                                                                                                                                    22961922.678 8 119568714.54408       128.184 8        50.241                                                                    22961933.809 8  97159468.14608       104.040 8        49.164
C28        40.000                                                                                                                                    21651125.789 8 112743353.63208     -1069.106 8        49.299                                                                    21651124.432 8  91612989.15008      -868.839 8        48.551
R11        41.000    22613562.066 6 120839932.86606       447.253 6        39.607                                                                    22613561.507 5  93986663.68305       347.924 5        34.200
C43        42.000                                                                                                                                    25210179.924 3                     -3585.982 3        21.024                                                                    25210175.758 5                     -2915.349 5        30.838
C13        45.000                                                                                                                                    39193423.842 4                     -1883.282 4        29.261    39193397.520 4                     -1456.312 4        24.872    39193408.841 4                     -1530.391 4        26.790
C08        46.000                                                                                                                                    39793621.537 3                     -2085.773 3        23.295    39793648.775 3                     -1611.833 3        20.976    39793603.974 4                     -1693.922 4        26.455
C14        47.000                                                                                                                                    23376690.017 5 121728585.10605     -1571.756 5        35.338    23376693.440 8  94128551.03108     -1215.434 8        50.788    23376690.756 7  98914459.71307     -1277.404 7        44.680
C41        49.000                                                                                                                                    24802247.539 6 129151868.40206      2420.387 6        38.769                                                                    24802253.285 6 104946475.44906      1966.588 6        40.353
C27        52.000                                                                                                                                    22973397.944 7 119628573.54607      1211.918 7        46.901                                                                    22973396.579 6  97207984.54506       984.572 6        36.964
C42        54.000                                                                                                                                    24880497.077 6 129559259.92706     -3003.725 6        36.276
I09        55.000    38207929.177 6 149936123.82106       -50.467 6        36.136
C36        56.000                                                                                                                                    26371659.789 5 137324210.59405      -104.106 5        30.702                                                                    26371663.473 6 111587139.25806       -84.791 6        38.147
I06        58.000    38754947.505 6 152082897.03506      -548.699 6        38.865
I01        59.000   369009659.287 4 144932248.13504     -2133.984 4        26.000
> 2025 01 01 21 00 25.0000000  0 38
G10         2.000    20595101.768 8 108228128.80608      -982.447 8        52.072                                    20595097.855 8  84333535.70808      -765.545 8        48.024    20595100.057 6  84333495.72106      -765.688 6        40.193
G23         4.000    22082661.531 5 116045175.46105     -3514.545 5        33.862                                    22082656.295 1  90424755.70801     -2738.676 1        11.185    22082684.064 6  90424909.63816     -2738.586 6        38.096
G08         6.000    20477157.699 7 107608711.94807       513.761 7        47.806                                    20477153.155 6  83850510.69706       400.332 6        37.452    20477155.441 6  83850538.72906       400.366 6        38.790
G27         7.000    20127877.953 8 105772740.24808     -1896.107 8        49.639                                    20127873.128 7  82420253.11507     -1477.484 7        46.329    20127873.922 7  82420312.09307     -1477.461 7        42.432
G21         8.000    22050704.991 6 115877172.52906      1349.427 6        40.903                                    22050700.433 3  90293929.91503      1051.510 3        21.095
G02         9.000    24125518.900 5 126780464.50915      1902.123 5        35.776
E03        11.000    27501589.283 3                     -1925.876 3        20.905                                                                                                                                    27501555.848 4                     -1476.112 4        27.473
E08        12.000                                                                                                                                                                                                    26202008.679 6 105504627.52806       381.336 6        36.336
E13        16.000    24271033.807 7 127545225.69707     -2422.031 7        45.526                                                                    24271035.906 8  95244807.64908     -1808.698 8        48.910    24271035.747 7  97729409.21407     -1855.888 7        46.842
E31        17.000    26398234.906 7 138723638.82107       797.296 7        42.432                                                                    26398234.177 6 103592459.45906       595.365 6        41.435    26398234.243 7 106294764.05207       610.929 7        45.974
G16        18.000    23558128.238 6 123798761.74606     -4515.075 6        41.530                                    23558123.071 2  96466512.99602     -3518.284 2        13.636
E26        19.000    23514141.554 5 123567632.94205       -90.995 5        35.367                                                                    23514140.386 7  92274610.71907       -67.985 7        42.732    23514140.521 8  94681767.30508       -69.787 8        48.077
E21        22.000    26384418.485 5 138651052.80005     -3886.903 5        31.675                                                                    26384420.927 6 103538152.78106     -2902.444 6        36.102    26384418.501 6 106239196.98406     -2978.187 6        37.735
S36        23.000    38097389.137 5 200202989.87105      -852.993 5        35.162
S23        24.000    38052821.762 6 199968892.71406      -852.087 6        39.940
R20        26.000    20357786.945 4 108862290.40204      1182.457 4        26.862                                                                    20357796.060 7  84670845.96807       920.006 7        47.040
R05        27.000    22182498.831 7 118578161.39107      3468.088 7        46.762                                                                    22182502.430 6  92227484.28006      2697.360 6        40.803
E33        28.000    26685752.686 3                      1436.901 3        21.357                                                                    26685804.652 3                      1072.889 3        20.976    26685747.195 5 107452436.10505      1101.375 5        32.737
R19        29.000                                                                                                                                    20273430.099 6  84349365.16406     -2039.019 6        38.117
R18        30.000                                                                                                                                    23157588.331 3                     -3154.801 3        19.701
R04        31.000    20070461.131 6 107476359.04706       594.734 6        40.296                                                                    20070458.612 6  83592737.68306       462.576 6        41.735
R03        32.000    21547015.872 6 115342682.05516     -3283.548 6        39.685                                                                    21547004.306 4                     -2554.066 4        24.391
R09        34.000                                                                                                                                    23318683.244 4                     -3865.499 4        26.024
R10        35.000    21789650.923 6 116151092.57406     -3249.269 6        37.157
C33        37.000                                                                                                                                    22662008.816 8 118006984.81408       125.162 8        50.545                                                                    22662020.062 8  95890434.83108       101.556 8        49.342
C28        40.000                                                                                                                                    21352361.207 8 111187608.72108     -1071.075 8        48.998                                                                    21352359.899 8  90348818.98908      -870.450 8        48.663
R11        41.000    22313354.464 6 119235709.43806       442.712 6        40.358                                                                    22313354.626 5  92738934.41405       344.174 5        33.371
C43        42.000                                                                                                                                                                                                                                                                    24913830.215 5                     -2916.146 5        30.377
C13        45.000                                                                                                                                    38895434.807 5                     -1883.579 5        30.309    38895414.987 4                     -1456.599 4        26.443    38895424.667 4                     -1530.025 4        25.729
C08        46.000                                                                                                                                    39495831.337 3                     -2084.263 3        23.695                                                                    39495813.899 4                     -1693.634 4        27.090
C14        47.000                                                                                                                                    23078414.320 6 120175357.29806     -1574.923 6        38.634    23078412.662 8  92927496.76508     -1217.823 8        51.255    23078409.720 7  97652334.89507     -1279.874 7        44.965
C41        49.000                                                                                                                                    24500131.137 6 127578670.93406      2419.050 6        37.270                                                                    24500137.461 6 103668123.64806      1965.574 6        40.060
C27        52.000                                                                                                                                    22672443.104 7 118061419.52807      1210.629 7        47.260                                                                    22672440.911 6  95934543.55406       983.641 6        36.057
C42        54.000                                                                                                                                    24583589.940 6 128013191.56406     -3006.199 6        36.057                                                                    24583588.526 5                     -2442.827 5        32.515
I09        55.000    37908201.590 5 148759928.75505       -50.783 5        35.790
C36        56.000                                                                                                                                    26071967.341 4 135763641.97904      -107.238 4        29.725                                                                    26071973.309 6 110319049.37906       -87.056 6        38.438
I06        58.000    38455854.787 6 150909192.70706      -548.927 6        38.835
I01        59.000   368712585.773 4 143766475.83504     -2135.193 4        25.699
> 2025 01 01 21 00 30.0000000  0 38
G10         2.000    20596038.197 8 108233049.46208      -985.572 8        51.972                                    20596033.583 7  84337369.99007      -767.980 7        47.399    20596036.725 6  84337329.99006      -767.953 6        39.679
G32         3.000    24055528.329 4                      2239.757 4        24.617
G23         4.000    22086007.733 5 116062754.30105     -3516.734 5        33.317                                    22086001.373 2  90438453.49302     -2740.326 2        13.091    22086029.111 6  90438607.44206     -2740.160 6        40.136
G08         6.000    20476670.277 8 107606150.20308       511.155 8        48.483                                    20476665.864 6  83848514.53706       398.303 6        37.062    20476667.389 6  83848542.57606       398.282 6        37.939
G27         7.000    20129683.805 8 105782228.99008     -1899.082 8        50.368                                    20129678.716 7  82427646.93407     -1479.809 7        46.759    20129679.687 7  82427705.92307     -1479.740 7        42.258
G21         8.000    22049421.144 6 115870430.01906      1347.972 6        40.441                                    22049417.761 3  90288676.00703      1050.365 3        20.833
G02         9.000    24123709.360 6 126770957.12806      1901.285 6        36.847
E03        11.000                                                                                                                                                                                                    27503390.747 4                     -1478.012 4        26.359
E08        12.000                                                                                                                                                                                                    26201535.339 5 105502725.44705       379.471 5        35.657
