     3.04           OBSERVATION DATA    M                   RINEX VERSION / TYPE
ssrcrin-15.6.1x                         20250101 034500 UTC PGM / RUN BY / DATE 
(00000000023479385599111004) Septentrio proprietary         COMMENT             
ract                                                        MARKER NAME         
01                                                          MARKER NUMBER       
geodetic                                                    MARKER TYPE         
NFB                 CLIMERS@TUW                             OBSERVER / AGENCY   
3296359             SEPT ASTERX SB3 PROB4.14.4              REC # / TYPE / VERS 
Unknown             Unknown                                 ANT # / TYPE        
  4127446.8939  1206914.9050  4695543.2757                  APPROX POSITION XYZ 
        0.0000        0.0000        0.0000                  ANTENNA: DELTA H/E/N
G   23 X1  C1C L1C D1C S1C C1W S1W C2W L2W D2W S2W C2L L2L  SYS / # / OBS TYPES 
       D2L S2L C5Q L5Q D5Q S5Q C1L L1L D1L S1L              SYS / # / OBS TYPES 
E   21 X1  C1C L1C D1C S1C C6C L6C D6C S6C C5Q L5Q D5Q S5Q  SYS / # / OBS TYPES 
       C7Q L7Q D7Q S7Q C8Q L8Q D8Q S8Q                      SYS / # / OBS TYPES 
S    9 X1  C1C L1C D1C S1C C5I L5I D5I S5I                  SYS / # / OBS TYPES 
R   17 X1  C1C L1C D1C S1C C2P L2P D2P S2P C2C L2C D2C S2C  SYS / # / OBS TYPES 
       C3Q L3Q D3Q S3Q                                      SYS / # / OBS TYPES 
C   25 X1  C1P L1P D1P S1P C5P L5P D5P S5P C2I L2I D2I S2I  SYS / # / OBS TYPES 
       C7I L7I D7I S7I C6I L6I D6I S6I C7D L7D D7D S7D      SYS / # / OBS TYPES 
J   17 X1  C1C L1C D1C S1C C2L L2L D2L S2L C5Q L5Q D5Q S5Q  SYS / # / OBS TYPES 
       C1L L1L D1L S1L                                      SYS / # / OBS TYPES 
I    5 X1  C5A L5A D5A S5A                                  SYS / # / OBS TYPES 
SEPTENTRIO RECEIVERS OUTPUT ALIGNED CARRIER PHASES.         COMMENT             
NO FURTHER PHASE SHIFT APPLIED IN THE RINEX ENCODER.        COMMENT             
G L1C                                                       SYS / PHASE SHIFT   
G L2W                                                       SYS / PHASE SHIFT   
G L2L  0.00000                                              SYS / PHASE SHIFT   
G L5Q  0.00000                                              SYS / PHASE SHIFT   
G L1L  0.00000                                              SYS / PHASE SHIFT   
E L1C  0.00000                                              SYS / PHASE SHIFT   
E L6C  0.00000                                              SYS / PHASE SHIFT   
E L5Q  0.00000                                              SYS / PHASE SHIFT   
E L7Q  0.00000                                              SYS / PHASE SHIFT   
E L8Q  0.00000                                              SYS / PHASE SHIFT   
S L1C                                                       SYS / PHASE SHIFT   
S L5I                                                       SYS / PHASE SHIFT   
R L1C                                                       SYS / PHASE SHIFT   
R L2P  0.00000                                              SYS / PHASE SHIFT   
R L2C                                                       SYS / PHASE SHIFT   
R L3Q  0.00000                                              SYS / PHASE SHIFT   
C L1P  0.00000                                              SYS / PHASE SHIFT   
C L5P  0.00000                                              SYS / PHASE SHIFT   
C L2I                                                       SYS / PHASE SHIFT   
C L7I                                                       SYS / PHASE SHIFT   
C L6I                                                       SYS / PHASE SHIFT   
C L7D                                                       SYS / PHASE SHIFT   
J L1C                                                       SYS / PHASE SHIFT   
J L2L  0.00000                                              SYS / PHASE SHIFT   
J L5Q  0.00000                                              SYS / PHASE SHIFT   
J L1L  0.00000                                              SYS / PHASE SHIFT   
I L5A                                                       SYS / PHASE SHIFT   
  2025     1     1     3    45    0.0000000     GPS         TIME OF FIRST OBS   
 C1C    0.000 C2C    0.000 C2P    0.000                     GLONASS COD/PHS/BIS 
DBHZ                                                        SIGNAL STRENGTH UNIT
    18                                                      LEAP SECONDS        
 24 R01  1 R02 -4 R03  5 R04  6 R05  1 R06 -4 R07  5 R08  6 GLONASS SLOT / FRQ #
    R09 -2 R10 -7 R11  0 R12 -1 R13 -2 R14 -7 R15  0 R16 -1 GLONASS SLOT / FRQ #
    R17  4 R18 -3 R19  3 R20  2 R21  4 R22 -3 R23  3 R24  2 GLONASS SLOT / FRQ #
                                                            END OF HEADER       
> 2025 01 01 03 45  0.0000000  0 38
G31         4.000    24851398.000 3                     -4376.989 3        19.761                                                                                                    24851437.934 3                     -3405.863 3        22.000
G07         5.000    22909592.099 6 120390707.73306      2105.642 6        41.933                                    22909588.598 4  93810886.73204      1640.760 4        24.677    22909587.489 5  93810945.88005      1640.813 5        32.796
E34         6.000    24263599.545 7 127506092.58907      -420.591 7        46.163                                                                    24263598.161 7  95215630.95307      -314.019 7        46.090    24263597.794 8  97699485.16208      -322.256 8        48.406
E04         7.000                                                                                                                                    27774034.873 4                     -2570.989 4        24.421
G03         8.000    22431938.802 5 117880760.41105     -3712.594 5        33.671                                    22431936.139 4  91855074.54604     -2892.933 4        26.144    22431935.861 6  91855036.53706     -2892.765 6        37.089
G09         9.000    20159041.212 7 105936476.98907      -457.189 7        44.686                                    20159040.165 7  82547914.73807      -356.254 7        43.024    20159040.173 6  82547905.72606      -356.210 6        41.576
G20        10.000    25124130.805 5                      2617.432 5        32.832
G04        11.000    20677018.923 7 108658492.49607     -2268.435 7        44.939                                    20677016.511 5  84668901.61005     -1767.618 5        34.310    20677015.593 7  84668920.62507     -1767.610 7        46.008
E09        12.000    24186799.295 7 127102449.01707     -2138.631 7        46.218                                                                    24186799.317 8  94914263.17808     -1597.044 8        50.236    24186798.482 8  97390264.30508     -1638.725 8        48.460
E06        14.000    25478331.892 7 133889572.40207     -2987.953 7        47.130                                                                    25478329.931 7  99982456.88107     -2231.312 7        43.263    25478331.081 7 102590663.19407     -2289.467 7        46.828
E15        16.000    27474534.072 6 144379794.13106      1848.578 6        40.031                                                                    27474534.514 6 107815996.90006      1380.360 6        40.722    27474534.448 6 110628606.00906      1416.555 6        36.359
G06        19.000    21345201.454 6 112169785.68806      -628.794 6        39.213                                    21345201.663 5  87405148.41605      -489.964 5        35.300    21345201.455 6  87405054.38606      -490.106 6        40.691
E36        20.000    24943858.189 7 131080993.48707     -3233.685 7        43.376                                                                    24943859.853 7  97885036.95007     -2414.703 7        47.371    24943858.951 7 100438590.91207     -2477.797 7        44.877
E05        21.000    22577174.215 7 118643881.11307       445.351 7        45.004                                                                    22577173.693 7  88597734.09007       332.585 7        46.449    22577172.933 7  90908966.61407       341.254 7        44.859
R07        23.000    19989794.272 7 107007179.19307       344.187 7        42.193                                                                    19989795.019 7  83227615.63407       267.687 7        42.427
S23        24.000    38314765.964 6 201345351.83206      -821.905 6        40.658
S36        25.000    38372027.609 5 201646402.84205      -826.604 5        34.038
G11        26.000    23380082.250 7 122862976.36807      1742.549 7        44.667                                    23380074.754 4  95737499.68504      1357.823 4        25.128    23380076.225 6  95737489.67906      1357.917 6        40.126
R15        28.000    23049466.043 6 123169353.34606     -3198.016 6        36.280                                                                    23049507.421 3                     -2487.186 3        22.705
R06        29.000    20342244.998 5 108550181.91705     -2605.959 5        31.336
C19        33.000                                                                                                                                    22095235.061 8 115055684.40708     -1134.993 8        50.808                                                                    22095229.856 8  93492134.30708      -922.158 8        48.443
R21        34.000                                                                                                                                    23221125.380 4                     -4189.500 4        28.957
R08        35.000                                                                                                                                    23222090.221 3                      1775.986 3        23.448
R22        37.000    20585272.314 6 109885550.05306     -2533.363 6        38.102                                                                    20585272.583 6  85466542.01906     -1970.238 6        37.017
C39        38.000                                                                                                                                    40274015.894 4                     -1955.092 4        24.602                                                                    40274011.384 4                     -1588.508 4        28.303
R16        39.000    21418933.625 7 114416146.58707       518.615 7        42.724                                                                    21418928.799 6  88990289.47406       403.422 6        38.195
C06        41.000                                                                                                                                    38971049.233 5                     -1644.958 5        33.132    38971041.920 4 156920217.50904     -1272.183 4        28.332    38971047.186 4                     -1336.678 4        26.299
R23        44.000    21610822.894 5 115603554.43805      1162.963 5        34.871
C16        45.000                                                                                                                                    39538102.455 4                     -1687.097 4        28.085    39538105.227 5 159203564.49705     -1304.856 5        32.719    39538098.875 4                     -1371.354 4        24.842
C09        46.000                                                                                                                                    38739664.705 5                     -1202.333 5        34.181    38739659.541 6 155988665.20206      -929.486 6        41.013    38739657.291 5 163920173.35205      -976.676 5        34.414
C44        48.000                                                                                                                                    24255461.115 6 126304584.21606     -1194.634 6        39.063                                                                    24255460.551 6 102632764.64206      -970.615 6        40.412
C37        49.000                                                                                                                                    25068103.932 5 130536159.71905     -1862.519 5        31.728                                                                    25068096.297 4                     -1514.035 4        29.365
C22        50.000                                                                                                                                    23534177.845 6 122548735.53606      1351.412 6        39.772                                                                    23534169.814 6  99580801.43606      1098.489 6        38.417
C35        51.000                                                                                                                                    24606124.172 4                     -3399.933 4        26.683                                                                    24606120.808 6 104116540.12106     -2762.450 6        37.463
C20        55.000                                                                                                                                    24476129.863 6 127453788.69606     -3188.745 6        41.418                                                                    24476104.172 6 103566487.10306     -2590.836 6        38.321
C12        56.000                                                                                                                                    25179897.470 7 131118336.14307       323.513 7        43.710    25179893.021 7 101389002.18107       250.168 7        46.943    25179892.508 7 106544430.24407       263.040 7        44.737
C34        57.000                                                                                                                                    26613288.327 4                      1302.497 4        28.294                                                                    26613284.192 4                      1058.365 4        29.687
I09        58.000    37822326.709 6 148422929.83806      -948.655 6        36.374
> 2025 01 01 03 45  5.0000000  0 39
G19         3.000    24592525.317 4                     -3884.157 4        26.958
G31         4.000    24855546.941 3                     -4373.434 3        20.333                                                                                                    24855588.181 3                     -3405.866 3        23.486
G07         5.000    22907588.896 7 120380183.40007      2104.345 7        42.277                                    22907584.354 4  93802685.97304      1639.742 4        24.226    22907580.600 5  93802745.10905      1639.788 5        30.574
E34         6.000    24264000.895 7 127508202.13207      -422.883 7        46.357                                                                    24263999.473 7  95217206.26607      -315.827 7        45.913    24263999.271 8  97701101.56108      -324.000 8        48.207
E04         7.000                                                                                                                                    27777309.876 3                     -2572.010 3        23.886
G03         8.000    22435471.579 5 117899326.49505     -3713.906 5        34.981                                    22435469.087 4  91869541.63404     -2893.955 4        25.459    22435468.720 6  91869503.64806     -2893.773 6        36.900
G09         9.000    20159477.811 7 105938769.18007      -459.309 7        44.625                                    20159476.582 7  82549700.85307      -357.898 7        42.627    20159476.536 6  82549691.84006      -357.906 6        40.765
G20        10.000    25121639.968 5                      2617.427 5        32.784
G04        11.000    20679178.991 7 108669839.83607     -2270.229 7        44.758                                    20679175.737 5  84677743.69505     -1769.007 5        34.167    20679174.920 7  84677762.70407     -1768.941 7        46.024
E09        12.000    24188834.827 7 127113145.53407     -2139.623 7        45.753                                                                    24188834.744 8  94922250.82808     -1597.766 8        50.272    24188833.953 8  97398460.33808     -1639.496 8        48.329
E06        14.000    25481174.948 7 133904514.27007     -2988.469 7        46.739                                                                    25481173.009 7  99993614.77307     -2231.743 7        42.590    25481174.362 7 102602112.14807     -2289.820 7        46.356
E15        16.000    27472776.096 6 144370554.50606      1847.434 6        40.246                                                                    27472776.687 6 107809097.18606      1379.632 6        41.035    27472777.270 6 110621526.34506      1415.596 6        37.282
G06        19.000    21345802.523 6 112172939.31206      -632.220 6        38.946                                    21345801.035 5  87407605.77605      -492.631 5        35.019    21345801.798 6  87407511.72606      -492.515 6        41.089
E36        20.000    24946936.115 7 131097166.41507     -3235.101 7        42.790                                                                    24946936.670 7  97897114.13907     -2415.916 7        46.628    24946937.002 7 100450983.16107     -2478.908 7        44.867
E05        21.000    22576751.292 7 118641658.09707       444.126 7        44.835                                                                    22576750.690 7  88596074.04807       331.710 7        46.575    22576749.848 7  90907263.27107       340.332 7        44.761
R07        23.000    19989472.375 6 107005463.86106       342.384 6        41.578                                                                    19989474.848 7  83226281.51907       266.237 7        43.492
S23        24.000    38315547.447 6 201349462.69006      -821.986 6        40.944
S36        25.000    38372813.639 5 201650535.94105      -826.028 5        34.162
G11        26.000    23378426.886 7 122854269.36207      1740.483 7        46.292                                    23378417.566 4  95730715.02504      1356.222 4        25.444    23378418.988 6  95730705.02906      1356.246 6        39.243
R15        28.000    23052460.099 6 123185352.79606     -3201.338 6        36.378                                                                    23052494.277 4                     -2490.166 4        29.858
R06        29.000    20344692.382 5 108563216.31005     -2607.648 5        33.431
C19        33.000                                                                                                                                    22096325.722 8 115061363.46808     -1136.291 8        50.632                                                                    22096320.581 8  93496749.01808      -923.456 8        48.502
R21        34.000    23226176.282 5 124287828.25615     -5386.995 5        34.010                                                                    23226157.239 4                     -4189.900 4        27.772
R08        35.000                                                                                                                                    23219961.197 4                      1775.317 4        26.707
R22        37.000    20587650.051 6 109898226.93706     -2537.292 6        39.003                                                                    20587646.911 6  85476401.75006     -1973.401 6        36.439
C39        38.000                                                                                                                                    40275893.296 4                     -1954.836 4        24.135                                                                    40275888.522 4                     -1588.858 4        28.531
R16        39.000    21418446.993 6 114413564.84406       514.523 6        41.857                                                                    21418444.294 5  88988281.51405       400.149 5        35.190
C06        41.000                                                                                                                                    38972631.100 5                     -1645.317 5        33.216    38972622.061 4 156926578.13304     -1272.289 4        27.940    38972626.984 4                     -1336.714 4        26.862
R23        44.000    21609739.719 5 115597750.96805      1158.824 5        34.910
C16        45.000                                                                                                                                    39539722.868 4                     -1687.508 4        28.284    39539724.952 5 159210089.38305     -1304.736 5        32.114    39539718.926 4                     -1371.686 4        25.805
C09        46.000                                                                                                                                    38740819.607 5 201733610.72215     -1202.463 5        34.929    38740814.923 6 155993314.51206      -929.853 6        41.058    38740811.867 5 163925059.08005      -977.550 5        34.076
C44        48.000                                                                                                                                    24256610.633 6 126310565.19306     -1197.264 6        38.402                                                                    24256607.779 6 102637624.67706      -973.076 6        40.923
C37        49.000                                                                                                                                    25069890.700 4 130545480.15104     -1864.707 4        27.293                                                                    25069888.867 4                     -1515.703 4        29.450
C22        50.000                                                                                                                                    23532879.643 6 122541980.16506      1350.913 6        39.625                                                                    23532872.148 6  99575312.18606      1097.323 6        38.159
C35        51.000                                                                                                                                    24609391.264 4                     -3400.978 4        28.009                                                                    24609385.372 6 104130356.61206     -2763.754 6        36.677
C20        55.000                                                                                                                                    24479189.556 6 127469734.44206     -3189.185 6        38.066                                                                    24479166.054 6 103579444.36806     -2591.778 6        38.420
C12        56.000                                                                                                                                    25179589.751 7 131116725.76807       320.929 7        44.197    25179584.069 7 101387756.95407       248.118 7        47.296    25179583.351 7 106543121.68707       260.647 7        44.996
C34        57.000                                                                                                                                    26612041.683 5                      1300.076 5        30.158                                                                    26612035.746 5                      1056.802 5        30.174
I09        58.000    37823535.035 6 148427673.51106      -948.708 6        36.242
> 2025 01 01 03 45 10.0000000  0 39
G19         3.000    24596223.684 4                     -3885.399 4        27.257
G31         4.000                                                                                                                                                                    24859750.591 3                     -3408.457 3        23.733
G07         5.000    22905587.141 6 120369666.01806      2102.623 6        41.731                                    22905580.588 3  93794490.64803      1638.389 3        23.562    22905579.151 4  93794549.68104      1638.714 4        28.313
E34         6.000    24264404.407 7 127510323.54907      -425.570 7        46.705                                                                    24264403.137 7  95218790.43707      -317.850 7        45.705    24264403.125 8  97702727.05608      -326.115 8        48.361
E04         7.000                                                                                                                                    27780587.919 4                     -2571.819 4        24.105
G03         8.000    22439003.930 5 117917899.11905     -3715.340 5        34.562                                    22439003.216 4  91884013.80304     -2895.074 4        24.346    22439002.423 6  91883975.81006     -2894.818 6        36.673
G09         9.000    20159916.455 7 105941072.55707      -461.945 7        44.247                                    20159914.939 7  82551495.68707      -359.955 7        42.123    20159914.846 6  82551486.66806      -359.981 6        40.634
G20        10.000    25119145.577 5                      2617.250 5        31.615
G04        11.000    20681339.927 7 108681196.37807     -2272.355 7        45.138                                    20681336.698 5  84686592.95605     -1770.667 5        34.210    20681336.009 7  84686611.96207     -1770.647 7        46.118
E09        12.000    24190871.757 7 127123847.32307     -2140.956 7        45.567                                                                    24190871.150 8  94930242.42708     -1598.827 8        50.192    24190870.416 8  97406660.41908     -1640.535 8        48.363
E06        14.000    25484018.785 7 133919458.93507     -2989.329 7        46.522                                                                    25484016.803 6 100004774.72806     -2232.240 6        41.840    25484018.267 7 102613563.25007     -2290.587 7        46.228
E15        16.000    27471018.547 6 144361319.96306      1846.317 6        40.248                                                                    27471019.470 6 107802201.26506      1378.721 6        40.906    27471020.258 6 110614450.55706      1414.540 6        38.556
G06        19.000    21346405.681 6 112176109.71206      -635.948 6        39.820                                    21346403.649 5  87410076.19905      -495.540 5        35.257    21346404.624 6  87409982.15106      -495.484 6        41.187
E36        20.000    24950015.257 7 131113347.46207     -3237.149 7        42.332                                                                    24950015.174 7  97909197.36907     -2417.396 7        45.770    24950016.478 7 100463381.61607     -2480.424 7        45.467
E05        21.000    22576329.611 7 118639441.49207       442.570 7        44.873                                                                    22576328.987 7  88594418.81107       330.445 7        46.751    22576327.936 7  90905564.84007       339.055 7        44.855
R07        23.000    19989154.159 7 107003757.57707       340.258 7        42.569                                                                    19989155.603 7  83224954.39107       264.549 7        42.573
S23        24.000    38316329.346 6 201353573.48306      -822.289 6        41.054
S36        25.000    38373601.526 5 201654668.81905      -826.669 5        34.162
G11        26.000    23376771.614 7 122845573.55707      1737.938 7        47.906                                    23376762.842 4  95723939.08704      1354.233 4        26.060    23376762.757 6  95723929.08306      1354.125 6        38.691
R15        28.000    23055458.369 6 123201370.05706     -3205.627 6        36.019                                                                    23055493.202 5                     -2493.021 5        32.611
R06        29.000    20347138.531 5 108576258.80805     -2609.543 5        34.452
C19        33.000                                                                                                                                    22097417.483 8 115067049.48008     -1138.026 8        50.253                                                                    22097412.493 8  93501369.36208      -924.607 8        48.402
R21        34.000    23231207.010 5                     -5387.850 5        33.198                                                                    23231187.989 4                     -4190.745 4        26.946
R08        35.000    23217872.439 6 124330671.78916      2281.174 6        38.985                                                                    23217832.467 5                      1774.597 5        31.140
R22        37.000    20590029.286 6 109910924.82206     -2541.798 6        41.175                                                                    20590024.287 5  85486277.86005     -1976.884 5        35.900
C39        38.000                                                                                                                                    40277768.976 4                     -1956.417 4        24.211                                                                    40277766.066 4                     -1588.549 4        28.095
R16        39.000    21417966.280 7 114411004.31407       509.796 7        42.019                                                                    21417965.343 5  88986290.04105       396.451 5        31.064
C06        41.000                                                                                                                                    38974211.345 5                     -1645.751 5        33.407    38974202.855 4 156932940.28004     -1273.132 4        27.653    38974206.562 4                     -1337.819 4        26.898
R23        44.000    21608659.220 5 115591968.05905      1154.379 5        35.410
C16        45.000                                                                                                                                    39541344.145 4                     -1688.667 4        28.588    39541346.344 5 159216615.54305     -1305.515 5        32.593    39541339.335 4                     -1371.252 4        24.977
C09        46.000                                                                                                                                    38741975.312 5 201739625.81005     -1203.368 5        35.600    38741969.846 6 155997965.77906      -930.660 6        41.163    38741966.578 5 163929946.81105      -977.765 5        33.539
C44        48.000                                                                                                                                    24257761.004 6 126316559.81506     -1200.467 6        37.626                                                                    24257758.023 6 102642495.77106      -975.219 6        40.994
C37        49.000                                                                                                                                                                                                                                                                    25071682.538 5                     -1517.868 5        30.226
C22        50.000                                                                                                                                    23531585.631 6 122535228.63806      1349.905 6        40.064                                                                    23531575.553 6  99569826.01106      1097.116 6        37.645
C35        51.000                                                                                                                                    24612658.902 4                     -3401.858 4        25.083                                                                    24612651.149 5 104144178.81405     -2764.868 5        35.057
C20        55.000                                                                                                                                    24482249.017 5 127485683.36405     -3190.309 5        32.886                                                                    24482228.662 6 103592404.21506     -2592.231 6        38.429
C12        56.000                                                                                                                                    25179282.797 7 131115128.67507       317.884 7        44.423    25179277.174 7 101386521.98507       245.886 7        47.274    25179276.725 7 106541823.91907       258.454 7        45.187
C34        57.000                                                                                                                                    26610793.014 5                      1298.444 5        30.483                                                                    26610789.045 4                      1055.122 4        29.384
I09        58.000    37824744.134 5 148432417.59505      -949.027 5        35.871
> 2025 01 01 03 45 15.0000000  0 39
G19         3.000    24599913.082 4                     -3886.055 4        26.707
G07         5.000    22903586.952 6 120359155.82806      2101.374 6        40.725                                    22903578.106 3  93786300.92603      1637.428 3        23.695    22903580.221 4  93786360.00104      1637.025 4        27.090
E34         6.000    24264810.311 7 127512457.07607      -427.866 7        46.870                                                                    24264809.171 7  95220383.65207      -319.573 7        45.443    24264809.364 8  97704361.83508      -327.850 8        48.357
E04         7.000                                                                                                                                    27783863.852 3                     -2572.382 3        22.838
G03         8.000    22442538.339 5 117936478.57805     -3716.733 5        33.970                                    22442538.508 3  91898491.29303     -2896.154 3        22.838    22442536.921 6  91898453.28306     -2895.944 6        36.011
G09         9.000    20160356.811 7 105943387.33907      -464.060 7        44.333                                    20160355.296 6  82553299.40106      -361.598 6        41.495    20160355.397 6  82553290.38606      -361.710 6        40.656
G20        10.000    25116646.610 4                      2617.088 4        28.512
G04        11.000    20683502.514 7 108692562.37207     -2274.034 7        45.621                                    20683499.470 5  84695449.57305     -1771.975 5        34.390    20683499.066 7  84695468.57607     -1772.028 7        46.256
E09        12.000    24192909.358 7 127134554.65407     -2142.007 7        45.294                                                                    24192908.507 8  94938238.15608     -1599.539 8        50.060    24192908.016 8  97414864.73408     -1641.240 8        48.266
E06        14.000    25486863.243 7 133934406.62007     -2989.854 7        46.332                                                                    25486861.070 6 100015936.97306     -2232.766 6        41.244    25486862.824 7 102625016.66607     -2290.916 7        45.973
E15        16.000    27469262.347 6 144352090.78306      1845.185 6        40.715                                                                    27469262.409 6 107795309.34006      1378.056 6        40.791    27469263.638 6 110607378.84806      1413.833 6        39.345
G06        19.000    21347012.414 6 112179297.13906      -639.190 6        41.604                                    21347009.714 5  87412559.88805      -498.060 5        35.652    21347010.248 6  87412465.86006      -498.017 6        41.499
E36        20.000    24953096.017 6 131129536.83706     -3238.698 6        41.781                                                                    24953095.324 7  97921286.82807     -2418.518 7        44.909    24953097.460 7 100475786.46607     -2481.575 7        45.761
E05        21.000    22575909.505 7 118637231.54407       441.327 7        45.255                                                                    22575908.512 7  88592768.53507       329.562 7        46.923    22575907.481 7  90903871.51007       338.165 7        44.941
R07        23.000    19988837.236 7 107002060.99207       338.253 7        43.033                                                                    19988838.410 7  83223634.81607       263.037 7        43.141
S23        24.000    38317110.588 6 201357684.14406      -822.153 6        40.734
S36        25.000    38374386.416 5 201658802.22605      -826.713 5        34.090
G11        26.000    23375118.626 8 122836889.18008      1735.729 8        49.128                                    23375110.327 4  95717172.04504      1352.516 4        26.611    23375109.701 6  95717162.04706      1352.550 6        37.739
R15        28.000    23058458.787 5 123217405.34605     -3208.683 5        33.234                                                                    23058498.097 5                     -2495.960 5        31.736
R06        29.000    20349583.458 5 108589309.53905     -2611.069 5        34.481
C19        33.000                                                                                                                                    22098510.890 8 115072742.67108     -1139.346 8        49.769                                                                    22098505.766 8  93505995.55108      -925.848 8        48.178
R21        34.000    23236239.670 5 124341706.76015     -5388.511 5        31.985                                                                    23236220.407 4                     -4191.453 4        26.240
R08        35.000    23215740.960 6 124319266.86416      2280.745 6        38.135                                                                    23215707.445 5                      1773.791 5        32.461
R22        37.000    20592411.614 6 109923643.88506     -2545.987 6        39.745                                                                    20592407.285 6  85496170.43606     -1980.184 6        36.491
C39        38.000                                                                                                                                    40279646.749 4                     -1954.937 4        24.842                                                                    40279643.813 4                     -1589.665 4        28.019
R16        39.000    21417491.828 6 114408465.17306       505.646 6        40.944                                                                    21417491.110 5  88984315.14205       393.269 5        30.075
C06        41.000                                                                                                                                    38975791.205 5 202957170.63815     -1646.233 5        33.892    38975783.238 4 156939304.05204     -1272.622 4        26.778    38975786.650 4                     -1337.926 4        27.641
R23        44.000    21607581.997 6 115586205.81506      1150.455 6        36.412
C16        45.000                                                                                                                                    39542967.487 4                     -1688.552 4        29.137    39542966.183 5 159223143.14805     -1305.591 5        32.090    39542959.569 4                     -1371.802 4        25.835
C09        46.000                                                                                                                                    38743131.201 5 201745643.66205     -1204.021 5        35.814    38743125.359 6 156002619.15006      -930.936 6        41.118    38743122.542 5 163934836.77405      -978.281 5        33.144
C44        48.000                                                                                                                                    24258913.850 6 126322568.28306     -1203.180 6        37.898                                                                    24258911.836 6 102647378.16406      -977.746 6        41.299
C37        49.000                                                                                                                                    25073464.129 4                     -1870.903 4        27.772                                                                    25073476.978 4                     -1520.082 4        29.972
C22        50.000                                                                                                                                    23530292.680 6 122528481.20006      1349.174 6        39.225                                                                    23530280.018 6  99564343.18806      1096.159 6        37.554
C35        51.000                                                                                                                                                                                                                                                                    24615918.361 5 104158006.95005     -2766.356 5        33.581
I01        54.000   337563220.229 6  21529775.18016     -3054.874 6        39.679
C20        55.000                                                                                                                                                                                                                                                                    24485291.782 6 103605366.86506     -2592.710 6        37.312
C12        56.000                                                                                                                                    25178977.618 7 131113545.10907       315.502 7        44.041    25178972.495 7 101385297.47807       243.879 7        47.069    25178972.799 7 106540537.16107       256.277 7        45.217
C34        57.000                                                                                                                                    26609545.650 4                      1296.202 4        29.782                                                                    26609542.280 4                      1053.506 4        28.635
I09        58.000    37825952.612 5 148437162.26205      -948.977 5        35.557
> 2025 01 01 03 45 20.0000000  0 39
G19         3.000    24603601.392 4                     -3887.678 4        25.173
G31         4.000    24868065.687 3                     -4375.893 3        22.152
G07         5.000    22901587.641 6 120348653.36406      2099.768 6        39.775                                    22901577.601 3  93778117.20303      1636.174 3        23.333    22901581.299 4  93778176.23804      1636.477 4        26.814
E34         6.000    24265218.536 7 127514603.19907      -430.475 7        47.193                                                                    24265217.657 7  95221986.27507      -321.433 7        45.094    24265217.781 8  97706006.26308      -329.776 8        48.457
E04         7.000                                                                                                                                    27787139.079 3                     -2570.548 3        21.881
G03         8.000    22446074.223 5 117955065.22705     -3717.817 5        33.988                                    22446074.770 3  91912974.40003     -2896.992 3        21.786    22446074.065 5  91912936.40905     -2897.052 5        34.510
G09         9.000    20160799.463 7 105945714.05607      -466.487 7        43.805                                    20160797.754 6  82555112.41806      -363.494 6        40.868    20160797.739 6  82555103.39806      -363.424 6        40.081
G04        11.000    20685667.380 7 108703938.31107     -2276.151 7        45.777                                    20685664.227 5  84704313.94305     -1773.627 5        34.705    20685663.892 7  84704332.93707     -1773.606 7        46.445
E09        12.000    24194948.041 7 127145267.98307     -2143.203 7        45.449                                                                    24194947.047 8  94946238.36608     -1600.414 8        49.831    24194946.681 8  97423073.65208     -1642.207 8        48.256
E06        14.000    25489708.490 7 133949357.83107     -2990.586 7        46.243                                                                    25489705.920 6 100027101.83206     -2233.107 6        40.303    25489708.065 7 102636472.78807     -2291.501 7        45.836
E15        16.000    27467507.772 6 144342867.45706      1844.226 6        40.675                                                                    27467506.670 6 107788421.78006      1377.199 6        40.770    27467508.045 6 110600311.62306      1413.046 6        40.162
G06        19.000    21347621.408 6 112182502.06706      -642.590 6        41.933                                    21347619.228 6  87415057.21606      -500.716 6        36.170    21347620.527 6  87414963.19306      -500.798 6        41.831
E36        20.000    24956178.120 6 131145735.02906     -3240.469 6        41.516                                                                    24956177.452 7  97933382.87607     -2419.813 7        43.877    24956179.805 7 100488198.07007     -2482.959 7        46.007
E05        21.000    22575490.290 7 118635028.74507       439.929 7        45.487                                                                    22575489.469 7  88591123.58807       328.583 7        47.010    22575488.230 7  90902183.65507       337.113 7        44.886
R07        23.000    19988521.291 7 107000374.31107       336.404 7        43.761                                                                    19988523.996 7  83222322.95807       261.652 7        43.951
S23        24.000    38317894.213 6 201361795.28306      -822.264 6        40.822
S36        25.000    38375171.414 5 201662936.55505      -826.673 5        34.305
G11        26.000    23373467.834 8 122828216.73508      1733.353 8        49.699                                    23373460.169 4  95710414.31104      1350.665 4        26.994    23373459.259 5  95710404.29705      1350.546 5        35.671
R15        28.000    23061460.728 5 123233459.13205     -3212.411 5        31.381                                                                    23061502.240 4                     -2498.655 4        27.521
R06        29.000    20352029.064 5 108602369.01005     -2612.479 5        33.180
C19        33.000                                                                                                                                    22099605.977 8 115078443.52408     -1140.877 8        48.837                                                                    22099600.342 7  93510627.95007      -927.179 7        47.926
R21        34.000    23241273.292 4                     -5388.971 4        29.924                                                                    23241258.387 4                     -4191.978 4        25.459
R08        35.000                                                                                                                                    23213581.457 5                      1773.245 5        32.455
R22        37.000    20594794.011 6 109936384.66106     -2550.300 6        37.251                                                                    20594795.652 6  85506079.93506     -1983.448 6        37.025
C39        38.000                                                                                                                                    40281523.466 4                     -1955.487 4        24.226                                                                    40281521.281 4                     -1589.300 4        27.090
R16        39.000    21417020.965 6 114405947.92406       501.440 6        40.005                                                                    21417022.614 5  88982357.34005       389.890 5        33.030
C06        41.000                                                                                                                                    38977370.985 5 202965403.07905     -1646.863 5        33.778    38977363.913 4 156945669.96304     -1273.734 4        26.862    38977367.887 4                     -1337.796 4        27.329
R23        44.000    21606508.992 5 115580464.88005      1145.945 5        34.671
C16        45.000                                                                                                                                    39544588.204 4                     -1689.152 4        29.137    39544588.340 5 159229672.55705     -1306.021 5        31.909    39544582.164 4                     -1372.199 4        26.132
C09        46.000                                                                                                                                    38744287.591 6 201751664.72506     -1204.447 6        36.208    38744281.878 6 156007275.01106      -931.325 6        41.054    38744278.696 5 163939729.41805      -979.145 5        32.731
C44        48.000                                                                                                                                    24260073.751 6 126328591.07006     -1205.888 6        38.183                                                                    24260068.576 6 102652272.17806      -980.056 6        40.934
C37        49.000                                                                                                                                    25075268.460 5                     -1873.182 5        31.864                                                                    25075273.783 5                     -1522.520 5        30.174
C22        50.000                                                                                                                                    23529000.206 6 122521738.34406      1348.237 6        38.760                                                                    23528985.490 6  99558864.09706      1095.335 6        36.904
C35        51.000                                                                                                                                    24619189.569 4                     -3405.754 4        29.801                                                                    24619187.855 5 104171841.32505     -2767.574 5        32.216
I01        54.000   337567111.846 6  21545049.30406     -3054.889 6        39.823
C20        55.000                                                                                                                                    24488367.382 4 127517592.23804     -3192.236 4        27.976                                                                    24488355.349 6 103618332.70506     -2593.640 6        36.318
C12        56.000                                                                                                                                    25178675.303 7 131111975.59007       312.584 7        43.663    25178670.591 7 101384083.82907       241.741 7        46.794    25178671.428 7 106539261.79807       253.860 7        45.297
C34        57.000                                                                                                                                    26608302.588 4                      1293.903 4        29.782                                                                    26608299.044 4                      1051.584 4        28.863
I09        58.000    37827162.440 5 148441907.89505      -949.155 5        35.771
> 2025 01 01 03 45 25.0000000  0 39
G19         3.000    24607295.659 4                     -3887.406 4        25.143
G31         4.000    24872228.441 3                     -4377.530 3        21.952
G07         5.000    22899590.184 6 120338158.35706      2098.321 6        38.195                                    22899579.483 3  93769939.31103      1635.051 3        22.438    22899586.454 4  93769998.33904      1634.911 4        28.673
E34         6.000    24265629.226 7 127516761.67607      -432.850 7        47.500                                                                    24265628.418 7  95223598.12607      -323.214 7        44.936    24265628.637 8  97707660.16008      -331.683 8        48.496
E04         7.000                                                                                                                                    27790416.322 3                     -2571.015 3        21.214
G03         8.000    22449611.745 5 117973658.94705     -3719.356 5        33.659                                    22449612.212 3  91927462.97903     -2898.207 3        20.738    22449612.666 5  91927424.94705     -2898.113 5        33.281
G09         9.000    20161244.389 7 105948052.37707      -468.841 7        43.323                                    20161242.287 6  82556934.47506      -365.334 6        40.267    20161242.788 6  82556925.48006      -365.209 6        39.757
G04        11.000    20687833.402 7 108715323.89207     -2277.995 7        45.552                                    20687830.894 5  84713185.82805     -1775.061 5        34.781    20687830.649 7  84713204.81907     -1775.041 7        46.728
E09        12.000    24196987.922 7 127155987.06107     -2144.310 7        45.824                                                                    24196986.684 8  94954242.86608     -1601.234 8        49.636    24196986.485 8  97431286.97108     -1643.060 8        48.239
E06        14.000    25492554.355 7 133964312.27507     -2991.144 7        46.368                                                                    25492551.556 6 100038269.11306     -2233.646 6        39.474    25492553.874 7 102647931.38507     -2291.886 7        45.834
E15        16.000    27465752.784 6 144333649.80606      1843.023 6        40.231                                                                    27465752.420 6 107781538.49806      1376.306 6        40.420    27465753.437 6 110593248.75906      1412.289 6        40.274
G06        19.000    21348233.674 6 112185724.25306      -646.057 6        41.878                                    21348232.225 6  87417567.99506      -503.417 6        36.964    21348233.622 7  87417473.97507      -503.330 7        42.066
E36        20.000    24959261.796 6 131161941.80106     -3242.168 6        40.739                                                                    24959261.687 7  97945485.30407     -2421.054 7        43.065    24959263.589 7 100500616.23107     -2484.224 7        45.998
E05        21.000    22575072.000 7 118632832.82907       438.539 7        45.144                                                                    22575071.643 7  88589483.79207       327.538 7        47.166    22575070.368 7  90900501.07407       336.037 7        44.938
R07        23.000    19988208.421 7 106998697.45707       334.425 7        45.177                                                                    19988210.876 7  83221018.72807       260.154 7        44.281
S23        24.000    38318674.730 6 201365906.81606      -822.311 6        40.622
S36        25.000    38375962.355 5 201667070.70105      -826.717 5        34.262
G11        26.000    23371818.888 8 122819555.97608      1731.043 8        49.093                                    23371812.228 4  95703665.66704      1348.858 4        27.401    23371812.829 5  95703655.66105      1348.769 5        34.705
R15        28.000    23064466.865 5 123249531.27405     -3216.231 5        30.921                                                                    23064504.926 4                     -2500.915 4        24.241
R06        29.000    20354476.237 5 108615436.80005     -2614.054 5        31.675
C19        33.000                                                                                                                                    22100702.681 8 115084151.78408     -1142.306 8        48.711                                                                    22100696.340 7  93515266.39307      -928.174 7        47.542
R21        34.000                                                                                                                                    23246292.602 4                     -4191.869 4        26.934
R08        35.000                                                                                                                                    23211452.772 5                      1772.742 5        30.777
R22        37.000    20597185.236 5 109949146.77905     -2554.499 5        33.862                                                                    20597187.082 6  85516006.09306     -1986.791 6        38.823
C39        38.000                                                                                                                                    40283403.860 4                     -1956.282 4        24.120                                                                    40283399.998 4                     -1589.712 4        28.057
R16        39.000    21416553.654 6 114403452.27206       496.994 6        39.489                                                                    21416554.214 5  88980416.29505       386.756 5        33.778
C06        41.000                                                                                                                                    38978953.009 5 202973637.94405     -1647.130 5        33.760    38978947.306 4 156952037.69504     -1273.811 4        26.551    38978949.227 4                     -1338.860 4        27.210
R23        44.000    21605439.659 5 115574744.82505      1142.046 5        34.200
C16        45.000                                                                                                                                    39546210.781 5                     -1689.551 5        30.106    39546210.917 5 159236203.57905     -1306.276 5        30.974    39546202.779 4                     -1372.074 4        26.275
C09        46.000                                                                                                                                    38745444.697 6 201757688.78406     -1205.125 6        36.423    38745438.291 6 156011933.20706      -931.774 6        41.068    38745434.767 5 163944624.41905      -978.644 5        32.012
C44        48.000                                                                                                                                                                                                                                                                    24261228.044 6 102657177.67406      -982.182 6        40.694
C37        49.000                                                                                                                                                                                                                                                                    25077072.677 4                     -1524.317 4        29.611
C22        50.000                                                                                                                                    23527707.187 6 122514999.84106      1347.374 6        37.119                                                                    23527691.624 6  99553388.54206      1095.039 6        36.306
C35        51.000                                                                                                                                                                                                                                                                    24622458.179 5 104185681.84105     -2768.595 5        30.362
