     3.04           OBSERVATION DATA    M                   RINEX VERSION / TYPE
ssrcrin-15.6.1x                         20250101 061500 UTC PGM / RUN BY / DATE 
(00000000023479385599111004) Septentrio proprietary         COMMENT             
ract                                                        MARKER NAME         
01                                                          MARKER NUMBER       
geodetic                                                    MARKER TYPE         
NFB                 CLIMERS@TUW                             OBSERVER / AGENCY   
3296359             SEPT ASTERX SB3 PROB4.14.4              REC # / TYPE / VERS 
Unknown             Unknown                                 ANT # / TYPE        
  4127445.7584  1206914.2243  4695542.8738                  APPROX POSITION XYZ 
        0.0000        0.0000        0.0000                  ANTENNA: DELTA H/E/N
G   23 X1  C1C L1C D1C S1C C1W S1W C2W L2W D2W S2W C2L L2L  SYS / # / OBS TYPES 
       D2L S2L C5Q L5Q D5Q S5Q C1L L1L D1L S1L              SYS / # / OBS TYPES 
E   21 X1  C1C L1C D1C S1C C6C L6C D6C S6C C5Q L5Q D5Q S5Q  SYS / # / OBS TYPES 
       C7Q L7Q D7Q S7Q C8Q L8Q D8Q S8Q                      SYS / # / OBS TYPES 
S    9 X1  C1C L1C D1C S1C C5I L5I D5I S5I                  SYS / # / OBS TYPES 
R   17 X1  C1C L1C D1C S1C C2P L2P D2P S2P C2C L2C D2C S2C  SYS / # / OBS TYPES 
       C3Q L3Q D3Q S3Q                                      SYS / # / OBS TYPES 
C   25 X1  C1P L1P D1P S1P C5P L5P D5P S5P C2I L2I D2I S2I  SYS / # / OBS TYPES 
       C7I L7I D7I S7I C6I L6I D6I S6I C7D L7D D7D S7D      SYS / # / OBS TYPES 
J   17 X1  C1C L1C D1C S1C C2L L2L D2L S2L C5Q L5Q D5Q S5Q  SYS / # / OBS TYPES 
       C1L L1L D1L S1L                                      SYS / # / OBS TYPES 
I    5 X1  C5A L5A D5A S5A                                  SYS / # / OBS TYPES 
SEPTENTRIO RECEIVERS OUTPUT ALIGNED CARRIER PHASES.         COMMENT             
NO FURTHER PHASE SHIFT APPLIED IN THE RINEX ENCODER.        COMMENT             
G L1C                                                       SYS / PHASE SHIFT   
G L2W                                                       SYS / PHASE SHIFT   
G L2L  0.00000                                              SYS / PHASE SHIFT   
G L5Q  0.00000                                              SYS / PHASE SHIFT   
G L1L  0.00000                                              SYS / PHASE SHIFT   
E L1C  0.00000                                              SYS / PHASE SHIFT   
E L6C  0.00000                                              SYS / PHASE SHIFT   
E L5Q  0.00000                                              SYS / PHASE SHIFT   
E L7Q  0.00000                                              SYS / PHASE SHIFT   
E L8Q  0.00000                                              SYS / PHASE SHIFT   
S L1C                                                       SYS / PHASE SHIFT   
S L5I                                                       SYS / PHASE SHIFT   
R L1C                                                       SYS / PHASE SHIFT   
R L2P  0.00000                                              SYS / PHASE SHIFT   
R L2C                                                       SYS / PHASE SHIFT   
R L3Q  0.00000                                              SYS / PHASE SHIFT   
C L1P  0.00000                                              SYS / PHASE SHIFT   
C L5P  0.00000                                              SYS / PHASE SHIFT   
C L2I                                                       SYS / PHASE SHIFT   
C L7I                                                       SYS / PHASE SHIFT   
C L6I                                                       SYS / PHASE SHIFT   
C L7D                                                       SYS / PHASE SHIFT   
J L1C                                                       SYS / PHASE SHIFT   
J L2L  0.00000                                              SYS / PHASE SHIFT   
J L5Q  0.00000                                              SYS / PHASE SHIFT   
J L1L  0.00000                                              SYS / PHASE SHIFT   
I L5A                                                       SYS / PHASE SHIFT   
  2025     1     1     6    15    0.0000000     GPS         TIME OF FIRST OBS   
 C1C    0.000 C2C    0.000 C2P    0.000                     GLONASS COD/PHS/BIS 
DBHZ                                                        SIGNAL STRENGTH UNIT
    18                                                      LEAP SECONDS        
 24 R01  1 R02 -4 R03  5 R04  6 R05  1 R06 -4 R07  5 R08  6 GLONASS SLOT / FRQ #
    R09 -2 R10 -7 R11  0 R12 -1 R13 -2 R14 -7 R15  0 R16 -1 GLONASS SLOT / FRQ #
    R17  4 R18 -3 R19  3 R20  2 R21  4 R22 -3 R23  3 R24  2 GLONASS SLOT / FRQ #
                                                            END OF HEADER       
> 2025 01 01 06 15  0.0000000  0 37
G13         2.000    23478054.338 5 123378015.30405      2332.618 5        30.958
G30         3.000    20767799.975 7 109135526.15607       377.287 7        46.390                                    20767797.461 6  85040625.53406       293.989 6        40.999    20767797.372 6  85040661.55006       293.984 6        40.925
G07         5.000    21103846.122 8 110901477.95308     -1903.000 8        52.452                                    21103839.680 8  86416737.67608     -1482.854 8        48.668    21103841.314 7  86416709.67507     -1482.836 7        43.388
E34         6.000    26949581.215 4 141621014.62804     -3872.051 4        26.910                                                                    26949581.096 5 105756050.20805     -2891.262 5        31.615    26949595.658 5                     -2966.664 5        31.804
G05         7.000    22384329.848 7 117630683.08807      1899.252 7        45.592                                    22384321.844 6  91660168.69406      1479.936 6        36.083    22384324.852 6  91660108.69806      1479.873 6        36.767
G09         9.000    22419800.634 3                     -3551.861 3        23.543
G20        10.000    20778999.868 8 109194408.67408      -339.625 8        51.384                                    20778993.205 6  85086522.57606      -264.642 6        37.520
E09        12.000                                                                                                                                    27448856.449 3                     -2373.430 3        23.257
E31        13.000                                                                                                                                    26688385.150 5                     -1598.527 5        32.006
E25        14.000    26865514.417 3                      2267.586 3        23.448                                                                    26865516.370 6 105426047.77106      1692.505 6        38.090    26865537.952 5 108176286.21805      1736.750 5        31.479
E24        15.000    25530204.826 6 134162231.00106       528.516 6        37.936                                                                    25530215.330 5                       394.850 5        33.623    25530206.611 5 102799533.87205       404.868 5        34.510
E15        16.000    25736769.000 4 135247763.60404     -1995.341 4        25.278                                                                    25736774.107 7 100996633.62307     -1489.971 7        42.028    25736772.323 6 103631304.96706     -1528.733 6        39.988
E08        17.000                                                                                                                                    28610515.246 5 112273796.02205      1225.760 5        30.717    28610497.548 5 115202617.25205      1258.321 5        32.641
G06        19.000    25118257.686 4                     -4337.190 4        27.725                                                                                                    25118271.261 3                     -3380.018 3        20.976
E05        21.000    22198123.221 7 116651915.71807     -1641.982 7        45.488                                                                    22198123.876 8  87110247.73708     -1226.163 8        48.877    22198121.924 8  89382676.54108     -1258.140 8        48.901
E13        22.000    27391939.688 4                       653.969 4        24.361                                                                    27391947.585 7 107491901.25707       488.896 7        42.430    27391945.581 6 110296084.03906       501.683 6        40.348
R07        23.000    20961806.480 5 112210743.55105     -3346.591 5        34.657                                                                    20961809.271 6  87274586.89206     -2602.889 6        37.372
S23        24.000    38227761.980 6 200888164.33506      -819.203 6        40.706
S36        25.000    38291876.345 5 201225156.12205      -822.357 5        33.934
G11        26.000    23523716.913 6 123617950.30006     -3503.526 6        36.998                                    23523715.692 1  96325700.38701     -2729.993 1        11.481    23523715.835 5  96325692.33805     -2729.612 5        32.473
E03        27.000    24368986.949 5 128059815.11205       652.649 5        35.171                                                                    24368972.453 7  95629089.18507       487.323 7        42.984    24368971.668 7  98123736.52807       500.051 7        45.412
R11        28.000    22468241.984 7 120063516.66607      3541.302 7        43.293                                                                    22468241.698 6  93382701.89106      2754.492 6        40.625
R17        29.000                                                                                                                                    23550322.384 5                       609.232 5        33.521
R10        30.000    19690025.308 7 104958908.87507       537.994 7        46.428
R24        31.000    22843385.196 6 122153952.68106     -2599.676 6        36.628                                                                    22843395.764 6  95008621.81506     -2021.979 6        36.718
R09        32.000    20644763.043 6 110242004.42906     -3138.052 6        37.682                                                                    20644762.806 6  85743737.46206     -2440.623 6        39.865
C19        33.000                                                                                                                                    24734151.129 6 128797065.02506     -3551.542 6        37.989                                                                    24734126.692 5 104658196.60805     -2886.081 5        30.921
R08        35.000    19465943.880 7 104239285.74507      -159.719 7        45.106                                                                    19465942.286 7  81074982.57107      -124.245 7        43.071
C05        36.000                                                                                                                                                                                                    39336718.915 5 158392611.54805      -677.716 5        34.538
R01        38.000    22445579.066 6 119984456.94906      2668.260 6        40.956                                                                    22445573.845 5  93321283.68805      2075.460 5        34.905
C36        42.000                                                                                                                                    21983747.339 8 114475128.92708      -572.480 8        51.904                                                                    21983752.181 8  93020455.71208      -465.185 8        51.546
C09        46.000                                                                                                                                    39833626.548 4                     -1609.749 4        26.084    39833638.586 5 160393596.64505     -1245.393 5        33.371
C21        47.000                                                                                                                                    23649581.259 5 123149595.22105      1544.801 5        35.390                                                                    23649579.543 6 100069161.94806      1255.417 6        39.658
C45        49.000                                                                                                                                    23692168.486 5 123371465.34305      2104.689 5        33.760                                                                    23692169.668 6 100249311.12406      1710.074 6        37.187
C22        50.000                                                                                                                                    21553184.161 7 112233044.79107     -1182.909 7        44.862                                                                    21553177.963 7  91198531.48707      -961.169 7        47.565
C12        56.000                                                                                                                                    27064744.246 3                     -3505.608 3        21.857    27064792.085 4                     -2709.492 4        24.301
I06        60.000    38046510.114 5 149302654.60605      -630.285 5        33.521
> 2025 01 01 06 15  5.0000000  0 38
G13         2.000    23475835.939 4 123366353.13204      2332.483 4        28.512
G30         3.000    20767441.456 7 109133645.23807       374.904 7        46.316                                    20767439.320 6  85039159.87706       292.130 6        41.209    20767439.089 6  85039195.90106       292.069 6        40.872
G07         5.000    21105657.695 8 110910997.43008     -1904.980 8        52.286                                    21105651.411 8  86424155.43908     -1484.394 8        48.674    21105653.070 7  86424127.44807     -1484.406 7        43.807
E34         6.000    26953267.022 4 141640374.24404     -3871.860 4        25.083                                                                    26953264.719 5 105770507.04905     -2891.648 5        31.426    26953279.600 5                     -2967.177 5        32.820
G05         7.000    22382524.163 7 117621192.22507      1897.116 7        45.493                                    22382516.028 6  91652773.21006      1478.275 6        36.053    22382517.359 6  91652713.22606      1478.099 6        37.161
G09         9.000    22423183.470 4                     -3552.747 4        26.000                                                                                                    22423180.692 3                     -2769.707 3        22.571
G20        10.000    20779324.294 8 109196114.52708      -342.854 8        51.359                                    20779318.032 6  85087851.81206      -267.160 6        37.440
E09        12.000    27451875.154 4 144260568.23014     -3177.868 4        28.692                                                                    27451876.466 3                     -2373.357 3        22.762
E31        13.000                                                                                                                                    26690423.463 5                     -1600.060 5        31.366    26690410.175 5                     -1641.938 5        32.934
E25        14.000    26863360.182 4                      2266.070 4        24.105                                                                    26863359.807 6 105417585.62006      1692.119 6        38.039    26863382.427 5 108167603.29805      1736.240 5        32.060
E24        15.000    25529703.007 6 134159592.95706       526.387 6        38.069                                                                    25529716.270 5                       393.095 5        32.796    25529704.956 5 102797512.50005       403.089 5        35.390
E15        16.000    25738669.404 4 135257745.28404     -1998.183 4        24.376                                                                    25738673.138 7 101004087.45907     -1491.696 7        42.023    25738672.190 6 103638953.24606     -1530.528 6        39.462
E08        17.000                                                                                                                                    28608952.707 5 112267665.94105      1225.741 5        31.072    28608933.472 5 115196327.32205      1257.939 5        33.557
G06        19.000    25122385.946 4                     -4337.106 4        27.569                                                                                                    25122396.936 3                     -3379.101 3        21.500
E05        21.000    22199686.166 7 116660128.14507     -1643.102 7        45.848                                                                    22199686.650 8  87116380.38008     -1227.028 8        48.915    22199684.853 8  89388969.16708     -1258.975 8        48.744
E13        22.000    27391326.338 4                       652.464 4        28.009                                                                    27391325.499 6 107489460.21206       487.301 6        41.924    27391323.470 6 110293579.31806       500.100 6        40.019
R07        23.000    20964934.632 5 112227481.09505     -3348.577 5        33.886                                                                    20964937.108 6  87287605.01406     -2604.554 6        39.300
S23        24.000    38228542.340 6 200892259.84406      -819.232 6        40.532
S36        25.000    38292660.905 5 201229267.78905      -822.316 5        33.850
G11        26.000    23527053.175 6 123635471.58006     -3505.404 6        38.267                                    23527049.707 1  96339353.34401     -2731.508 1        11.333    23527051.281 5  96339345.28105     -2731.217 5        33.347
E03        27.000    24368361.063 6 128056553.90206       651.837 6        37.883                                                                    24368352.197 7  95626653.86207       486.707 7        43.120    24368350.843 7  98121237.68107       499.439 7        44.867
R11        28.000    22464927.735 7 120045813.05607      3539.952 7        42.639                                                                    22464929.231 6  93368932.42206      2753.195 6        40.877
R17        29.000    23549601.195 5 126018648.70915       779.463 5        31.841                                                                    23549587.321 5                       606.252 5        33.611
R10        30.000    19689523.321 7 104956229.42607       533.609 7        45.753
R24        31.000    22845824.699 6 122166959.75306     -2603.204 6        37.890                                                                    22845831.072 6  95018738.44706     -2024.873 6        38.826
R09        32.000    20647701.288 5 110257703.31705     -3141.617 5        34.262                                                                    20647701.769 6  85755947.76206     -2443.624 6        40.708
C19        33.000                                                                                                                                    24737559.508 6 128814825.37706     -3552.627 6        36.544                                                                    24737538.095 5 104672628.30705     -2886.656 5        32.671
C34        34.000                                                                                                                                    26670741.687 4                     -2905.808 4        25.068                                                                    26670694.025 3                     -2360.165 3        22.171
R08        35.000    19466094.242 7 104240090.01607      -162.133 7        46.059                                                                    19466092.790 7  81075608.09507      -126.168 7        43.117
C05        36.000                                                                                                                                                                                                    39337560.001 5 158396000.30605      -678.049 5        34.329
R01        38.000    22443083.347 7 119971116.23807      2667.872 7        43.407                                                                    22443076.954 5  93310907.56805      2074.999 5        34.690
C36        42.000                                                                                                                                    21984297.582 8 114477997.67808      -575.231 8        51.129                                                                    21984303.022 8  93022786.77808      -467.298 8        51.584
C09        46.000                                                                                                                                    39835172.535 4                     -1610.345 4        25.083    39835184.745 5 160399822.66905     -1245.536 5        33.575
C21        47.000                                                                                                                                    23648097.534 6 123141872.51606      1543.836 6        38.375                                                                    23648096.439 6 100062886.63606      1254.688 6        39.697
C45        49.000                                                                                                                                                                                                                                                                    23690150.510 6 100240763.10706      1709.140 6        38.051
C22        50.000                                                                                                                                    21554320.500 7 112238963.59407     -1184.837 7        44.120                                                                    21554314.611 7  91203340.97507      -962.661 7        47.659
C12        56.000                                                                                                                                    27068108.771 3                     -3505.886 3        21.762    27068151.186 3                     -2709.772 3        23.695
I06        60.000    38047313.789 5 149305805.05205      -629.930 5        33.760
> 2025 01 01 06 15 10.0000000  0 38
G13         2.000    23473613.883 4 123354693.56504      2331.541 4        26.443
G30         3.000    20767085.209 7 109131776.03207       372.887 7        46.340                                    20767083.383 6  85037703.35206       290.556 6        41.194    20767083.262 6  85037739.35506       290.467 6        40.937
G07         5.000    21107470.845 8 110920526.47508     -1906.544 8        51.716                                    21107464.976 8  86431580.65908     -1485.618 8        48.658    21107466.367 7  86431552.67607     -1485.705 7        44.143
E34         6.000    26956951.737 3 141659736.37703     -3871.078 3        23.448                                                                    26956949.761 5 105784965.89005     -2891.921 5        30.830    26956963.725 5                     -2967.439 5        33.731
G05         7.000    22380720.122 7 117611711.63307      1895.332 7        45.685                                    22380712.234 6  91645385.73206      1476.886 6        36.318    22380713.409 6  91645325.72906      1476.796 6        37.614
G09         9.000    22426564.513 4                     -3553.594 4        24.947                                                                                                    22426564.266 3                     -2768.811 3        21.262
G20        10.000    20779651.787 8 109197836.23608      -345.740 8        51.022                                    20779645.883 6  85089193.40206      -269.408 6        37.391
E09        12.000    27454896.880 4 144276456.75704     -3177.730 4        29.839                                                                    27454896.448 3                     -2372.854 3        23.390
E31        13.000                                                                                                                                    26692464.446 5                     -1601.810 5        30.166    26692456.063 5 107479441.09815     -1643.190 5        35.162
E25        14.000    26861203.080 4                      2266.015 4        24.827                                                                    26861203.538 6 105409124.86206      1692.098 6        37.664    26861227.192 5 108158921.78805      1736.269 5        31.328
E24        15.000    25529203.242 6 134156965.57506       524.577 6        38.057                                                                    25529218.467 5                       391.378 5        30.438    25529205.563 5 102795499.28305       402.019 5        35.814
E15        16.000    25740573.282 4 135267738.33404     -1998.882 4        25.504                                                                    25740574.312 6 101011549.81506     -1493.155 6        41.754    25740573.983 6 103646610.25706     -1532.102 6        39.117
E08        17.000                                                                                                                                    28607390.621 5 112261535.57305      1226.291 5        30.770    28607372.121 5 115190037.06905      1258.131 5        34.095
G06        19.000    25126515.499 4                     -4336.737 4        26.814                                                                                                    25126526.077 3                     -3377.776 3        22.038
E05        21.000    22201249.983 7 116668345.32607     -1643.710 7        46.005                                                                    22201250.172 8  87122516.57108     -1227.356 8        48.796    22201248.754 8  89395265.44208     -1259.447 8        48.788
E13        22.000    27390714.235 5                       650.505 5        31.374                                                                    27390705.566 6 107487027.15906       486.017 6        41.988    27390703.606 6 110291082.79106       498.715 6        40.205
R07        23.000    20968061.103 5 112244228.28405     -3350.215 5        30.596                                                                    20968069.032 6  87300630.69506     -2605.687 6        39.030
S23        24.000    38229321.923 6 200896354.94406      -818.747 6        40.391
S36        25.000    38293439.374 5 201233378.94305      -821.755 5        33.826
G11        26.000    23530391.053 6 123653001.41506     -3506.619 6        37.516                                    23530385.381 1  96353012.93901     -2732.384 1        10.444    23530385.592 5  96353004.92705     -2732.203 5        34.414
E03        27.000    24367731.734 6 128053296.29506       651.308 6        39.417                                                                    24367732.484 7  95624221.25907       486.510 7        42.900    24367730.756 7  98118741.62607       499.107 7        44.268
R11        28.000    22461615.257 7 120028115.69707      3539.127 7        42.337                                                                    22461618.071 6  93355167.80306      2752.579 6        41.178
R17        29.000    23548871.233 5 126014760.85205       776.079 5        32.563                                                                    23548862.725 5  98011443.19615       603.501 5        35.252
R10        30.000    19689024.365 7 104953571.77307       529.590 7        44.560
R24        31.000    22848264.897 5 122179984.89105     -2606.512 5        33.976                                                                    22848265.428 6  95028869.10206     -2027.303 6        38.402
R09        32.000    20650643.246 6 110273419.84806     -3144.805 6        37.611                                                                    20650645.288 6  85768171.72806     -2445.885 6        41.623
C19        33.000                                                                                                                                    24740964.492 5 128832590.65105     -3553.418 5        34.609                                                                    24740950.374 5 104687064.06705     -2887.536 5        33.838
C34        34.000                                                                                                                                    26673538.293 5                     -2907.774 5        31.434                                                                    26673488.110 4                     -2363.182 4        24.857
R08        35.000    19466247.202 7 104240906.50107      -164.372 7        46.178                                                                    19466245.256 7  81076243.11707      -127.830 7        42.897
C05        36.000                                                                                                                                                                                                    39338401.113 5 158399388.76705      -677.348 5        34.281
R01        38.000    22440588.709 7 119957777.36107      2667.836 7        44.096                                                                    22440582.625 5  93300532.87905      2075.085 5        35.271
C36        42.000                                                                                                                                    21984850.693 8 114480879.69808      -577.514 8        50.243                                                                    21984856.348 8  93025128.66308      -469.447 8        51.258
C09        46.000                                                                                                                                    39836719.158 3                     -1611.656 3        23.733    39836731.109 5 160406048.26105     -1244.883 5        33.958
C21        47.000                                                                                                                                    23646615.281 6 123134154.59006      1543.380 6        40.734                                                                    23646614.060 6 100056615.24706      1253.881 6        39.709
C45        49.000                                                                                                                                    23688156.417 6 123350433.14106      2102.155 6        36.968                                                                    23688131.565 6 100232220.81306      1707.988 6        38.541
C22        50.000                                                                                                                                    21555459.015 7 112244892.29407     -1186.527 7        44.266                                                                    21555453.157 7  91208158.55307      -964.369 7        47.670
C12        56.000                                                                                                                                    27071479.981 3                     -3506.253 3        19.672    27071513.761 3                     -2708.203 3        23.829
I06        60.000    38048117.908 5 149308955.43605      -630.244 5        33.659
> 2025 01 01 06 15 15.0000000  0 38
G13         2.000    23471397.609 4 123343036.94704      2331.860 4        26.096
G30         3.000    20766731.538 7 109129918.91007       370.397 7        46.179                                    20766729.749 6  85036256.24006       288.621 6        41.249    20766730.095 6  85036292.24206       288.454 6        40.384
G07         5.000    21109285.904 8 110930065.51608     -1908.591 8        51.350                                    21109280.442 8  86439013.67208     -1487.212 8        48.836    21109281.365 7  86438985.67507     -1487.209 7        44.337
E34         6.000    26960632.558 3                     -3873.552 3        22.267                                                                    26960635.033 5 105799426.89605     -2891.765 5        30.694    26960647.864 5 108559358.49915     -2967.933 5        34.348
G05         7.000    22378918.161 7 117602241.63307      1893.163 7        46.305                                    22378910.474 6  91638006.50606      1475.191 6        36.764    22378911.237 6  91637946.51706      1475.106 6        37.471
G09         9.000    22429943.558 4                     -3554.564 4        24.571                                                                                                    22429948.926 3                     -2768.410 3        19.433
G20        10.000    20779982.411 8 109199574.21408      -348.931 8        50.642                                    20779976.796 6  85090547.67106      -271.896 6        37.372
E09        12.000    27457922.022 4 144292346.83304     -3177.826 4        29.924                                                                    27457918.049 3                     -2373.460 3        22.210    27457920.863 5 110561681.23415     -2435.007 5        31.026
E31        13.000    26694496.530 5 140280537.66615     -2146.663 5        31.260                                                                    26694510.557 4                     -1603.239 4        29.318    26694499.484 6 107487662.89006     -1644.918 6        36.344
E25        14.000    26859044.543 4                      2265.588 4        25.248                                                                    26859047.633 6 105400665.82006      1691.961 6        37.690    26859072.718 5 108150242.04005      1735.662 5        30.377
E24        15.000    25528705.717 6 134154349.26906       522.550 6        38.018                                                                    25528718.504 4                       389.916 4        28.550    25528708.252 5 102793494.58005       400.057 5        35.805
E15        16.000    25742479.968 4 135277743.19404     -2001.811 4        27.509                                                                    25742477.927 6 101019020.96906     -1494.917 6        41.692    25742478.101 6 103654276.31606     -1533.968 6        39.057
E08        17.000                                                                                                                                    28605829.176 5 112255405.28305      1226.148 5        30.347    28605809.705 5 115183746.87505      1258.034 5        34.324
G06        19.000    25130639.801 4                     -4336.459 4        26.695                                                                                                    25130654.109 3                     -3380.248 3        20.500
E05        21.000    22202814.510 7 116676567.67707     -1644.743 7        45.815                                                                    22202814.673 8  87128656.63908     -1228.263 8        48.764    22202813.786 8  89401565.68308     -1260.302 8        48.786
E13        22.000    27390091.365 5                       648.381 5        33.287                                                                    27390087.630 6 107484602.41206       484.424 6        41.869    27390085.744 6 110288594.79106       496.964 6        40.186
R07        23.000    20971187.259 6 112260985.73906     -3352.250 6        38.189                                                                    20971199.381 6  87313664.27006     -2607.269 6        38.949
S23        24.000    38230100.938 6 200900450.16206      -818.813 6        40.331
S36        25.000    38294219.637 5 201237490.45305      -821.979 5        33.808
G11        26.000    23533724.344 6 123670540.24606     -3508.503 6        36.121                                    23533722.839 1  96366679.53801     -2733.873 1        10.889    23533723.324 5  96366671.49305     -2733.661 5        35.214
E03        27.000    24367112.333 6 128050042.78106       650.510 6        40.489                                                                    24367113.483 7  95621791.68707       485.828 7        42.764    24367111.614 7  98116248.67207       498.489 7        43.674
R11        28.000    22458305.351 7 120010425.06007      3537.707 7        42.440                                                                    22458307.157 6  93341408.41306      2751.562 6        41.702
R17        29.000    23548152.296 6 126010892.92806       771.656 6        36.185                                                                    23548139.592 6  98008434.80406       600.296 6        36.866
R10        30.000    19688529.720 7 104950936.27207       525.092 7        43.918
R24        31.000    22850696.129 4 122193028.28304     -2610.374 4        27.006                                                                    22850704.701 6  95039014.18006     -2030.322 6        38.817
R09        32.000    20653591.796 6 110289154.27806     -3148.453 6        40.458                                                                    20653592.479 6  85780409.56906     -2448.898 6        41.509
C19        33.000                                                                                                                                                                                                                                                                    24744363.209 5 104701504.15105     -2888.555 5        34.819
C34        34.000                                                                                                                                    26676332.082 5                     -2909.196 5        30.755                                                                    26676283.495 4                     -2363.934 4        27.138
R08        35.000    19466402.413 7 104241735.50507      -166.808 7        46.690                                                                    19466400.595 7  81076887.89207      -129.727 7        43.056
C05        36.000                                                                                                                                                                                                    39339242.865 5 158402777.32905      -677.589 5        34.100
R01        38.000    22438093.540 7 119944440.65407      2667.311 7        43.879                                                                    22438088.333 5  93290159.89905      2074.645 5        35.319
C36        42.000                                                                                                                                    21985406.571 8 114483775.38908      -580.227 8        49.318                                                                    21985412.113 8  93027481.63308      -471.724 8        50.736
C09        46.000                                                                                                                                    39838262.976 3                     -1609.954 3        21.976    39838276.714 5 160412273.77605     -1245.133 5        33.347
C21        47.000                                                                                                                                    23645136.412 7 123126441.86407      1542.256 7        42.216                                                                    23645132.996 6 100050348.05306      1252.980 6        39.429
C45        49.000                                                                                                                                    23686136.882 6 123339927.91906      2100.650 6        38.643                                                                    23686113.447 6 100223684.51406      1706.681 6        38.643
C22        50.000                                                                                                                                    21556599.502 7 112250831.26607     -1188.654 7        44.170                                                                    21556593.689 7  91212984.45707      -966.050 7        47.470
C12        56.000                                                                                                                                    27074854.379 3                     -3504.541 3        18.448    27074883.357 4                     -2710.741 4        24.571
I06        60.000    38048920.477 5 149312105.98705      -629.816 5        33.689
> 2025 01 01 06 15 20.0000000  0 38
G13         2.000    23469178.429 4 123331383.26604      2331.106 4        29.185
G30         3.000    20766380.229 7 109128073.69607       367.985 7        45.786                                    20766378.400 6  85034818.40206       286.744 6        40.968    20766378.919 6  85034854.39306       286.729 6        40.188
G07         5.000    21111103.264 8 110939614.34308     -1910.577 8        51.527                                    21111097.754 8  86446454.30808     -1488.759 8        48.764    21111098.337 7  86446426.31407     -1488.774 7        44.482
E34         6.000                                                                                                                                    26964321.298 4 105813890.07804     -2892.903 4        29.981    26964331.624 5 108574198.94405     -2968.284 5        34.386
G05         7.000    22377118.175 7 117592782.21907      1890.960 7        47.060                                    22377110.677 6  91630635.52606      1473.478 6        37.176    22377110.525 6  91630575.52906      1473.514 6        36.790
G09         9.000    22433329.953 4                     -3556.191 4        26.539
G20        10.000    20780316.175 8 109201328.32308      -352.322 8        50.533                                    20780310.652 6  85091914.50506      -274.535 6        37.180
E09        12.000    27460946.082 4 144308238.26004     -3177.674 4        29.678                                                                    27460941.541 3                     -2374.159 3        20.524    27460943.669 5 110573857.70705     -2435.325 5        31.079
E31        13.000    26696539.192 5 140291278.65005     -2149.139 5        31.200                                                                    26696558.552 4                     -1605.343 4        28.389    26696543.185 6 107495892.99006     -1646.542 6        36.938
E25        14.000    26856889.029 4                      2264.291 4        26.216                                                                    26856892.438 6 105392208.37406      1691.362 6        37.543    26856917.908 4 108141563.94004      1735.125 4        29.479
E24        15.000    25528210.443 6 134151743.87206       520.168 6        38.225                                                                    25528215.562 5                       388.545 5        30.641    25528212.759 6 102791498.19606       398.533 6        36.004
E15        16.000    25744385.286 4 135287759.64504     -2004.468 4        28.171                                                                    25744384.007 6 101026500.77106     -1496.713 6        41.647    25744384.107 6 103661951.25406     -1535.845 6        39.126
E08        17.000                                                                                                                                    28604267.628 4 112249274.91104      1226.277 4        28.256    28604247.503 5 115177456.53105      1258.393 5        34.300
G06        19.000    25134761.618 4                     -4336.783 4        24.812                                                                                                    25134780.102 3                     -3379.437 3        19.940
E05        21.000    22204379.728 7 116684795.01607     -1645.882 7        45.701                                                                    22204380.238 8  87134800.41508     -1229.005 8        48.793    22204379.764 8  89407869.73908     -1261.139 8        48.954
E13        22.000    27389473.964 5 143932657.34615       646.393 5        35.129                                                                    27389471.904 6 107482185.78406       482.663 6        41.719    27389469.991 6 110286115.11306       495.181 6        40.024
R07        23.000    20974323.689 6 112277753.14306     -3354.428 6        40.360                                                                    20974331.875 6  87326705.54506     -2609.026 6        39.336
S23        24.000    38230879.649 6 200904545.18806      -818.846 6        40.636
S36        25.000    38295007.201 5 201241600.81805      -821.393 5        33.838
G11        26.000    23537059.790 5 123688087.81905     -3510.240 5        34.533                                    23537061.974 1  96380352.95501     -2735.273 1        11.111    23537061.725 5  96380344.91305     -2735.031 5        35.148
E03        27.000    24366495.951 6 128046793.12906       649.661 6        41.154                                                                    24366495.323 7  95619364.99807       485.054 7        42.756    24366493.129 7  98113758.66107       497.932 7        42.973
R11        28.000    22454996.114 7 119992741.00607      3536.137 7        42.842                                                                    22454997.414 6  93327654.13606      2750.466 6        41.981
R17        29.000    23547444.554 5 126007044.51405       767.862 5        34.300                                                                    23547420.950 6  98005441.56406       597.258 6        36.265
R10        30.000    19688039.778 7 104948322.60007       520.661 7        43.098
R24        31.000    22853139.562 5 122206090.28805     -2614.411 5        32.868                                                                    22853148.212 6  95049173.47506     -2033.101 6        38.877
R09        32.000    20656542.751 6 110304906.42406     -3152.028 6        41.066                                                                    20656540.234 6  85792661.21006     -2451.603 6        39.273
C19        33.000                                                                                                                                    24747773.442 5 128868137.19505     -3555.528 5        31.034                                                                    24747776.370 6 104715948.39306     -2889.499 6        36.265
C34        34.000                                                                                                                                    26679124.767 4                     -2910.517 4        27.150                                                                    26679078.966 4                     -2365.181 4        29.213
R08        35.000    19466558.664 7 104242576.80707      -169.437 7        46.234                                                                    19466558.071 7  81077542.23607      -131.772 7        43.725
C05        36.000                                                                                                                                                                                                    39340084.943 5 158406165.77305      -677.498 5        33.982
R01        38.000    22435597.581 7 119931106.06207      2666.900 7        43.731                                                                    22435592.604 5  93279788.55905      2074.516 5        34.748
C36        42.000                                                                                                                                    21985964.847 8 114486684.56108      -583.073 8        48.554                                                                    21985970.405 8  93029845.54908      -473.844 8        50.213
C09        46.000                                                                                                                                    39839803.473 3                     -1610.903 3        23.238    39839823.113 5 160418499.02805     -1245.174 5        33.719
C21        47.000                                                                                                                                    23643660.061 7 123118734.15307      1541.171 7        43.391                                                                    23643652.766 6 100044084.94106      1252.151 6        39.550
C45        49.000                                                                                                                                                                                                                                                                    23684096.815 6 100215154.07606      1705.629 6        39.147
C22        50.000                                                                                                                                    21557742.467 7 112256780.33007     -1190.739 7        43.300                                                                    21557736.242 7  91217818.55307      -967.609 7        47.452
C12        56.000                                                                                                                                                                                                    27078256.186 4                     -2711.200 4        26.251
I06        60.000    38049723.845 5 149315256.63505      -629.987 5        33.192
> 2025 01 01 06 15 25.0000000  0 38
G13         2.000    23466964.486 5 123319732.18405      2329.974 5        31.623
G30         3.000    20766030.720 7 109126240.18607       365.382 7        44.932                                    20766029.279 6  85033389.68406       284.716 6        40.713    20766030.550 6  85033425.66806       284.742 6        40.296
G07         5.000    21112922.446 8 110949172.71908     -1912.802 8        51.293                                    21112916.859 8  86453902.39008     -1490.495 8        48.812    21112917.458 7  86453874.39607     -1490.502 7        44.400
E34         6.000    26967999.226 3                     -3873.117 3        18.866                                                                    26968008.038 4 105828355.16104     -2893.000 4        29.962    26968016.197 5 108589041.39505     -2969.050 5        34.543
G05         7.000    22375320.043 7 117583333.19407      1888.588 7        47.010                                    22375312.799 6  91623272.64406      1471.623 6        37.493    22375312.757 5  91623212.66505      1471.477 5        35.362
G09         9.000    22436718.464 4                     -3557.095 4        29.204
G20        10.000    20780653.044 8 109203098.29508      -355.725 8        50.284                                    20780647.459 6  85093293.69906      -277.186 6        36.991
E09        12.000    27463972.252 4 144324130.83904     -3179.054 4        28.938                                                                    27463964.679 3                     -2372.240 3        19.104    27463966.563 5 110586035.02405     -2435.610 5        30.996
E31        13.000    26698583.652 5 140302030.19405     -2151.556 5        30.898                                                                    26698605.464 4                     -1606.193 4        28.275    26698588.874 6 107504131.18806     -1648.565 6        37.093
E25        14.000    26854734.154 4                      2264.890 4        27.653                                                                    26854737.637 6 105383752.31206      1690.942 6        37.021    26854764.653 4 108132887.23604      1735.045 4        27.425
E24        15.000    25527717.081 6 134149149.12806       517.832 6        37.694                                                                    25527721.224 5                       386.807 5        32.784    25527719.090 5 102789510.00705       396.532 5        35.652
E15        16.000    25746292.829 4 135297787.42704     -2006.479 4        29.877                                                                    25746292.314 6 101033989.07306     -1498.574 6        41.435    25746292.494 6 103669634.91406     -1537.705 6        39.441
E08        17.000                                                                                                                                    28602705.811 4 112243144.20504      1225.875 4        26.359    28602685.419 5 115171165.91405      1258.185 5        33.838
G06        19.000    25138886.515 4                     -4337.352 4        24.436                                                                                                    25138904.262 3                     -3379.146 3        19.045
E05        21.000    22205945.901 7 116693027.09607     -1647.149 7        45.267                                                                    22205946.610 8  87140947.73708     -1229.918 8        48.468    22205946.526 8  89414177.43008     -1262.122 8        48.976
E13        22.000    27388860.136 6 143929431.79206       643.892 6        36.764                                                                    27388858.117 6 107479777.18306       480.729 6        41.650    27388856.368 6 110283643.67006       493.451 6        40.412
R07        23.000                                                                                                                                    20977467.348 6  87339754.46706     -2610.748 6        38.667
S23        24.000    38231659.826 6 200908639.68306      -818.944 6        40.551
S36        25.000    38295787.303 5 201245710.21705      -822.209 5        33.976
G11        26.000    23540400.462 5 123705643.92005     -3512.442 5        32.527                                    23540402.679 1  96394033.00501     -2736.992 1        10.296    23540402.220 5  96394024.97405     -2736.700 5        35.386
E03        27.000    24365877.021 6 128043547.09306       648.660 6        41.313                                                                    24365877.576 7  95616941.01607       484.379 7        42.402    24365875.381 7  98111271.46207       496.985 7        42.032
R11        28.000    22451688.660 7 119975063.23807      3534.805 7        43.500                                                                    22451689.722 6  93313904.76206      2749.270 6        41.993
R17        29.000    23546734.433 5 126003215.47005       763.721 5        31.147                                                                    23546705.485 5  98002463.50605       593.938 5        34.638
R10        30.000    19687553.122 7 104945730.60307       516.029 7        42.279
R24        31.000    22855587.149 5 122219170.33305     -2617.987 5        34.581                                                                    22855594.161 6  95059346.86706     -2036.003 6        38.595
R09        32.000    20659495.848 6 110320675.96606     -3155.828 6        41.948                                                                    20659491.364 6  85804926.36006     -2454.655 6        36.352
C19        33.000                                                                                                                                    24751196.066 4 128885918.00404     -3556.742 4        28.948                                                                    24751190.989 6 104730396.63606     -2890.303 6        36.643
C34        34.000                                                                                                                                                                                                                                                                    26681875.917 4                     -2366.070 4        29.735
R08        35.000    19466717.515 7 104243430.37607      -172.112 7        45.427                                                                    19466717.488 7  81078206.11507      -133.866 7        44.375
C05        36.000                                                                                                                                                                                                    39340925.939 5 158409553.97205      -677.966 5        34.224
R01        38.000    22433103.125 7 119917773.26007      2666.103 7        43.134                                                                    22433098.501 5  93269418.63005      2073.567 5        34.605
C36        42.000                                                                                                                                    21986525.764 8 114489606.96308      -585.949 8        48.272                                                                    21986531.286 8  93032220.22808      -476.079 8        49.545
C09        46.000                                                                                                                                    39841348.964 3                     -1605.885 3        22.571    39841369.107 5 160424723.83105     -1245.110 5        33.461
C21        47.000                                                                                                                                    23642184.292 7 123111031.26107      1539.997 7        44.647                                                                    23642173.394 6 100037825.69306      1251.605 6        39.538
C45        49.000                                                                                                                                    23682084.738 7 123318939.06807      2097.283 7        44.269                                                                    23682081.802 6 100206629.33006      1704.359 6        39.544
C22        50.000                                                                                                                                    21558887.164 7 112262739.30107     -1192.910 7        42.220                                                                    21558880.552 7  91222660.67507      -969.283 7        47.339
C12        56.000                                                                                                                                                                                                    27081631.890 4                     -2711.161 4        26.287
I06        60.000    38050525.412 5 149318407.23405      -630.513 5        33.617
> 2025 01 01 06 15 30.0000000  0 37
G13         2.000    23464749.369 5 123308084.59505      2329.147 5        32.293
G30         3.000    20765684.516 7 109124419.21207       362.645 7        44.120                                    20765682.612 6  85031970.73406       282.586 6        40.362    20765684.209 6  85032006.70706       282.759 6        40.403
G07         5.000    21114743.237 8 110958741.49908     -1915.038 8        50.806                                    21114737.932 8  86461358.57308     -1492.237 8        48.745    21114738.068 7  86461330.58407     -1492.376 7        44.325
E34         6.000                                                                                                                                    26971695.194 4 105842822.78904     -2893.942 4        29.526    26971701.652 5 108603886.44905     -2969.536 5        34.490
G05         7.000    22373523.161 7 117573895.37607      1886.222 7        46.337                                    22373516.937 6  91615918.49506      1469.782 6        37.682    22373517.615 5  91615858.51005      1469.831 5        34.343
G20        10.000    20780992.890 8 109204885.00108      -359.257 8        49.933                                    20780987.347 6  85094685.92906      -279.939 6        36.635
