     3.04           OBSERVATION DATA    M                   RINEX VERSION / TYPE
ssrcrin-15.6.1x                         20250101 230000 UTC PGM / RUN BY / DATE 
(00000000023479385599111004) Septentrio proprietary         COMMENT             
ract                                                        MARKER NAME         
01                                                          MARKER NUMBER       
geodetic                                                    MARKER TYPE         
NFB                 CLIMERS@TUW                             OBSERVER / AGENCY   
3296359             SEPT ASTERX SB3 PROB4.14.4              REC # / TYPE / VERS 
Unknown             Unknown                                 ANT # / TYPE        
  4127446.5507  1206914.6273  4695540.8576                  APPROX POSITION XYZ 
        0.0000        0.0000        0.0000                  ANTENNA: DELTA H/E/N
G   23 X1  C1C L1C D1C S1C C1W S1W C2W L2W D2W S2W C2L L2L  SYS / # / OBS TYPES 
       D2L S2L C5Q L5Q D5Q S5Q C1L L1L D1L S1L              SYS / # / OBS TYPES 
E   21 X1  C1C L1C D1C S1C C6C L6C D6C S6C C5Q L5Q D5Q S5Q  SYS / # / OBS TYPES 
       C7Q L7Q D7Q S7Q C8Q L8Q D8Q S8Q                      SYS / # / OBS TYPES 
S    9 X1  C1C L1C D1C S1C C5I L5I D5I S5I                  SYS / # / OBS TYPES 
R   17 X1  C1C L1C D1C S1C C2P L2P D2P S2P C2C L2C D2C S2C  SYS / # / OBS TYPES 
       C3Q L3Q D3Q S3Q                                      SYS / # / OBS TYPES 
C   25 X1  C1P L1P D1P S1P C5P L5P D5P S5P C2I L2I D2I S2I  SYS / # / OBS TYPES 
       C7I L7I D7I S7I C6I L6I D6I S6I C7D L7D D7D S7D      SYS / # / OBS TYPES 
J   17 X1  C1C L1C D1C S1C C2L L2L D2L S2L C5Q L5Q D5Q S5Q  SYS / # / OBS TYPES 
       C1L L1L D1L S1L                                      SYS / # / OBS TYPES 
I    5 X1  C5A L5A D5A S5A                                  SYS / # / OBS TYPES 
SEPTENTRIO RECEIVERS OUTPUT ALIGNED CARRIER PHASES.         COMMENT             
NO FURTHER PHASE SHIFT APPLIED IN THE RINEX ENCODER.        COMMENT             
G L1C                                                       SYS / PHASE SHIFT   
G L2W                                                       SYS / PHASE SHIFT   
G L2L  0.00000                                              SYS / PHASE SHIFT   
G L5Q  0.00000                                              SYS / PHASE SHIFT   
G L1L  0.00000                                              SYS / PHASE SHIFT   
E L1C  0.00000                                              SYS / PHASE SHIFT   
E L6C  0.00000                                              SYS / PHASE SHIFT   
E L5Q  0.00000                                              SYS / PHASE SHIFT   
E L7Q  0.00000                                              SYS / PHASE SHIFT   
E L8Q  0.00000                                              SYS / PHASE SHIFT   
S L1C                                                       SYS / PHASE SHIFT   
S L5I                                                       SYS / PHASE SHIFT   
R L1C                                                       SYS / PHASE SHIFT   
R L2P  0.00000                                              SYS / PHASE SHIFT   
R L2C                                                       SYS / PHASE SHIFT   
R L3Q  0.00000                                              SYS / PHASE SHIFT   
C L1P  0.00000                                              SYS / PHASE SHIFT   
C L5P  0.00000                                              SYS / PHASE SHIFT   
C L2I                                                       SYS / PHASE SHIFT   
C L7I                                                       SYS / PHASE SHIFT   
C L6I                                                       SYS / PHASE SHIFT   
C L7D                                                       SYS / PHASE SHIFT   
J L1C                                                       SYS / PHASE SHIFT   
J L2L  0.00000                                              SYS / PHASE SHIFT   
J L5Q  0.00000                                              SYS / PHASE SHIFT   
J L1L  0.00000                                              SYS / PHASE SHIFT   
I L5A                                                       SYS / PHASE SHIFT   
  2025     1     1    23     0    0.0000000     GPS         TIME OF FIRST OBS   
 C1C    0.000 C2C    0.000 C2P    0.000                     GLONASS COD/PHS/BIS 
DBHZ                                                        SIGNAL STRENGTH UNIT
    18                                                      LEAP SECONDS        
 24 R01  1 R02 -4 R03  5 R04  6 R05  1 R06 -4 R07  5 R08  6 GLONASS SLOT / FRQ #
    R09 -2 R10 -7 R11  0 R12 -1 R13 -2 R14 -7 R15  0 R16 -1 GLONASS SLOT / FRQ #
    R17  4 R18 -3 R19  3 R20  2 R21  4 R22 -3 R23  3 R24  2 GLONASS SLOT / FRQ #
                                                            END OF HEADER       
> 2025 01 01 23 00  0.0000000  0 37
G03         1.000    22961762.578 4                      2359.565 4        29.166                                                                                                    22961676.430 5  94024211.06005      1838.518 5        35.105
G10         2.000    23282937.123 5 122352816.02105     -3725.035 5        31.125                                    23282934.197 3  95339761.83203     -2902.628 3        20.524    23282936.164 5  95339729.75705     -2902.716 5        34.176
G32         3.000    22006557.956 7 115645425.50807     -1162.006 7        44.755                                    22006558.971 4  90113277.78004      -905.465 4        29.545    22006556.214 5  90113254.72405      -905.346 5        30.536
G14         4.000    24023720.586 6 126245188.18806     -1148.116 6        37.894                                                                                                    24023741.798 3                      -894.641 3        22.571
E07         5.000    24685122.551 6 129721146.50606      -145.573 6        38.306                                                                    24685120.222 8  96869697.23608      -108.737 8        48.151    24685118.391 7  99396749.91107      -111.582 7        44.226
G08         6.000    21666651.463 7 113859545.28707     -3496.064 7        46.236                                    21666645.625 6  88721288.90306     -2724.201 6        40.567    21666648.659 6  88721316.93306     -2724.187 6        40.153
G27         7.000    24080219.057 6 126542395.76206     -4655.965 6        40.670                                    24080213.486 4  98604381.17204     -3628.023 4        25.383    24080213.728 5  98604467.15205     -3627.768 5        32.814
G21         8.000    20757395.534 7 109080833.76107      -875.988 7        43.338                                    20757388.974 4  84998027.06504      -682.586 4        27.737
G02         9.000    21396719.339 7 112440578.53707       569.590 7        46.843                                    21396711.010 4  87615958.97804       443.831 4        25.910
G17        11.000    25236851.618 6 132620533.75006      2419.020 6        41.383                                                                                                    25236846.683 6 103340666.97406      1885.065 6        36.336
E08        12.000                                                                                                                                    26935799.806 4                     -2094.804 4        27.078    26935828.400 5 108459298.61905     -2149.531 5        30.060
E29        14.000    26213489.535 5 137752877.56805      2106.683 5        35.890                                                                    26213488.234 5 102867359.13205      1573.132 5        35.752    26213475.602 3                      1613.611 3        20.143
E24        15.000    28015288.018 5 147221333.54005      -125.937 5        31.608                                                                    28015281.369 6 109937991.19106       -94.117 6        38.450    28015280.295 6 112806004.24706       -96.519 6        40.217
E13        16.000                                                                                                                                    27252717.557 3 106945501.65503     -2394.561 3        23.219
E31        17.000    26672208.156 6 140163533.35506     -2492.898 6        38.844                                                                    26672212.055 6 104667474.62206     -1861.405 6        36.431    26672245.037 3                     -1911.450 3        20.214
E26        19.000    23768753.776 6 124905617.21006     -1613.566 6        40.467                                                                    23768748.975 7  93273749.47507     -1204.969 7        44.156    23768748.988 7  95706910.48207     -1236.329 7        46.491
R06        21.000    21571577.309 4 115110031.75904      2963.881 4        26.036
S36        23.000    38363095.726 6 201599324.60906      -853.219 6        36.824
S23        24.000    38316646.264 6 201355270.50506      -851.456 6        41.237
R12        25.000    23560726.527 6 125857416.58506     -1865.963 6        39.955                                                                    23560720.150 6  97888915.36406     -1451.202 6        36.121
R20        26.000    19777419.783 6 105758740.39006     -2048.110 6        37.214                                                                    19777419.018 5  82256797.11205     -1593.148 5        30.800
R05        27.000    19533580.286 7 104418166.42907     -1626.956 7        47.447                                                                    19533579.885 7  81214133.37707     -1265.385 7        47.173
E33        28.000    24326789.389 7 127838194.91607       627.378 7        44.354                                                                    24326788.176 6  95463577.65906       468.464 6        38.862    24326787.347 7  97953892.52307       480.676 7        43.769
R21        30.000    20440507.026 6 109381531.88106      1694.818 6        41.652                                                                    20440504.471 6  85074357.45806      1318.055 6        40.384
R04        31.000    22473797.113 5 120346145.25105     -4768.834 5        34.895                                                                    22473789.524 5  93602540.39205     -3708.930 5        34.219
C32        36.000                                                                                                                                    24370395.713 6 126903009.09506      2169.245 6        36.113                                                                    24370383.802 4 103119099.85004      1762.615 4        28.464
C33        37.000                                                                                                                                    24282286.752 6 126444342.53206     -3413.453 6        37.856                                                                    24282284.692 7 102746343.40507     -2774.008 7        42.847
C30        38.000                                                                                                                                    23411856.858 8 121911676.39408      1476.854 8        48.406                                                                    23411857.257 6  99063248.66806      1199.977 6        41.998
C28        40.000                                                                                                                                    23644530.708 5 123123344.57005     -3496.847 5        34.262                                                                    23644553.501 4                     -2842.854 4        24.165
R11        41.000    24625080.915 4                     -4391.358 4        27.629                                                                    24625085.581 4                     -3415.775 4        27.305
C39        42.000                                                                                                                                                                                                                                                                    40102642.316 4                       476.451 4        25.549
I01        44.000   372126954.667 6 157165334.76006     -2568.530 6        40.911
C14        47.000                                                                                                                                                                                                    26500590.004 3                     -3157.557 3        22.000    26500549.209 3                     -3317.380 3        22.933
C41        49.000                                                                                                                                    22107997.863 7 115122236.08007      -645.222 7        42.472                                                                    22108005.183 7  93546241.59107      -524.332 7        46.379
C27        52.000                                                                                                                                    21570326.324 8 112322332.84908     -1249.260 8        51.534                                                                    21570323.414 7  91271109.50507     -1015.207 7        45.720
I06        58.000    38538993.807 6 151235452.09606      -530.566 6        36.964
I09        60.000    37421231.348 4 146848761.40704      -405.488 4        24.617
> 2025 01 01 23 00  5.0000000  0 37
G03         1.000                                                                                                                                                                    22959436.766 5  94015020.37805      1837.867 5        34.690
G10         2.000    23286479.019 4 122371443.26104     -3725.822 4        29.194                                    23286479.290 3  95354276.56903     -2903.222 3        19.552    23286479.675 6  95354244.55006     -2903.347 6        36.261
G32         3.000    22007664.554 7 115651243.09207     -1165.079 7        42.980                                    22007664.951 4  90117810.97904      -907.862 4        28.995    22007664.139 4  90117787.88404      -907.740 4        27.257
G14         4.000    24024815.857 6 126250936.32806     -1150.974 6        38.733
E07         5.000    24685262.991 6 129721879.96306      -147.757 6        38.270                                                                    24685259.857 8  96870244.93608      -110.366 8        48.122    24685257.940 7  99397311.89707      -113.235 7        43.644
G08         6.000    21669978.549 7 113877030.54807     -3498.120 7        46.141                                    21669973.514 6  88734913.77606     -2725.809 6        40.543    21669975.580 6  88734941.81806     -2725.714 6        40.341
G27         7.000    24084649.421 7 126565676.73107     -4656.414 7        42.036                                    24084643.889 4  98622522.19004     -3628.371 4        25.895    24084644.553 5  98622608.19205     -3628.349 5        33.078
G21         8.000    20758229.675 7 109085217.34907      -877.561 7        43.784                                    20758222.834 4  85001442.84404      -683.815 4        28.038
G02         9.000    21396177.201 7 112437733.63307       568.366 7        46.915                                    21396169.336 4  87613742.17504       442.888 4        26.539
G17        11.000    25234549.594 6 132608439.93606      2418.484 6        41.030                                                                                                    25234546.995 6 103331243.22006      1884.509 6        36.465
E08        12.000                                                                                                                                    26938470.107 4                     -2096.100 4        28.142    26938500.853 4 108470049.13104     -2150.452 4        26.036
E29        14.000    26211486.278 6 137742346.13806      2106.000 6        36.703                                                                    26211484.503 6 102859494.75306      1572.669 6        36.473    26211471.939 3                      1615.026 3        21.690
E24        15.000    28015405.615 5 147221968.60305      -127.919 5        31.758                                                                    28015402.265 6 109938465.42606       -95.607 6        39.111    28015401.180 6 112806490.86606       -98.289 6        39.880
E13        16.000                                                                                                                                    27255772.720 4 106957475.22604     -2395.185 4        25.368
E31        17.000    26674581.819 6 140176002.10806     -2494.598 6        40.074                                                                    26674582.018 6 104676785.73406     -1862.905 6        36.949    26674629.771 3                     -1911.719 3        23.924
E26        19.000    23770289.184 6 124913687.33306     -1614.566 6        40.832                                                                    23770284.811 7  93279775.84607     -1205.593 7        44.423    23770284.254 7  95713094.07707     -1237.134 7        45.961
R06        21.000    21568797.309 4 115095215.55304      2962.554 4        28.123
S36        23.000    38363905.023 6 201603591.56506      -853.356 6        36.333
S23        24.000    38317456.003 7 201359527.44007      -851.394 7        42.112
R12        25.000    23562475.239 6 125866754.82906     -1869.693 6        40.072                                                                    23562472.138 6  97896178.47106     -1454.057 6        37.868
R20        26.000    19779336.096 6 105768987.46806     -2050.718 6        36.446                                                                    19779336.817 4  82264767.03204     -1595.275 4        29.820
R05        27.000    19535104.868 8 104426310.97208     -1630.943 8        48.594                                                                    19535103.021 7  81220468.02507     -1268.530 7        47.628
E33        28.000    24326193.247 7 127835059.64507       626.706 7        44.638                                                                    24326191.921 6  95461236.38706       467.979 6        38.751    24326190.660 7  97951490.17007       480.227 7        43.827
R21        30.000    20438928.066 7 109373061.78807      1693.058 7        43.111                                                                    20438920.500 6  85067769.57106      1316.925 6        39.267
R04        31.000    22478251.197 6 120369992.54006     -4770.272 6        36.042                                                                    22478242.910 5  93621088.26705     -3710.024 5        33.635
C32        36.000                                                                                                                                    24368313.770 6 126892166.04906      2167.984 6        36.665                                                                    24368300.424 4 103110288.99504      1761.919 4        28.635
C33        37.000                                                                                                                                    24285565.591 6 126461413.99606     -3414.891 6        38.219                                                                    24285563.119 7 102760215.33707     -2774.936 7        42.963
C30        38.000                                                                                                                                    23410439.299 7 121904294.98307      1475.552 7        47.305                                                                    23410439.987 7  99057250.65307      1199.004 7        42.356
C28        40.000                                                                                                                                    23647888.771 5 123140832.69005     -3498.451 5        32.814
R11        41.000    24629196.476 4                     -4392.227 4        29.118                                                                    24629191.443 4                     -3416.228 4        27.808
C39        42.000                                                                                                                                                                                                                                                                    40102078.324 4                       474.030 4        24.602
I01        44.000   372130227.573 6 157178178.04606     -2568.758 6        41.020
C14        47.000                                                                                                                                    26504472.224 3                     -4085.124 3        19.194    26504509.046 3                     -3158.077 3        22.133    26504469.266 3                     -3317.985 3        22.000
C41        49.000                                                                                                                                    22108618.759 7 115125468.16907      -647.630 7        42.309                                                                    22108625.780 7  93548867.93007      -526.298 7        46.173
C27        52.000                                                                                                                                    21571526.946 8 112328584.48608     -1251.377 8        51.191                                                                    21571523.950 7  91276189.46607     -1016.826 7        45.121
I06        58.000    38539668.565 6 151238103.99706      -530.280 6        36.722
I09        60.000    37421749.092 4 146850786.71604      -404.277 4        24.406
> 2025 01 01 23 00 10.0000000  0 37
G03         1.000                                                                                                                                                                    22957194.074 5  94005834.35105      1836.885 5        34.314
G10         2.000    23290025.819 4 122390073.75704     -3726.368 4        29.204                                    23290024.719 2  95368793.88902     -2903.658 2        17.396    23290024.629 6  95368761.95006     -2903.720 6        36.261
G32         3.000    22008775.708 7 115657076.25807     -1168.246 7        43.681                                    22008773.931 4  90122356.32204      -910.332 4        27.940    22008775.675 4  90122333.22704      -910.859 4        28.218
G14         4.000    24025913.674 6 126256699.33906     -1154.105 6        38.243
E07         5.000    24685404.766 6 129722625.17006      -150.245 6        37.437                                                                    24685401.852 7  96870801.40607      -112.170 7        47.981    24685399.671 7  99397882.87807      -115.038 7        43.346
G08         6.000    21673307.279 7 113894526.41307     -3500.251 7        46.463                                    21673303.294 6  88748546.91506     -2727.468 6        40.584    21673305.168 6  88748574.95306     -2727.443 6        40.517
G27         7.000    24089079.901 7 126588960.35307     -4656.864 7        43.113                                    24089075.003 4  98640665.27904     -3628.724 4        26.707    24089075.679 5  98640751.29405     -3628.754 5        33.760
G21         8.000    20759065.487 7 109089609.43707      -879.205 7        44.215                                    20759058.258 4  85004865.24504      -685.097 4        28.389
G02         9.000    21395636.690 7 112434895.69207       566.956 7        47.402                                    21395629.097 4  87611530.79604       441.786 4        27.222
G17        11.000    25232249.011 6 132596349.38406      2417.739 6        40.710                                                                                                    25232246.678 5 103321822.01505      1884.107 5        35.562
E08        12.000                                                                                                                                    26941139.675 4                     -2097.526 4        28.171    26941174.559 4 108480806.48604     -2152.392 4        27.856
E29        14.000    26209483.810 6 137731818.69006      2104.965 6        37.849                                                                    26209481.673 6 102851633.33406      1572.086 6        36.941    26209468.616 3                      1609.178 3        19.104
E24        15.000    28015527.884 4 147222615.17404      -130.600 4        29.640                                                                    28015525.291 6 109938948.22506       -97.475 6        39.300    28015524.247 6 112806986.23306       -99.923 6        40.153
E31        17.000    26676957.552 6 140188480.06506     -2496.460 6        39.574                                                                    26676955.385 6 104686103.69806     -1864.378 6        37.119
E26        19.000    23771825.608 6 124921762.81506     -1615.640 6        40.479                                                                    23771821.745 7  93285806.23107     -1206.490 7        44.793    23771820.642 7  95719281.78107     -1237.935 7        45.720
R06        21.000    21566025.034 4 115080410.19104      2960.452 4        29.403
S36        23.000    38364719.055 6 201607858.26806      -853.062 6        36.681
S23        24.000    38318268.390 7 201363784.03307      -851.262 7        42.161
R12        25.000    23564227.509 6 125876112.53606     -1873.391 6        41.008                                                                    23564225.564 6  97903456.72306     -1457.048 6        39.009
R20        26.000    19781254.010 5 105779248.91505     -2053.910 5        35.229                                                                    19781259.740 5  82272748.14705     -1597.404 5        32.257
R05        27.000    19536633.074 8 104434476.60508     -1635.148 8        49.759                                                                    19536630.741 7  81226819.08307     -1271.800 7        47.794
E33        28.000    24325597.376 7 127831928.01207       626.007 7        44.536                                                                    24325596.431 6  95458897.80006       467.504 6        39.117    24325594.624 7  97949090.59307       479.720 7        43.699
R21        30.000    20437347.286 7 109364601.08507      1691.234 7        45.824                                                                    20437340.827 6  85061189.01606      1315.434 6        38.363
R04        31.000    22482706.330 5 120393847.86205     -4771.855 5        35.781                                                                    22482693.190 4  93639642.31304     -3711.387 4        29.810
R13        32.000    24238873.593 5 129434226.82115       763.233 5        30.309
C32        36.000                                                                                                                                    24366232.931 6 126881329.27406      2166.708 6        36.548                                                                    24366220.013 4 103101483.24304      1761.142 4        28.218
C33        37.000                                                                                                                                    24288845.888 6 126478492.32506     -3416.239 6        37.599                                                                    24288842.839 7 102774092.83407     -2775.890 7        43.147
C30        38.000                                                                                                                                    23409023.048 7 121896920.15007      1474.259 7        46.489                                                                    23409023.753 7  99051257.99007      1198.176 7        42.578
C28        40.000                                                                                                                                    23651245.819 5 123158327.40005     -3499.611 5        30.785                                                                    23651283.763 3                     -2848.872 3        20.190
R11        41.000    24633307.816 4                     -4393.096 4        28.777                                                                    24633306.248 4                     -3417.045 4        26.263
C39        42.000                                                                                                                                                                                                                                                                    40101511.961 4                       474.782 4        25.173
I01        44.000   372133500.627 6 157191022.40606     -2568.868 6        40.753
C14        47.000                                                                                                                                    26508391.257 3                     -4081.904 3        20.071    26508430.601 3                     -3158.690 3        21.881    26508390.467 4                     -3318.208 4        24.421
C41        49.000                                                                                                                                    22109242.602 6 115128713.00506      -650.230 6        41.433                                                                    22109248.698 7  93551504.61707      -528.249 7        45.804
C27        52.000                                                                                                                                    21572729.661 8 112334847.37408     -1253.688 8        50.529                                                                    21572726.728 7  91281278.55707     -1018.584 7        44.700
I06        58.000    38540344.369 6 151240755.67206      -530.210 6        36.979
I09        60.000    37422259.963 4 146852813.22004      -406.053 4        24.692
> 2025 01 01 23 00 15.0000000  0 38
G03         1.000                                                                                                                                                                    22954950.276 5  93996653.09705      1835.762 5        33.180
G10         2.000                                                                                                                                                                    23293570.584 6  95383282.22906     -2904.254 6        37.142
G32         3.000    22009889.726 7 115662925.24607     -1171.327 7        44.933                                    22009885.849 4  90126913.95504      -912.723 4        26.970    22009887.660 4  90126890.91004      -912.987 4        28.445
G14         4.000    24027012.040 5 126262477.40805     -1157.189 5        34.419
E07         5.000    24685547.135 6 129723382.30706      -152.709 6        36.329                                                                    24685545.863 7  96871366.79307      -113.974 7        47.763    24685543.996 7  99398463.01807      -116.977 7        43.744
G08         6.000    21676638.018 7 113912033.08307     -3502.406 7        46.816                                    21676635.033 6  88762188.47906     -2729.148 6        40.615    21676636.341 6  88762216.50906     -2729.148 6        40.543
G27         7.000    24093510.789 7 126612246.85807     -4657.674 7        43.456                                    24093506.681 4  98658810.61104     -3629.353 4        26.970    24093507.043 5  98658896.62205     -3629.260 5        34.033
G21         8.000    20759902.763 7 109094010.09207      -880.992 7        44.327                                    20759895.265 4  85008294.32404      -686.487 4        28.531
G02         9.000    21395098.419 7 112432064.88707       565.511 7        47.030                                    21395090.378 4  87609324.97904       440.656 4        28.218
G17        11.000    25229947.701 6 132584262.26406      2417.109 6        40.477                                                                                                    25229944.473 5 103312403.44805      1883.780 5        33.922
E08        12.000                                                                                                                                    26943811.071 4                     -2099.066 4        27.976    26943848.187 4 108491570.61904     -2153.686 4        26.587
E29        14.000    26207481.900 6 137721295.39606      2104.203 6        38.940                                                                    26207479.159 6 102843775.04606      1571.574 6        37.168    26207461.216 3                      1611.749 3        21.595
E24        15.000    28015653.421 4 147223273.36404      -132.667 4        27.126                                                                    28015650.463 6 109939439.77106       -99.205 6        39.820    28015649.587 6 112807490.59706      -101.910 6        40.122
E13        16.000                                                                                                                                    27261893.284 4 106981427.08604     -2395.918 4        24.421
E31        17.000    26679332.284 6 140200967.42506     -2498.492 6        38.811                                                                    26679333.029 6 104695428.66006     -1865.569 6        38.318    26679399.159 4                     -1914.570 4        26.036
E26        19.000    23773362.727 6 124929843.83006     -1616.870 6        38.498                                                                    23773359.831 7  93291840.76407     -1207.277 7        44.898    23773358.309 7  95725473.74807     -1238.865 7        45.562
R06        21.000    21563255.653 5 115065615.88705      2957.882 5        30.385
S36        23.000    38365531.866 6 201612124.55906      -853.280 6        36.930
S23        24.000    38319077.606 6 201368040.49206      -851.335 6        41.888
R12        25.000    23565982.316 7 125885489.87907     -1877.359 7        42.165                                                                    23565980.223 6  97910750.20206     -1460.258 6        38.967
R20        26.000    19783176.253 5 105789524.89005     -2056.553 5        34.819                                                                    19783181.482 6  82280740.66506     -1599.690 6        36.605
R05        27.000    19538164.753 8 104442663.58008     -1639.575 8        50.992                                                                    19538162.065 7  81233186.72407     -1275.202 7        47.247
E33        28.000    24325002.323 7 127828800.21807       625.144 7        44.694                                                                    24325001.632 6  95456562.10306       466.792 6        39.048    24324999.121 7  97946693.96207       479.043 7        43.666
R21        30.000    20435766.421 7 109356150.11207      1689.337 7        45.901                                                                    20435762.415 6  85054616.06606      1313.787 6        37.822
R04        31.000    22487162.976 6 120417711.21706     -4773.506 6        37.244                                                                    22487150.848 4  93658202.76904     -3713.145 4        26.970
R13        32.000    24238158.857 4 129430417.83204       759.304 4        27.701
C32        36.000                                                                                                                                    24364153.090 6 126870498.99706      2165.318 6        36.510                                                                    24364143.091 5 103092682.83905      1759.602 5        30.475
C33        37.000                                                                                                                                    24292128.855 6 126495577.72406     -3417.525 6        36.219                                                                    24292124.071 7 102787976.10507     -2777.246 7        43.314
C30        38.000                                                                                                                                    23407608.700 7 121889552.11207      1472.926 7        45.865                                                                    23407608.572 7  99045270.87807      1196.903 7        42.830
C28        40.000                                                                                                                                    23654605.613 4 123175829.02504     -3500.955 4        28.616                                                                    23654647.143 3                     -2844.806 3        21.786
R11        41.000    24637413.480 4                     -4393.736 4        28.209                                                                    24637425.721 4                     -3417.369 4        25.789
C39        42.000                                                                                                                                                                                                                                                                    40100943.726 4                       474.316 4        24.211
I01        44.000   372136773.621 6 157203868.01106     -2569.260 6        40.510
C14        47.000                                                                                                                                    26512321.120 3                     -4083.493 3        21.262                                                                    26512316.896 4                     -3317.739 4        24.602
C41        49.000                                                                                                                                    22109868.853 6 115131970.78306      -652.866 6        40.787                                                                    22109873.933 7  93554151.84007      -530.497 7        44.957
C27        52.000                                                                                                                                    21573934.353 8 112341121.69608     -1255.961 8        49.848                                                                    21573931.773 7  91286376.97307     -1020.559 7        44.477
I06        58.000    38541020.481 6 151243407.26006      -530.318 6        36.968
I09        60.000    37422766.478 3 146854840.81003      -407.158 3        23.905
> 2025 01 01 23 00 20.0000000  0 37
G03         1.000                                                                                                                                                                    22952709.871 5  93987476.69505      1834.416 5        31.200
G10         2.000                                                                                                                                                                    23297117.864 6  95397805.39106     -2905.179 6        37.811
G32         3.000    22011006.406 7 115668790.04307     -1174.895 7        46.418                                    22011000.097 4  90131483.89404      -915.496 4        25.789    22011003.233 4  90131460.74904      -914.489 4        25.233
G14         4.000    24028111.952 5 126268270.51005     -1160.786 5        33.347
E07         5.000    24685690.947 5 129724151.37105      -155.471 5        35.886                                                                    24685691.990 7  96871941.10207      -116.033 7        47.231    24685690.559 7  99399052.29407      -119.043 7        43.683
G08         6.000    21679971.170 7 113929550.53407     -3504.921 7        47.279                                    21679968.672 6  88775838.44706     -2731.105 6        40.915    21679969.554 6  88775866.46406     -2731.043 6        40.479
G27         7.000    24097942.011 7 126635536.17007     -4658.420 7        43.300                                    24097938.837 4  98676958.12404     -3629.936 4        26.539    24097939.785 5  98677044.14905     -3629.991 5        33.880
G21         8.000    20760741.545 7 109098419.42707      -883.161 7        44.566                                    20760733.954 4  85011730.17404      -688.183 4        28.464
G02         9.000    21394560.909 7 112429241.21107       563.596 7        46.126                                    21394553.216 4  87607124.71804       439.160 4        28.502
G17        11.000    25227648.383 6 132572178.42006      2415.986 6        40.164                                                                                                    25227644.371 5 103302987.53705      1882.373 5        32.228
E08        12.000                                                                                                                                    26946486.908 4                     -2099.864 4        29.071    26946523.935 4 108502341.63204     -2155.166 4        25.173
E29        14.000    26205480.900 6 137710776.28406      2103.055 6        39.300                                                                    26205477.141 6 102835919.87506      1570.460 6        37.531    26205461.600 3                      1611.901 3        20.500
E24        15.000    28015780.999 4 147223943.23004      -135.609 4        28.284                                                                    28015778.277 6 109939940.00006      -101.250 6        40.200    28015777.120 6 112808003.87606      -103.849 6        39.961
E13        16.000                                                                                                                                    27264945.588 4 106993405.39204     -2396.552 4        24.602
E31        17.000    26681711.302 6 140213464.13906     -2500.732 6        38.324                                                                    26681712.285 6 104704760.64806     -1867.370 6        38.694    26681780.325 4                     -1915.351 4        25.910
E26        19.000    23774900.579 6 124937930.38206     -1618.153 6        36.435                                                                    23774898.820 7  93297879.45807     -1208.433 7        44.986    23774896.989 7  95731669.98007     -1240.045 7        45.013
R06        21.000    21560484.033 5 115050832.61805      2954.879 5        30.075
S36        23.000    38366342.053 6 201616391.43306      -853.857 6        36.435
S23        24.000    38319887.993 7 201372296.94907      -851.646 7        42.110
R12        25.000    23567741.053 7 125894886.87107     -1881.675 7        43.494                                                                    23567739.955 6  97918058.99906     -1463.848 6        39.420
R20        26.000    19785099.419 5 105799815.37705     -2059.764 5        34.924                                                                    19785104.321 6  82288744.38206     -1602.216 6        37.928
R05        27.000    19539700.400 8 104450871.92808     -1644.144 8        51.209                                                                    19539697.991 7  81239571.00207     -1278.828 7        47.224
E33        28.000    24324407.868 7 127825676.25807       624.030 7        45.132                                                                    24324406.676 6  95454229.26706       466.038 6        38.814    24324404.335 7  97944300.26707       478.181 7        42.974
R21        30.000    20434186.715 7 109347708.65907      1686.956 7        44.945                                                                    20434186.010 6  85048050.49606      1312.125 6        38.826
R04        31.000    22491621.277 5 120441582.41505     -4775.498 5        35.943                                                                    22491609.180 5  93676769.18105     -3714.290 5        30.272
R13        32.000    24237455.393 4 129426627.09904       756.071 4        28.066
C32        36.000                                                                                                                                    24362075.557 6 126859675.17306      2163.839 6        36.306                                                                    24362066.418 5 103083887.63605      1758.486 5        31.675
C33        37.000                                                                                                                                    24295412.234 5 126512670.21305     -3419.622 5        35.133                                                                    24295406.458 7 102801865.11107     -2778.642 7        43.234
C30        38.000                                                                                                                                    23406195.552 7 121882190.87107      1471.159 7        45.157                                                                    23406194.722 7  99039289.26707      1195.589 7        42.700
C28        40.000                                                                                                                                    23657969.230 4 123193337.47204     -3503.163 4        28.227                                                                    23658009.512 4                     -2845.661 4        25.023
R11        41.000    24641525.030 4                     -4395.135 4        25.669                                                                    24641537.866 3                     -3419.226 3        21.881
C39        42.000                                                                                                                                                                                                                                                                    40100383.284 3                       474.000 3        23.657
I01        44.000   372140047.897 6 157216714.83706     -2569.718 6        40.722
C14        47.000                                                                                                                                    26516242.188 3                     -4086.473 3        22.914                                                                    26516240.888 4                     -3318.177 4        24.782
C41        49.000                                                                                                                                    22110499.102 6 115135241.47006      -655.745 6        41.290                                                                    22110501.585 7  93556809.56507      -532.824 7        44.266
C27        52.000                                                                                                                                    21575141.113 8 112347407.45808     -1258.636 8        49.462                                                                    21575138.714 7  91291484.66907     -1022.637 7        44.265
I06        58.000    38541695.778 6 151246058.78106      -530.556 6        37.380
> 2025 01 01 23 00 25.0000000  0 36
G03         1.000    22950448.849 5                      2353.205 5        31.487                                                                                                    22950473.259 4  93978305.01204      1833.732 4        29.185
G10         2.000                                                                                                                                                                    23300665.304 6  95412331.41806     -2905.587 6        38.039
G32         3.000    22012124.996 7 115674670.64107     -1177.773 7        47.039                                    22012116.089 4  90136066.11504      -917.726 4        24.286
G14         4.000    24029217.509 5 126274078.59605     -1163.292 5        32.509                                                                                                    24029282.362 5                      -906.124 5        32.515
E07         5.000    24685839.334 6 129724932.40506      -157.458 6        36.537                                                                    24685840.302 7  96872524.33507      -117.560 7        46.765    24685839.441 7  99399650.74107      -120.607 7        44.042
G08         6.000    21683306.167 7 113947078.76307     -3506.786 7        47.810                                    21683304.373 6  88789496.81606     -2732.564 6        41.139    21683305.581 6  88789524.84206     -2732.651 6        40.515
G27         7.000    24102374.349 7 126658828.31307     -4658.689 7        43.367                                    24102371.592 4  98695107.85804     -3630.148 4        26.766    24102372.808 5  98695193.89005     -3630.267 5        33.419
G21         8.000    20761582.797 7 109102837.58007      -884.569 7        44.853                                    20761574.364 4  85015172.88704      -689.282 4        28.663
G02         9.000    21394025.241 7 112426424.68507       562.504 7        45.409                                    21394017.332 4  87604930.02204       438.317 4        28.540
G17        11.000    25225350.094 6 132560097.92206      2415.737 6        40.193                                                                                                    25225345.745 5 103293574.14805      1882.156 5        30.808
E08        12.000                                                                                                                                    26949164.762 4                     -2101.661 4        29.943    26949201.198 3                     -2157.273 3        21.595
E29        14.000    26203479.399 6 137700261.36106      2102.515 6        39.177                                                                    26203476.459 6 102828067.84906      1570.183 6        37.512    26203465.611 3                      1612.213 3        22.229
E24        15.000    28015910.324 5 147224624.76305      -137.373 5        30.219                                                                    28015908.133 6 109940448.94606      -102.656 6        40.701    28015907.016 6 112808526.09806      -105.394 6        40.017
E31        17.000    26684092.727 6 140225970.24606     -2502.347 6        37.319                                                                    26684092.373 6 104714099.62206     -1868.426 6        39.282    26684169.388 4                     -1916.979 4        24.586
E26        19.000    23776439.532 5 124946022.53105     -1618.930 5        35.171                                                                    23776438.827 7  93303922.31007     -1208.974 7        45.083    23776436.835 7  95737870.46907     -1240.525 7        44.901
R06        21.000    21557713.434 4 115036060.41704      2953.225 4        28.872
S36        23.000    38367153.589 6 201620658.62606      -853.654 6        36.854
S23        24.000    38320699.472 6 201376553.33006      -851.244 6        41.924
R12        25.000    23569505.353 7 125904303.50807     -1885.276 7        44.703                                                                    23569503.021 6  97925383.06506     -1466.478 6        39.877
R20        26.000    19787028.552 5 105810120.31105     -2062.615 5        34.243                                                                    19787029.564 6  82296759.29506     -1603.995 6        37.679
R05        27.000    19541239.129 8 104459101.49008     -1648.121 8        50.916                                                                    19541238.124 7  81245971.78907     -1281.833 7        47.916
E33        28.000    24323813.796 7 127822556.14407       623.592 7        44.996                                                                    24323812.685 6  95451899.33706       465.521 6        38.318    24323810.503 7  97941909.53907       477.747 7        42.700
R21        30.000    20432611.436 7 109339276.79207      1685.254 7        45.764                                                                    20432610.263 6  85041492.36506      1310.802 6        38.895
R04        31.000    22496080.990 5 120465461.63705     -4776.114 5        30.521                                                                    22496068.326 5  93695342.02505     -3715.238 5        31.774
R13        32.000    24236750.488 4 129422854.85104       752.393 4        29.308
C32        36.000                                                                                                                                    24359998.647 6 126848857.84606      2162.643 6        36.250                                                                    24359989.848 5 103075097.75405      1757.320 5        32.305
C33        37.000                                                                                                                                    24298697.146 5 126529769.79405     -3420.689 5        34.514                                                                    24298690.022 7 102815759.85007     -2779.557 7        42.739
C30        38.000                                                                                                                                    23404783.492 7 121874836.43707      1470.261 7        44.802                                                                    23404782.298 7  99033313.20907      1194.595 7        42.466
C28        40.000                                                                                                                                    23661336.268 4 123210852.69004     -3504.011 4        29.213                                                                    23661372.351 4                     -2847.238 4        27.497
R11        41.000    24645639.375 3                     -4395.759 3        23.371                                                                    24645644.371 3                     -3424.459 3        20.690
C39        42.000                                                                                                                                                                                                                                                                    40099830.314 4                       472.942 4        25.188
I01        44.000   372143321.827 6 157229562.85706     -2569.801 6        40.646
C14        47.000                                                                                                                                    26520155.421 3                     -4087.013 3        20.833                                                                    26520161.231 4                     -3320.253 4        24.256
C41        49.000                                                                                                                                    22111131.139 7 115138525.11207      -658.172 7        42.372                                                                    22111131.942 7  93559477.81407      -534.664 7        43.255
C27        52.000                                                                                                                                    21576350.285 8 112353704.65008     -1260.637 8        49.589                                                                    21576347.859 7  91296601.68407     -1024.476 7        43.884
I06        58.000    38542371.455 6 151248710.20906      -530.216 6        37.584
> 2025 01 01 23 00 30.0000000  0 35
G03         1.000    22948215.784 5                      2351.715 5        31.396                                                                                                    22948238.462 4  93969138.31004      1833.032 4        26.778
G10         2.000    23304192.922 3                     -3729.857 3        23.162                                                                                                    23304212.786 6  95426860.60906     -2906.297 6        38.423
G32         3.000    22013246.032 7 115680567.42507     -1180.958 7        47.118                                    22013235.636 4  90140660.96804      -920.225 4        24.632    22013234.290 4                      -921.428 4        24.271
G14         4.000    24030323.181 4 126279902.14904     -1166.562 4        28.910                                                                                                    24030396.056 4                      -908.403 4        29.488
E07         5.000    24685991.234 6 129725725.78806      -159.839 6        37.161                                                                    24685990.822 7  96873116.77307      -119.313 7        46.155    24685990.604 7  99400258.62307      -122.402 7        43.981
G08         6.000    21686643.652 7 113964618.15207     -3509.095 7        47.879                                    21686642.207 6  88803163.87806     -2734.360 6        41.197    21686643.483 6  88803191.88206     -2734.355 6        40.396
G27         7.000    24106807.424 7 126682123.68107     -4659.311 7        42.880                                    24106805.107 4  98713260.09204     -3630.631 4        26.742    24106804.762 5  98713346.08405     -3630.486 5        32.754
G21         8.000    20762425.022 7 109107264.89307      -886.328 7        45.296                                    20762416.545 4  85018622.74204      -690.647 4        28.445
G02         9.000    21393491.435 7 112423615.70507       561.070 7        46.060                                    21393482.825 4  87602741.20704       437.205 4        28.976
G17        11.000    25223051.950 6 132548021.21306      2414.904 6        39.411                                                                                                    25223046.504 4 103284163.77404      1881.807 4        29.014
E08        12.000                                                                                                                                    26951843.281 5                     -2102.829 5        30.785
E29        14.000    26201478.409 6 137689751.05406      2101.555 6        39.264                                                                    26201476.729 6 102820219.25506      1569.452 6        37.501
E24        15.000    28016041.495 5 147225318.32705      -139.796 5        31.826                                                                    28016040.332 6 109940966.88906      -104.368 6        41.008    28016038.931 6 112809057.55706      -107.216 6        39.523
E13        16.000    27271045.363 3                     -3210.295 3        19.582
E31        17.000    26686474.167 6 140238486.06206     -2504.145 6        36.310                                                                    26686473.484 6 104723445.88606     -1869.847 6        39.489    26686556.586 3                     -1918.084 3        20.762
E26        19.000    23777980.387 5 124954120.65505     -1619.963 5        34.371                                                                    23777980.015 7  93309969.60907     -1209.834 7        45.327    23777977.889 7  95744075.53207     -1241.441 7        44.707
R06        21.000    21554943.706 4 115021299.58904      2951.165 4        27.737
S36        23.000    38367971.141 6 201624925.39406      -853.554 6        36.900
S23        24.000    38321509.220 7 201380810.05007      -851.283 7        42.102
R12        25.000    23571273.252 7 125913740.13907     -1889.220 7        45.266                                                                    23571270.304 6  97932722.67306     -1469.456 6        39.462
