     3.04           OBSERVATION DATA    M                   RINEX VERSION / TYPE
ssrcrin-15.6.1x                         20250101 113000 UTC PGM / RUN BY / DATE 
(00000000023479385599111004) Septentrio proprietary         COMMENT             
ract                                                        MARKER NAME         
01                                                          MARKER NUMBER       
geodetic                                                    MARKER TYPE         
NFB                 CLIMERS@TUW                             OBSERVER / AGENCY   
3296359             SEPT ASTERX SB3 PROB4.14.4              REC # / TYPE / VERS 
Unknown             Unknown                                 ANT # / TYPE        
  4127446.2516  1206915.0125  4695541.8232                  APPROX POSITION XYZ 
        0.0000        0.0000        0.0000                  ANTENNA: DELTA H/E/N
G   23 X1  C1C L1C D1C S1C C1W S1W C2W L2W D2W S2W C2L L2L  SYS / # / OBS TYPES 
       D2L S2L C5Q L5Q D5Q S5Q C1L L1L D1L S1L              SYS / # / OBS TYPES 
E   21 X1  C1C L1C D1C S1C C6C L6C D6C S6C C5Q L5Q D5Q S5Q  SYS / # / OBS TYPES 
       C7Q L7Q D7Q S7Q C8Q L8Q D8Q S8Q                      SYS / # / OBS TYPES 
S    9 X1  C1C L1C D1C S1C C5I L5I D5I S5I                  SYS / # / OBS TYPES 
R   17 X1  C1C L1C D1C S1C C2P L2P D2P S2P C2C L2C D2C S2C  SYS / # / OBS TYPES 
       C3Q L3Q D3Q S3Q                                      SYS / # / OBS TYPES 
C   25 X1  C1P L1P D1P S1P C5P L5P D5P S5P C2I L2I D2I S2I  SYS / # / OBS TYPES 
       C7I L7I D7I S7I C6I L6I D6I S6I C7D L7D D7D S7D      SYS / # / OBS TYPES 
J   17 X1  C1C L1C D1C S1C C2L L2L D2L S2L C5Q L5Q D5Q S5Q  SYS / # / OBS TYPES 
       C1L L1L D1L S1L                                      SYS / # / OBS TYPES 
I    5 X1  C5A L5A D5A S5A                                  SYS / # / OBS TYPES 
SEPTENTRIO RECEIVERS OUTPUT ALIGNED CARRIER PHASES.         COMMENT             
NO FURTHER PHASE SHIFT APPLIED IN THE RINEX ENCODER.        COMMENT             
G L1C                                                       SYS / PHASE SHIFT   
G L2W                                                       SYS / PHASE SHIFT   
G L2L  0.00000                                              SYS / PHASE SHIFT   
G L5Q  0.00000                                              SYS / PHASE SHIFT   
G L1L  0.00000                                              SYS / PHASE SHIFT   
E L1C  0.00000                                              SYS / PHASE SHIFT   
E L6C  0.00000                                              SYS / PHASE SHIFT   
E L5Q  0.00000                                              SYS / PHASE SHIFT   
E L7Q  0.00000                                              SYS / PHASE SHIFT   
E L8Q  0.00000                                              SYS / PHASE SHIFT   
S L1C                                                       SYS / PHASE SHIFT   
S L5I                                                       SYS / PHASE SHIFT   
R L1C                                                       SYS / PHASE SHIFT   
R L2P  0.00000                                              SYS / PHASE SHIFT   
R L2C                                                       SYS / PHASE SHIFT   
R L3Q  0.00000                                              SYS / PHASE SHIFT   
C L1P  0.00000                                              SYS / PHASE SHIFT   
C L5P  0.00000                                              SYS / PHASE SHIFT   
C L2I                                                       SYS / PHASE SHIFT   
C L7I                                                       SYS / PHASE SHIFT   
C L6I                                                       SYS / PHASE SHIFT   
C L7D                                                       SYS / PHASE SHIFT   
J L1C                                                       SYS / PHASE SHIFT   
J L2L  0.00000                                              SYS / PHASE SHIFT   
J L5Q  0.00000                                              SYS / PHASE SHIFT   
J L1L  0.00000                                              SYS / PHASE SHIFT   
I L5A                                                       SYS / PHASE SHIFT   
  2025     1     1    11    30    0.0000000     GPS         TIME OF FIRST OBS   
 C1C    0.000 C2C    0.000 C2P    0.000                     GLONASS COD/PHS/BIS 
DBHZ                                                        SIGNAL STRENGTH UNIT
    18                                                      LEAP SECONDS        
 24 R01  1 R02 -4 R03  5 R04  6 R05  1 R06 -4 R07  5 R08  6 GLONASS SLOT / FRQ #
    R09 -2 R10 -7 R11  0 R12 -1 R13 -2 R14 -7 R15  0 R16 -1 GLONASS SLOT / FRQ #
    R17  4 R18 -3 R19  3 R20  2 R21  4 R22 -3 R23  3 R24  2 GLONASS SLOT / FRQ #
                                                            END OF HEADER       
> 2025 01 01 11 30  0.0000000  0 41
G19         1.000    21257679.254 5 111709871.01005      -619.801 5        35.600                                    21257678.246 3  87046621.48403      -482.975 3        18.507
G13         2.000    23909420.861 4                     -4713.169 4        25.293
G17         5.000    22823488.463 6 119938399.91906     -2989.792 6        37.391                                    22823497.928 3  93458387.42003     -2329.717 3        20.952    22823496.425 5                     -2329.609 5        31.638
G15         6.000    22468275.680 6 118071616.66406     -4301.720 6        39.991                                    22468288.546 4  92003821.70104     -3351.992 4        24.962    22468283.960 5  92003869.75305     -3351.912 5        33.479
G12         7.000    21470533.422 7 112828451.32607      1571.645 7        46.766                                    21470617.988 2  87918593.17902      1224.639 2        16.981    21470532.633 4  87918261.57404      1224.911 4        28.474
E30         9.000    24860616.088 7 130643484.70107       942.585 7        45.776                                                                    24860622.482 7  97558427.98207       703.907 7        44.358    24860621.253 7 100103434.94207       722.295 7        47.144
G23        10.000    24562117.785 4 129074742.13704     -3481.270 4        28.540                                                                                                    24562164.320 4                     -2711.806 4        27.760
G32        11.000    25572813.539 6 134386110.65206      2546.975 6        38.150                                    25572820.835 2 104716419.90402      1984.724 2        12.424
G10        12.000    24468678.864 6 128583755.20306     -1569.330 6        36.798                                    24468695.714 3 100195240.43503     -1222.846 3        20.571    24468690.424 5                     -1222.474 5        30.438
E02        13.000    23361761.211 7 122766901.23107     -1600.217 7        46.494                                                                    23361766.095 7  91676670.82107     -1195.003 7        47.779    23361764.989 7  94068241.64407     -1226.127 7        47.949
E25        14.000    26712721.441 4                     -3380.843 4        29.526                                                                    26712744.723 4                     -2524.576 4        29.915    26712725.717 5 107561081.40605     -2590.591 5        35.605
G24        16.000    20102510.595 7 105639551.78507      -487.703 7        44.128                                    20102514.362 7  82316367.65407      -380.029 7        42.544    20102513.814 7  82316440.67207      -379.976 7        44.122
E08        17.000    24280071.722 7 127592598.66107     -2646.234 7        44.397                                                                    24280077.310 7  95280191.87607     -1976.040 7        44.856    24280075.232 7  97765800.91907     -2027.646 7        43.395
E07        18.000    24634394.724 7 129454610.45707       263.083 7        43.209                                                                    24634402.223 7  96670737.98907       196.497 7        45.273    24634401.314 7  99192551.61607       201.589 7        44.688
R22        22.000    21810621.653 6 116426664.69606      1369.960 6        40.215                                                                    21810624.165 5                      1065.666 5        32.305
S36        23.000    38254044.988 5 201026344.27805      -839.158 5        34.838
S23        24.000    38189534.544 5 200687379.49405      -842.528 5        35.300
R04        25.000    22072744.634 5 118198888.41105      1993.074 5        35.914                                                                    22072754.762 6  91932287.72306      1550.161 6        41.974
E29        26.000    28621761.229 5                      2045.397 5        32.018                                                                    28621771.661 5 112317968.22305      1527.221 5        32.760    28621784.354 4 115248005.55204      1567.158 4        29.801
R13        29.000    19676575.475 5 105071820.23705        20.131 5        34.971
R21        30.000    22601807.096 6 120946794.95306     -2525.727 6        36.953                                                                    22601837.650 5  94069889.81305     -1964.191 5        34.457
R12        31.000    20351159.898 6 108712206.70206     -2894.954 6        38.111                                                                    20351163.813 6  84553996.80706     -2251.500 6        36.688
C10        32.000                                                                                                                                    38732574.254 6 201690665.09306     -1282.437 6        37.267    38732582.894 7 155960051.01307      -991.791 7        44.271    38732578.580 5 163890190.41905     -1042.014 5        35.471
R03        33.000    20291131.962 8 108620373.92208     -1733.065 8        48.059                                                                    20291136.580 6  84482258.38106     -1347.847 6        41.237
C24        34.000                                                                                                                                    22247297.078 7 115847495.08607       769.861 7        43.534                                                                    22247298.549 7  94135639.89807       625.563 7        45.752
R14        35.000                                                                                                                                    23436528.909 4                      1871.735 4        28.569
C26        37.000                                                                                                                                    22029860.715 8 114715333.91708     -1850.595 8        48.893                                                                    22029863.270 7  93215629.10307     -1503.782 7        47.197
S21        38.000    38482485.330 5 202226823.27905      -838.475 5        33.964
C44        39.000                                                                                                                                    25330828.305 4 131904306.21304      2468.302 4        24.737
C35        40.000                                                                                                                                    23713749.353 6 123483629.58406      1025.827 6        39.982                                                                    23713752.102 5 100340636.42205       833.605 5        34.262
C42        41.000                                                                                                                                    24902196.931 6 129672459.88506     -3879.072 6        37.516                                                                    24902213.744 5 105369417.20605     -3151.649 5        31.358
R02        43.000    22068990.322 6 117764282.94906     -5042.390 6        41.459                                                                    22068997.540 5  91594552.27405     -3921.722 5        32.138
C40        44.000                                                                                                                                    39732350.214 4 206896670.46504     -1881.282 4        28.995                                                                    39732334.125 4 168120488.95404     -1529.256 4        27.581
C33        46.000                                                                                                                                    24090278.813 6 125444467.09106     -1487.928 6        36.594                                                                    24090304.987 6 101933937.35406     -1209.046 6        38.102
C14        48.000                                                                                                                                    24043704.165 5 125201846.55405     -2899.829 5        34.438    24043723.569 6  96814191.06006     -2242.224 6        40.689    24043733.483 6 101736864.28106     -2356.274 6        38.048
C41        50.000                                                                                                                                    26130000.088 6 136065801.00206      1121.714 6        39.072                                                                    26130012.530 6 110564641.91406       911.471 6        38.586
C29        51.000                                                                                                                                    24898903.130 5 129655236.51005     -2122.225 5        32.599                                                                    24898938.152 4                     -1724.701 4        26.886
C07        53.000                                                                                                                                    39452816.387 4                     -1608.821 4        28.682    39452839.270 4                     -1244.002 4        26.335
I02        56.000    36940270.595 6 144961550.17606      -619.867 6        37.577
C25        57.000                                                                                                                                    26640904.076 4                      2001.257 4        29.507
I06        58.000    38367413.460 6 150561948.42106      -737.295 6        39.228
> 2025 01 01 11 30  5.0000000  0 41
G19         1.000    21258272.879 6 111712977.64706      -623.225 6        38.982                                    21258269.524 3  87049042.24603      -485.660 3        18.090
G13         2.000    23913909.100 3                     -4711.679 3        20.238
G17         5.000    22826333.968 6 119953353.58606     -2992.032 6        39.826                                    22826343.816 3  93470039.62303     -2331.452 3        22.667    22826343.293 5                     -2331.185 5        31.864
G15         6.000    22472369.633 6 118093127.21606     -4302.835 6        38.402                                    22472380.228 4  92020583.18704     -3352.857 4        24.947    22472375.859 5  92020631.22105     -3353.021 5        33.701
G12         7.000    21469038.339 7 112820596.64907      1569.840 7        45.813                                    21469122.444 2  87912472.63302      1223.253 2        15.048    21469037.581 4  87912141.10804      1223.295 4        29.915
E30         9.000    24859719.366 7 130638773.12107       941.611 7        45.139                                                                    24859725.918 7  97554909.59007       703.122 7        44.229    24859724.634 7 100099824.77607       721.457 7        47.088
G23        10.000    24565424.920 5 129092148.11705     -3481.577 5        30.445                                                                                                    24565484.696 4                     -2713.072 4        24.030
G32        11.000    25570391.240 6 134373377.14006      2546.129 6        37.263                                    25570398.203 2 104706497.58902      1984.055 2        12.364
G10        12.000    24470173.095 6 128591607.78806     -1572.097 6        38.072                                    24470188.843 3 100201359.31603     -1225.016 3        22.419    24470186.075 5                     -1224.825 5        32.982
E02        13.000    23363284.207 7 122774904.37607     -1601.408 7        46.452                                                                    23363288.928 7  91682647.18007     -1195.911 7        47.423    23363287.855 7  94074373.90707     -1227.032 7        47.793
E25        14.000    26715935.979 4                     -3381.084 4        29.100                                                                    26715961.581 4                     -2524.913 4        29.014    26715942.886 5 107574034.72705     -2590.890 5        35.333
G24        16.000    20102975.293 7 105641995.50407      -490.127 7        43.058                                    20102979.285 7  82318271.85507      -381.917 7        42.262    20102978.916 7  82318344.87607      -381.937 7        44.132
E08        17.000    24282590.284 7 127605833.23907     -2647.926 7        44.880                                                                    24282595.873 7  95290074.82407     -1977.380 7        44.950    24282593.751 7  97775941.67807     -2029.026 7        43.790
E07        18.000    24634144.636 7 129453298.61707       261.157 7        42.311                                                                    24634152.572 7  96669758.37407       194.988 7        45.141    24634151.346 7  99191546.43007       200.081 7        44.464
R22        22.000    21809336.587 6 116419822.68616      1366.719 6        37.656                                                                    21809341.225 4                      1062.896 4        29.839
S36        23.000    38254847.823 5 201030539.60905      -839.229 5        34.738
S23        24.000    38190332.791 5 200691590.77005      -842.554 5        34.686
R04        25.000    22070887.918 6 118188930.14506      1989.868 6        36.529                                                                    22070894.966 6  91924542.40206      1547.681 6        40.884
E29        26.000    28619817.674 5                      2044.959 5        31.351                                                                    28619825.683 5 112310332.16205      1526.905 5        32.587    28619838.496 4 115240170.28804      1566.915 4        29.299
R13        29.000    19676561.158 6 105071723.56806        18.198 6        37.017
R21        30.000    22604171.410 6 120959432.67106     -2529.671 6        39.288                                                                    22604194.500 5  94079719.17005     -1968.124 5        34.171
R12        31.000    20353869.074 6 108726682.99006     -2896.094 6        38.204                                                                    20353872.556 6  84565256.08606     -2252.458 6        37.985
C10        32.000                                                                                                                                    38733806.252 6 201697077.20706     -1282.695 6        37.187    38733814.000 7 155965009.25507      -991.913 7        44.309    38733809.781 5 163895400.79805     -1042.053 5        35.376
R03        33.000    20292751.653 7 108629049.32907     -1737.518 7        47.792                                                                    20292757.859 6  84489005.92306     -1351.401 6        41.201
C24        34.000                                                                                                                                    22246558.263 7 115843647.33007       768.884 7        43.979                                                                    22246559.737 7  94132513.29607       624.764 7        45.922
R14        35.000                                                                                                                                    23434264.270 4                      1871.724 4        28.047
C26        37.000                                                                                                                                    22031637.929 8 114724589.21308     -1851.929 8        48.950                                                                    22031640.705 7  93223149.80207     -1504.760 7        47.053
S21        38.000    38483282.996 5 202231013.89705      -838.081 5        34.024
C44        39.000                                                                                                                                    25328457.471 3                      2467.727 3        23.752
C35        40.000                                                                                                                                    23712766.004 6 123478504.78106      1023.569 6        38.844                                                                    23712767.557 5 100336472.10505       832.090 5        33.904
C42        41.000                                                                                                                                    24905918.376 6 129691855.34106     -3879.738 6        36.004                                                                    24905937.432 4 105385177.56204     -3152.481 4        29.460
R02        43.000    22073714.915 6 117789497.84106     -5043.945 6        39.769                                                                    22073720.590 5  91614163.79605     -3922.694 5        31.464
C40        44.000                                                                                                                                    39734155.698 4 206906075.47204     -1881.755 4        28.825                                                                    39734140.765 4 168128131.23404     -1528.990 4        27.653
C33        46.000                                                                                                                                    24091709.259 6 125451913.02606     -1490.728 6        36.851                                                                    24091734.592 6 101939987.81306     -1211.370 6        37.176
C14        48.000                                                                                                                                                                                                    24046509.446 6  96825405.38506     -2243.776 6        41.480    24046517.950 6 101748648.85006     -2357.760 6        38.411
C41        50.000                                                                                                                                    26128923.661 6 136060197.00606      1119.555 6        39.802                                                                    26128936.132 6 110560088.24306       909.661 6        38.087
C29        51.000                                                                                                                                    24900946.150 5 129665852.85905     -2124.748 5        32.754                                                                    24900981.983 4                     -1726.192 4        27.808
C07        53.000                                                                                                                                    39454363.099 4                     -1609.345 4        29.336    39454383.107 4                     -1244.624 4        27.904
I02        56.000    36941060.282 6 144964648.65706      -619.931 6        37.569
C25        57.000                                                                                                                                    26638981.618 5                      2001.422 5        30.211
I06        58.000    38368352.711 6 150565634.33806      -737.155 6        39.186
> 2025 01 01 11 30 10.0000000  0 40
G19         1.000    21258866.795 6 111716101.68206      -626.640 6        38.739                                    21258864.277 2  87051476.56002      -488.282 2        17.887
G17         5.000    22829182.001 6 119968319.74306     -2994.573 6        40.222                                    22829191.967 3  93481701.56103     -2333.424 3        23.771    22829190.464 5                     -2333.431 5        30.951
G15         6.000    22476465.586 5 118114645.95105     -4304.533 5        35.852                                    22476473.417 4  92037351.02904     -3354.185 4        24.812    22476471.571 5  92037399.03605     -3354.340 5        34.010
G12         7.000    21467545.113 7 112812752.33807      1567.710 7        45.135                                    21467629.575 1  87906359.87101      1221.782 1         9.429    21467545.880 5  87906028.66305      1221.443 5        30.725
E30         9.000    24858823.611 7 130634068.24207       940.231 7        44.387                                                                    24858830.480 7  97551396.20607       702.116 7        44.212    24858829.205 7 100096219.73407       720.372 7        46.926
G23        10.000    24568739.574 5 129109561.50305     -3483.404 5        31.441                                                                                                    24568790.983 3                     -2713.414 3        20.262
G32        11.000    25567968.337 5 134360648.59605      2545.041 5        35.552                                    25567976.641 2 104696579.10602      1983.141 2        12.788
G10        12.000    24471672.521 6 128599475.49506     -1575.217 6        39.303                                    24471685.267 4 100207489.97504     -1227.446 4        24.286    24471683.948 5 100207455.99615     -1227.373 5        34.362
E02        13.000    23364808.764 7 122782914.93507     -1602.966 7        46.574                                                                    23364813.218 7  91688629.07007     -1197.008 7        47.179    23364812.211 7  94080511.85507     -1228.224 7        47.837
E25        14.000    26719152.842 4                     -3381.498 4        27.485                                                                    26719178.618 4                     -2524.934 4        28.521    26719160.266 5 107586989.38305     -2591.305 5        34.924
G24        16.000    20103443.334 6 105644453.18006      -493.165 6        40.741                                    20103446.802 6  82320186.92206      -384.284 6        41.816    20103446.495 7  82320259.93207      -384.138 7        44.147
E08        17.000    24285110.757 7 127619078.14607     -2650.071 7        45.275                                                                    24285116.610 7  95299965.47607     -1979.007 7        45.083    24285114.135 7  97786090.34907     -2030.670 7        44.203
E07        18.000    24633897.050 6 129451997.84906       258.983 6        41.673                                                                    24633905.162 7  96668787.02007       193.329 7        45.356    24633903.605 7  99190549.72507       198.388 7        44.500
R22        22.000    21808054.818 5 116412999.26715      1362.790 5        35.519                                                                    21808061.228 4                      1060.027 4        28.986
S36        23.000    38255642.184 5 201034735.29905      -839.227 5        34.695
S23        24.000    38191142.378 5 200695802.58405      -842.535 5        35.205
R04        25.000    22069032.253 6 118178989.27106      1986.202 6        39.333                                                                    22069038.356 6  91916810.59506      1545.009 6        40.741
E29        26.000    28617877.133 5                      2044.603 5        30.875                                                                    28617879.066 5 112302698.28805      1526.626 5        32.425    28617893.719 4 115232337.27704      1566.737 4        28.588
R13        29.000    19676544.346 6 105071637.87806        15.964 6        38.414
R21        30.000    22606540.418 6 120972091.70606     -2533.938 6        38.228                                                                    22606558.095 5  94089565.02905     -1971.016 5        34.524
R12        31.000    20356579.609 6 108741167.24806     -2897.928 6        36.907                                                                    20356589.513 6  84576521.61406     -2253.807 6        38.937
C10        32.000                                                                                                                                    38735037.650 6 201703491.81206     -1283.326 6        36.991    38735046.126 7 155969969.42407      -992.289 7        44.310    38735041.589 5 163900613.17805     -1042.604 5        35.410
R03        33.000    20294376.417 8 108637748.14608     -1742.284 8        48.119                                                                    20294382.935 7  84495771.64507     -1355.040 7        42.133
C24        34.000                                                                                                                                    22245821.129 7 115839806.07407       767.424 7        45.220                                                                    22245822.222 7  94129391.94707       623.637 7        46.038
R14        35.000                                                                                                                                    23432001.271 4                      1870.805 4        26.707
C26        37.000                                                                                                                                    22033416.816 8 114733851.95708     -1853.364 8        48.911                                                                    22033419.624 7  93230676.52407     -1505.971 7        47.026
S21        38.000    38484077.679 5 202235205.26805      -838.518 5        33.958
C44        39.000                                                                                                                                    25326090.033 3                      2468.621 3        23.143
C35        40.000                                                                                                                                    23711783.694 6 123473391.70806      1021.228 6        37.701                                                                    23711785.887 5 100332317.35505       829.970 5        33.377
C42        41.000                                                                                                                                    24909639.750 5 129711256.44205     -3880.845 5        33.641                                                                    24909660.969 4 105400942.39104     -3153.469 4        27.760
R02        43.000    22078444.734 6 117814721.81306     -5045.752 6        38.090                                                                    22078449.142 5  91633782.37205     -3924.515 5        30.740
C40        44.000                                                                                                                                    39735955.246 5 206915482.72705     -1881.360 5        30.053                                                                    39735947.434 4 168135775.48504     -1529.037 4        27.305
C33        46.000                                                                                                                                    24093143.977 6 125459373.79606     -1493.778 6        36.537                                                                    24093167.031 6 101946050.32806     -1213.928 6        36.204
C14        48.000                                                                                                                                    24049294.717 6 125230863.04406     -2904.196 6        37.062    24049297.293 7  96836628.44507     -2245.513 7        42.114    24049304.688 6 101760442.57506     -2359.631 6        38.411
C41        50.000                                                                                                                                    26127850.105 6 136054604.87706      1117.147 6        40.207                                                                    26127862.050 6 110555544.22806       907.788 6        37.195
C29        51.000                                                                                                                                    24902991.443 5 129676482.63605     -2127.415 5        33.623                                                                    24903030.367 4                     -1728.346 4        27.090
C07        53.000                                                                                                                                    39455911.957 4                     -1609.794 4        29.232    39455925.665 4                     -1244.995 4        27.892
I02        56.000    36941850.875 6 144967748.42506      -620.285 6        37.694
C25        57.000                                                                                                                                    26637061.628 5                      2001.162 5        30.098
I06        58.000    38369291.282 6 150569320.70606      -737.372 6        39.117
> 2025 01 01 11 30 15.0000000  0 40
G19         1.000    21259463.735 6 111719242.01106      -629.767 6        36.533                                    21259462.092 2  87053923.55802      -490.722 2        17.170
G17         5.000    22832031.373 6 119983297.12506     -2996.633 6        39.877                                    22832041.718 4  93493372.24304     -2335.033 4        24.060    22832039.093 5                     -2334.970 5        30.279
G15         6.000    22480559.945 5 118136171.58805     -4306.046 5        33.186                                    22480568.315 4  92054124.24104     -3355.356 4        24.902    22480567.344 5  92054172.20005     -3355.167 5        34.924
G12         7.000    21466054.589 7 112804917.17007      1566.073 7        45.461                                    21466138.356 2  87900254.30602      1220.364 2        12.545    21466053.737 5  87899923.36105      1220.153 5        31.698
E30         9.000    24857928.976 7 130629368.87807       939.230 7        43.505                                                                    24857935.965 7  97547886.92707       701.345 7        44.256    24857934.843 7 100092618.90707       719.672 7        46.608
G23        10.000    24572055.860 5 129126980.99605     -3485.010 5        31.774
G32        11.000    25565545.812 5 134347924.07305      2544.651 5        33.623                                    25565555.409 2 104686663.72702      1982.877 2        12.970    25565561.580 5 104686699.71115      1982.702 5        31.411
G10        12.000    24473172.187 6 128607357.16906     -1577.884 6        40.634                                    24473184.660 4 100213631.53104     -1229.522 4        25.368    24473183.394 5 100213597.49505     -1229.314 5        33.653
E02        13.000    23366334.602 7 122790931.71907     -1604.093 7        46.465                                                                    23366338.645 7  91694615.60807     -1197.846 7        46.972    23366337.723 7  94086654.56707     -1229.122 7        47.710
E25        14.000    26722368.345 4                     -3382.103 4        26.443                                                                    26722396.487 4                     -2525.024 4        27.940    26722378.114 5 107599944.45605     -2591.162 5        34.724
G24        16.000    20103913.901 6 105646923.54706      -495.425 6        40.636                                    20103916.680 6  82322111.89106      -386.044 6        41.478    20103916.670 7  82322184.90607      -386.087 7        44.144
E08        17.000    24287633.006 7 127632332.15407     -2651.798 7        45.327                                                                    24287638.690 7  95309862.91807     -1980.179 7        45.258    24287636.195 7  97796245.99007     -2031.856 7        44.674
E07        18.000    24633651.249 6 129450706.93306       257.255 6        41.116                                                                    24633659.509 7  96667823.02507       191.969 7        45.460    24633657.785 7  99189560.57507       196.978 7        44.316
R22        22.000    21806779.576 6 116406193.28906      1359.240 6        36.295                                                                    21806788.720 4                      1057.132 4        28.777
S36        23.000    38256439.837 5 201038929.65405      -838.518 5        34.910
S23        24.000    38191934.539 5 200700013.77705      -842.319 5        35.062
R04        25.000    22067177.556 6 118169064.75306      1983.145 6        41.001                                                                    22067185.962 7  91909091.52907      1542.530 7        42.006
E29        26.000    28615940.004 4                      2043.879 4        29.573                                                                    28615933.510 5 112295066.00105      1526.261 5        32.012    28615949.336 4 115224505.87804      1565.544 4        27.808
R13        29.000    19676530.907 6 105071562.00206        14.130 6        38.940
R21        30.000    22608913.314 6 120984770.86606     -2537.795 6        37.187                                                                    22608929.936 5  94099426.61505     -1973.742 5        34.752
R12        31.000    20359292.744 6 108755658.41206     -2898.926 6        38.318                                                                    20359303.784 6  84587792.50206     -2254.825 6        38.646
C10        32.000                                                                                                                                    38736269.596 6 201709907.74006     -1283.270 6        36.737    38736278.040 7 155974930.62707      -992.346 7        44.211    38736273.942 5 163905826.66405     -1043.144 5        35.700
R03        33.000    20296006.065 8 108646469.47308     -1746.622 8        48.075                                                                    20296012.557 7  84502554.88407     -1358.461 7        43.778
C24        34.000                                                                                                                                    22245085.124 7 115835970.10307       766.571 7        46.654                                                                    22245085.636 7  94126274.91907       622.768 7        46.449
R14        35.000    23429648.701 5 124894010.34215      2404.654 5        30.302
C26        37.000                                                                                                                                    22035196.716 8 114743120.96708     -1854.534 8        48.989                                                                    22035199.796 7  93238208.34707     -1507.123 7        47.321
S21        38.000    38484880.018 5 202239396.03505      -837.861 5        34.538
C44        39.000                                                                                                                                    25323725.453 4                      2468.119 4        24.000
C35        40.000                                                                                                                                    23710804.498 6 123468289.21806      1019.466 6        36.095                                                                    23710806.060 5 100328171.17205       828.208 5        33.826
C42        41.000                                                                                                                                    24913364.209 5 129730662.03005     -3881.941 5        31.728                                                                    24913386.953 4 105416710.86504     -3154.575 4        26.754
R02        43.000    22083176.968 5 117839953.62905     -5047.287 5        35.400                                                                    22083178.040 4  91653407.00204     -3925.574 4        29.374
C40        44.000                                                                                                                                    39737750.487 5 206924891.35505     -1882.092 5        30.641                                                                    39737753.114 4 168143420.67904     -1528.629 4        26.359
C33        46.000                                                                                                                                    24094580.293 5 125466848.23505     -1496.294 5        35.471                                                                    24094602.087 5 101952123.91305     -1215.996 5        35.076
C14        48.000                                                                                                                                    24052085.396 6 125245387.09406     -2905.853 6        37.410    24052087.141 6  96847859.35806     -2246.952 6        41.826    24052093.664 6 101772244.55906     -2361.526 6        37.667
C41        50.000                                                                                                                                    26126777.932 6 136049023.19406      1115.349 6        41.175                                                                    26126789.976 6 110551008.67806       905.963 6        36.544
C29        51.000                                                                                                                                    24905037.915 5 129687124.69105     -2129.868 5        35.662
C07        53.000                                                                                                                                    39457463.579 4                     -1609.833 4        29.697    39457473.065 4                     -1244.824 4        28.104
I02        56.000    36942640.786 6 144970848.81406      -620.254 6        37.565
C25        57.000                                                                                                                                    26635140.530 5                      2001.328 5        31.751
I06        58.000    38370231.116 6 150573006.59006      -737.234 6        39.333
> 2025 01 01 11 30 20.0000000  0 39
G19         1.000    21260061.189 5 111722399.90305      -633.414 5        33.820                                    21260063.248 2  87056384.21102      -493.563 2        16.453
G17         5.000    22834883.185 6 119998287.09506     -2999.335 6        39.568                                    22834893.522 3  93505052.73403     -2337.136 3        23.695    22834889.587 4                     -2337.280 4        28.787
G15         6.000    22484656.005 5 118157705.44605     -4307.617 5        31.525                                    22484665.068 4  92070903.85604     -3356.584 4        25.368    22484666.128 5  92070951.83705     -3356.644 5        35.552
G12         7.000    21464565.751 7 112797092.40607      1563.938 7        45.786                                    21464648.805 2  87894157.03002      1218.663 2        16.906    21464566.489 4  87893826.13804      1218.498 4        28.635
E30         9.000    24857035.616 7 130624676.30907       937.820 7        43.088                                                                    24857042.987 7  97544382.73307       700.388 7        44.156    24857041.669 7 100089023.30807       718.643 7        46.342
G23        10.000    24575369.348 5 129144407.81805     -3486.222 5        32.976
G32        11.000    25563126.876 5 134335204.87705      2543.533 5        31.177                                    25563135.135 2 104676752.55702      1981.928 2        13.515    25563139.221 5 104676788.58005      1981.462 5        31.155
G10        12.000    24474675.219 6 128615254.06606     -1580.867 6        41.790                                    24474687.054 4 100219784.94004     -1231.846 4        25.639    24474686.543 5 100219750.89605     -1231.628 5        33.467
E02        13.000    23367861.774 7 122798956.00307     -1605.574 7        46.247                                                                    23367865.531 7  91700607.74907     -1198.928 7        46.758    23367864.707 7  94092803.02807     -1230.201 7        47.571
E25        14.000    26725584.211 4                     -3381.643 4        24.316                                                                    26725613.672 4                     -2525.001 4        26.695    26725595.889 5 107612900.98305     -2591.434 5        34.638
G24        16.000    20104386.943 7 105649407.99007      -498.409 7        42.095                                    20104389.277 6  82324047.82506      -388.374 6        41.168    20104389.476 7  82324120.82907      -388.339 7        43.843
E08        17.000    24290157.025 7 127645596.56407     -2653.835 7        45.184                                                                    24290162.907 7  95319768.14707     -1981.818 7        45.366    24290160.434 7  97806409.61307     -2033.537 7        45.070
E07        18.000    24633407.953 6 129449427.19706       254.949 6        40.923                                                                    24633416.016 7  96666867.38207       190.353 7        45.794    24633414.123 7  99188579.99307       195.319 7        43.981
R22        22.000    21805510.490 5                      1355.634 5        34.943                                                                    21805519.352 4                      1054.248 4        27.341
S36        23.000    38257239.877 5 201043123.64505      -838.847 5        35.043
S23        24.000    38192738.139 5 200704225.43705      -842.242 5        35.062
R04        25.000    22065326.049 7 118159157.98607      1979.555 7        42.191                                                                    22065336.016 7  91901386.28207      1539.709 7        42.538
E29        26.000    28614000.684 4                      2042.747 4        28.986                                                                    28613989.179 5 112287436.28805      1525.515 5        32.156    28614004.913 4 115216677.13704      1565.559 4        28.085
R13        29.000    19676517.832 6 105071497.29506        11.842 6        38.829
R21        30.000    22611283.537 5 120997471.43305     -2542.212 5        34.552                                                                    22611303.376 5  94109304.89905     -1977.333 5        32.994
R12        31.000    20362007.786 6 108770157.73106     -2900.635 6        39.673                                                                    20362013.576 6  84599069.70906     -2256.143 6        39.348
C10        32.000                                                                                                                                    38737502.879 6 201716326.26906     -1283.940 6        36.707    38737510.672 7 155979893.84407      -992.827 7        44.336    38737506.540 5 163911042.21705     -1043.161 5        35.310
R03        33.000    20297640.223 8 108655214.42908     -1751.337 8        48.758                                                                    20297645.743 7  84509356.49907     -1362.192 7        44.012
C24        34.000                                                                                                                                    22244349.542 7 115832140.73207       765.198 7        47.401                                                                    22244350.259 7  94123163.23307       621.891 7        46.895
R14        35.000                                                                                                                                    23427461.143 4                      1870.642 4        24.767
C26        37.000                                                                                                                                    22036978.010 8 114752397.53208     -1856.037 8        48.870                                                                    22036981.428 7  93245746.29407     -1508.120 7        47.664
S21        38.000    38485674.232 5 202243587.52505      -838.314 5        34.490
C35        40.000                                                                                                                                    23709825.930 5 123463198.64405      1016.999 5        34.076                                                                    23709828.384 5 100324034.65005       826.471 5        33.689
C42        41.000                                                                                                                                    24917091.548 4 129750073.17804     -3883.009 4        28.521                                                                    24917116.794 4 105432483.90804     -3155.374 4        28.360
R02        43.000                                                                                                                                    22087906.434 4  91673038.63904     -3926.412 4        26.192
C40        44.000                                                                                                                                    39739554.083 5 206934302.34105     -1882.274 5        30.800                                                                    39739560.059 4 168151067.87704     -1529.140 4        27.126
C33        46.000                                                                                                                                    24096014.338 5 125474337.70505     -1499.428 5        34.352                                                                    24096039.827 5 101958209.67005     -1218.322 5        34.076
C14        48.000                                                                                                                                    24054875.029 6 125259922.58506     -2908.230 6        36.752    24054878.445 6  96859099.09706     -2248.864 6        41.588    24054884.962 6 101784055.78806     -2363.095 6        36.272
C41        50.000                                                                                                                                    26125708.036 6 136043453.35506      1112.820 6        41.666                                                                    26125720.099 5 110546482.72005       904.388 5        35.752
C29        51.000                                                                                                                                    24907087.919 6 129697780.34206     -2132.532 6        37.195                                                                    24907137.463 4                     -1732.877 4        26.850
C07        53.000                                                                                                                                    39459015.040 4                     -1610.408 4        29.877    39459018.986 4                     -1245.499 4        28.360
I02        56.000    36943431.094 6 144973950.56506      -620.500 6        37.645
C25        57.000                                                                                                                                    26633221.377 5                      2001.072 5        32.533
I06        58.000    38371170.653 6 150576692.95106      -737.232 6        38.946
> 2025 01 01 11 30 25.0000000  0 39
G19         1.000    21260669.146 6 111725575.01206      -636.610 6        37.868                                    21260667.342 2  87058858.32302      -496.059 2        14.476
G17         5.000    22837738.819 6 120013289.26906     -3001.560 6        39.297                                    22837747.048 3  93516742.72903     -2338.868 3        22.495    22837743.350 4                     -2339.322 4        27.281
G15         6.000    22488756.014 5 118179247.25005     -4309.154 5        34.443                                    22488763.690 4  92087689.64304     -3357.780 4        25.504    22488764.588 5  92087737.61405     -3357.825 5        35.948
G12         7.000    21463079.081 7 112789277.79107      1562.037 7        45.285                                    21463161.253 2  87888067.66502      1217.189 2        16.868    21463077.642 4  87887736.85604      1216.827 4        26.192
E30         9.000    24856144.110 7 130619990.17907       936.573 7        42.656                                                                    24856151.167 7  97540883.36407       699.441 7        43.994    24856149.948 7 100085432.65407       717.643 7        46.063
G23        10.000    24578686.325 5 129161841.67605     -3487.678 5        32.533                                                                                                    24578687.086 4                     -2717.689 4        26.180
G32        11.000    25560707.101 4 134322490.68904      2542.434 4        27.581                                    25560716.121 2 104666845.29102      1981.131 2        12.121    25560719.415 5 104666881.36905      1981.165 5        30.385
G10        12.000    24476180.530 6 128623165.86606     -1583.774 6        40.913                                    24476192.537 4 100225949.96904     -1234.115 4        24.947    24476190.558 5 100225915.96305     -1234.274 5        33.168
E02        13.000    23369389.867 7 122806987.44907     -1606.996 7        46.122                                                                    23369393.755 7  91706605.23907     -1199.961 7        46.524    23369393.075 7  94098956.98007     -1231.320 7        47.558
E25        14.000    26728802.559 3                     -3382.396 3        23.657                                                                    26728833.026 4                     -2525.902 4        26.719    26728814.085 5 107625858.66605     -2591.680 5        34.462
G24        16.000    20104862.535 7 105651906.08407      -501.019 7        43.854                                    20104864.530 6  82325994.39906      -390.407 6        40.992    20104864.661 7  82326067.40907      -390.336 7        43.494
E08        17.000    24292682.740 7 127658871.04307     -2655.871 7        44.807                                                                    24292688.931 7  95329680.87507     -1983.287 7        45.360    24292686.559 7  97816580.94307     -2035.082 7        45.621
E07        18.000    24633166.938 6 129448158.31806       252.700 6        40.250                                                                    24633174.556 7  96665919.83207       188.750 7        46.061    24633172.614 7  99187607.72207       193.660 7        43.809
R22        22.000    21804244.382 6 116392637.14016      1351.990 6        36.907                                                                    21804253.042 4                      1051.085 4        27.641
S36        23.000    38258035.643 5 201047316.96905      -838.633 5        35.033
S23        24.000    38193545.924 5 200708437.39005      -842.275 5        35.357
R04        25.000    22063478.561 6 118149268.31206      1976.147 6        41.492                                                                    22063488.262 7  91893694.30407      1537.024 7        42.536
E29        26.000    28612058.850 4                      2042.428 4        28.445                                                                    28612046.040 5 112279808.66705      1525.931 5        31.374    28612061.923 4 115208850.54104      1565.179 4        27.353
E03        27.000    27573649.456 3                     -4042.557 3        20.286
R13        29.000    19676506.396 6 105071443.29006         9.643 6        38.423
R21        30.000    22613656.042 6 121010193.03806     -2546.465 6        38.249                                                                    22613675.040 5  94119199.50105     -1980.630 5        30.777
R12        31.000    20364723.265 6 108784664.79306     -2902.176 6        41.159                                                                    20364729.785 6  84610352.95306     -2257.284 6        40.870
C10        32.000                                                                                                                                    38738736.259 6 201722747.09806     -1284.377 6        36.658    38738743.862 7 155984858.83507      -993.178 7        44.348    38738739.307 5 163916259.68205     -1043.897 5        35.600
R03        33.000    20299278.040 8 108663982.82508     -1755.970 8        50.037                                                                    20299283.672 7  84516176.33507     -1365.856 7        44.488
C24        34.000                                                                                                                                    22243614.544 7 115828317.63707       764.032 7        47.767                                                                    22243616.131 7  94120056.65907       620.686 7        47.121
C26        37.000                                                                                                                                    22038760.514 8 114761681.30808     -1857.506 8        48.692                                                                    22038764.446 7  93253290.11807     -1509.476 7        47.764
S21        38.000    38486474.402 5 202247779.44205      -838.304 5        34.333
C35        40.000                                                                                                                                    23708845.765 5 123458119.55905      1014.608 5        34.376                                                                    23708853.024 5 100319907.47205       824.405 5        33.713
C42        41.000                                                                                                                                    24920823.662 4 129769489.64004     -3883.752 4        29.261                                                                    24920847.627 5 105448261.32105     -3156.435 5        30.755
R02        43.000                                                                                                                                    22092635.980 4  91692677.14114     -3927.882 4        29.109
C40        44.000                                                                                                                                    39741365.749 5 206943715.42805     -1882.520 5        31.532                                                                    39741367.348 4 168158716.78704     -1530.397 4        27.245
C33        46.000                                                                                                                                    24097456.360 5 125481841.73105     -1502.279 5        32.323                                                                    24097480.493 5 101964307.27705     -1221.203 5        32.425
C14        48.000                                                                                                                                    24057665.268 5 125274469.15405     -2910.499 5        35.833    24057672.368 6  96870347.37206     -2250.535 6        40.815    24057679.374 5 101795876.03505     -2364.906 5        33.934
