     3.04           OBSERVATION DATA    M                   RINEX VERSION / TYPE
ssrcrin-15.6.1x                         20250101 060000 UTC PGM / RUN BY / DATE 
(00000000023479385599111004) Septentrio proprietary         COMMENT             
ract                                                        MARKER NAME         
01                                                          MARKER NUMBER       
geodetic                                                    MARKER TYPE         
NFB                 CLIMERS@TUW                             OBSERVER / AGENCY   
3296359             SEPT ASTERX SB3 PROB4.14.4              REC # / TYPE / VERS 
Unknown             Unknown                                 ANT # / TYPE        
  4127445.7494  1206914.2840  4695542.0386                  APPROX POSITION XYZ 
        0.0000        0.0000        0.0000                  ANTENNA: DELTA H/E/N
G   23 X1  C1C L1C D1C S1C C1W S1W C2W L2W D2W S2W C2L L2L  SYS / # / OBS TYPES 
       D2L S2L C5Q L5Q D5Q S5Q C1L L1L D1L S1L              SYS / # / OBS TYPES 
E   21 X1  C1C L1C D1C S1C C6C L6C D6C S6C C5Q L5Q D5Q S5Q  SYS / # / OBS TYPES 
       C7Q L7Q D7Q S7Q C8Q L8Q D8Q S8Q                      SYS / # / OBS TYPES 
S    9 X1  C1C L1C D1C S1C C5I L5I D5I S5I                  SYS / # / OBS TYPES 
R   17 X1  C1C L1C D1C S1C C2P L2P D2P S2P C2C L2C D2C S2C  SYS / # / OBS TYPES 
       C3Q L3Q D3Q S3Q                                      SYS / # / OBS TYPES 
C   25 X1  C1P L1P D1P S1P C5P L5P D5P S5P C2I L2I D2I S2I  SYS / # / OBS TYPES 
       C7I L7I D7I S7I C6I L6I D6I S6I C7D L7D D7D S7D      SYS / # / OBS TYPES 
J   17 X1  C1C L1C D1C S1C C2L L2L D2L S2L C5Q L5Q D5Q S5Q  SYS / # / OBS TYPES 
       C1L L1L D1L S1L                                      SYS / # / OBS TYPES 
I    5 X1  C5A L5A D5A S5A                                  SYS / # / OBS TYPES 
SEPTENTRIO RECEIVERS OUTPUT ALIGNED CARRIER PHASES.         COMMENT             
NO FURTHER PHASE SHIFT APPLIED IN THE RINEX ENCODER.        COMMENT             
G L1C                                                       SYS / PHASE SHIFT   
G L2W                                                       SYS / PHASE SHIFT   
G L2L  0.00000                                              SYS / PHASE SHIFT   
G L5Q  0.00000                                              SYS / PHASE SHIFT   
G L1L  0.00000                                              SYS / PHASE SHIFT   
E L1C  0.00000                                              SYS / PHASE SHIFT   
E L6C  0.00000                                              SYS / PHASE SHIFT   
E L5Q  0.00000                                              SYS / PHASE SHIFT   
E L7Q  0.00000                                              SYS / PHASE SHIFT   
E L8Q  0.00000                                              SYS / PHASE SHIFT   
S L1C                                                       SYS / PHASE SHIFT   
S L5I                                                       SYS / PHASE SHIFT   
R L1C                                                       SYS / PHASE SHIFT   
R L2P  0.00000                                              SYS / PHASE SHIFT   
R L2C                                                       SYS / PHASE SHIFT   
R L3Q  0.00000                                              SYS / PHASE SHIFT   
C L1P  0.00000                                              SYS / PHASE SHIFT   
C L5P  0.00000                                              SYS / PHASE SHIFT   
C L2I                                                       SYS / PHASE SHIFT   
C L7I                                                       SYS / PHASE SHIFT   
C L6I                                                       SYS / PHASE SHIFT   
C L7D                                                       SYS / PHASE SHIFT   
J L1C                                                       SYS / PHASE SHIFT   
J L2L  0.00000                                              SYS / PHASE SHIFT   
J L5Q  0.00000                                              SYS / PHASE SHIFT   
J L1L  0.00000                                              SYS / PHASE SHIFT   
I L5A                                                       SYS / PHASE SHIFT   
  2025     1     1     6     0    0.0000000     GPS         TIME OF FIRST OBS   
 C1C    0.000 C2C    0.000 C2P    0.000                     GLONASS COD/PHS/BIS 
DBHZ                                                        SIGNAL STRENGTH UNIT
    18                                                      LEAP SECONDS        
 24 R01  1 R02 -4 R03  5 R04  6 R05  1 R06 -4 R07  5 R08  6 GLONASS SLOT / FRQ #
    R09 -2 R10 -7 R11  0 R12 -1 R13 -2 R14 -7 R15  0 R16 -1 GLONASS SLOT / FRQ #
    R17  4 R18 -3 R19  3 R20  2 R21  4 R22 -3 R23  3 R24  2 GLONASS SLOT / FRQ #
                                                            END OF HEADER       
> 2025 01 01 06 00  0.0000000  0 36
G13         2.000    23885668.232 5 125519956.22605      2423.510 5        35.743
G30         3.000    20868881.822 7 109666720.94207       801.330 7        45.515                                    20868878.290 6  85454544.11806       624.406 6        37.187    20868879.085 6  85454580.13106       624.319 6        38.709
G07         5.000    20809301.459 8 109353636.50508     -1530.180 8        48.981                                    20809292.643 6  85210628.53806     -1192.345 6        40.291    20809297.124 6  85210600.53606     -1192.373 6        38.703
E34         6.000    26297091.693 5 138192135.24305     -3737.172 5        34.576                                                                    26297121.681 4                     -2790.574 4        29.289    26297100.069 5 105887498.57005     -2863.645 5        35.862
G05         7.000    22739813.964 7 119498757.71307      2239.248 7        43.809                                    22739807.255 5  93115811.51405      1744.865 5        32.365    22739809.372 6  93115751.49906      1744.850 6        39.823
G09         9.000    21828575.545 4                     -3348.380 4        28.673                                                                                                    21828584.352 6  89384411.76606     -2609.162 6        37.588
G20        10.000    20769561.189 6 109144829.50506       223.882 6        41.661                                    20769555.793 4  85047914.15104       174.458 4        26.647
E09        12.000    26909010.592 3                     -3124.235 3        18.896                                                                    26908972.237 4                     -2334.247 4        29.716
E31        13.000    26355972.916 5 138501587.35105     -1735.868 5        32.150                                                                    26355987.190 6 103426556.33506     -1296.474 6        37.497    26355976.301 6 106124684.99606     -1330.053 6        36.888
E24        15.000    25653289.589 6 134808931.56206       902.743 6        41.380                                                                    25653289.041 7 100669073.55407       674.019 7        43.454    25653287.789 6 103295156.43706       691.655 6        41.874
E15        16.000    25431782.245 6 133645015.23906     -1561.487 6        38.198                                                                    25431780.569 5  99799777.04405     -1166.145 5        33.108    25431780.979 6 102403225.91406     -1196.667 6        38.766
G06        19.000    24374470.307 5 128088720.72105     -4333.645 5        34.762                                    24374466.478 4  99809367.86104     -3376.870 4        26.251    24374469.201 6  99809369.84006     -3376.522 6        36.858
E05        21.000    21932353.732 7 115255299.43907     -1460.793 7        44.232                                                                    21932353.783 7  86067321.73307     -1090.890 7        44.620    21932354.403 7  88312543.56707     -1119.324 7        47.204
E13        22.000    27536545.245 4 144705535.86004      1027.590 4        28.521                                                                    27536544.085 5 108059322.39005       766.827 5        30.891    27536552.978 6 110878308.56006       787.060 6        39.649
R07        23.000    20429856.056 5 109362614.32505     -2978.368 5        35.871
S23        24.000    38087084.372 6 200148908.79406      -823.167 6        40.832
S36        25.000    38150610.478 5 200482875.29905      -826.928 5        33.078
G11        26.000    22953441.371 7 120621104.17307     -3141.156 7        44.056                                    22953436.251 3  93990471.96903     -2447.647 3        22.686    22953437.580 6  93990481.94106     -2447.686 6        39.508
E03        27.000    24492424.565 7 128708562.46107       788.159 7        43.782                                                                    24492425.260 6  96113544.16006       588.445 6        39.444    24492427.533 6  98620914.10006       603.971 6        37.490
R11        28.000    23081316.724 4 123339586.47904      3721.274 4        28.408                                                                    23081320.732 4                      2894.196 4        28.398
R17        29.000    23739459.230 5 127034801.73805      1453.053 5        32.431
R10        30.000    19845931.950 7 105789975.21007      1299.327 7        45.907
R24        31.000    22463854.627 6 120124371.96906     -1897.411 6        37.161                                                                    22463860.116 6  93430026.97806     -1475.549 6        36.616
R09        32.000    20172230.389 7 107718552.89707     -2454.233 7        47.927                                                                    20172230.729 7  83781098.62907     -1908.865 7        44.572
C19        33.000                                                                                                                                    24136998.730 6 125687660.19906     -3354.463 6        40.956                                                                    24136992.819 6 102131499.30606     -2725.818 6        40.987
C34        34.000                                                                                                                                    26189274.380 4                     -2621.336 4        25.459
R08        35.000    19475175.693 8 104288719.02908       261.818 8        50.342                                                                    19475172.162 6  81113431.60606       203.732 6        41.132
C05        36.000                                                                                                                                                                                                    39184918.817 5 157781390.46805      -680.095 5        35.162
R01        38.000    22899528.495 5 122411081.68505      2716.323 5        30.204                                                                    22899517.959 5                      2112.592 5        33.886
C36        42.000                                                                                                                                    21926847.014 6 114178825.77006       -85.913 6        39.048                                                                    21926848.086 6  92779685.99006       -69.874 6        37.520
C09        46.000                                                                                                                                    39554536.659 5 205970914.30005     -1618.042 5        33.557
C21        47.000                                                                                                                                    23930966.417 7 124614811.55507      1704.526 7        44.941                                                                    23930960.070 7 101259769.71307      1385.058 7        42.123
C45        49.000                                                                                                                                    24076841.184 5 125374365.55705      2337.842 5        34.405                                                                    24076819.847 4 101876916.04304      1899.722 4        29.858
C22        50.000                                                                                                                                    21379746.962 8 111329920.69208      -826.635 8        48.637                                                                    21379740.387 7  90464670.26807      -671.733 7        44.266
C12        56.000                                                                                                                                    26468518.649 3                     -3382.320 3        23.981
I06        60.000    37902368.514 5 148737034.33905      -626.212 5        31.170
> 2025 01 01 06 00  5.0000000  0 37
G13         2.000    23883369.988 5 125507839.96205      2423.159 5        35.490
G30         3.000    20868119.649 7 109662720.54807       799.083 7        45.752                                    20868117.448 6  85451426.93906       622.653 6        37.353    20868118.800 6  85451462.95006       622.731 6        38.706
G07         5.000    20810758.217 8 109361293.46608     -1532.290 8        48.577                                    20810750.021 6  85216594.98106     -1193.990 6        40.875    20810753.821 6  85216566.98006     -1194.097 6        38.895
E34         6.000    26300645.010 5 138210823.62005     -3737.996 5        34.609                                                                    26300679.335 4                     -2791.547 4        29.791    26300655.807 6 105901818.21306     -2864.222 6        36.359
G05         7.000    22737683.010 7 119487566.19507      2237.612 7        44.122                                    22737678.118 5  93107090.84805      1743.594 5        34.238    22737678.599 6  93107030.81706      1743.713 6        39.640
G09         9.000    21831764.765 4                     -3349.919 4        27.234                                                                                                    21831769.940 6  89397459.93406     -2609.814 6        38.045
G20        10.000    20769349.510 7 109143718.53807       220.961 7        42.440                                    20769344.527 4  85047048.44604       172.176 4        28.133
E09        12.000                                                                                                                                    26911946.152 4                     -2334.502 4        29.175
E31        13.000    26357626.891 5 138510273.30905     -1737.927 5        30.777                                                                    26357640.088 6 103433042.56206     -1298.013 6        37.607    26357629.792 6 106131340.44006     -1331.820 6        37.512
E24        15.000    25652432.132 6 134804423.69806       900.729 6        40.789                                                                    25652431.074 7 100665707.29207       672.571 7        43.304    25652430.444 7 103291702.36607       690.122 7        42.095
E15        16.000    25433268.957 6 133652829.86306     -1563.972 6        38.429                                                                    25433267.215 5  99805612.61205     -1167.849 5        33.725    25433267.955 6 102409213.72106     -1198.508 6        39.913
G06        19.000    24378593.175 5 128110389.39205     -4333.847 5        34.943                                    24378590.235 4  99826252.53604     -3377.030 4        26.120    24378591.925 6  99826254.53106     -3376.955 6        37.047
E05        21.000    21933744.562 7 115262606.68307     -1461.899 7        43.748                                                                    21933744.303 7  86072778.43207     -1091.642 7        44.429    21933744.798 7  88318142.61607     -1120.094 7        47.466
E13        22.000    27535571.422 4 144700404.78304      1025.538 4        29.156                                                                    27535568.082 5 108055490.73905       766.002 5        31.585    27535577.190 6 110874376.95306       785.638 6        39.333
R07        23.000    20432638.994 5 109377512.50405     -2980.369 5        33.790                                                                    20432664.113 4                     -2318.661 4        24.617
S23        24.000    38087867.948 6 200153025.34406      -823.180 6        40.734
S36        25.000    38151400.654 5 200487009.56505      -826.972 5        33.365
G11        26.000    22956429.589 7 120636816.22807     -3143.333 7        43.401                                    22956426.058 3  94002715.12603     -2449.338 3        22.629    22956427.440 6  94002725.06006     -2449.235 6        38.171
E03        27.000    24491674.876 7 128704624.31707       787.426 7        42.785                                                                    24491675.671 6  96110603.32906       587.925 6        39.592    24491677.478 6  98617896.59306       603.172 6        36.363
R11        28.000    23077833.227 4 123320983.58414      3720.910 4        27.317                                                                    23077835.826 4                      2892.587 4        27.114
R17        29.000    23738105.072 5 127027545.38205      1449.759 5        34.333
R10        30.000    19844715.385 7 105783489.09407      1295.355 7        45.716
R24        31.000    22465634.427 6 120133869.44706     -1901.395 6        39.562                                                                    22465632.984 6  93437413.87806     -1478.612 6        36.597
R09        32.000    20174530.496 7 107730834.52807     -2458.229 7        47.284                                                                    20174531.020 7  83790651.01207     -1911.904 7        44.658
C19        33.000                                                                                                                                    24140220.754 6 125704436.10806     -3355.503 6        41.335                                                                    24140214.109 6 102145131.08406     -2726.705 6        41.502
C34        34.000                                                                                                                                    26191791.483 4                     -2624.085 4        25.594
R08        35.000    19474932.824 8 104287416.05608       259.662 8        50.435                                                                    19474928.529 6  81112418.19706       201.913 6        40.660
C05        36.000                                                                                                                                                                                                    39185764.110 5 157784791.42105      -680.055 5        35.186
R01        38.000    22896989.684 5 122397501.13605      2716.149 5        30.800                                                                    22896974.782 5  95198025.49315      2112.674 5        33.377
C36        42.000                                                                                                                                    21926931.058 6 114179262.91306       -88.594 6        39.444                                                                    21926932.088 6  92780041.20806       -72.171 6        37.395
R23        44.000    23540834.527 3                     -4748.862 3        23.048
C09        46.000                                                                                                                                    39556088.836 5 205979003.95005     -1618.097 5        33.299
C21        47.000                                                                                                                                    23929329.601 7 124606291.49307      1703.803 7        45.467                                                                    23929323.775 6 101252846.44906      1384.460 6        41.914
C45        49.000                                                                                                                                    24074599.050 5 125362679.90605      2336.549 5        33.407                                                                    24074577.267 5 101867420.51805      1898.441 5        30.732
C22        50.000                                                                                                                                    21380541.729 8 111334059.09508      -828.453 8        48.847                                                                    21380535.194 7  90468033.05707      -673.200 7        44.206
C12        56.000                                                                                                                                    26471768.289 3                     -3385.475 3        23.162    26471742.767 4 106590693.33214     -2616.632 4        24.496    26471821.785 3                     -2748.537 3        23.524
I06        60.000    37903167.562 5 148740167.28205      -626.459 5        30.981
> 2025 01 01 06 00 10.0000000  0 37
G30         3.000    20867361.416 7 109658731.64507       796.590 7        46.764                                    20867358.886 6  85448318.71506       620.719 6        37.909    20867359.240 6  85448354.71806       620.797 6        38.306
G07         5.000    20812217.568 8 109368961.17308     -1534.704 8        48.902                                    20812209.545 6  85222569.80506     -1195.875 6        41.473    20812212.833 6  85222541.80806     -1195.889 6        39.685
E34         6.000    26304203.056 5 138229516.53105     -3739.188 5        35.043                                                                    26304235.934 5                     -2792.225 5        30.687    26304212.050 6 105916141.32506     -2864.898 6        36.117
G05         7.000    22735555.014 7 119476382.90407      2235.721 7        44.677                                    22735550.418 5  93098376.59105      1742.120 5        35.471    22735549.793 6  93098316.56906      1742.174 6        39.538
G09         9.000    21834950.045 4                     -3350.806 4        28.588                                                                                                    21834957.213 6  89410512.69806     -2611.252 6        38.607
G20        10.000    20769140.199 7 109142622.60907       217.627 7        42.476                                    20769136.145 4  85046194.47504       169.583 4        29.450
E09        12.000    26914921.456 4                     -3125.621 4        26.228                                                                    26914919.714 4                     -2334.644 4        28.559
E31        13.000    26359284.297 5 138518970.68505     -1740.430 5        30.423                                                                    26359295.043 6 103439537.39306     -1299.779 6        37.508    26359284.980 6 106138004.70306     -1333.754 6        38.048
E24        15.000    25651576.081 6 134799925.60706       898.584 6        40.787                                                                    25651574.992 7 100662348.32507       670.973 7        43.238    25651574.928 7 103288255.77907       688.473 7        42.169
E15        16.000    25434757.448 6 133660656.76106     -1566.752 6        38.916                                                                    25434756.951 5  99811457.36505     -1169.932 5        33.916    25434757.564 6 102415210.92606     -1200.451 6        40.439
G06        19.000    24382717.172 5 128132059.30105     -4334.121 5        35.481                                    24382714.355 4  99843138.17204     -3377.240 4        26.359    24382715.932 6  99843140.17406     -3377.212 6        37.081
E05        21.000    21935136.266 7 115269918.87207     -1463.059 7        43.602                                                                    21935135.719 7  86078238.82407     -1092.489 7        44.477    21935136.193 7  88323745.46407     -1121.043 7        47.375
E13        22.000                                                                                                                                    27534594.380 5 108051666.37005       763.932 5        32.467    27534602.692 6 110870452.78306       783.939 6        38.961
R07        23.000    20435423.699 5 109392421.11415     -2982.848 5        35.829                                                                    20435438.316 3                     -2321.277 3        23.581
S23        24.000    38088650.084 6 200157141.63806      -823.315 6        41.001
S36        25.000    38152186.957 5 200491143.72305      -826.686 5        33.683
G11        26.000    22959419.619 7 120652539.43807     -3145.864 7        42.423                                    22959418.061 3  94014966.98003     -2451.316 3        21.405    22959419.373 6  94014976.90906     -2451.314 6        36.983
E03        27.000    24490925.777 6 128700689.73906       786.441 6        41.902                                                                    24490926.729 6  96107665.15406       587.286 6        39.847    24490927.197 5  98614881.80705       602.631 5        34.229
R11        28.000    23074352.497 4                      3718.971 4        26.575                                                                    23074352.423 4                      2892.547 4        26.347
R17        29.000    23736759.337 5 127020306.56005      1446.057 5        35.519
R10        30.000    19843501.896 7 105777023.20407      1291.055 7        45.684
R24        31.000    22467421.359 6 120143387.39506     -1905.698 6        41.573                                                                    22467410.886 6  93444816.70806     -1482.310 6        36.888
R09        32.000    20176833.539 7 107743136.19607     -2462.397 7        46.086                                                                    20176834.404 7  83800218.98907     -1915.250 7        44.572
C19        33.000                                                                                                                                    24143443.312 7 125721217.64707     -3356.921 7        42.328                                                                    24143436.833 6 102158767.47706     -2727.683 6        41.907
C34        34.000                                                                                                                                    26194309.078 3                     -2622.969 3        20.548
R08        35.000    19474691.051 8 104286123.99608       257.171 8        49.989                                                                    19474687.552 6  81111413.25406       200.043 6        41.042
C05        36.000                                                                                                                                                                                                    39186609.439 5 157788192.22705      -679.949 5        35.500
R01        38.000    22894457.687 4 122383921.11804      2715.996 4        28.436                                                                    22894433.316 5  95187463.32905      2112.352 5        33.168
R16        39.000    24155197.394 4                     -5079.657 4        25.970
C36        42.000                                                                                                                                    21927017.308 6 114179713.39506       -91.407 6        41.049                                                                    21927018.837 6  92780407.28706       -74.240 6        37.448
R23        44.000    23545277.236 3                     -4749.195 3        23.657
C09        46.000                                                                                                                                    39557639.716 5 205987093.43505     -1618.236 5        33.293
C21        47.000                                                                                                                                    23927694.036 7 124597775.19907      1702.800 7        45.892                                                                    23927688.198 6 101245926.26006      1383.804 6        41.816
C45        49.000                                                                                                                                    24072357.805 5 125350999.79105      2335.307 5        31.774                                                                    24072336.586 5 101857929.56005      1897.812 5        31.872
C22        50.000                                                                                                                                    21381338.618 8 111338207.06108      -830.608 8        48.568                                                                    21381331.696 7  90471403.61407      -674.762 7        44.271
C12        56.000                                                                                                                                    26475021.520 4                     -3383.996 4        25.594    26474995.103 4 106603776.90504     -2617.325 4        27.725    26475072.775 3                     -2749.174 3        20.952
I06        60.000    37903965.504 5 148743300.22805      -626.620 5        31.185
> 2025 01 01 06 00 15.0000000  0 37
G13         2.000    23878781.516 4 125483613.46604      2422.246 4        28.616
G30         3.000    20866604.786 7 109654754.13907       794.434 7        47.157                                    20866602.525 6  85445219.36806       619.037 6        38.348    20866602.560 6  85445255.36606       618.989 6        38.189
G07         5.000    20813678.722 8 109376639.52808     -1536.628 8        48.915                                    20813671.171 7  85228552.92207     -1197.369 7        42.030    20813674.335 6  85228524.94006     -1197.395 6        41.128
E34         6.000    26307763.041 5 138248213.83305     -3739.909 5        34.929                                                                    26307792.479 5                     -2793.012 5        30.770    26307769.182 6 105930467.81206     -2865.722 6        36.268
G05         7.000    22733429.317 7 119465207.79207      2234.218 7        45.222                                    22733424.121 6  93089668.70306      1740.953 6        36.480    22733422.886 6  93089608.68306      1741.009 6        39.117
G09         9.000    21838140.771 5                     -3351.975 5        33.329                                                                                                    21838145.837 6  89423569.91306     -2611.755 6        38.928
G20        10.000    20768934.696 7 109141541.62207       214.904 7        42.601                                    20768930.540 5  85045352.13605       167.458 5        30.460
E09        12.000    26917897.361 4                     -3127.361 4        28.673                                                                    26917893.629 4                     -2335.206 4        28.474
E31        13.000    26360941.611 5 138527679.58305     -1742.702 5        30.551                                                                    26360951.623 6 103446040.73606     -1301.297 6        36.609    26360942.336 6 106144677.71006     -1335.497 6        38.456
E24        15.000    25650721.533 6 134795437.13606       896.843 6        40.920                                                                    25650720.816 7 100658996.53907       669.756 7        42.540    25650721.023 7 103284816.56107       687.182 7        42.398
E15        16.000    25436247.786 6 133668495.84906     -1568.923 6        38.793                                                                    25436248.235 5  99817311.24405     -1171.791 5        34.281    25436249.474 6 102421217.49506     -1202.168 6        41.471
G06        19.000    24386841.082 5 128153730.32405     -4334.018 5        35.714                                    24386838.657 4  99860024.66704     -3377.155 4        26.958    24386840.007 6  99860026.68006     -3377.163 6        37.304
E05        21.000    21936528.772 7 115277235.94007     -1463.838 7        43.312                                                                    21936528.169 7  86083702.86907     -1093.211 7        44.259    21936528.435 7  88329352.04807     -1121.668 7        47.578
E13        22.000    27533646.460 5 144690171.28405      1021.570 5        30.943                                                                    27533621.800 5 108047849.09605       762.934 5        33.677    27533629.920 6 110866535.92706       782.855 6        38.949
R07        23.000                                                                                                                                    20438230.540 4                     -2321.667 4        29.716
S23        24.000    38089434.661 6 200161257.70506      -823.030 6        41.099
S36        25.000    38152977.567 5 200495276.63705      -826.261 5        33.892
G11        26.000    22962414.783 6 120668273.69606     -3147.899 6        41.840                                    22962411.709 3  94027227.43003     -2452.903 3        19.970    22962412.756 5  94027237.33405     -2452.705 5        34.976
E03        27.000    24490177.705 6 128696758.64306       785.933 6        39.742                                                                    24490178.514 6  96104729.58106       586.887 6        39.895    24490176.504 5  98611869.69705       602.276 5        32.617
R11        28.000                                                                                                                                    23070870.840 4                      2893.143 4        26.683
R17        29.000    23735410.725 6 127013085.03506      1442.664 6        36.253
R10        30.000    19842292.866 7 105770577.25207      1287.225 7        45.788
R24        31.000    22469213.864 7 120152925.52607     -1909.536 7        42.971                                                                    22469194.137 6  93452235.24906     -1485.207 6        37.819
R09        32.000    20179140.713 7 107755457.77607     -2466.253 7        44.870                                                                    20179141.714 7  83809802.43907     -1918.185 7        44.268
C19        33.000                                                                                                                                    24146667.069 7 125738004.71607     -3357.882 7        43.094                                                                    24146660.716 6 102172408.36706     -2728.657 6        41.907
C34        34.000                                                                                                                                    26196836.148 4                     -2627.873 4        25.308
R08        35.000    19474451.477 8 104284842.75608       255.308 8        50.031                                                                    19474447.515 6  81110416.73706       198.647 6        40.706
C05        36.000                                                                                                                                                                                                    39187453.919 5 157791592.84705      -679.892 5        35.300
R01        38.000                                                                                                                                    22891893.335 5  95176901.56105      2112.448 5        32.437
R16        39.000    24159950.622 4                     -5081.137 4        25.850
C36        42.000                                                                                                                                    21927106.400 6 114180177.16406       -94.038 6        41.704                                                                    21927107.608 6  92780784.15406       -76.425 6        37.369
C09        46.000                                                                                                                                    39559192.145 5 205995182.60205     -1617.850 5        32.934
C21        47.000                                                                                                                                    23926059.567 7 124589262.56907      1702.218 7        46.224                                                                    23926053.287 6 101239009.07006      1383.217 6        41.383
C45        49.000                                                                                                                                    24070116.560 5 125339325.20405      2334.199 5        30.906                                                                    24070095.775 5 101848443.13105      1896.713 5        32.832
C22        50.000                                                                                                                                    21382136.927 8 111342364.48708      -832.335 8        48.301                                                                    21382130.282 7  90474781.87507      -676.553 7        44.302
C12        56.000                                                                                                                                    26478270.851 4                     -3384.085 4        27.653                                                                    26478320.237 3                     -2748.450 3        21.929
I06        60.000    37904764.316 5 148746433.09505      -626.364 5        31.238
> 2025 01 01 06 00 20.0000000  0 35
G30         3.000    20865849.734 7 109650788.55107       791.587 7        46.465                                    20865848.462 6  85442129.30106       616.821 6        38.366    20865849.400 6  85442165.28306       616.919 6        38.628
G07         5.000    20815141.720 8 109384329.07208     -1539.413 8        48.216                                    20815134.993 7  85234544.75907     -1199.543 7        42.102    20815137.416 7  85234516.77207     -1199.518 7        42.451
E34         6.000    26311325.077 5 138266916.02905     -3741.337 5        34.824                                                                    26311351.234 5                     -2793.658 5        30.611    26311326.969 6 105944798.06006     -2866.694 6        36.480
G05         7.000    22731304.942 7 119454041.39307      2232.092 7        45.598                                    22731299.349 6  93080967.60906      1739.289 6        37.198    22731297.940 6  93080907.60906      1739.202 6        38.631
G09         9.000    21841334.280 6 114776973.17016     -3353.519 6        37.270                                    21841348.984 4                     -2613.052 4        26.683    21841335.334 6  89436632.03306     -2613.174 6        38.709
G20        10.000    20768732.043 6 109140476.10106       211.258 6        41.545                                    20768727.939 5  85044521.85805       164.613 5        30.740
E09        12.000    26920871.884 4                     -3127.445 4        29.554                                                                    26920867.607 4                     -2335.638 4        27.509
E31        13.000    26362601.218 4 138536400.37004     -1745.311 4        29.280                                                                    26362610.858 6 103452553.01006     -1303.531 6        36.053    26362601.893 6 106151359.84206     -1337.484 6        38.622
E24        15.000    25649869.062 6 134790958.85606       894.428 6        41.359                                                                    25649868.724 7 100655652.37007       667.777 7        42.131    25649869.061 7 103281385.15107       685.277 7        42.406
E15        16.000    25437740.324 6 133676347.64906     -1571.914 6        38.345                                                                    25437742.282 5  99823174.58405     -1173.928 5        34.800    25437743.845 7 102427233.79607     -1204.514 7        42.032
G06        19.000    24390964.621 6 128175402.98506     -4335.152 6        36.181                                    24390963.237 4  99876912.44204     -3378.040 4        27.377    24390965.042 6  99876914.44406     -3378.119 6        37.512
E05        21.000    21937922.435 7 115284558.39807     -1465.240 7        42.529                                                                    21937921.734 7  86089170.93907     -1094.289 7        44.262    21937921.775 7  88334962.75807     -1122.758 7        47.577
E13        22.000    27532672.365 5 144685069.54005      1019.148 5        30.332                                                                    27532651.837 5 108044039.35205       761.267 5        34.257    27532658.494 6 110862626.78706       780.850 6        37.924
R07        23.000                                                                                                                                    20441022.407 5                     -2323.476 5        35.071
S23        24.000    38090217.262 6 200165373.95206      -823.546 6        41.070
S36        25.000    38153762.820 5 200499409.97905      -826.656 5        33.719
G11        26.000    22965415.904 6 120684019.54106     -3150.650 6        41.812                                    22965407.924 3  94039496.88403     -2455.046 3        18.060    22965408.334 5  94039506.81805     -2455.320 5        32.425
E03        27.000    24489430.662 6 128692831.51506       784.937 6        37.656                                                                    24489431.160 6  96101796.96006       586.184 6        40.072    24489428.025 5  98608860.59705       601.316 5        32.742
R11        28.000                                                                                                                                    23067397.320 4                      2891.496 4        27.940
R17        29.000    23734064.025 6 127005881.21106      1438.790 6        36.900
R10        30.000    19841087.142 7 105764151.78607      1282.689 7        45.636
R24        31.000    22471004.796 6 120162484.61106     -1914.101 6        40.715                                                                    22470984.645 6  93459670.08206     -1488.853 6        39.084
R09        32.000    20181452.442 7 107767799.86307     -2470.740 7        44.704                                                                    20181452.942 7  83819401.81907     -1921.694 7        43.996
C19        33.000                                                                                                                                    24149891.466 7 125754797.87207     -3359.572 7        43.118                                                                    24149885.806 7 102186054.16507     -2730.004 7        42.172
R08        35.000    19474213.843 8 104283572.93008       252.466 8        50.084                                                                    19474209.115 6  81109429.09606       196.321 6        39.847
C05        36.000                                                                                                                                                                                                    39188297.830 5 157794993.66805      -680.420 5        35.457
R01        38.000                                                                                                                                    22889355.516 5  95166340.55805      2112.156 5        32.347
R16        39.000    24164704.167 4                     -5082.037 4        25.985
C36        42.000                                                                                                                                    21927197.499 6 114180654.70906       -97.231 6        41.340                                                                    21927199.112 6  92781172.20106       -79.232 6        37.093
C09        46.000                                                                                                                                    39560743.961 5 206003271.98605     -1618.234 5        32.551    39560711.374 4                     -1251.524 4        24.571
C21        47.000                                                                                                                                    23924425.990 7 124580754.16407      1700.925 7        46.637                                                                    23924419.255 6 101232095.27506      1382.218 6        41.046
C45        49.000                                                                                                                                    24067875.158 5 125327656.69405      2332.571 5        32.443                                                                    24067855.061 5 101838961.58405      1895.563 5        33.916
C22        50.000                                                                                                                                    21382936.967 8 111346531.91108      -834.854 8        48.061                                                                    21382930.797 7  90478168.21007      -678.395 7        44.673
C12        56.000                                                                                                                                    26481521.126 4                     -3386.663 4        29.128    26481523.753 4 106629954.23104     -2618.521 4        27.042    26481565.473 3                     -2749.690 3        21.810
I06        60.000    37905562.274 5 148749566.35305      -626.772 5        31.434
> 2025 01 01 06 00 25.0000000  0 37
G16         1.000    24639439.871 4                     -3565.464 4        26.455
G30         3.000    20865096.496 7 109646834.78407       789.945 7        46.055                                    20865096.612 6  85439048.44706       615.541 6        38.021    20865097.039 6  85439084.43506       615.546 6        38.862
G07         5.000    20816606.622 7 109392029.69107     -1540.855 7        47.522                                    20816600.947 6  85240545.22906     -1200.665 6        41.814    20816602.401 7  85240517.23507     -1200.642 7        43.276
E34         6.000    26314890.950 5 138285623.08605     -3741.595 5        34.814                                                                    26314912.009 5                     -2793.994 5        30.234    26314886.218 6 105959131.98406     -2866.847 6        36.541
G05         7.000    22729181.180 7 119442883.63807      2231.023 7        46.415                                    22729176.129 6  93072273.25106      1738.456 6        37.648    22729174.679 6  93072213.25306      1738.376 6        38.276
G09         9.000    21844528.012 6 114793742.43506     -3353.970 6        39.793                                    21844537.935 4  89449739.93914     -2613.488 4        28.123    21844524.504 6  89449698.99306     -2613.700 6        38.084
G20        10.000    20768532.694 6 109139425.99606       208.788 6        40.887                                    20768528.156 5  85043703.58905       162.694 5        30.543
E09        12.000    26923847.472 5                     -3127.334 5        30.362                                                                    26923841.821 4                     -2335.399 4        26.407
E31        13.000    26364262.759 4 138545133.11104     -1747.768 4        26.898                                                                    26364272.348 5 103459074.11205     -1304.867 5        34.919    26364263.559 6 106158051.07906     -1338.882 6        38.105
E24        15.000    25649018.708 7 134786490.70507       892.948 7        42.197                                                                    25649018.734 6 100652315.74006       666.841 6        41.969    25649018.778 7 103277961.48707       684.204 7        42.531
E15        16.000    25439236.865 6 133684212.08206     -1573.930 6        39.438                                                                    25439238.444 5  99829047.36505     -1175.353 5        34.419    25439240.678 7 102433259.78407     -1205.815 7        42.453
G06        19.000    24395089.892 6 128197077.14506     -4334.660 6        36.246                                    24395088.041 4  99893801.38804     -3377.662 4        27.401    24395088.497 6  99893803.37206     -3377.700 6        36.968
E05        21.000    21939317.120 6 115291886.19606     -1465.797 6        41.919                                                                    21939316.234 7  86094642.96507     -1094.553 7        44.406    21939316.132 7  88340577.55107     -1123.169 7        47.710
E13        22.000    27531704.693 4 144679977.86504      1017.449 4        29.299                                                                    27531683.820 5 108040237.20005       759.826 5        34.743    27531688.503 6 110858725.41406       779.699 6        37.463
R07        23.000    20443841.356 5 109437209.52515     -2988.738 5        33.832                                                                    20443813.591 6  85117924.40916     -2324.450 6        36.045
S23        24.000    38091001.307 6 200169490.19906      -822.945 6        41.070
S36        25.000    38154549.937 5 200503543.69105      -826.341 5        34.219
G11        26.000    22968416.783 6 120699776.86506     -3152.269 6        41.630                                    22968405.754 2  94051775.28802     -2456.338 2        15.714    22968405.575 4  94051785.18704     -2456.544 4        29.564
E03        27.000    24488682.559 5 128688908.32305       784.568 5        35.590                                                                    24488684.609 6  96098867.27606       585.861 6        39.934    24488683.076 5  98605854.54505       601.086 5        33.467
R11        28.000    23063968.598 3                      3714.639 3        20.310                                                                    23063920.387 5                      2891.358 5        30.521
R17        29.000    23732720.739 6 126998695.15006      1435.923 6        36.575
R10        30.000    19839885.410 7 105757747.00007      1279.264 7        45.690
R24        31.000                                                                                                                                    22472777.733 6  93467120.95806     -1491.431 6        39.922
R09        32.000    20183768.756 7 107780162.26607     -2474.150 7        45.315                                                                    20183767.614 7  83829017.01607     -1924.404 7        43.166
C19        33.000                                                                                                                                    24153116.903 7 125771597.01507     -3360.165 7        42.904                                                                    24153112.137 7 102199704.84907     -2730.409 7        42.157
C34        34.000                                                                                                                                    26201903.409 4                     -2630.527 4        29.725
R08        35.000    19473978.909 8 104282314.49108       250.852 8        49.598                                                                    19473973.562 6  81108450.28506       195.159 6        39.093
C05        36.000                                                                                                                                                                                                    39189142.068 5 157798394.62005      -679.956 5        35.381
R01        38.000                                                                                                                                    22886813.724 5  95155780.45205      2112.062 5        32.084
R16        39.000    24169457.430 4                     -5081.834 4        25.173
C36        42.000                                                                                                                                    21927292.260 6 114181145.94406       -99.271 6        40.880                                                                    21927292.985 6  92781571.39406       -80.840 6        36.597
C09        46.000                                                                                                                                    39562295.267 5 206011361.52105     -1617.547 5        32.838
C21        47.000                                                                                                                                    23922793.036 7 124572249.88607      1700.799 7        46.758                                                                    23922785.720 6 101225184.87606      1381.979 6        40.574
C45        49.000                                                                                                                                    24065633.793 5 125315994.20805      2331.980 5        35.024                                                                    24065616.949 5 101829484.97005      1894.999 5        34.871
C22        50.000                                                                                                                                    21383739.683 7 111350709.22807      -836.141 7        47.988                                                                    21383733.256 7  90481562.62707      -679.547 7        44.856
C12        56.000                                                                                                                                    26484774.133 4                     -3387.053 4        29.801
I06        60.000    37906361.803 5 148752699.95105      -626.581 5        31.155
> 2025 01 01 06 00 30.0000000  0 37
G13         2.000    23871828.515 5 125447291.33405      2420.690 5        33.731
G30         3.000    20864346.051 7 109642892.44907       787.237 7        45.865                                    20864346.958 6  85435976.49106       613.435 6        37.788    20864346.421 6  85436012.47106       613.551 6        39.105
G07         5.000    20818073.729 7 109399740.93407     -1543.263 7        46.600                                    20818068.900 6  85246553.97606     -1202.540 6        41.335    20818069.825 7  85246525.99707     -1202.581 7        43.898
E34         6.000    26318456.635 5 138304334.55305     -3742.831 5        34.781                                                                    26318472.731 4                     -2794.715 4        29.166    26318446.884 6 105973469.26606     -2867.664 6        36.628
G05         7.000    22727059.983 7 119431734.11907      2229.135 7        47.201                                    22727054.335 6  93063585.31306      1736.989 6        38.006    22727053.844 6  93063525.31006      1736.906 6        38.865
G09         9.000    21847721.672 6 114810517.45806     -3355.569 6        41.397                                    21847727.306 4  89462811.38304     -2614.724 4        29.043    21847715.716 6  89462770.42006     -2614.640 6        37.127
G20        10.000    20768336.924 6 109138390.81706       205.530 6        40.498                                    20768330.998 5  85042896.95705       160.168 5        30.325
E09        12.000    26926824.316 5                     -3127.764 5        30.241                                                                    26926816.457 4                     -2336.443 4        24.060
E31        13.000    26365927.332 4 138553877.26604     -1750.652 4        24.391                                                                    26365935.663 5 103465603.71005     -1306.841 5        34.395    26365927.540 6 106164751.01106     -1340.816 6        38.042
E24        15.000    25648169.974 7 134782032.20707       890.705 7        42.593                                                                    25648170.512 6 100648986.32506       665.339 6        41.845    25648170.315 7 103274545.22607       682.553 7        42.952
E15        16.000    25440736.205 6 133692088.68806     -1576.535 6        40.431                                                                    25440736.569 5  99834929.23405     -1177.264 5        35.533    25440739.838 7 102439295.10807     -1208.041 7        42.641
G06        19.000    24399214.336 5 128218752.40105     -4335.215 5        35.700                                    24399212.992 4  99910691.18804     -3378.093 4        27.665    24399213.430 6  99910693.17306     -3378.047 6        36.919
E05        21.000    21940712.409 7 115299218.84807     -1466.968 7        42.061                                                                    21940711.718 7  86100118.63607     -1095.410 7        44.667    21940711.528 7  88346196.07307     -1124.053 7        47.849
E13        22.000    27530739.536 4 144674895.69204      1015.807 4        27.808                                                                    27530716.634 5 108036442.13705       758.253 5        34.676    27530720.526 6 110854831.34406       778.157 6        36.718
R07        23.000    20446636.538 5 109452160.05805     -2991.076 5        32.766                                                                    20446605.757 6  85129552.49906     -2326.626 6        36.367
S23        24.000    38091784.955 6 200173606.10506      -823.190 6        41.137
S36        25.000    38155338.673 5 200507676.82705      -826.463 5        34.033
G11        26.000    22971416.906 6 120715545.13806     -3154.749 6        41.178                                    22971405.797 2  94064062.25502     -2458.244 2        13.455    22971405.788 4  94064072.15404     -2458.730 4        26.048
E03        27.000    24487936.983 5 128684988.58005       783.687 5        35.067                                                                    24487938.560 6  96095940.19106       585.275 6        40.310    24487939.593 5  98602851.12005       600.704 5        35.105
R11        28.000                                                                                                                                    23060444.913 5                      2890.769 5        31.909
R17        29.000    23731380.183 6 126991526.38206      1432.082 6        37.195
R10        30.000    19838688.099 7 105751362.40107      1274.904 7        46.106
R24        31.000    22474566.359 5 120181664.14205     -1922.089 5        34.848                                                                    22474571.552 6  93474587.51906     -1494.804 6        39.225
R09        32.000    20186087.932 7 107792544.50407     -2478.449 7        46.036                                                                    20186086.264 7  83838647.64107     -1927.597 7        42.038
C19        33.000                                                                                                                                    24156344.022 7 125788401.71207     -3361.611 7        42.309                                                                    24156339.434 7 102213360.01607     -2731.511 7        42.375
C34        34.000                                                                                                                                    26204423.526 5                     -2632.534 5        30.996
