     3.04           OBSERVATION DATA    M                   RINEX VERSION / TYPE
ssrcrin-15.6.1x                         20250101 131500 UTC PGM / RUN BY / DATE 
(00000000023479385599111004) Septentrio proprietary         COMMENT             
ract                                                        MARKER NAME         
01                                                          MARKER NUMBER       
geodetic                                                    MARKER TYPE         
NFB                 CLIMERS@TUW                             OBSERVER / AGENCY   
3296359             SEPT ASTERX SB3 PROB4.14.4              REC # / TYPE / VERS 
Unknown             Unknown                                 ANT # / TYPE        
  4127448.8097  1206915.4496  4695542.9032                  APPROX POSITION XYZ 
        0.0000        0.0000        0.0000                  ANTENNA: DELTA H/E/N
G   23 X1  C1C L1C D1C S1C C1W S1W C2W L2W D2W S2W C2L L2L  SYS / # / OBS TYPES 
       D2L S2L C5Q L5Q D5Q S5Q C1L L1L D1L S1L              SYS / # / OBS TYPES 
E   21 X1  C1C L1C D1C S1C C6C L6C D6C S6C C5Q L5Q D5Q S5Q  SYS / # / OBS TYPES 
       C7Q L7Q D7Q S7Q C8Q L8Q D8Q S8Q                      SYS / # / OBS TYPES 
S    9 X1  C1C L1C D1C S1C C5I L5I D5I S5I                  SYS / # / OBS TYPES 
R   17 X1  C1C L1C D1C S1C C2P L2P D2P S2P C2C L2C D2C S2C  SYS / # / OBS TYPES 
       C3Q L3Q D3Q S3Q                                      SYS / # / OBS TYPES 
C   25 X1  C1P L1P D1P S1P C5P L5P D5P S5P C2I L2I D2I S2I  SYS / # / OBS TYPES 
       C7I L7I D7I S7I C6I L6I D6I S6I C7D L7D D7D S7D      SYS / # / OBS TYPES 
J   17 X1  C1C L1C D1C S1C C2L L2L D2L S2L C5Q L5Q D5Q S5Q  SYS / # / OBS TYPES 
       C1L L1L D1L S1L                                      SYS / # / OBS TYPES 
I    5 X1  C5A L5A D5A S5A                                  SYS / # / OBS TYPES 
SEPTENTRIO RECEIVERS OUTPUT ALIGNED CARRIER PHASES.         COMMENT             
NO FURTHER PHASE SHIFT APPLIED IN THE RINEX ENCODER.        COMMENT             
G L1C                                                       SYS / PHASE SHIFT   
G L2W                                                       SYS / PHASE SHIFT   
G L2L  0.00000                                              SYS / PHASE SHIFT   
G L5Q  0.00000                                              SYS / PHASE SHIFT   
G L1L  0.00000                                              SYS / PHASE SHIFT   
E L1C  0.00000                                              SYS / PHASE SHIFT   
E L6C  0.00000                                              SYS / PHASE SHIFT   
E L5Q  0.00000                                              SYS / PHASE SHIFT   
E L7Q  0.00000                                              SYS / PHASE SHIFT   
E L8Q  0.00000                                              SYS / PHASE SHIFT   
S L1C                                                       SYS / PHASE SHIFT   
S L5I                                                       SYS / PHASE SHIFT   
R L1C                                                       SYS / PHASE SHIFT   
R L2P  0.00000                                              SYS / PHASE SHIFT   
R L2C                                                       SYS / PHASE SHIFT   
R L3Q  0.00000                                              SYS / PHASE SHIFT   
C L1P  0.00000                                              SYS / PHASE SHIFT   
C L5P  0.00000                                              SYS / PHASE SHIFT   
C L2I                                                       SYS / PHASE SHIFT   
C L7I                                                       SYS / PHASE SHIFT   
C L6I                                                       SYS / PHASE SHIFT   
C L7D                                                       SYS / PHASE SHIFT   
J L1C                                                       SYS / PHASE SHIFT   
J L2L  0.00000                                              SYS / PHASE SHIFT   
J L5Q  0.00000                                              SYS / PHASE SHIFT   
J L1L  0.00000                                              SYS / PHASE SHIFT   
I L5A                                                       SYS / PHASE SHIFT   
  2025     1     1    13    15    0.0000000     GPS         TIME OF FIRST OBS   
 C1C    0.000 C2C    0.000 C2P    0.000                     GLONASS COD/PHS/BIS 
DBHZ                                                        SIGNAL STRENGTH UNIT
    18                                                      LEAP SECONDS        
 24 R01  1 R02 -4 R03  5 R04  6 R05  1 R06 -4 R07  5 R08  6 GLONASS SLOT / FRQ #
    R09 -2 R10 -7 R11  0 R12 -1 R13 -2 R14 -7 R15  0 R16 -1 GLONASS SLOT / FRQ #
    R17  4 R18 -3 R19  3 R20  2 R21  4 R22 -3 R23  3 R24  2 GLONASS SLOT / FRQ #
                                                            END OF HEADER       
> 2025 01 01 13 15  0.0000000  0 40
G06         2.000    23076001.257 5 121265203.56205      -608.040 5        31.774                                    23076004.271 3  94492350.88703      -473.786 3        20.000    23076004.455 5  94492394.87505      -473.771 5        34.505
G25         3.000    20992341.950 7 110315712.78007      1247.908 7        44.403                                    20992354.811 4  85960254.49104       972.396 4        29.962    20992351.371 5  85960116.56005       972.532 5        34.843
G11         4.000    23480904.663 6 123392972.79906      1508.299 6        38.898                                    23480910.282 2  96150436.61102      1175.291 2        17.283    23480907.635 6  96150396.63406      1175.179 6        39.351
G28         6.000    25115157.800 6 131981083.72506      2714.616 6        38.171
G12         7.000    20335479.545 8 106863670.62808     -1224.898 8        49.498                                    20335480.316 7  83270409.42907      -954.470 7        47.738    20335480.552 7  83270422.44207      -954.466 7        44.724
G29         8.000    24185889.517 6 127097825.27406      2837.064 6        36.654                                    24185896.200 2  99037234.84702      2210.693 2        14.381    24185894.988 3                      2210.927 3        23.581
E30         9.000    23763763.508 7 124879457.92107      -588.835 7        44.564                                                                    23763771.233 7  93254166.37207      -439.672 7        45.074    23763768.156 7  95686887.66607      -451.086 7        43.244
G32        11.000    23030198.106 6 121024512.18506      -321.476 6        37.183                                    23030203.380 2  94304833.42902      -250.577 2        14.095
E34        12.000    26844959.253 5 141071215.32005      1987.739 5        33.754
E02        13.000    25185100.343 7 132348582.88507     -2771.952 7        46.656                                                                    25185107.653 7  98831812.63707     -2070.017 7        44.167    25185105.689 7 101410040.49507     -2124.031 7        44.653
E27        15.000    26296251.288 6 138187719.88606      1303.275 6        37.096                                                                    26296264.399 6 103192323.73606       973.082 6        41.998    26296262.407 6 105884308.55006       998.447 6        37.985
G24        16.000    21829949.567 7 114717135.69407     -3742.359 7        46.992                                    21829952.998 5  89390010.88305     -2916.118 5        35.195    21829952.671 5  89389967.85805     -2916.242 5        33.210
E08        17.000    27639604.789 4 145247022.25204     -4064.479 4        26.491                                                                    27639625.356 3 108463672.28403     -3035.837 3        23.638    27639642.597 4 111293315.16104     -3115.261 4        26.407
E07        18.000    25171560.200 5 132277426.32705     -2636.832 5        34.386                                                                    25171570.772 7  98778734.39207     -1969.031 7        42.354    25171570.526 7 101355468.45707     -2020.438 7        47.635
E36        19.000    26258021.956 5 137986855.14205      -111.075 5        32.587                                                                    26258025.480 7 103042187.32007       -83.050 7        42.758    26258021.459 6 105730238.35706       -85.125 6        39.024
R24        21.000    22107810.491 5 118220384.33305      3299.271 5        34.914                                                                    22107819.011 5  91949243.74205      2566.137 5        33.671
R22        22.000    22448004.883 5 119829724.86805     -3863.097 5        35.167                                                                    22447984.628 6  93200221.38706     -3004.688 6        37.267
S36        23.000    38362833.273 5 201597956.76405      -845.244 5        35.767
S23        24.000    38303296.691 5 201285174.48705      -849.617 5        35.000
R04        25.000    21950191.784 7 117542287.45707     -3339.661 7        45.825                                                                    21950193.262 6  91421813.18106     -2597.555 6        41.244
E29        26.000    26157153.054 7 137456842.22907       183.792 7        43.725                                                                    26157167.625 7 102646463.55507       137.283 7        45.234    26157164.949 7 105324107.82407       140.822 7        44.110
R03        27.000    23993509.924 3                     -5102.884 3        22.990
C34        28.000                                                                                                                                    25000288.856 7 130183099.00307      2588.710 7        44.485                                                                    25000298.123 6 105784462.68006      2103.698 6        41.244
R13        29.000    20306188.729 6 108433910.47506     -2596.405 6        39.495
C10        32.000                                                                                                                                    39595248.270 4                     -1560.703 4        26.898    39595236.467 4                     -1207.239 4        26.982    39595231.123 3                     -1269.001 3        23.200
C24        34.000                                                                                                                                    21471210.212 8 111806432.41508     -1100.356 8        50.206                                                                    21471211.377 7  90851774.69707      -894.095 7        45.303
R14        35.000    20307434.068 8 108250194.01408      1148.809 8        48.116                                                                    20307444.339 7  84194555.81907       893.455 7        46.981
R23        36.000    20319988.116 6 108698268.54506      -427.841 6        40.443
C26        37.000                                                                                                                                    24336963.735 7 126729096.52407     -3370.019 7        44.599                                                                    24336970.152 7 102977675.94407     -2738.398 7        43.329
S21        38.000    38590643.666 5 202795179.75905      -844.868 5        34.867
C44        39.000                                                                                                                                    22339979.758 6 116330074.91606       472.988 6        39.874                                                                    22339985.541 6  94527828.40806       384.171 6        36.972
C35        40.000                                                                                                                                    23610678.827 7 122946999.19107     -2389.281 7        45.226                                                                    23610684.969 6  99904664.55906     -1941.577 6        41.182
C25        41.000                                                                                                                                    23498958.075 7 122365276.50107      1546.186 7        42.681                                                                    23498945.336 5  99431751.32205      1256.258 5        30.755
R05        42.000    22422773.217 7 119862632.02207       143.733 7        43.575                                                                    22422787.186 6  93226534.67106       111.897 6        38.649
C12        43.000                                                                                                                                    23556889.974 5 122666949.79805      1872.754 5        34.900                                                                    23556888.635 6  99676932.44106      1521.571 6        41.037
C32        44.000                                                                                                                                    26978306.054 5 140483195.51505       275.947 5        34.310                                                                    26978330.176 5                       224.226 5        32.120
C33        46.000                                                                                                                                    26692659.644 4                     -3764.670 4        24.135
C41        50.000                                                                                                                                    25875061.303 5 134738199.38305     -2210.536 5        35.276                                                                    25875055.255 5                     -1796.132 5        32.096
I06        58.000    38650421.352 6 151672514.64806      -733.200 6        37.784
I02        60.000    37216778.635 5 146046641.51305      -833.000 5        33.413
> 2025 01 01 13 15  5.0000000  0 39
G06         2.000    23076575.345 4 121268252.15204      -610.718 4        24.195                                    23076583.967 2  94494726.38102      -475.866 2        16.566    23076586.265 5  94494770.41305      -476.556 5        35.405
G25         3.000    20991155.588 7 110309477.07807      1246.408 7        44.334                                    20991167.859 5  85955395.48305       971.231 5        30.392    20991165.040 5  85955257.61605       971.102 5        33.760
G11         4.000    23479469.706 6 123385436.44306      1506.396 6        38.111                                    23479475.924 2  96144564.17902      1173.803 2        17.887    23479474.329 6  96144524.21406      1173.653 6        40.031
G28         6.000    25112574.487 6 131967511.47806      2714.253 6        39.180
G12         7.000    20336645.844 8 106869800.10608     -1226.958 8        49.565                                    20336646.676 8  83275185.65808      -956.070 8        48.128    20336646.874 7  83275198.65907      -956.034 7        45.111
G29         8.000    24183190.109 6 127083641.28606      2836.387 6        36.348                                    24183196.243 2  99026182.47902      2210.145 2        14.476    24183199.136 4                      2209.594 4        26.659
E30         9.000    23764324.640 7 124882404.72507      -589.861 7        45.130                                                                    23764332.013 7  93256366.90707      -440.520 7        45.141    23764329.034 7  95689145.61107      -451.898 7        43.509
G32        11.000    23030505.344 6 121026127.97206      -324.644 6        38.249                                    23030507.991 1  94306092.70301      -253.026 1         9.619    23030482.691 4  94306050.78014      -252.560 4        27.844
E34        12.000    26843066.987 5 141061277.85605      1986.897 5        33.533                                                                                                                                    26843095.472 5 108085987.30415      1522.523 5        31.351
E02        13.000    25187738.278 7 132362443.66007     -2772.422 7        46.874                                                                    25187745.171 7  98842163.20707     -2070.334 7        43.846    25187743.386 7 101420661.08407     -2124.310 7        44.557
E27        15.000    26295011.325 6 138181205.18606      1302.568 6        37.108                                                                    26295024.634 7 103187458.85407       972.804 7        42.076    26295023.245 6 105879316.76706       998.143 6        38.486
G24        16.000    21833511.083 7 114735852.14907     -3744.279 7        46.690                                    21833513.053 5  89404595.10605     -2917.615 5        34.029    21833513.626 5  89404552.09405     -2917.483 5        32.635
E08        17.000                                                                                                                                    27643492.020 4 108478850.36204     -3036.202 4        24.496    27643511.343 4 111308889.20904     -3114.925 4        25.188
E07        18.000    25174069.272 5 132290614.84005     -2638.524 5        35.924                                                                    25174080.449 7  98788582.95107     -1970.358 7        42.612    25174080.363 7 101365573.93907     -2021.783 7        47.920
E36        19.000    26258125.698 5 137987417.46505      -113.830 5        34.814                                                                    26258132.636 7 103042607.22907       -84.913 7        43.073    26258128.024 6 105730669.21406       -87.015 6        38.772
R24        21.000    22104733.722 6 118203892.17106      3297.444 6        36.310                                                                    22104735.276 5  91936416.55905      2565.029 5        34.976
R22        22.000    22451617.590 5 119849048.04705     -3866.045 5        32.928                                                                    22451606.821 6  93215250.46406     -3006.761 6        36.560
S36        23.000    38363639.127 6 201602182.77206      -845.301 6        36.049
S23        24.000    38304106.497 5 201289423.23705      -849.872 5        34.890
R04        25.000    21953314.995 7 117558993.94207     -3342.962 7        45.022                                                                    21953312.699 6  91434807.04906     -2599.965 6        40.591
E29        26.000    26156979.318 7 137455928.62707       181.553 7        43.729                                                                    26156993.781 7 102645781.32707       135.668 7        45.446    26156991.198 7 105323407.80207       139.244 7        44.232
C34        28.000                                                                                                                                    24997803.404 7 130170156.46507      2588.315 7        44.491                                                                    24997812.682 6 105773945.89406      2103.070 6        41.194
R13        29.000    20308621.355 6 108446897.26706     -2598.196 6        40.069
C10        32.000                                                                                                                                    39596744.449 4                     -1560.665 4        26.838    39596732.918 4                     -1206.332 4        26.251    39596729.206 3                     -1270.021 3        23.200
C24        34.000                                                                                                                                    21472267.842 8 111811938.22708     -1102.010 8        49.880                                                                    21472268.863 7  90856248.63907      -895.465 7        45.448
R14        35.000    20306357.422 7 108244453.79907      1147.282 7        47.555                                                                    20306367.421 7  84190091.20807       892.345 7        47.951
R23        36.000    20320390.094 6 108700419.29406      -432.430 6        37.304
C26        37.000                                                                                                                                    24340199.735 7 126745948.41007     -3370.783 7        44.349                                                                    24340206.433 7 102991369.48407     -2739.176 7        43.517
S21        38.000    38591445.012 5 202799404.00705      -844.625 5        34.924
C44        39.000                                                                                                                                    22339531.103 6 116327716.91306       470.380 6        39.709                                                                    22339532.789 6  94525912.34206       382.206 6        37.119
C35        40.000                                                                                                                                    23612974.452 7 122958951.49307     -2391.731 7        45.023                                                                    23612980.181 6  99914376.77406     -1943.441 6        40.725
C25        41.000                                                                                                                                    23497478.819 7 122357547.54007      1545.429 7        43.331                                                                    23497462.446 5  99425470.97505      1255.767 5        30.943
R05        42.000    22422641.458 7 119861924.32807       139.434 7        44.063                                                                    22422656.070 6  93225984.25906       108.457 6        37.338
C12        43.000                                                                                                                                    23555093.107 5 122657591.12005      1870.961 5        34.186    23555092.042 7  94846613.38607      1446.693 7        42.119    23555089.855 6  99669327.79506      1520.267 6        39.715
C32        44.000                                                                                                                                    26978040.655 5 140481822.95105       273.114 5        32.240                                                                    26978065.800 5                       222.030 5        31.592
C33        46.000                                                                                                                                    26696265.520 4                     -3764.356 4        24.060
C41        50.000                                                                                                                                    25877184.202 5 134749257.72005     -2212.855 5        30.445                                                                    25877180.224 5                     -1798.000 5        32.383
I06        58.000    38651354.626 6 151676180.49606      -733.232 6        37.599
I02        60.000    37217838.733 5 146050804.76205      -832.631 5        33.228
> 2025 01 01 13 15 10.0000000  0 41
G19         1.000    23399905.501 3                     -4006.456 3        18.806
G06         2.000                                                                                                                                                                    23077169.007 6  94497159.03106      -479.002 6        36.662
G25         3.000    20989969.647 7 110303250.09807      1244.503 7        43.888                                    20989982.463 5  85950543.28405       969.741 5        30.543    20989979.191 5  85950405.40405       969.814 5        34.081
G11         4.000    23478036.621 6 123377910.66806      1504.061 6        36.881                                    23478043.551 2  96138699.98702      1171.952 2        17.887    23478042.285 6  96138660.03206      1171.984 6        40.732
G28         6.000    25109992.258 6 131953940.93506      2713.846 6        38.931                                                                                                    25110023.607 3                      2115.851 3        22.286
G12         7.000    20337814.472 8 106875940.56208     -1229.212 8        50.125                                    20337815.160 8  83279970.43908      -957.829 8        48.582    20337815.140 7  83279983.43307      -957.772 7        45.524
G29         8.000    24180491.214 5 127069461.41205      2835.543 5        35.914                                    24180497.753 2  99015133.34502      2209.448 2        15.714    24180502.377 4                      2209.554 4        29.469
E30         9.000    23764886.671 7 124885357.18107      -591.083 7        45.791                                                                    23764893.865 7  93258571.66107      -441.337 7        45.166    23764890.976 7  95691407.88507      -452.849 7        43.534
G32        11.000    23030818.681 6 121027759.94106      -328.020 6        38.333                                    23030816.117 1  94307364.52101      -255.611 1        11.407    23030802.399 5  94307322.51905      -255.627 5        30.506
E34        12.000    26841175.479 5 141051345.00205      1986.247 5        32.952                                                                                                                                    26841198.865 5 108078376.40205      1522.002 5        32.964
E02        13.000    25190376.766 7 132376307.31407     -2773.057 7        47.188                                                                    25190383.330 7  98852515.93607     -2070.760 7        43.816    25190381.833 7 101431283.88607     -2124.758 7        44.531
E27        15.000    26293772.739 6 138174693.25406      1302.172 6        37.788                                                                    26293785.536 7 103182596.10107       972.244 7        42.203    26293784.874 6 105874327.14406       997.746 6        39.240
G24        16.000    21837074.096 7 114754578.42407     -3746.279 7        45.920                                    21837075.192 5  89419186.99105     -2919.182 5        32.742    21837077.532 5  89419144.00005     -2919.366 5        32.287
E08        17.000                                                                                                                                    27647359.093 3 108494028.85203     -3035.962 3        23.733    27647379.842 4 111324463.69204     -3114.427 4        26.072
E07        18.000    25176580.117 6 132303813.29606     -2640.758 6        37.009                                                                    25176592.042 7  98798438.93007     -1971.997 7        42.658    25176592.010 8 101375687.02508     -2023.367 8        48.044
E36        19.000    26258236.305 6 137987992.15006      -116.070 6        36.147                                                                    26258242.043 7 103043036.40607       -86.718 7        43.276    26258237.121 6 105731109.58306       -89.121 6        38.114
R24        21.000    22101651.595 5 118187408.81305      3295.713 5        35.305                                                                    22101653.870 5  91923596.12305      2563.586 5        35.819
R22        22.000    22455236.808 5 119868387.07205     -3869.204 5        30.581                                                                    22455228.657 5  93230291.76205     -3009.418 5        34.476
S36        23.000    38364445.606 5 201606408.23805      -845.160 5        35.881
S23        24.000    38304915.816 5 201293671.88705      -849.932 5        34.976
R04        25.000    21956433.277 7 117575717.81707     -3346.614 7        46.097                                                                    21956435.330 6  91447814.45906     -2602.839 6        39.423
E29        26.000    26156807.607 7 137455026.47107       179.266 7        43.968                                                                    26156821.993 7 102645107.63107       133.881 7        45.544    26156819.738 7 105322716.53607       137.334 7        44.433
C34        28.000                                                                                                                                    24995318.112 7 130157217.01307      2587.663 7        44.748                                                                    24995327.850 6 105763431.56606      2102.751 6        41.285
R13        29.000    20311056.983 6 108459894.04006     -2600.326 6        41.521
C10        32.000                                                                                                                                    39598243.395 4                     -1560.944 4        26.731    39598232.378 4                     -1207.667 4        26.108    39598226.073 3                     -1267.833 3        22.914
C24        34.000                                                                                                                                    21473326.492 8 111817452.89308     -1103.819 8        49.474                                                                    21473327.811 7  90860729.74407      -896.862 7        45.273
R14        35.000    20305281.762 7 108238721.79707      1145.544 7        47.596                                                                    20305291.997 7  84185632.99007       890.992 7        47.898
R23        36.000    20320795.680 5 108702593.88905      -437.465 5        33.305
C26        37.000                                                                                                                                    24343436.058 7 126762805.20307     -3371.834 7        43.886                                                                    24343443.345 7 103005066.96807     -2739.816 7        42.923
S21        38.000    38592247.539 5 202803628.25305      -844.944 5        34.871
C44        39.000                                                                                                                                    22339081.290 6 116325372.11806       467.561 6        39.141                                                                    22339082.720 6  94524006.97606       380.154 6        37.040
C35        40.000                                                                                                                                    23615271.620 7 122970916.12807     -2394.255 7        44.787                                                                    23615278.051 6  99924098.98106     -1945.329 6        40.663
C25        41.000                                                                                                                                    23495995.429 7 122349822.68307      1544.545 7        43.645
R05        42.000    22422516.141 7 119861238.70707       134.948 7        45.685                                                                    22422527.731 6  93225450.99506       104.945 6        36.095
C12        43.000                                                                                                                                    23553300.165 5 122648241.36505      1869.039 5        34.719    23553299.939 6  94839383.60006      1445.237 6        41.404    23553292.464 6  99661730.38406      1518.830 6        38.225
C32        44.000                                                                                                                                    26977778.860 5 140480463.09505       270.804 5        30.574                                                                    26977803.316 5                       220.058 5        31.608
C33        46.000                                                                                                                                    26699880.939 4                     -3765.337 4        24.992
C41        50.000                                                                                                                                                                                                                                                                    25879307.115 5                     -1799.990 5        32.509
C07        53.000                                                                                                                                    40646359.703 3                     -1777.955 3        18.925
I06        58.000    38652289.309 6 151679846.28906      -733.078 6        37.698
I02        60.000    37218899.597 5 146054968.59805      -832.993 5        33.257
> 2025 01 01 13 15 15.0000000  0 41
G19         1.000    23403634.512 4                     -4011.355 4        26.359
G06         2.000                                                                                                                                                                    23077756.991 6  94499560.67706      -481.857 6        37.229
G25         3.000    20988785.936 7 110297031.69107      1242.719 7        44.141                                    20988798.619 5  85945697.78205       968.349 5        30.400    20988798.016 5  85945559.91405       968.099 5        34.748
G11         4.000    23476606.930 6 123370395.34006      1501.894 6        36.049                                    23476613.191 2  96132843.96702      1170.296 2        17.698    23476612.200 6  96132804.00406      1170.223 6        41.023
G28         6.000    25107408.956 6 131940371.96006      2713.370 6        38.745
G12         7.000    20338985.087 8 106882091.81708     -1231.550 8        50.855                                    20338985.773 8  83284763.63408      -959.648 8        48.999    20338985.728 7  83284776.63107      -959.656 7        46.062
G29         8.000    24177795.452 5 127055285.52005      2834.389 5        35.352                                    24177800.989 2  99004087.28402      2208.609 2        17.585    24177806.601 5                      2208.727 5        32.060
E30         9.000    23765449.604 7 124888315.16807      -592.379 7        46.277                                                                    23765456.634 7  93260780.54307      -442.444 7        44.984    23765453.955 7  95693674.39807      -453.915 7        43.822
G32        11.000    23031136.954 6 121029407.92406      -331.505 6        36.669                                    23031128.881 2  94308648.76302      -258.328 2        14.429    23031122.983 5  94308606.72905      -258.274 5        31.615
E34        12.000    26839285.314 5 141041416.61905      1984.818 5        31.985                                                                                                                                    26839306.342 5 108070768.98105      1520.854 5        33.443
E02        13.000    25193015.383 7 132390173.70207     -2773.676 7        47.412                                                                    25193022.008 7  98862870.70507     -2071.415 7        43.539    25193020.813 7 101441908.77507     -2125.359 7        44.632
E27        15.000    26292535.410 6 138168184.00806      1301.352 6        38.847                                                                    26292547.082 7 103177735.31307       971.802 7        42.112    26292546.743 6 105869339.57706       996.943 6        39.769
G24        16.000    21840638.889 7 114773314.35207     -3748.301 7        44.122                                    21840639.469 5  89433786.39605     -2920.751 5        31.351    21840641.958 5  89433743.44905     -2921.214 5        32.581
E08        17.000                                                                                                                                    27651225.490 3 108509207.70403     -3034.948 3        23.486    27651248.856 4 111340038.59404     -3115.167 4        25.474
E07        18.000    25179092.541 6 132317021.51506     -2642.884 6        37.323                                                                    25179105.486 7  98808302.18607     -1973.562 7        42.493    25179105.648 8 101385807.58808     -2024.991 8        48.050
E36        19.000    26258347.696 6 137988579.10406      -118.845 6        36.560                                                                    26258353.613 7 103043474.73007       -88.752 7        43.371    26258348.715 6 105731559.33406       -91.024 6        37.629
R15        20.000                                                                                                                                    24211524.578 3                      2023.935 3        21.690
R24        21.000                                                                                                                                    22098572.169 6  91910782.37106      2562.028 6        37.372
R22        22.000                                                                                                                                    22458858.039 5  93245345.17605     -3012.015 5        31.947
S36        23.000    38365250.279 6 201610633.86406      -845.223 6        36.174
S23        24.000    38305723.132 5 201297920.37505      -849.787 5        34.671
R04        25.000    21959553.793 7 117592458.82507     -3350.133 7        46.195                                                                    21959560.164 6  91460835.21906     -2605.731 6        38.084
E29        26.000    26156638.139 7 137454135.60307       176.855 7        44.123                                                                    26156652.387 7 102644442.36907       132.025 7        45.533    26156650.450 7 105322033.92007       135.561 7        44.569
C34        28.000                                                                                                                                    24992833.813 7 130144280.51707      2586.705 7        45.208                                                                    24992843.511 6 105752919.66006      2102.126 6        41.383
R13        29.000    20313493.392 7 108472900.79007     -2602.514 7        42.419
C10        32.000                                                                                                                                    39599740.181 4                     -1561.391 4        27.317    39599731.830 4                     -1206.814 4        26.287    39599724.934 3                     -1265.925 3        22.629
C24        34.000                                                                                                                                    21474387.014 8 111822976.25608     -1105.757 8        49.470                                                                    21474388.405 7  90865217.94007      -898.463 7        45.348
R14        35.000    20304208.179 7 108232997.72007      1143.771 7        47.296                                                                    20304217.768 7  84181180.93807       889.556 7        47.535
R23        36.000    20321208.788 5 108704792.20105      -442.465 5        30.287
C26        37.000                                                                                                                                    24346673.690 7 126779666.78007     -3373.019 7        42.770                                                                    24346681.212 7 103018768.37507     -2740.743 7        42.591
S21        38.000    38593049.435 5 202807852.35605      -844.928 5        35.067
C44        39.000                                                                                                                                    22338634.572 6 116323040.36906       464.903 6        38.871                                                                    22338635.504 6  94522112.25906       377.860 6        36.975
C35        40.000                                                                                                                                    23617571.139 7 122982892.89907     -2396.722 7        44.117                                                                    23617578.387 6  99933831.08906     -1947.584 6        40.608
C25        41.000                                                                                                                                    23494513.348 7 122342101.78507      1543.577 7        43.100                                                                    23494518.651 6  99412920.35006      1254.284 6        36.019
R05        42.000    22422393.155 7 119860575.03507       130.301 7        45.786                                                                    22422403.308 5  93224934.76105       101.593 5        33.748
C12        43.000                                                                                                                                    23551508.433 5 122638900.38605      1867.200 5        35.486    23551505.496 6  94832160.60406      1443.709 6        40.374    23551497.219 6  99654140.14206      1517.421 6        36.749
C32        44.000                                                                                                                                    26977524.856 4 140479115.65604       268.063 4        29.592                                                                    26977545.107 5                       218.056 5        30.989
C33        46.000                                                                                                                                                                                                                                                                    26703508.925 3                     -3060.378 3        22.038
C41        50.000                                                                                                                                    25881410.096 5 134771409.45205     -2217.895 5        31.125                                                                    25881435.907 5                     -1801.885 5        32.701
I06        58.000    38653222.833 6 151683511.91506      -733.483 6        37.577
I02        60.000    37219960.969 5 146059133.27105      -833.391 5        32.677
> 2025 01 01 13 15 20.0000000  0 40
G19         1.000    23407455.871 4                     -4012.621 4        29.678
G06         2.000                                                                                                                                                                    23078346.360 6  94501975.45006      -484.257 6        38.267
G25         3.000    20987605.393 7 110290821.99507      1241.191 7        44.858                                    20987616.318 4  85940859.07404       967.148 4        29.943    20987616.088 5  85940721.21405       967.000 5        34.667
G11         4.000    23475178.686 5 123362890.62105      1500.049 5        35.357                                    23475184.928 2  96126996.19702      1168.854 2        17.434    23475184.303 6  96126956.22006      1168.791 6        41.466
G28         6.000    25104822.357 6 131926804.73406      2713.214 6        38.979                                                                                                    25104817.592 4                      2114.012 4        25.489
G12         7.000    20340157.581 8 106888254.03408     -1233.470 8        51.836                                    20340158.518 8  83289565.36508      -961.146 8        49.469    20340158.737 7  83289578.36607      -961.165 7        46.654
G29         8.000    24175097.680 5 127041113.74005      2834.093 5        34.724                                    24175104.833 3  98993044.43103      2208.361 3        20.119    24175109.207 5                      2208.131 5        33.395
E30         9.000    23766013.506 7 124891278.79207      -593.204 7        46.873                                                                    23766020.466 7  93262993.63907      -443.048 7        44.746    23766018.153 7  95695945.23007      -454.621 7        43.983
G32        11.000    23031450.300 6 121031072.02806      -334.404 6        36.227                                    23031445.324 2  94309945.52402      -260.588 2        15.810    23031441.009 5  94309903.52405      -260.676 5        32.377
E34        12.000    26837396.315 5 141031492.84505      1984.495 5        30.332                                                                    26837426.254 5 105315824.33215      1481.839 5        34.176    26837417.031 5 108063165.06905      1520.617 5        33.886
E02        13.000    25195654.389 8 132404042.96908     -2774.062 8        48.035                                                                    25195661.466 7  98873227.61307     -2071.594 7        43.439    25195660.327 7 101452535.87007     -2125.630 7        44.721
E27        15.000    26291298.201 6 138161677.56406      1301.009 6        40.467                                                                    26291309.055 7 103172876.63307       971.608 7        42.057    26291308.467 6 105864354.14006       996.834 6        40.524
G24        16.000    21844205.798 6 114792060.07306     -3750.009 6        41.876                                    21844205.865 5  89448393.44705     -2922.083 5        30.091    21844209.876 5  89448350.46905     -2922.225 5        32.407
E08        17.000                                                                                                                                    27655091.451 3                     -3035.436 3        22.133
E07        18.000    25181608.033 6 132330239.60906     -2644.405 6        37.743                                                                    25181620.794 7  98818172.84307     -1974.957 7        42.620    25181621.090 8 101395935.73208     -2026.379 8        48.062
E36        19.000    26258461.090 6 137989178.48006      -121.161 6        37.221                                                                    26258467.732 7 103043922.33507       -90.437 7        43.338    26258463.050 6 105732018.61306       -92.744 6        37.032
R24        21.000    22095475.294 5 118154467.82405      3292.355 5        32.599                                                                    22095493.154 6  91897975.50206      2560.717 6        38.739
R22        22.000    22462474.083 5 119907111.60905     -3875.308 5        34.143                                                                    22462493.439 4  93260410.79504     -3014.095 4        28.550
S36        23.000    38366050.234 6 201614859.35006      -845.028 6        36.117
S23        24.000    38306534.606 5 201302169.01005      -849.613 5        34.890
R04        25.000    21962680.863 7 117609217.10607     -3353.335 7        45.962                                                                    21962690.318 5  91473869.44005     -2608.290 5        35.300
E29        26.000    26156470.700 7 137453256.17407       174.838 7        44.506                                                                    26156484.951 7 102643785.66007       130.526 7        45.595    26156483.180 7 105321360.07607       133.981 7        44.822
C34        28.000                                                                                                                                    24990349.977 7 130131347.10707      2586.462 7        45.520                                                                    24990359.925 6 105742410.27606      2101.589 6        41.723
R13        29.000    20315930.772 7 108485917.49407     -2604.239 7        42.817
C10        32.000                                                                                                                                    39601239.046 4                     -1560.970 4        26.719    39601229.282 4                     -1207.199 4        24.857    39601224.587 3                     -1268.121 3        23.200
C24        34.000                                                                                                                                    21475450.039 8 111828508.45008     -1107.214 8        49.696                                                                    21475450.846 7  90869713.32207      -899.919 7        45.341
R14        35.000    20303136.885 7 108227281.81207      1142.409 7        47.713                                                                    20303144.801 7  84176735.23007       888.571 7        46.699
C26        37.000                                                                                                                                    24349912.860 6 126796533.26406     -3373.780 6        41.206                                                                    24349920.087 7 103032473.75107     -2741.539 7        42.061
S21        38.000    38593856.451 5 202812076.48205      -844.510 5        34.757
C44        39.000                                                                                                                                    22338188.511 6 116320721.81706       462.438 6        38.904                                                                    22338190.415 6  94520228.27106       375.603 6        36.068
C35        40.000                                                                                                                                    23619873.709 7 122994881.99107     -2398.984 7        43.433                                                                    23619881.173 6  99943573.18106     -1949.473 6        40.760
C25        41.000                                                                                                                                    23493032.937 6 122334384.98106      1542.948 6        41.304                                                                    23493027.123 6  99406649.79306      1253.750 6        36.730
R05        42.000    22422272.473 7 119859933.30707       126.205 7        45.634                                                                    22422281.706 5  93224435.64405        98.244 5        32.299
C12        43.000                                                                                                                                    23549713.213 5 122629568.47205      1865.443 5        34.357    23549711.779 6  94824944.57206      1442.505 6        39.210    23549703.907 5  99646557.22405      1515.889 5        35.690
C32        44.000                                                                                                                                                                                                                                                                    26977287.412 5                       215.899 5        30.574
C33        46.000                                                                                                                                    26707134.371 4                     -3765.343 4        26.048                                                                    26707123.775 3                     -3058.780 3        22.686
C41        50.000                                                                                                                                    25883547.249 5 134782502.53305     -2219.808 5        34.462                                                                    25883566.738 5                     -1803.754 5        33.515
C07        53.000                                                                                                                                    40649764.347 3                     -1779.105 3        19.224
I06        58.000    38654157.208 6 151687177.45706      -733.073 6        37.554
I02        60.000    37221023.094 5 146063298.45205      -833.124 5        32.515
> 2025 01 01 13 15 25.0000000  0 41
G19         1.000    23411280.101 5                     -4013.934 5        32.144
G06         2.000    23078925.852 3                      -625.789 3        23.314                                                                                                    23078940.228 6  94504403.47306      -486.946 6        38.763
G25         3.000    20986425.661 7 110284621.23007      1239.176 7        44.897                                    20986435.492 4  85936027.33704       965.579 4        29.118    20986434.604 5  85935889.47905       965.414 5        34.452
G11         4.000    23473752.280 5 123355396.70105      1497.661 5        35.667                                    23473758.691 2  96121156.82102      1167.005 2        16.943    23473757.861 6  96121116.87706      1167.006 6        41.266
G28         6.000    25102238.073 6 131913239.43006      2712.716 6        38.934
G12         7.000    20341332.327 8 106894427.39008     -1235.880 8        52.685                                    20341333.419 8  83294375.78108      -963.024 8        49.860    20341333.184 7  83294388.78307      -963.039 7        46.864
G29         8.000    24172401.730 5 127026946.32005      2833.227 5        35.271                                    24172410.059 3  98982004.98403      2207.696 3        23.333    24172413.690 5  98981990.02115      2207.436 5        34.500
E30         9.000    23766578.267 7 124894248.28007      -594.674 7        47.058                                                                    23766585.324 7  93265211.10207      -443.975 7        44.554    23766583.341 7  95698220.55207      -455.547 7        44.305
G32        11.000                                                                                                                                                                    23031755.693 5  94311213.05105      -263.543 5        32.305
E34        12.000    26835509.428 4 141021573.92904      1982.598 4        27.569                                                                    26835539.568 5 105308417.31605      1480.834 5        33.629    26835529.460 5 108055564.88805      1519.442 5        33.102
E02        13.000    25198293.939 8 132417915.29208     -2774.852 8        48.390                                                                    25198301.367 7  98883586.80907     -2072.151 7        43.372    25198300.515 7 101463165.30207     -2126.145 7        45.136
E27        15.000    26290060.356 6 138155174.14506      1300.305 6        41.721                                                                    26290071.630 6 103168020.21206       970.952 6        41.936    26290070.880 6 105859371.03106       996.248 6        41.228
G24        16.000    21847774.838 6 114810815.84306     -3752.353 6        40.698                                    21847774.676 4  89463008.31704     -2923.908 4        29.024    21847778.012 5  89462965.31605     -2923.777 5        32.737
E08        17.000                                                                                                                                    27658957.906 3                     -3034.896 3        21.524
E07        18.000    25184126.476 6 132343467.81006     -2646.956 6        38.706                                                                    25184138.155 7  98828051.02007     -1976.420 7        42.408    25184138.525 8 101406071.60008     -2027.983 8        48.080
E36        19.000    26258577.750 6 137989790.44506      -123.606 6        37.512                                                                    26258584.014 7 103044379.34207       -92.399 7        43.101    26258580.129 6 105732487.54806       -94.644 6        37.009
R24        21.000    22092401.494 5 118138010.81205      3290.613 5        32.683                                                                    22092415.419 6  91885175.63406      2559.333 6        39.988
R22        22.000    22466112.425 5                     -3879.021 5        34.886
S36        23.000    38366857.090 5 201619084.61305      -845.088 5        35.886
S23        24.000    38307340.316 5 201306417.99805      -849.929 5        34.595
R04        25.000    21965813.078 7 117625992.92007     -3357.046 7        45.943                                                                    21965825.285 5  91486917.22505     -2611.032 5        34.219
E29        26.000    26156305.541 7 137452388.39207       172.298 7        44.224                                                                    26156319.676 7 102643137.63907       128.728 7        45.511    26156318.171 7 105320695.15907       132.015 7        45.261
C34        28.000                                                                                                                                    24987866.888 7 130118417.00907      2585.619 7        45.762                                                                    24987876.751 6 105731903.55106      2101.090 6        41.764
R13        29.000    20318370.150 7 108498944.58707     -2606.560 7        42.726
C10        32.000                                                                                                                                    39602739.745 4                     -1560.980 4        26.922    39602729.234 4                     -1207.563 4        24.917    39602723.256 3                     -1268.662 3        23.486
C24        34.000                                                                                                                                    21476514.522 8 111834049.71608     -1109.283 8        49.597                                                                    21476514.903 7  90874216.02407      -901.191 7        45.257
R14        35.000    20302066.637 7 108221574.13907      1140.614 7        47.764                                                                    20302074.432 7  84172295.93507       887.135 7        46.359
R23        36.000    20322060.138 4 108709261.32304      -451.386 4        28.085
C26        37.000                                                                                                                                    24353153.334 6 126813404.86506     -3374.865 6        39.811                                                                    24353159.688 6 103046183.25506     -2742.198 6        41.282
S21        38.000    38594656.876 5 202816300.80805      -845.074 5        34.829
C44        39.000                                                                                                                                    22337746.518 6 116318416.64106       459.604 6        40.069                                                                    22337747.932 5  94518355.11605       373.647 5        34.995
C35        40.000                                                                                                                                    23622179.747 7 123006883.54207     -2401.591 7        43.949                                                                    23622186.367 6  99953325.37906     -1951.386 6        41.054
C25        41.000                                                                                                                                    23491547.166 6 122326672.51406      1541.885 6        39.532                                                                    23491541.366 6  99400382.71506      1253.149 6        36.616
R05        42.000    22422155.906 7 119859313.77207       121.690 7        46.556                                                                    22422168.109 5  93223953.79805        94.539 5        35.300
