     3.04           OBSERVATION DATA    M                   RINEX VERSION / TYPE
ssrcrin-15.6.1x                         20250101 040000 UTC PGM / RUN BY / DATE 
(00000000023479385599111004) Septentrio proprietary         COMMENT             
ract                                                        MARKER NAME         
01                                                          MARKER NUMBER       
geodetic                                                    MARKER TYPE         
NFB                 CLIMERS@TUW                             OBSERVER / AGENCY   
3296359             SEPT ASTERX SB3 PROB4.14.4              REC # / TYPE / VERS 
Unknown             Unknown                                 ANT # / TYPE        
  4127446.4497  1206914.9334  4695543.5890                  APPROX POSITION XYZ 
        0.0000        0.0000        0.0000                  ANTENNA: DELTA H/E/N
G   23 X1  C1C L1C D1C S1C C1W S1W C2W L2W D2W S2W C2L L2L  SYS / # / OBS TYPES 
       D2L S2L C5Q L5Q D5Q S5Q C1L L1L D1L S1L              SYS / # / OBS TYPES 
E   21 X1  C1C L1C D1C S1C C6C L6C D6C S6C C5Q L5Q D5Q S5Q  SYS / # / OBS TYPES 
       C7Q L7Q D7Q S7Q C8Q L8Q D8Q S8Q                      SYS / # / OBS TYPES 
S    9 X1  C1C L1C D1C S1C C5I L5I D5I S5I                  SYS / # / OBS TYPES 
R   17 X1  C1C L1C D1C S1C C2P L2P D2P S2P C2C L2C D2C S2C  SYS / # / OBS TYPES 
       C3Q L3Q D3Q S3Q                                      SYS / # / OBS TYPES 
C   25 X1  C1P L1P D1P S1P C5P L5P D5P S5P C2I L2I D2I S2I  SYS / # / OBS TYPES 
       C7I L7I D7I S7I C6I L6I D6I S6I C7D L7D D7D S7D      SYS / # / OBS TYPES 
J   17 X1  C1C L1C D1C S1C C2L L2L D2L S2L C5Q L5Q D5Q S5Q  SYS / # / OBS TYPES 
       C1L L1L D1L S1L                                      SYS / # / OBS TYPES 
I    5 X1  C5A L5A D5A S5A                                  SYS / # / OBS TYPES 
SEPTENTRIO RECEIVERS OUTPUT ALIGNED CARRIER PHASES.         COMMENT             
NO FURTHER PHASE SHIFT APPLIED IN THE RINEX ENCODER.        COMMENT             
G L1C                                                       SYS / PHASE SHIFT   
G L2W                                                       SYS / PHASE SHIFT   
G L2L  0.00000                                              SYS / PHASE SHIFT   
G L5Q  0.00000                                              SYS / PHASE SHIFT   
G L1L  0.00000                                              SYS / PHASE SHIFT   
E L1C  0.00000                                              SYS / PHASE SHIFT   
E L6C  0.00000                                              SYS / PHASE SHIFT   
E L5Q  0.00000                                              SYS / PHASE SHIFT   
E L7Q  0.00000                                              SYS / PHASE SHIFT   
E L8Q  0.00000                                              SYS / PHASE SHIFT   
S L1C                                                       SYS / PHASE SHIFT   
S L5I                                                       SYS / PHASE SHIFT   
R L1C                                                       SYS / PHASE SHIFT   
R L2P  0.00000                                              SYS / PHASE SHIFT   
R L2C                                                       SYS / PHASE SHIFT   
R L3Q  0.00000                                              SYS / PHASE SHIFT   
C L1P  0.00000                                              SYS / PHASE SHIFT   
C L5P  0.00000                                              SYS / PHASE SHIFT   
C L2I                                                       SYS / PHASE SHIFT   
C L7I                                                       SYS / PHASE SHIFT   
C L6I                                                       SYS / PHASE SHIFT   
C L7D                                                       SYS / PHASE SHIFT   
J L1C                                                       SYS / PHASE SHIFT   
J L2L  0.00000                                              SYS / PHASE SHIFT   
J L5Q  0.00000                                              SYS / PHASE SHIFT   
J L1L  0.00000                                              SYS / PHASE SHIFT   
I L5A                                                       SYS / PHASE SHIFT   
  2025     1     1     4     0    0.0000000     GPS         TIME OF FIRST OBS   
 C1C    0.000 C2C    0.000 C2P    0.000                     GLONASS COD/PHS/BIS 
DBHZ                                                        SIGNAL STRENGTH UNIT
    18                                                      LEAP SECONDS        
 24 R01  1 R02 -4 R03  5 R04  6 R05  1 R06 -4 R07  5 R08  6 GLONASS SLOT / FRQ #
    R09 -2 R10 -7 R11  0 R12 -1 R13 -2 R14 -7 R15  0 R16 -1 GLONASS SLOT / FRQ #
    R17  4 R18 -3 R19  3 R20  2 R21  4 R22 -3 R23  3 R24  2 GLONASS SLOT / FRQ #
                                                            END OF HEADER       
> 2025 01 01 04 00  0.0000000  0 39
G07         5.000    22272962.230 7 117045209.46507      1818.359 7        42.993                                    22272954.971 5  91204061.19805      1416.900 5        32.707    22272953.809 5  91204032.22905      1416.774 5        35.405
E34         6.000    24073568.666 8 126507473.96008      -863.415 8        48.203                                                                    24073567.713 6  94469909.16106      -644.801 6        41.001    24073568.835 7  96934309.69307      -661.605 7        44.564
G03         8.000    22787943.634 5 119751579.47805     -3940.452 5        34.052                                    22787946.539 2  93312854.73002     -3070.486 2        16.000    22787942.416 3                     -3071.754 3        22.724
G09         9.000    19972351.338 8 104955411.08808      -861.257 8        50.648                                    19972348.172 8  81783447.71408      -671.109 8        48.678    19972349.340 7  81783438.71207      -671.052 7        42.430
G04        11.000    20793658.288 6 109271675.96406     -2587.706 6        40.460                                    20793661.010 4  85146594.81504     -2016.392 4        28.284    20793655.833 7  85146542.80907     -2016.417 7        47.282
E09        12.000    24269481.055 7 127536937.44407     -2323.259 7        46.875                                                                    24269478.967 7  95238718.63807     -1734.894 7        43.795    24269478.671 8  97723183.85908     -1780.154 8        48.801
E06        14.000    25698815.384 6 135048221.47306     -3083.430 6        36.484                                                                    25698811.322 6 100847682.57206     -2302.795 6        36.276    25698815.008 6 103478459.05806     -2362.653 6        38.748
E15        16.000    26876082.131 6 141234740.56406      1630.410 6        37.989                                                                    26876086.348 6 105467549.32406      1217.374 6        38.610    26876082.308 6 108218894.36706      1249.178 6        40.122
G06        19.000    21205698.814 8 111436689.99908     -1242.953 8        48.146                                    21205697.094 8  86833904.65708      -968.535 8        48.324    21205697.656 7  86833810.66707      -968.546 7        44.253
E36        20.000    25222331.313 6 132544369.84506     -3511.725 6        38.892                                                                    25222330.897 7  98977815.03007     -2622.338 7        44.226    25222331.575 7 101559876.52107     -2690.939 7        44.415
E05        21.000    22221464.913 7 116774619.42407       208.445 7        44.343                                                                    22221465.067 8  87201856.90408       155.560 8        48.695    22221465.396 8  89476675.25908       159.632 8        52.543
R07        23.000    19660956.150 7 105246878.11007         0.584 7        47.950                                                                    19660953.475 6  81858492.68706         0.622 6        40.064
S23        24.000    38155771.951 6 200509846.47806      -821.876 6        39.399
S36        25.000    38213792.671 5 200814838.22805      -826.653 5        34.776
G11        26.000    22819021.369 7 119914590.65707      1296.692 7        47.146                                    22819012.037 4  93440056.58304      1010.409 4        28.294    22819017.185 6  93440046.52206      1010.676 6        38.228
E03        27.000                                                                                                                                                                                                    27432812.714 5 110460557.00805      1306.770 5        33.287
R15        28.000    23340358.397 5                     -3799.144 5        30.211                                                                    23340363.139 3                     -2954.290 3        23.886
R06        29.000    20506199.326 6 109424995.16806     -2888.853 6        41.392
R09        32.000                                                                                                                                    22122138.222 7  91879659.91507      2314.249 7        43.539
C19        33.000                                                                                                                                    22013834.492 8 114631805.73208     -1391.847 8        48.268                                                                    22013828.246 7  93147698.07807     -1130.958 7        45.731
R21        34.000    23834620.895 4                     -5454.793 4        24.541
R08        35.000    22548485.729 6 120746188.97106      2163.738 6        36.250                                                                    22548475.846 6  93913597.55106      1682.857 6        36.098
R22        37.000    20774674.274 7 110896779.88507     -3254.825 7        42.726                                                                    20774670.114 7  86252945.09907     -2531.684 7        42.565
R16        39.000    21098131.147 7 112702496.51207      -277.541 7        45.293                                                                    21098128.628 6  87657451.24206      -215.892 6        40.586
C06        41.000                                                                                                                                    38961830.843 5 202884473.84605     -1715.334 5        32.263    38961856.981 5 156883208.94905     -1326.348 5        33.341    38961818.598 4                     -1393.483 4        28.995
C36        42.000                                                                                                                                    25180787.739 5 131123010.91605      2483.214 5        32.395
R23        44.000    21180210.912 7 113300052.19207       380.717 7        45.571
C16        45.000                                                                                                                                    39535287.147 4 205870637.12504     -1746.599 4        29.953    39535296.958 5 159192244.52105     -1350.475 5        30.725    39535289.610 4                     -1419.384 4        27.066
C09        46.000                                                                                                                                    38655831.235 5 201290948.51705     -1294.206 5        31.472    38655807.208 6 155650895.94006     -1001.009 6        37.497    38655800.860 4 163565359.57704     -1051.103 4        27.293
C44        48.000                                                                                                                                    24204583.604 7 126039804.19807     -1681.075 7        45.473                                                                    24204581.485 6 102417494.11806     -1365.870 6        39.730
C37        49.000                                                                                                                                                                                                                                                                    25130872.514 5                     -1890.628 5        31.517
C22        50.000                                                                                                                                    23013899.809 5 119839366.97905      1197.354 5        34.248                                                                    23013863.553 6  97379170.16806       973.271 6        40.448
C35        51.000                                                                                                                                    24914407.815 6 129735970.56106     -3624.054 6        37.822                                                                    24914411.846 5 105421025.26305     -2944.826 5        35.162
I01        54.000   337954704.400 5  23066049.16405     -3075.424 5        31.947
C20        55.000                                                                                                                                    24737781.902 5 128816092.58705     -3306.293 5        32.240                                                                    24737751.646 5                     -2686.222 5        31.668
C12        56.000                                                                                                                                    24866973.144 6 129488840.20006      -175.255 6        40.355    24866965.748 7 100128972.90407      -135.536 7        44.473    24866964.278 7 105220331.48707      -142.201 7        45.071
C34        57.000                                                                                                                                                                                                                                                                    26120922.237 4 110526079.74904       745.882 4        29.336
I09        58.000    37742440.973 6 148109443.87106      -969.154 6        36.677
I06        60.000    37997886.045 6 149111872.96606      -573.665 6        36.106
> 2025 01 01 04 00  5.0000000  0 40
G07         5.000    22271232.285 7 117036121.10807      1816.895 7        44.170                                    22271224.730 5  91196979.36005      1415.756 5        32.281    22271224.902 5  91196950.40605      1415.727 5        33.934
E34         6.000    24074391.298 8 126511796.13808      -865.607 8        48.223                                                                    24074390.268 6  94473136.76506      -646.373 6        41.316    24074391.467 7  96937621.50107      -663.230 7        44.445
G03         8.000    22791695.488 6 119771284.78106     -3941.679 6        37.970                                    22791696.370 2  93328209.54702     -3071.450 2        16.000    22791700.153 3                     -3070.945 3        22.686
G09         9.000    19973171.408 8 104959721.61508      -863.168 8        50.501                                    19973168.572 8  81786806.57008      -672.599 8        48.665    19973169.861 7  81786797.56207      -672.515 7        42.927
G04        11.000    20796123.658 7 109284617.59307     -2589.162 7        42.209                                    20796122.075 4  85156679.20804     -2017.531 4        29.725    20796118.466 7  85156627.21007     -2017.511 7        47.001
E09        12.000    24271691.541 7 127548554.68907     -2323.890 7        46.813                                                                    24271690.070 7  95247393.84407     -1735.374 7        44.522    24271689.411 8  97732085.37508     -1780.608 8        48.770
E06        14.000    25701749.087 6 135063638.54506     -3083.632 6        37.240                                                                    25701746.981 6 100859195.29106     -2302.811 6        36.287    25701748.813 6 103490272.14006     -2362.916 6        38.300
E15        16.000    26874531.720 6 141226590.68906      1629.339 6        38.243                                                                    26874534.907 6 105461463.36106      1216.723 6        38.874    26874531.750 6 108212649.65106      1248.415 6        40.157
G06        19.000    21206883.153 8 111442912.39808     -1246.130 8        48.280                                    21206881.368 7  86838753.28107      -971.008 7        47.798    21206880.992 7  86838659.28007      -970.954 7        43.357
E36        20.000    25225674.039 6 132561931.00206     -3512.889 6        38.913                                                                    25225672.774 7  98990928.86907     -2623.202 7        44.859    25225673.520 7 101573332.46107     -2691.638 7        44.066
E05        21.000    22221266.930 7 116773579.65607       207.379 7        44.147                                                                    22221267.191 8  87201080.46608       154.788 8        48.385    22221267.571 8  89475878.56008       158.850 8        52.492
R07        23.000    19660955.591 7 105246878.72007        -1.058 7        47.773                                                                    19660954.521 6  81858493.20506        -0.893 6        39.913
S23        24.000    38156555.455 6 200513955.23906      -821.865 6        39.237
S36        25.000    38214581.130 5 200818968.93705      -825.933 5        34.700
G11        26.000    22817788.444 7 119908112.67407      1294.263 7        47.438                                    22817779.778 4  93435008.81904      1008.521 4        28.806    22817785.212 6  93434998.76906      1008.467 6        38.859
E03        27.000                                                                                                                                                                                                    27431191.166 5 110454024.27505      1306.698 5        33.689
R15        28.000    23343918.707 5                     -3802.205 5        34.838                                                                    23343912.391 4                     -2957.212 4        26.503
R06        29.000    20508907.274 6 109439441.97106     -2890.088 6        41.518
R09        32.000                                                                                                                                    22119351.586 7  91868091.36207      2312.966 7        42.823
C19        33.000                                                                                                                                    22015170.995 8 114638767.39108     -1393.002 8        48.628                                                                    22015165.238 7  93153354.99007     -1132.110 7        45.558
R21        34.000    23839716.622 4                     -5453.215 4        24.977
R08        35.000    22546458.513 6 120735371.42706      2163.276 6        39.664                                                                    22546454.373 6  93905183.91306      1682.534 6        36.378
R22        37.000    20777724.450 7 110913062.32207     -3258.345 7        42.277                                                                    20777720.025 7  86265609.23407     -2534.268 7        42.360
C39        38.000                                                                                                                                    40316978.738 3                     -1983.867 3        20.238
R16        39.000    21098393.333 7 112703894.51907      -281.820 7        45.989                                                                    21098390.050 6  87658538.59806      -219.250 6        41.361
C06        41.000                                                                                                                                    38963479.110 5 202893049.45005     -1715.125 5        32.407    38963498.653 5 156889840.19405     -1326.482 5        33.946    38963465.568 4                     -1393.348 4        28.701
C36        42.000                                                                                                                                    25178403.893 5 131110596.44705      2482.419 5        31.977
R23        44.000    21179858.297 7 113298158.64507       376.585 7        46.172
C16        45.000                                                                                                                                    39536964.952 4 205879370.35104     -1746.535 4        29.659    39536972.508 5 159198997.61505     -1350.586 5        31.011    39536967.403 4                     -1419.648 4        27.689
C09        46.000                                                                                                                                    38657077.725 5 201297420.95105     -1294.556 5        31.185    38657050.199 6 155655900.84006     -1001.225 6        37.497    38657043.787 4 163570618.99504     -1052.720 4        27.257
C44        48.000                                                                                                                                    24206199.404 7 126048215.11107     -1683.471 7        45.669                                                                    24206196.704 6 102424328.67506     -1368.130 6        40.200
C37        49.000                                                                                                                                                                                                                                                                    25133109.282 5                     -1892.578 5        30.974
C22        50.000                                                                                                                                    23012742.638 5 119833379.73605      1197.231 5        32.713                                                                    23012713.997 6  97374304.96406       972.483 6        40.989
C35        51.000                                                                                                                                    24917891.940 6 129754092.61406     -3624.893 6        38.474                                                                    24917890.767 5 105435750.89905     -2945.444 5        34.762
I01        54.000   337958623.275 5  23081427.60205     -3075.747 5        31.358
C20        55.000                                                                                                                                    24740956.988 4 128832622.97804     -3306.485 4        27.976                                                                    24740926.055 5                     -2686.605 5        32.084
C12        56.000                                                                                                                                    24867139.806 6 129489722.10506      -177.611 6        39.012    24867134.707 7 100129654.86207      -137.569 7        43.795    24867133.450 7 105221048.12407      -144.631 7        45.064
C34        57.000                                                                                                                                                                                                                                                                    26120039.579 4 110522354.21804       744.239 4        29.602
I09        58.000    37743675.436 6 148114287.94206      -968.777 6        36.760
I06        60.000    37998616.589 6 149114739.94506      -573.331 6        36.155
> 2025 01 01 04 00 10.0000000  0 41
G07         5.000    22269504.548 7 117027041.27107      1814.795 7        44.888                                    22269496.153 5  91189904.16905      1414.121 5        31.909    22269497.172 5  91189875.23005      1414.086 5        33.383
E34         6.000    24075216.038 8 126516130.55208      -868.396 8        48.413                                                                    24075215.122 6  94476373.49406      -648.563 6        41.266    24075216.133 7  96940942.68207      -665.434 7        44.077
G03         8.000    22795445.281 6 119790995.72906     -3943.167 6        40.176                                    22795447.037 2  93343568.76802     -3072.594 2        16.000
G09         9.000    19973994.082 8 104964042.93108      -865.664 8        49.788                                    19973991.015 8  81790173.82908      -674.541 8        48.651    19973992.114 7  81790164.81407      -674.510 7        43.416
G20        10.000    24372430.296 5                      2593.817 5        31.298
G04        11.000    20798587.542 7 109297567.29107     -2591.104 7        42.893                                    20798584.861 5  85166769.88605     -2019.046 5        30.445    20798582.587 7  85166717.88507     -2019.029 7        46.395
E09        12.000    24273902.936 7 127560176.45007     -2325.146 7        46.871                                                                    24273901.752 7  95256072.41907     -1736.273 7        45.234    24273900.889 8  97740990.34908     -1781.594 8        48.400
E06        14.000    25704683.683 6 135079057.67306     -3084.324 6        37.648                                                                    25704680.400 6 100870709.56806     -2303.135 6        36.302    25704682.839 6 103502086.79406     -2363.268 6        37.603
E15        16.000    26872981.713 6 141218447.42006      1627.594 6        38.069                                                                    26872985.192 6 105455382.33606      1215.551 6        39.357    26872982.343 6 108206409.96706      1247.171 6        40.231
G06        19.000    21208070.634 8 111449151.56608     -1249.800 8        48.853                                    21208068.593 7  86843614.96507      -973.867 7        47.088    21208067.691 7  86843520.96707      -973.929 7        42.474
E36        20.000    25229017.984 6 132579499.01606     -3514.751 6        39.099                                                                    25229015.875 7  99004047.83407     -2624.559 7        45.294    25229016.651 7 101586793.67007     -2693.129 7        43.376
E05        21.000    22221070.730 7 116772546.19407       205.694 7        44.551                                                                    22221070.513 7  87200308.72007       153.641 7        47.934    22221070.965 8  89475086.67508       157.689 8        52.348
R07        23.000    19660958.095 8 105246888.76908        -3.214 8        48.077                                                                    19660956.440 6  81858500.99806        -2.634 6        39.354
S23        24.000    38157335.870 6 200518063.83406      -822.021 6        39.805
S36        25.000    38215366.535 5 200823099.54705      -826.561 5        34.433
G11        26.000    22816558.428 7 119901647.81107      1291.348 7        47.797                                    22816550.270 4  93429971.26604      1006.248 4        29.772    22816555.216 6  93429961.23806      1006.135 6        39.123
E03        27.000    27429602.541 4 144143495.78014      1704.399 4        29.735                                                                                                                                    27429569.444 5 110447493.29705      1305.870 5        33.210
R15        28.000    23347480.905 5 124761834.32815     -3805.517 5        35.800                                                                    23347476.842 4                     -2959.560 4        28.796
R06        29.000    20511613.993 6 109453896.03706     -2891.864 6        41.271
R09        32.000                                                                                                                                    22116567.647 6  91856529.54706      2311.444 6        41.921
C19        33.000                                                                                                                                    22016508.725 8 114645735.95408     -1394.691 8        48.932                                                                    22016503.339 7  93159017.51307     -1133.280 7        45.470
R21        34.000    23844818.805 4                     -5452.195 4        24.090
R08        35.000    22544440.559 7 120724557.18107      2162.098 7        42.658                                                                    22544434.186 6  93896772.85006      1681.789 6        37.637
R22        37.000    20780777.753 7 110929363.22807     -3262.302 7        42.432                                                                    20780773.222 6  86278287.72706     -2537.367 6        40.999
C39        38.000                                                                                                                                    40318887.374 3                     -1985.352 3        19.940
R16        39.000    21098658.040 7 112705315.00707      -286.671 7        44.302                                                                    21098656.430 7  87659643.44107      -222.916 7        42.085
C06        41.000                                                                                                                                    38965126.936 5 202901626.62105     -1715.845 5        32.431    38965140.247 5 156896472.58005     -1326.856 5        33.970    38965113.182 4                     -1394.066 4        29.270
C36        42.000                                                                                                                                    25176022.156 5 131098183.78005      2481.884 5        32.030
R23        44.000    21179509.698 7 113296287.42507       371.695 7        45.747
C16        45.000                                                                                                                                    39538642.324 4 205888104.77604     -1747.406 4        29.981    39538650.172 5 159205751.66005     -1350.801 5        30.551    39538645.402 4                     -1420.089 4        26.647
C09        46.000                                                                                                                                    38658324.104 5 201303895.56705     -1295.679 5        30.747    38658293.285 6 155660907.35506     -1001.629 6        37.047    38658287.581 4 163575880.10404     -1052.447 4        27.892
C44        48.000                                                                                                                                    24207817.597 7 126056638.88107     -1686.325 7        45.807                                                                    24207814.618 6 102431173.68506     -1370.322 6        40.820
C37        49.000                                                                                                                                                                                                                                                                    25135347.727 5                     -1894.412 5        31.449
C22        50.000                                                                                                                                    23011593.586 4 119827396.82804      1195.548 4        26.407                                                                    23011565.109 6  97369443.23206       971.769 6        41.592
C35        51.000                                                                                                                                    24921374.372 6 129772219.60306     -3626.148 6        38.817                                                                    24921371.242 5 105450480.60005     -2946.495 5        34.186
I01        54.000   337962541.263 5  23096806.42305     -3075.723 5        31.200
C20        55.000                                                                                                                                                                                                                                                                    24744101.515 5                     -2687.271 5        31.623
C12        56.000                                                                                                                                    24867308.211 6 129490617.90806      -180.965 6        37.592    24867306.780 7 100130347.54007      -139.902 7        42.665    24867305.252 7 105221776.04307      -147.011 7        44.939
C34        57.000                                                                                                                                                                                                                                                                    26119153.970 5 110518637.71605       742.328 5        30.641
I09        58.000    37744909.455 6 148119132.40706      -969.045 6        36.367
I06        60.000    37999347.777 5 149117606.88205      -573.776 5        35.857
> 2025 01 01 04 00 15.0000000  0 40
G07         5.000    22267778.435 7 117017970.86107      1813.071 7        44.971                                    22267769.203 5  91182836.33705      1412.778 5        31.253    22267770.674 5  91182807.38805      1412.825 5        31.034
E34         6.000    24076043.347 8 126520478.09408      -870.887 8        48.575                                                                    24076042.460 6  94479620.01906      -650.244 6        41.299    24076043.032 7  96944273.91507      -667.313 7        43.913
G03         8.000    22799196.738 6 119810713.21406     -3944.255 6        41.647                                    22799198.518 2  93358933.10102     -3073.445 2        16.453
G09         9.000    19974818.568 8 104968375.89808      -867.834 8        48.829                                    19974815.649 8  81793550.16308      -676.237 8        48.494    19974816.486 7  81793541.17307      -676.234 7        43.611
G20        10.000    24369972.831 5                      2593.550 5        32.000
G04        11.000    20801052.806 7 109310525.93507     -2592.712 7        43.486                                    20801049.575 5  85176867.53505     -2020.292 5        30.634    20801048.285 7  85176815.52007     -2020.201 7        45.345
E09        12.000    24276115.556 7 127571803.60307     -2326.058 7        46.612                                                                    24276114.715 7  95264755.02707     -1737.006 7        45.904    24276113.338 8  97749899.46708     -1782.234 8        48.204
E06        14.000    25707618.821 6 135094479.73606     -3084.619 6        38.042                                                                    25707614.733 5 100882226.04905     -2303.514 5        35.943    25707617.688 6 103513903.71206     -2363.699 6        36.741
E15        16.000    26871433.310 6 141210311.59606      1626.370 6        37.788                                                                    26871436.697 6 105449306.86206      1214.511 6        39.510    26871434.433 6 108200176.02706      1246.140 6        40.400
G06        19.000    21209260.898 8 111455408.40908     -1253.160 8        49.085                                    21209258.876 7  86848490.42507      -976.489 7        46.276    21209258.068 6  86848396.43606      -976.399 6        41.676
E36        20.000    25232363.388 6 132597074.75006     -3516.003 6        39.222                                                                    25232360.457 7  99017172.57307     -2625.594 7        45.493    25232361.297 7 101600260.79107     -2694.037 7        43.094
E05        21.000    22220875.699 7 116771519.90607       204.396 7        44.828                                                                    22220875.106 7  87199542.33307       152.679 7        47.291    22220875.756 8  89474300.29308       156.645 8        52.358
R07        23.000    19660961.797 7 105246908.89107        -5.076 7        47.316                                                                    19660958.246 6  81858516.66006        -3.891 6        37.497
S23        24.000    38158119.280 6 200522172.93806      -822.035 6        39.562
S36        25.000    38216151.711 5 200827231.20105      -826.382 5        34.100
G11        26.000    22815331.249 7 119895196.96607      1288.722 7        47.866                                    22815323.458 5  93424944.63005      1004.195 5        30.709    22815328.105 6  93424934.60806      1004.102 6        40.014
E03        27.000    27427976.855 5 144134975.47105      1703.581 5        30.257                                                                                                                                    27427948.667 5 110440964.72105      1305.532 5        33.473
R15        28.000    23351046.578 5 124780868.36015     -3808.493 5        35.571                                                                    23351039.263 4                     -2961.845 4        29.185
R06        29.000    20514324.698 6 109468358.19706     -2893.412 6        41.549
R09        32.000                                                                                                                                    22113785.055 6  91844975.23406      2310.020 6        40.040
C19        33.000                                                                                                                                    22017847.817 8 114652712.26108     -1396.122 8        49.493                                                                    22017842.925 7  93164686.32707     -1134.392 7        45.106
R21        34.000    23849911.264 4                     -5454.143 4        24.617
R08        35.000    22542426.328 7 120713747.10207      2161.446 7        42.172                                                                    22542417.770 6  93888365.04806      1681.212 6        38.177
R22        37.000    20783834.345 7 110945683.52707     -3266.058 7        43.009                                                                    20783831.618 6  86290981.29306     -2540.180 6        41.063
R16        39.000    21098926.474 7 112706759.02307      -291.215 7        42.912                                                                    21098927.318 7  87660766.60207      -226.454 7        43.998
C06        41.000                                                                                                                                    38966774.309 5 202910206.13305     -1716.098 5        32.659    38966786.985 5 156903106.83505     -1327.162 5        34.390    38966760.564 4                     -1394.333 4        28.863
C36        42.000                                                                                                                                    25173639.774 5 131085773.75005      2481.650 5        33.251
R23        44.000    21179163.389 7 113294439.54207       367.153 7        45.183
C16        45.000                                                                                                                                    39540316.701 4 205896841.32004     -1747.087 4        28.815    39540327.562 5 159212507.31105     -1351.350 5        30.083    39540322.180 4                     -1420.736 4        27.665
C09        46.000                                                                                                                                    38659567.012 5 201310373.10105     -1295.416 5        30.075    38659536.661 6 155665916.24506     -1002.179 6        36.756    38659532.027 4 163581143.67004     -1052.975 4        28.445
C44        48.000                                                                                                                                    24209437.742 7 126065076.38807     -1688.970 7        45.497                                                                    24209435.321 6 102438029.83606     -1372.401 6        41.049
C37        49.000                                                                                                                                    25137622.221 5 130898197.41815     -2334.305 5        35.576                                                                    25137588.019 5                     -1896.731 5        30.581
C22        50.000                                                                                                                                                                                                                                                                    23010417.230 6  97364585.66006       971.077 6        41.907
C35        51.000                                                                                                                                    24924855.107 6 129790352.38606     -3627.264 6        38.751                                                                    24924853.154 5 105465214.99005     -2947.238 5        34.195
I01        54.000   337966460.541 5  23112186.37605     -3075.822 5        31.177
C20        55.000                                                                                                                                    24747301.322 4                     -3307.251 4        25.188                                                                    24747277.736 5                     -2687.824 5        30.770
C12        56.000                                                                                                                                    24867482.436 6 129491528.44306      -183.593 6        37.909    24867482.254 7 100131051.62007      -142.004 7        42.068    24867480.025 7 105222515.92207      -149.186 7        44.781
C34        57.000                                                                                                                                                                                                                                                                    26118272.580 5 110514930.93005       740.502 5        30.309
I09        58.000    37746144.790 6 148123977.93406      -969.186 6        36.015
I06        60.000    38000077.992 6 149120474.45706      -573.435 6        36.064
> 2025 01 01 04 00 20.0000000  0 41
G07         5.000    22266053.923 7 117008909.69107      1811.041 7        44.196                                    22266044.029 5  91175775.71005      1411.191 5        30.468    22266045.138 4  91175746.73504      1411.120 4        28.227
E34         6.000    24076873.027 8 126524838.52108      -873.658 8        48.307                                                                    24076872.049 6  94482876.18806      -652.475 6        41.323    24076872.133 7  96947615.03507      -669.546 7        43.482
G03         8.000    22802949.668 7 119830437.04107     -3945.681 7        42.377                                    22802950.398 3  93374302.36703     -3074.561 3        18.149    22802980.769 4                     -3073.810 4        24.331
G09         9.000    19975645.244 8 104972720.30308      -870.433 8        48.229                                    19975642.398 8  81796935.40908      -678.260 8        48.502    19975643.682 7  81796926.42307      -678.254 7        43.920
G20        10.000    24367512.995 5                      2593.077 5        33.048
G04        11.000    20803520.173 7 109323493.29207     -2594.704 7        43.630                                    20803516.086 5  85186971.96505     -2021.847 5        30.664    20803515.995 7  85186919.95507     -2021.892 7        44.184
E09        12.000    24278329.141 7 127583435.92907     -2327.307 7        46.495                                                                    24278328.430 7  95273441.49207     -1737.962 7        46.343    24278326.810 8  97758812.53508     -1783.251 8        48.093
E06        14.000    25710553.932 6 135109904.55006     -3085.578 6        37.418                                                                    25710550.397 5 100893744.57005     -2304.100 5        35.471    25710552.511 5 103525722.67905     -2364.082 5        35.557
E15        16.000    26869886.250 6 141202183.00206      1624.879 6        36.775                                                                    26869889.538 6 105443236.80906      1213.269 6        39.805    26869887.932 6 108193947.62906      1244.922 6        40.551
G06        19.000    21210454.475 8 111461682.69208     -1256.855 8        48.749                                    21210452.249 7  86853379.47407      -979.371 7        45.395    21210452.386 6  86853285.49006      -979.430 6        40.307
E36        20.000    25235710.345 6 132614657.99206     -3517.767 6        39.459                                                                    25235706.563 7  99030302.90207     -2626.881 7        45.657    25235707.154 7 101613733.65707     -2695.320 7        42.536
E05        21.000    22220681.433 7 116770500.55507       202.852 7        45.306                                                                    22220681.006 7  87198781.13107       151.574 7        46.837    22220681.876 8  89473519.22808       155.447 8        52.412
R07        23.000    19660966.967 7 105246939.07307        -7.424 7        46.820                                                                    19660964.766 6  81858540.14006        -5.673 6        37.675
S23        24.000    38158901.130 6 200526282.40306      -822.121 6        39.973
S36        25.000    38216934.125 5 200831363.49905      -826.992 5        34.305
G11        26.000    22814105.989 7 119888759.92307      1285.694 7        47.779                                    22814099.315 5  93419928.75705      1001.841 5        31.774    22814103.575 6  93419918.73606      1001.843 6        41.409
E03        27.000    27426355.040 4 144126458.06704      1702.844 4        29.242                                                                                                                                    27426328.658 5 110434438.40605      1304.766 5        33.311
R15        28.000    23354618.161 5 124799917.94605     -3811.720 5        35.200                                                                    23354600.772 4                     -2964.259 4        28.398
R06        29.000    20517037.204 6 109482828.37106     -2895.092 6        41.857
R09        32.000                                                                                                                                    22111004.913 6  91833428.29006      2308.292 6        38.501
C19        33.000                                                                                                                                    22019188.834 8 114659696.09308     -1397.891 8        49.929                                                                    22019184.138 7  93170361.24907     -1135.648 7        44.822
R21        34.000    23855002.921 4                     -5453.023 4        24.060
R08        35.000    22540403.335 6 120702941.02506      2160.531 6        40.677                                                                    22540401.225 6  93879960.33706      1680.366 6        37.766
R22        37.000    20786895.415 7 110962022.95207     -3270.113 7        43.888                                                                    20786893.740 7  86303689.73007     -2543.443 7        42.620
C39        38.000                                                                                                                                    40322704.879 3                     -1984.587 3        19.313
R16        39.000    21099200.054 7 112708226.04107      -296.034 7        43.192                                                                    21099202.656 7  87661907.63007      -230.246 7        44.962
C06        41.000                                                                                                                                    38968421.736 5 202918787.84405     -1716.829 5        32.461    38968435.774 5 156909742.74505     -1327.718 5        34.914    38968408.728 4                     -1394.539 4        28.739
C36        42.000                                                                                                                                    25171258.537 5 131073366.21805      2480.891 5        35.019
R23        44.000    21178820.850 7 113292614.64907       362.422 7        44.655
C16        45.000                                                                                                                                    39541996.161 4 205905579.75904     -1748.210 4        28.483    39542004.071 5 159219264.40805     -1351.492 5        30.128    39542000.840 4                     -1421.174 4        27.437
C09        46.000                                                                                                                                    38660813.960 4 201316853.54704     -1296.713 4        29.545    38660781.289 6 155670927.28606     -1002.665 6        37.006    38660776.557 4 163586409.48404     -1053.754 4        27.832
C44        48.000                                                                                                                                    24211060.340 7 126073527.41107     -1691.899 7        44.754                                                                    24211058.431 6 102444896.95506     -1374.535 6        41.518
C37        49.000                                                                                                                                    25139860.283 5 130909874.51505     -2337.232 5        35.138                                                                    25139829.375 5                     -1898.757 5        30.038
C22        50.000                                                                                                                                    23009325.784 5                      1193.732 5        35.657                                                                    23009270.424 7  97359732.07607       970.402 7        42.256
C35        51.000                                                                                                                                    24928338.484 6 129808490.73106     -3628.557 6        38.258                                                                    24928338.885 5 105479953.90005     -2948.301 5        35.214
I01        54.000   337970379.378 5  23127567.21105     -3076.780 5        31.094
C20        55.000                                                                                                                                    24750475.602 5                     -3308.528 5        32.413                                                                    24750456.138 4                     -2688.266 4        29.810
C12        56.000                                                                                                                                    24867663.151 6 129492453.60806      -186.802 6        38.222    24867660.891 7 100131767.00907      -144.463 7        42.334    24867657.806 7 105223267.66007      -151.578 7        44.764
C34        57.000                                                                                                                                                                                                                                                                    26117394.227 5 110511233.84905       738.607 5        31.457
I09        58.000    37747380.095 5 148128824.32905      -969.546 5        35.600
I06        60.000    38000809.016 5 149123342.54105      -573.937 5        35.924
> 2025 01 01 04 00 25.0000000  0 41
G07         5.000    22264331.063 7 116999858.03907      1809.436 7        43.198                                    22264320.558 4  91168722.50204      1409.935 4        29.081    22264321.010 4  91168693.48404      1410.311 4        26.299
E34         6.000    24077705.113 8 126529212.13508      -876.093 8        48.330                                                                    24077704.373 6  94486142.19306      -654.174 6        41.659    24077703.899 7  96950966.24107      -671.256 7        43.196
G03         8.000    22806704.061 7 119850167.44807     -3946.799 7        42.694                                    22806703.189 3  93389676.76203     -3075.433 3        19.284    22806730.680 3                     -3077.466 3        20.786
G09         9.000    19976474.477 8 104977076.44508      -872.489 8        48.210                                    19976471.334 8  81800329.81108      -679.864 8        48.254    19976472.040 7  81800320.81807      -679.784 7        43.772
G20        10.000    24365046.305 5                      2592.818 5        32.820
G04        11.000    20805989.380 7 109336469.62407     -2596.234 7        43.513                                    20805984.484 5  85197083.39405     -2023.038 5        30.309    20805985.718 7  85197031.37307     -2023.002 7        43.672
E09        12.000    24280543.889 7 127595073.69107     -2328.075 7        46.323                                                                    24280543.112 7  95282132.01607     -1738.458 7        46.839    24280541.263 7  97767729.77207     -1783.766 7        47.877
E06        14.000    25713489.166 6 135125332.34206     -3085.928 6        36.692                                                                    25713486.672 5 100905265.32305     -2304.140 5        35.771    25713487.302 5 103537543.96005     -2364.315 5        34.571
E15        16.000    26868339.987 5 141194061.94005      1623.371 5        35.819                                                                    26868343.513 6 105437172.37006      1212.290 6        40.036    26868342.729 6 108187724.98706      1243.994 6        40.794
G06        19.000    21211651.617 8 111467974.69308     -1260.153 8        48.150                                    21211648.797 7  86858282.33507      -981.936 7        44.271    21211649.512 6  86858188.35406      -982.145 6        38.946
E36        20.000    25239057.922 6 132632248.97806     -3518.986 6        39.613                                                                    25239054.048 7  99043439.04007     -2627.779 7        45.929    25239054.557 6 101627212.48206     -2696.244 6        41.719
E05        21.000    22220488.279 7 116769488.40307       201.766 7        45.315                                                                    22220488.246 7  87198025.32407       150.590 7        46.402    22220489.384 8  89472743.69308       154.571 8        52.339
R07        23.000    19660974.077 7 105246979.55207        -9.156 7        45.905                                                                    19660973.168 6  81858571.62306        -7.018 6        39.111
S23        24.000    38159681.611 6 200530392.76906      -822.076 6        40.088
S36        25.000    38217718.224 5 200835496.36305      -826.644 5        34.557
G11        26.000    22812884.015 7 119882336.97107      1283.215 7        47.529                                    22812877.829 5  93414923.85805       999.908 5        32.335    22812881.036 7  93414913.83107       999.970 7        42.542
E03        27.000    27424735.177 4 144117943.90604      1702.323 4        27.521                                                                                                                                    27424708.762 5 110427914.53705      1304.414 5        33.329
R15        28.000    23358191.546 6 124818983.60406     -3814.837 6        36.076                                                                    23358172.248 4                     -2967.034 4        26.263
R06        29.000    20519751.036 7 109497306.67307     -2896.485 7        42.121
R09        32.000                                                                                                                                    22108227.225 6  91821888.92106      2307.104 6        37.474
C19        33.000                                                                                                                                    22020531.489 8 114666687.73908     -1399.137 8        50.072                                                                    22020526.765 7  93176042.55307     -1137.169 7        44.563
R21        34.000    23860098.317 4                     -5453.356 4        24.947
R08        35.000    22538376.813 6 120692139.11006      2160.094 6        37.206                                                                    22538384.120 6  93871558.86706      1679.900 6        37.577
R22        37.000    20789959.595 7 110978381.77807     -3273.676 7        43.774                                                                    20789958.265 7  86316413.26707     -2546.285 7        42.910
C39        38.000                                                                                                                                    40324609.987 3                     -1994.325 3        20.119
R16        39.000    21099481.655 7 112709716.79107      -300.503 7        42.904                                                                    21099481.584 7  87663067.09007      -233.753 7        45.723
C06        41.000                                                                                                                                    38970069.266 5 202927371.99805     -1717.018 5        31.841    38970084.613 5 156916380.58005     -1327.644 5        34.900    38970056.744 4                     -1395.118 4        29.100
C36        42.000                                                                                                                                    25168877.504 6 131060961.44306      2480.606 6        37.263
R23        44.000    21178483.202 7 113290813.10107       357.986 7        43.881
C16        45.000                                                                                                                                    39543676.084 4 205914320.30404     -1748.215 4        28.739    39543683.166 5 159226023.11805     -1351.699 5        30.038    39543678.566 4                     -1420.476 4        27.138
C09        46.000                                                                                                                                    38662061.454 4 201323337.04704     -1296.925 4        29.355    38662026.532 6 155675940.69506     -1003.030 6        36.556    38662021.739 4 163591677.82404     -1054.204 4        27.952
C44        48.000                                                                                                                                    24212685.616 7 126081992.19507     -1694.311 7        44.001                                                                    24212684.121 7 102451775.29007     -1376.929 7        42.106
C37        49.000                                                                                                                                    25142100.618 5 130921564.68005     -2339.395 5        34.195                                                                    25142071.733 4                     -1900.771 4        29.204
C22        50.000                                                                                                                                    23008177.079 6 119809626.22016      1192.969 6        37.977                                                                    23008124.551 7  97354882.75207       969.273 7        42.779
