     3.04           OBSERVATION DATA    M                   RINEX VERSION / TYPE
ssrcrin-15.6.1x                         20250101 093000 UTC PGM / RUN BY / DATE 
(00000000023479385599111004) Septentrio proprietary         COMMENT             
ract                                                        MARKER NAME         
01                                                          MARKER NUMBER       
geodetic                                                    MARKER TYPE         
NFB                 CLIMERS@TUW                             OBSERVER / AGENCY   
3296359             SEPT ASTERX SB3 PROB4.14.4              REC # / TYPE / VERS 
Unknown             Unknown                                 ANT # / TYPE        
  4127446.4340  1206914.6804  4695543.1903                  APPROX POSITION XYZ 
        0.0000        0.0000        0.0000                  ANTENNA: DELTA H/E/N
G   23 X1  C1C L1C D1C S1C C1W S1W C2W L2W D2W S2W C2L L2L  SYS / # / OBS TYPES 
       D2L S2L C5Q L5Q D5Q S5Q C1L L1L D1L S1L              SYS / # / OBS TYPES 
E   21 X1  C1C L1C D1C S1C C6C L6C D6C S6C C5Q L5Q D5Q S5Q  SYS / # / OBS TYPES 
       C7Q L7Q D7Q S7Q C8Q L8Q D8Q S8Q                      SYS / # / OBS TYPES 
S    9 X1  C1C L1C D1C S1C C5I L5I D5I S5I                  SYS / # / OBS TYPES 
R   17 X1  C1C L1C D1C S1C C2P L2P D2P S2P C2C L2C D2C S2C  SYS / # / OBS TYPES 
       C3Q L3Q D3Q S3Q                                      SYS / # / OBS TYPES 
C   25 X1  C1P L1P D1P S1P C5P L5P D5P S5P C2I L2I D2I S2I  SYS / # / OBS TYPES 
       C7I L7I D7I S7I C6I L6I D6I S6I C7D L7D D7D S7D      SYS / # / OBS TYPES 
J   17 X1  C1C L1C D1C S1C C2L L2L D2L S2L C5Q L5Q D5Q S5Q  SYS / # / OBS TYPES 
       C1L L1L D1L S1L                                      SYS / # / OBS TYPES 
I    5 X1  C5A L5A D5A S5A                                  SYS / # / OBS TYPES 
SEPTENTRIO RECEIVERS OUTPUT ALIGNED CARRIER PHASES.         COMMENT             
NO FURTHER PHASE SHIFT APPLIED IN THE RINEX ENCODER.        COMMENT             
G L1C                                                       SYS / PHASE SHIFT   
G L2W                                                       SYS / PHASE SHIFT   
G L2L  0.00000                                              SYS / PHASE SHIFT   
G L5Q  0.00000                                              SYS / PHASE SHIFT   
G L1L  0.00000                                              SYS / PHASE SHIFT   
E L1C  0.00000                                              SYS / PHASE SHIFT   
E L6C  0.00000                                              SYS / PHASE SHIFT   
E L5Q  0.00000                                              SYS / PHASE SHIFT   
E L7Q  0.00000                                              SYS / PHASE SHIFT   
E L8Q  0.00000                                              SYS / PHASE SHIFT   
S L1C                                                       SYS / PHASE SHIFT   
S L5I                                                       SYS / PHASE SHIFT   
R L1C                                                       SYS / PHASE SHIFT   
R L2P  0.00000                                              SYS / PHASE SHIFT   
R L2C                                                       SYS / PHASE SHIFT   
R L3Q  0.00000                                              SYS / PHASE SHIFT   
C L1P  0.00000                                              SYS / PHASE SHIFT   
C L5P  0.00000                                              SYS / PHASE SHIFT   
C L2I                                                       SYS / PHASE SHIFT   
C L7I                                                       SYS / PHASE SHIFT   
C L6I                                                       SYS / PHASE SHIFT   
C L7D                                                       SYS / PHASE SHIFT   
J L1C                                                       SYS / PHASE SHIFT   
J L2L  0.00000                                              SYS / PHASE SHIFT   
J L5Q  0.00000                                              SYS / PHASE SHIFT   
J L1L  0.00000                                              SYS / PHASE SHIFT   
I L5A                                                       SYS / PHASE SHIFT   
  2025     1     1     9    30    0.0000000     GPS         TIME OF FIRST OBS   
 C1C    0.000 C2C    0.000 C2P    0.000                     GLONASS COD/PHS/BIS 
DBHZ                                                        SIGNAL STRENGTH UNIT
    18                                                      LEAP SECONDS        
 24 R01  1 R02 -4 R03  5 R04  6 R05  1 R06 -4 R07  5 R08  6 GLONASS SLOT / FRQ #
    R09 -2 R10 -7 R11  0 R12 -1 R13 -2 R14 -7 R15  0 R16 -1 GLONASS SLOT / FRQ #
    R17  4 R18 -3 R19  3 R20  2 R21  4 R22 -3 R23  3 R24  2 GLONASS SLOT / FRQ #
                                                            END OF HEADER       
> 2025 01 01 09 30  0.0000000  0 32
G13         2.000    20158834.545 7 105935388.70707     -1958.650 7        43.573                                    20158838.520 3  82547073.36703     -1526.229 3        19.313
G30         3.000    23393443.169 6 122933273.43606     -3610.355 6        36.242                                    23393451.591 1  95792217.48201     -2813.421 1         9.429
G14         4.000    21141242.836 7 111097977.24307     -2548.967 7        44.433                                    21141242.512 4  86569824.89704     -1986.206 4        27.593    21141245.399 6  86569829.87906     -1986.256 6        40.965
G17         5.000                                                                                                                                                                    22814401.467 5  93421186.40005       941.686 5        31.230
G15         6.000    20359595.590 7 106990417.13707       -52.881 7        44.311                                    20359594.451 7  83369469.50207       -41.206 7        42.387    20359595.735 7  83369130.51207       -41.219 7        42.781
G05         7.000    24101152.686 5 126652930.69705     -4379.612 5        34.714                                    24101160.465 1  98690255.39101     -3412.638 1        11.037    24101151.034 4                     -3412.814 4        24.376
G23        10.000    23452196.820 7 123242164.17307       571.136 7        44.269                                    23452201.012 2  96032865.15702       445.042 2        17.811    23452197.315 5  96032818.13905       445.263 5        32.874
E02        13.000    24030487.488 7 126281091.34607       935.107 7        42.015                                                                    24030492.177 8  94300906.95608       698.286 8        49.179    24030489.333 7  96760935.70507       716.460 7        46.735
E25        14.000    24006998.121 6 126157603.90106     -1921.869 6        39.904                                                                    24007004.176 8  94208720.19008     -1435.241 8        49.247    24007003.401 8  96666260.58608     -1472.716 8        49.146
E24        15.000                                                                                                                                    28161379.023 4                     -2745.653 4        24.316    28161380.437 3                     -2817.245 3        19.970
G24        16.000    22795545.143 7 119791108.73307      2252.372 7        42.512                                    22795567.981 4  93343927.08204      1755.103 4        24.737    22795557.875 5                      1754.978 5        30.015
E08        17.000    23932635.139 7 125766848.90007       294.878 7        43.554                                                                    23932639.031 7  93916818.62307       220.237 7        43.606    23932637.223 6  96366860.08006       225.960 6        38.739
E07        18.000    27675014.719 3 145433188.60503      1959.336 3        23.314                                                                    27675024.741 5 108602688.69605      1462.824 5        32.778    27675023.984 5 111435873.39605      1500.928 5        34.824
E26        20.000    28905675.635 4 151900232.73604     -2496.140 4        28.863                                                                    28905654.896 4 113432004.36704     -1863.709 4        28.066    28905696.553 4                     -1912.229 4        27.198
S23        24.000    38248693.274 6 200998204.39806      -821.738 6        36.457
E03        27.000    24097030.984 7 126630722.96407     -2427.027 7        45.142                                                                    24097036.266 8  94561851.48108     -1812.483 8        48.604    24097035.502 8  97028703.55408     -1859.734 8        50.466
R11        28.000    20563166.441 8 109883341.46708     -3557.066 8        48.791                                                                    20563169.942 7  85464763.05907     -2766.671 7        44.200
R12        31.000    19679711.926 8 105125593.89008       502.248 8        49.766                                                                    19679714.648 8  81764538.41308       390.515 8        48.056
C10        32.000                                                                                                                                    38698255.131 6 201511964.21706      -421.759 6        41.030    38698258.527 6 155821850.78306      -326.127 6        40.555    38698254.722 6 163744980.44506      -342.653 6        41.754
R03        33.000    23146257.059 7 123903704.20107      3276.677 7        45.016                                                                    23146266.858 5  96369555.98305      2548.449 5        35.762
C05        36.000                                                                                                                                                                                                    39498537.693 5 159044308.53505      -670.334 5        31.525
C26        37.000                                                                                                                                    22197371.869 8 115587536.72608       441.022 8        51.937                                                                    22197373.413 7  93924448.56207       358.308 7        42.990
R01        38.000    20343215.191 6 108746124.71806     -3873.030 6        41.912                                                                    20343245.618 3                     -3013.585 3        23.467
C24        39.000                                                                                                                                    25526840.596 4                      2098.991 4        26.922                                                                    25526831.467 5                      1705.627 5        30.340
C42        41.000                                                                                                                                    22711219.078 5 118263261.39205      -556.862 5        30.347                                                                    22711229.421 6  96098706.75306      -452.372 6        39.604
R02        43.000    19669891.987 6 104962279.07806       350.802 6        38.105                                                                    19669889.366 6  81637345.55706       272.734 6        37.463
C40        44.000                                                                                                                                    38919961.706 5 202666493.08605      -888.350 5        32.114                                                                    38919971.166 5 164683117.46405      -722.067 5        33.491
C33        46.000                                                                                                                                    25963667.668 6 135199750.39506      2068.299 6        37.958                                                                    25963678.894 4 109860797.05004      1680.746 4        29.943
C21        47.000                                                                                                                                    23528437.995 7 122518655.35307     -3481.964 7        47.476                                                                    23528437.939 7  99556420.52007     -2829.395 7        43.594
C14        48.000                                                                                                                                    23914203.937 6 124527556.76806      1012.196 6        36.537    23914212.569 8  96292592.10908       782.626 8        49.567    23914209.327 7 101188827.45707       822.422 7        46.525
C45        49.000                                                                                                                                    22588763.944 7 117625524.16107     -2592.309 7        45.925                                                                    22588760.963 7  95580361.76307     -2106.467 7        43.718
I02        58.000    37313878.912 6 146427673.50206      -266.089 6        38.544
> 2025 01 01 09 30  5.0000000  0 32
G13         2.000    20160699.093 7 105945189.26007     -1961.530 7        42.963                                    20160703.115 2  82554710.14302     -1528.446 2        16.604
G30         3.000    23396878.579 5 122951328.10605     -3611.325 5        35.519                                    23396886.825 1  95806285.80301     -2813.831 1         5.000
G14         4.000    21143669.031 7 111110728.56607     -2551.582 7        43.991                                    21143668.917 4  86579760.97604     -1988.249 4        27.976    21143671.445 7  86579765.94507     -1988.074 7        42.023
G17         5.000    22813244.245 5                      1205.358 5        34.033                                                                                                    22813251.836 4  93416484.12504       939.765 4        28.190
G15         6.000    20359646.918 7 106990690.34307       -56.333 7        43.077                                    20359646.268 7  83369682.39507       -43.893 7        42.083    20359647.494 7  83369343.39407       -43.742 7        42.591
G05         7.000    24105319.058 5 126674830.12605     -4380.225 5        35.352                                    24105327.145 2  98707319.85702     -3413.148 2        12.909    24105318.010 4                     -3413.331 4        26.491
G23        10.000    23451654.849 7 123239316.55307       567.913 7        42.798                                    23451659.668 2  96030646.24702       442.531 2        17.698    23451656.642 5  96030599.20405       442.459 5        33.814
E02        13.000    24029599.115 7 126276420.77307       933.185 7        42.851                                                                    24029603.411 8  94297419.20508       696.836 8        49.343    24029600.545 7  96757356.96407       715.036 7        46.587
E25        14.000    24008828.267 6 126167218.59206     -1923.916 6        39.508                                                                    24008833.759 8  94215899.98008     -1436.703 8        49.088    24008833.041 8  96673627.66808     -1474.104 8        49.040
E24        15.000                                                                                                                                    28164872.585 4                     -2745.837 4        24.195
G24        16.000    22793402.058 6 119779849.89106      2251.227 6        40.799                                    22793425.077 4  93335153.91304      1754.205 4        24.331    22793412.578 5                      1754.159 5        31.072
E08        17.000    23932355.222 7 125765378.58507       293.237 7        43.640                                                                    23932359.109 7  93915720.65707       218.923 7        43.680    23932357.919 6  96365733.47706       224.734 6        38.934
E07        18.000    27673147.030 3                      1958.851 3        22.210                                                                    27673160.751 5 108595375.75405      1462.084 5        32.383    27673160.744 5 111428369.65505      1500.514 5        34.938
E26        20.000    28908050.135 4 151912716.80104     -2497.434 4        28.853                                                                    28908029.520 4 113441326.93704     -1865.380 4        27.018    28908073.828 4                     -1914.294 4        27.042
S23        24.000    38249477.449 6 201002313.63206      -821.782 6        36.578
E03        27.000    24099341.598 7 126642862.82207     -2428.819 7        46.194                                                                    24099346.516 8  94570916.94008     -1813.701 8        48.907    24099345.658 8  97038005.50508     -1860.966 8        50.589
R11        28.000    20566495.174 8 109901131.62808     -3558.876 8        48.509                                                                    20566499.801 7  85478599.83307     -2768.048 7        44.399
R12        31.000    19679243.180 8 105123090.68608       499.170 8        49.873                                                                    19679246.336 7  81762591.48207       388.249 7        47.792
C10        32.000                                                                                                                                    38698660.215 6 201514075.24606      -422.669 6        40.877    38698663.886 6 155823483.18006      -326.833 6        41.113    38698660.077 6 163746695.83706      -343.263 6        41.595
R03        33.000    23143195.812 7 123887323.95107      3275.457 7        44.847                                                                    23143205.996 5  96356815.78505      2547.405 5        33.868
C05        36.000                                                                                                                                                                                                    39499370.126 5 159047660.85805      -670.665 5        31.389
C26        37.000                                                                                                                                    22196949.217 8 115585336.24908       439.240 8        52.154                                                                    22196950.830 7  93922660.49607       356.950 7        43.225
R01        38.000    20346839.171 7 108765498.38607     -3876.345 7        42.633
C24        39.000                                                                                                                                    25524830.253 4                      2098.199 4        28.322                                                                    25524816.402 5                      1704.930 5        31.230
C42        41.000                                                                                                                                    22711754.533 5 118266052.03405      -559.628 5        32.964                                                                    22711765.411 6  96100974.35806      -454.587 6        40.119
R02        43.000    19669565.428 5 104960536.07205       346.826 5        34.176                                                                    19669560.861 6  81635989.95106       269.440 6        37.353
C40        44.000                                                                                                                                    38920819.658 5 202670939.61305      -889.840 5        32.874                                                                    38920824.910 5 164686730.59505      -722.786 5        33.988
C33        46.000                                                                                                                                    25961683.195 6 135189412.49406      2067.024 6        37.720                                                                    25961694.496 5 109852396.64905      1679.178 5        30.566
C21        47.000                                                                                                                                    23531781.410 7 122536070.06307     -3483.936 7        47.182                                                                    23531782.104 7  99570571.37907     -2830.868 7        43.048
C14        48.000                                                                                                                                    23913233.287 6 124522502.00206      1009.737 6        36.813    23913241.487 8  96288683.44508       780.799 8        49.290    23913238.643 7 101184720.04407       820.594 7        46.316
C45        49.000                                                                                                                                    22591254.018 7 117638489.20707     -2593.751 7        45.330                                                                    22591251.047 7  95590896.89807     -2107.532 7        44.190
I02        58.000    37314218.263 6 146429005.02706      -266.397 6        39.018
> 2025 01 01 09 30 10.0000000  0 32
G13         2.000    20162567.094 7 105955004.29007     -1964.150 7        42.802                                    20162570.098 2  82562358.13602     -1530.459 2        12.424
G30         3.000    23400316.913 5 122969387.04905     -3611.789 5        34.962                                    23400323.410 1  95820357.61501     -2814.276 1         3.200
G14         4.000    21146097.601 7 111123492.37607     -2553.729 7        43.391                                    21146097.898 4  86589706.79204     -1989.914 4        28.227    21146100.127 7  86589711.77307     -1989.964 7        42.694
G17         5.000    22812103.451 6 119878380.29716      1203.743 6        37.043                                    22812110.763 3  93411779.21413       937.964 3        23.467    22812105.424 4  93411791.20204       937.537 4        26.455
G15         6.000    20359703.686 7 106990980.90907       -59.690 7        44.399                                    20359701.430 6  83369908.81406       -46.512 6        41.635    20359702.676 7  83369569.81807       -46.543 7        42.514
G05         7.000    24109486.620 5 126696733.17905     -4380.529 5        35.433                                    24109494.134 2  98724387.09102     -3413.407 2        15.238    24109488.826 4                     -3413.706 4        27.737
G23        10.000    23451116.897 7 123236485.25407       564.819 7        42.190                                    23451121.473 2  96028440.03802       440.146 2        16.264    23451120.029 5  96028393.01705       439.999 5        34.038
E02        13.000    24028712.293 7 126271759.69907       931.609 7        43.973                                                                    24028716.315 8  94293938.53508       695.613 8        49.177    24028713.612 7  96753785.49607       713.805 7        46.402
E25        14.000    24010659.985 6 126176843.03506     -1925.662 6        39.183                                                                    24010665.246 8  94223087.07308     -1437.954 8        48.702    24010664.561 8  96681002.26108     -1475.453 8        48.906
E24        15.000                                                                                                                                    28168373.378 4                     -2747.248 4        24.737    28168377.883 3                     -2820.572 3        20.405
G24        16.000    22791259.504 6 119768596.71106      2250.227 6        38.886                                    22791282.436 3  93326385.16103      1753.435 3        23.352    22791267.076 5                      1753.392 5        32.731
E08        17.000    23932077.252 7 125763916.89107       291.774 7        43.477                                                                    23932080.906 7  93914629.13207       217.890 7        43.391    23932079.862 6  96364613.48806       223.603 6        39.222
E07        18.000    27671286.204 4                      1958.976 4        24.662                                                                    27671297.541 5 108588064.04305      1462.159 5        31.706    27671297.696 5 111420867.22705      1500.486 5        35.476
E26        20.000    28910426.071 4 151925210.45004     -2499.103 4        27.401                                                                    28910406.618 4 113450656.57604     -1865.961 4        25.609    28910451.207 4                     -1915.060 4        26.802
S23        24.000    38250260.734 6 201006423.26906      -821.618 6        36.790
E03        27.000    24101653.569 7 126655011.44807     -2430.410 7        46.922                                                                    24101658.557 8  94579988.95108     -1814.891 8        49.019    24101657.500 8  97047314.18208     -1862.234 8        50.696
R11        28.000    20569826.050 8 109918931.08008     -3560.502 8        49.217                                                                    20569830.365 7  85492443.82007     -2769.239 7        44.399
R12        31.000    19678777.120 8 105120602.87908       496.271 8        49.119                                                                    19678780.340 7  81760656.53207       386.035 7        47.443
C10        32.000                                                                                                                                    38699066.206 6 201516190.46406      -423.264 6        40.601    38699070.074 6 155825118.79806      -327.249 6        41.545    38699066.200 6 163748414.64906      -343.799 6        41.657
R03        33.000    23140137.086 7 123870950.14707      3274.329 7        43.765                                                                    23140148.996 5  96344080.56105      2546.867 5        30.958
C05        36.000                                                                                                                                                                                                    39500202.894 5 159051013.49105      -669.839 5        31.706
C26        37.000                                                                                                                                    22196527.999 8 115583144.82008       437.634 8        52.161                                                                    22196530.094 7  93920879.79807       355.694 7        43.649
R01        38.000    20350467.163 7 108784888.80807     -3879.558 7        43.050
C24        39.000                                                                                                                                    25522817.692 4                      2097.565 4        29.175                                                                    25522802.379 5                      1704.553 5        32.060
C42        41.000                                                                                                                                    22712294.789 5 118268857.48905      -562.252 5        35.795                                                                    22712304.195 6  96103254.05506      -456.832 6        40.377
R02        43.000    19669238.825 5 104958814.24305       342.553 5        34.443                                                                    19669240.540 6  81634650.77806       266.476 6        38.769
C40        44.000                                                                                                                                                                                                                                                                    38921679.718 5 164690348.04605      -723.822 5        34.548
C33        46.000                                                                                                                                    25959698.318 6 135179081.87606      2065.584 6        37.221                                                                    25959711.423 5 109844002.14405      1678.615 5        31.457
C21        47.000                                                                                                                                    23535127.457 7 122553494.55907     -3485.616 7        47.455                                                                    23535128.401 7  99584730.21707     -2832.303 7        42.701
C14        48.000                                                                                                                                    23912267.068 6 124517459.40606      1007.540 6        38.547    23912272.824 8  96284784.19808       779.113 8        48.879    23912270.236 7 101180622.54207       818.805 7        46.287
C45        49.000                                                                                                                                    22593746.027 7 117651461.25807     -2594.839 7        45.392                                                                    22593742.390 7  95601437.76207     -2108.536 7        44.865
I02        58.000    37314558.356 6 146430338.14206      -266.556 6        38.904
> 2025 01 01 09 30 15.0000000  0 32
G13         2.000    20164438.201 7 105964832.65607     -1967.105 7        42.116                                    20164439.911 1  82570016.53401     -1532.715 1        10.518
G30         3.000    23403758.468 5 122987449.17905     -3612.595 5        34.157                                    23403761.690 1  95834431.97201     -2814.812 1         2.600    23403782.344 4                     -2815.160 4        25.188
G14         4.000    21148529.245 7 111136267.57607     -2556.357 7        43.505                                    21148529.195 4  86599661.47904     -1991.969 4        28.654    21148531.330 7  86599666.46607     -1991.882 7        43.136
G17         5.000    22810960.777 6 119872368.58406      1201.168 6        38.333                                    22810963.810 4  93407094.82804       935.963 4        24.857    22810961.864 4  93407106.83304       935.676 4        28.559
G15         6.000    20359762.758 7 106991287.69607       -63.106 7        45.521                                    20359759.678 6  83370147.88206       -49.175 6        41.349    20359760.803 7  83369808.88107       -49.121 7        42.099
G05         7.000    24113656.685 5 126718638.80105     -4381.547 5        35.410                                    24113661.221 2  98741456.38002     -3414.190 2        17.358    24113656.168 4                     -3414.162 4        29.033
G23        10.000    23450581.502 7 123233669.12407       561.533 7        42.123                                    23450586.027 2  96026245.63902       437.574 2        15.048    23450581.921 5  96026198.59205       437.983 5        33.635
E02        13.000    24027827.046 7 126267107.00607       929.604 7        45.062                                                                    24027830.830 8  94290464.10408       694.257 8        49.022    24027828.379 7  96750220.43707       712.302 7        46.342
E25        14.000    24012492.776 6 126186476.16706     -1927.633 6        39.700                                                                    24012498.374 8  94230280.64208     -1439.456 8        48.376    24012497.713 8  96688383.48408     -1476.954 8        48.770
E24        15.000                                                                                                                                    28171876.555 3                     -2745.981 3        23.829    28171874.562 3                     -2818.520 3        20.071
G24        16.000    22789119.253 6 119757348.13706      2249.111 6        36.495                                    22789140.363 3  93317619.97003      1752.583 3        21.762    22789126.555 5  93317661.94415      1752.747 5        34.257
E08        17.000    23931800.575 7 125762462.69907       289.958 7        43.615                                                                    23931804.157 7  93913543.20807       216.606 7        43.183    23931803.172 6  96363499.25206       222.185 6        39.556
E07        18.000    27669430.168 4                      1958.390 4        27.353                                                                    27669434.792 5 108580752.82405      1461.732 5        31.532    27669434.692 5 111413365.29505      1500.267 5        35.743
E26        20.000    28912803.090 4 151937712.47404     -2500.908 4        26.491                                                                                                                                    28912829.587 4                     -1916.452 4        26.551
S23        24.000    38251041.654 6 201010532.46106      -821.860 6        36.688
E03        27.000    24103966.574 7 126667167.71507     -2432.111 7        47.234                                                                    24103971.984 8  94589066.66908     -1816.187 8        49.287    24103970.806 8  97056628.71208     -1863.544 8        50.741
R11        28.000    20573159.044 8 109936738.71108     -3562.451 8        49.958                                                                    20573162.364 7  85506294.15307     -2770.791 7        44.888
R12        31.000    19678313.900 8 105118129.27908       493.171 8        49.186                                                                    19678317.171 7  81758732.63007       383.573 7        47.050
C10        32.000                                                                                                                                    38699472.846 6 201518308.69106      -424.132 6        40.348    38699476.727 7 155826756.78007      -327.975 7        42.172    38699473.042 6 163750135.89806      -344.532 6        41.538
R03        33.000    23137079.978 7 123854581.66207      3272.997 7        42.516                                                                    23137092.396 5  96331349.56505      2545.687 5        30.279
C05        36.000                                                                                                                                                                                                    39501035.027 5 159054365.70305      -670.709 5        31.449
C26        37.000                                                                                                                                    22196108.312 8 115580961.31908       435.793 8        52.015                                                                    22196110.821 7  93919105.52007       354.117 7        43.831
R01        38.000    20354097.756 7 108804294.88507     -3882.910 7        42.629                                                                    20354085.753 3                     -3019.955 3        23.867
C24        39.000                                                                                                                                    25520798.504 4                      2097.178 4        28.464                                                                    25520788.132 5                      1704.192 5        32.036
C42        41.000                                                                                                                                    22712837.556 5 118271676.71305      -565.248 5        35.738                                                                    22712845.803 6  96105544.89806      -459.290 6        40.927
R02        43.000    19668921.653 5 104957112.63805       338.356 5        32.365                                                                    19668920.968 6  81633327.36106       263.008 6        38.417
C40        44.000                                                                                                                                    38922549.666 5 202679847.18705      -891.663 5        34.171                                                                    38922535.416 5 164693968.78005      -724.676 5        34.814
C33        46.000                                                                                                                                    25957716.327 6 135168757.44406      2064.210 6        36.892                                                                    25957730.288 5 109835612.65605      1677.346 5        32.593
C21        47.000                                                                                                                                    23538475.746 7 122570927.72307     -3487.672 7        47.595                                                                    23538476.188 7  99598896.07607     -2833.994 7        42.506
C14        48.000                                                                                                                                    23911302.691 6 124512427.85206      1005.135 6        40.508    23911306.413 8  96280893.47508       777.248 8        48.439    23911304.048 7 101176533.98507       816.752 7        46.293
C45        49.000                                                                                                                                    22596239.174 7 117664439.21607     -2596.260 7        45.538                                                                    22596234.902 7  95611983.39307     -2109.696 7        45.508
I02        58.000    37314898.612 6 146431672.16306      -267.032 6        39.234
> 2025 01 01 09 30 20.0000000  0 33
G13         2.000    20166311.854 7 105974674.96407     -1969.890 7        42.260                                    20166312.538 1  82577685.77101     -1534.971 1        11.259
G30         3.000    23407200.124 5 123005515.20705     -3613.901 5        32.719                                    23407200.654 1  95848509.10001     -2815.954 1         6.375    23407219.842 4                     -2815.644 4        26.611
G14         4.000    21150962.474 7 111149054.75407     -2558.672 7        44.096                                    21150962.836 4  86609625.50004     -1993.769 4        29.261    21150964.774 7  86609630.49807     -1993.801 7        43.666
G17         5.000    22809820.040 6 119866368.43006      1198.743 6        38.571                                    22809820.143 4  93402419.44204       934.074 4        27.210    22809820.532 5  93402431.41705       934.358 5        31.525
G15         6.000    20359823.373 7 106991611.36007       -66.403 7        46.539                                    20359821.145 6  83370400.09106       -51.745 6        41.263    20359822.215 6  83370061.09606       -51.891 6        41.800
G05         7.000    24117825.135 5 126740547.58905     -4382.095 5        35.976                                    24117828.670 3  98758528.11803     -3414.604 3        18.866    24117827.418 5                     -3414.603 5        30.181
G23        10.000    23450047.849 6 123230868.81206       558.473 6        41.819                                    23450053.497 2  96024063.57602       435.162 2        13.515    23450046.366 5  96024016.53905       434.854 5        31.434
E02        13.000    24026943.131 7 126262463.29107       927.743 7        46.285                                                                    24026947.053 8  94286996.40108       692.830 8        49.113    24026944.677 7  96746662.27307       710.911 7        46.359
E25        14.000    24014326.911 6 126196118.57606     -1929.474 6        40.303                                                                    24014333.232 8  94237481.13408     -1440.815 8        48.204    24014332.506 8  96695771.81408     -1478.439 8        48.689
E24        15.000                                                                                                                                    28175381.372 4                     -2747.357 4        24.602    28175373.642 3                     -2819.177 3        20.024
G24        16.000    22786979.411 5 119746104.78505      2248.058 5        31.004                                    22786998.997 3  93308858.85603      1751.759 3        20.167    22786985.990 6  93308900.78106      1751.788 6        36.034
E08        17.000    23931525.299 7 125761016.64207       288.330 7        43.524                                                                    23931528.866 7  93912463.36607       215.286 7        43.306    23931527.980 6  96362391.23306       220.929 6        40.026
E07        18.000    27667572.388 5                      1958.182 5        30.377                                                                    27667572.178 5 108573442.56505      1461.358 5        31.653    27667571.846 6 111405864.32506      1499.991 6        36.098
E26        20.000    28915181.116 4 151950223.58104     -2503.358 4        25.910                                                                    28915165.743 4 113469335.18904     -1869.915 4        24.301    28915210.475 4                     -1917.925 4        25.218
S23        24.000    38251823.593 6 201014641.78106      -821.879 6        36.541
R13        25.000    22844539.793 4                      2727.779 4        25.143
E03        27.000    24106281.238 7 126679332.25207     -2433.828 7        47.304                                                                    24106286.880 8  94598150.55208     -1817.485 8        49.745    24106285.635 8  97065949.56908     -1864.851 8        50.699
R11        28.000    20576493.163 8 109954555.04408     -3564.247 8        49.910                                                                    20576496.733 7  85520151.27607     -2772.133 7        45.327
R12        31.000    19677853.993 8 105115670.53408       490.197 8        49.422                                                                    19677856.576 7  81756820.27807       381.250 7        46.687
C10        32.000                                                                                                                                    38699880.455 6 201520430.60706      -424.791 6        40.129    38699884.245 7 155828397.57007      -328.470 7        42.480    38699880.379 6 163751860.11206      -345.182 6        41.299
R03        33.000    23134023.436 6 123838219.31006      3271.839 6        40.694                                                                    23134039.660 4  96318623.27104      2544.492 4        27.162
C05        36.000                                                                                                                                                                                                    39501868.073 5 159057717.89805      -670.362 5        31.645
C26        37.000                                                                                                                                    22195690.542 8 115578786.38308       434.044 8        51.887                                                                    22195693.123 7  93917338.20107       352.742 7        44.102
R01        38.000    20357731.769 7 108823717.15507     -3886.158 7        43.585
C24        39.000                                                                                                                                    25518783.233 4                      2096.928 4        29.318                                                                    25518771.985 5                      1703.783 5        31.411
C42        41.000                                                                                                                                    22713381.916 5 118274510.30205      -568.042 5        34.043                                                                    22713389.966 6  96107847.41506      -461.719 6        41.051
R02        43.000    19668607.405 5 104955431.61205       334.328 5        30.770                                                                    19668605.028 6  81632019.94706       259.779 6        38.375
C40        44.000                                                                                                                                    38923414.384 5 202684307.75405      -892.643 5        33.994                                                                    38923392.635 5 164697593.33605      -725.064 5        35.219
C33        46.000                                                                                                                                    25955735.097 6 135158439.85306      2062.743 6        36.268                                                                    25955750.384 5 109827228.70305      1676.223 5        33.898
C21        47.000                                                                                                                                    23541825.795 7 122588370.16107     -3489.459 7        47.242                                                                    23541825.616 7  99613069.47007     -2835.422 7        42.068
C14        48.000                                                                                                                                    23910340.593 7 124507407.98807      1002.864 7        42.373    23910342.285 7  96277011.80807       775.407 7        47.688    23910340.149 7 101172454.93907       814.851 7        46.412
C45        49.000                                                                                                                                    22598733.152 7 117677423.68207     -2597.596 7        46.224                                                                    22598728.582 7  95622534.32207     -2110.727 7        46.090
I02        58.000    37315238.769 6 146433007.71506      -267.411 6        39.342
> 2025 01 01 09 30 25.0000000  0 33
G13         2.000    20168187.836 7 105984531.23407     -1972.659 7        42.555                                    20168187.413 2  82585365.96002     -1537.118 2        15.714
G30         3.000    23410640.554 5 123023584.97505     -3614.432 5        30.566                                    23410640.092 1  95862589.42501     -2816.516 1         4.714    23410657.648 4                     -2816.545 4        28.057
G14         4.000    21153397.805 7 111161853.93107     -2561.008 7        44.336                                    21153398.689 5  86619598.87705     -1995.588 5        30.166    21153400.479 7  86619603.87707     -1995.620 7        44.038
G17         5.000    22808679.396 6 119860379.83606      1196.460 6        38.529                                    22808679.745 4  93397753.06504       932.294 4        28.758    22808682.061 5  93397765.05405       932.433 5        33.323
G15         6.000    20359887.430 7 106991951.89907       -69.703 7        47.123                                    20359885.769 6  83370665.45606       -54.315 6        41.194    20359886.562 6  83370326.45606       -54.408 6        40.858
G05         7.000    24121993.753 5 126762459.53505     -4382.619 5        35.924                                    24121996.728 3  98775602.31503     -3415.008 3        20.238    24121995.731 5                     -3414.930 5        30.317
G23        10.000    23449518.283 6 123228084.32806       555.344 6        41.783                                    23449523.704 2  96021893.84302       432.723 2        12.667    23449514.977 4  96021846.76804       433.135 4        29.915
E02        13.000    24026061.125 7 126257828.57607       926.077 7        47.290                                                                    24026065.027 8  94283535.42608       691.552 8        49.085    24026062.703 7  96743111.01007       709.579 7        46.452
E25        14.000    24016163.518 6 126205770.30306     -1931.228 6        40.648                                                                    24016169.852 7  94244688.58207     -1442.224 7        47.872    24016169.129 8  96703167.27908     -1479.808 8        48.657
E24        15.000                                                                                                                                    28178885.685 4                     -2746.821 4        25.925    28178873.384 3                     -2820.861 3        19.731
G24        16.000    22784835.373 4 119734866.66404      2247.285 4        24.602                                    22784858.619 3  93300101.89403      1751.170 3        19.134    22784847.392 6  93300143.72206      1751.177 6        36.567
E08        17.000    23931251.657 7 125759578.73107       286.687 7        43.774                                                                    23931255.025 7  93911389.59707       214.156 7        43.259    23931254.344 6  96361289.46406       219.704 6        40.310
E07        18.000    27665709.107 5                      1957.661 5        32.311                                                                    27665709.470 5 108566133.21805      1461.968 5        31.509    27665709.378 6 111398364.32306      1499.921 6        36.439
E26        20.000    28917564.358 4 151962743.77804     -2504.876 4        26.216                                                                    28917545.770 3                     -1870.568 3        23.124    28917594.999 4                     -1919.068 4        24.917
S23        24.000    38252604.852 6 201018751.34306      -821.855 6        37.017
R13        25.000    22841985.307 4                      2726.545 4        27.174
E03        27.000    24108597.556 7 126691505.06107     -2435.395 7        47.338                                                                    24108603.332 8  94607240.61808     -1818.635 8        50.052    24108601.956 8  97075276.77308     -1866.119 8        50.787
R11        28.000    20579828.674 8 109972380.12508     -3565.872 8        50.189                                                                    20579832.505 7  85534015.20707     -2773.428 7        45.553
R12        31.000    19677397.138 8 105113226.58408       487.290 8        49.506                                                                    19677399.226 7  81754919.41807       379.033 7        46.416
C10        32.000                                                                                                                                    38700288.685 6 201522556.12906      -425.448 6        39.964    38700292.827 7 155830041.17807      -329.028 7        42.830    38700288.626 6 163753587.29106      -345.654 6        41.356
R03        33.000    23130969.105 6 123821862.88406      3270.772 6        38.991
C05        36.000                                                                                                                                                                                                    39502700.456 5 159061070.05705      -670.034 5        31.638
C26        37.000                                                                                                                                    22195274.705 8 115576620.00708       432.450 8        51.772                                                                    22195277.232 7  93915577.84107       351.503 7        44.507
R01        38.000    20361368.917 7                     -3889.325 7        44.566                                                                    20361367.276 4                     -3024.667 4        24.752
C24        39.000                                                                                                                                    25516768.826 4                      2095.542 4        26.802                                                                    25516756.870 5                      1703.161 5        30.558
C42        41.000                                                                                                                                    22713928.385 5 118277358.31605      -570.674 5        33.000                                                                    22713937.234 6  96110161.63706      -463.989 6        41.328
R02        43.000    19668298.236 5 104953771.55905       330.159 5        34.895                                                                    19668294.495 6  81630728.76406       256.563 6        39.673
C40        44.000                                                                                                                                    38924278.788 5 202688773.11705      -893.721 5        33.605                                                                    38924250.244 5 164701221.79505      -726.068 5        35.695
C33        46.000                                                                                                                                    25953753.964 5 135148129.09505      2061.680 5        35.824                                                                    25953771.708 5 109818850.34905      1675.191 5        35.510
C21        47.000                                                                                                                                    23545177.073 7 122605821.89707     -3491.263 7        46.485                                                                    23545176.761 6  99627250.41306     -2836.973 6        41.569
C14        48.000                                                                                                                                    23909379.688 7 124502399.81607      1000.494 7        44.004    23909380.590 7  96273139.17307       773.618 7        47.077    23909378.518 7 101168385.38007       812.970 7        46.569
C45        49.000                                                                                                                                    22601227.831 7 117690414.69007     -2598.848 7        46.548                                                                    22601223.512 7  95633090.56407     -2111.702 7        46.771
I02        58.000    37315579.915 6 146434344.46306      -267.540 6        39.381
> 2025 01 01 09 30 30.0000000  0 33
G13         2.000    20170066.323 7 105994401.35607     -1975.644 7        43.122                                    20170064.667 3  82593056.95203     -1539.464 3        19.254
G30         3.000    23414082.791 4 123041658.61804     -3615.624 4        28.701                                    23414079.928 1  95876672.78701     -2817.470 1         5.429    23414094.304 4                     -2816.732 4        28.218
G14         4.000    21155835.548 7 111174665.00307     -2563.588 7        44.536                                    21155836.909 5  86629581.52005     -1997.600 5        30.943    21155838.795 7  86629586.52307     -1997.624 7        44.656
G17         5.000    22807542.014 6 119854402.78106      1194.049 6        36.964                                    22807542.164 4  93393095.66504       930.409 4        29.896    22807546.220 5  93393107.69305       930.356 5        35.967
G15         6.000    20359955.194 7 106992309.22407       -73.362 7        47.556                                    20359953.572 6  83370943.90306       -57.168 6        41.149    20359954.394 6  83370604.89406       -57.110 6        40.558
G05         7.000    24126165.672 5 126784374.53805     -4383.535 5        35.433                                    24126165.939 3  98792678.90703     -3415.710 3        20.071    24126166.462 5                     -3415.668 5        30.875
G23        10.000    23448991.858 6 123225315.59406       551.826 6        41.933                                    23448996.777 1  96019736.32301       429.982 1        11.185    23448989.983 4  96019689.31004       430.085 4        28.796
E02        13.000    24025181.010 7 126253202.78507       924.064 7        47.695                                                                    24025184.826 8  94280081.10508       690.026 8        49.011    24025182.460 7  96739566.58107       708.013 7        46.442
E25        14.000    24018002.153 6 126215431.19706     -1933.229 6        40.465                                                                    24018008.156 7  94251902.88107     -1443.685 7        47.451    24018007.444 8  96710569.77408     -1481.365 8        48.532
E24        15.000                                                                                                                                    28182384.068 3                     -2746.915 3        23.638    28182372.809 3                     -2817.989 3        20.524
G24        16.000    22782703.013 5 119723633.50805      2245.615 5        31.336                                    22782719.583 2  93291348.70802      1749.866 2        17.887    22782709.036 6  93291390.65406      1750.066 6        36.620
E08        17.000    23930979.803 7 125758148.84507       285.032 7        43.572                                                                    23930982.916 7  93910321.84107       212.799 7        43.223    23930982.402 6  96360193.86206       218.333 6        40.894
E07        18.000    27663845.800 5 145374489.60015      1957.005 5        34.776                                                                    27663847.386 5 108558824.77505      1461.375 5        32.365    27663847.118 6 111390865.25206      1499.464 6        36.597
E26        20.000    28919947.623 4 151975272.85704     -2507.013 4        25.925                                                                    28919928.568 3                     -1870.495 3        20.952    28919982.962 4                     -1920.081 4        24.541
S23        24.000    38253386.103 6 201022860.89806      -822.064 6        36.688
R13        25.000    22839429.900 4                      2725.793 4        29.318
E03        27.000    24110915.650 7 126703686.03407     -2437.197 7        47.702                                                                    24110921.335 8  94616336.78308     -1820.001 8        50.200    24110919.895 8  97084610.23208     -1867.503 8        50.704
R11        28.000    20583166.869 8 109990213.84308     -3567.761 8        51.145                                                                    20583170.297 7  85547885.83507     -2774.968 7        45.982
R12        31.000    19676942.550 8 105110797.44808       484.146 8        49.353                                                                    19676944.856 7  81753030.11807       376.529 7        46.672
C10        32.000                                                                                                                                    38700697.402 6 201524685.25906      -426.244 6        39.700    38700702.070 7 155831687.56607      -329.734 7        43.291    38700697.499 6 163755317.35706      -346.244 6        41.211
R03        33.000    23127913.016 6 123805512.60016      3269.328 6        36.253
C05        36.000                                                                                                                                                                                                    39503532.495 5 159064422.17605      -670.457 5        31.555
C26        37.000                                                                                                                                    22194860.805 8 115574462.09508       430.546 8        51.927                                                                    22194862.946 7  93913824.33807       350.048 7        44.888
