     3.04           OBSERVATION DATA    M                   RINEX VERSION / TYPE
ssrcrin-15.6.1x                         20250101 234500 UTC PGM / RUN BY / DATE 
(00000000023479385599111004) Septentrio proprietary         COMMENT             
ract                                                        MARKER NAME         
01                                                          MARKER NUMBER       
geodetic                                                    MARKER TYPE         
NFB                 CLIMERS@TUW                             OBSERVER / AGENCY   
3296359             SEPT ASTERX SB3 PROB4.14.4              REC # / TYPE / VERS 
Unknown             Unknown                                 ANT # / TYPE        
  4127445.8423  1206915.5878  4695541.5630                  APPROX POSITION XYZ 
        0.0000        0.0000        0.0000                  ANTENNA: DELTA H/E/N
G   23 X1  C1C L1C D1C S1C C1W S1W C2W L2W D2W S2W C2L L2L  SYS / # / OBS TYPES 
       D2L S2L C5Q L5Q D5Q S5Q C1L L1L D1L S1L              SYS / # / OBS TYPES 
E   21 X1  C1C L1C D1C S1C C6C L6C D6C S6C C5Q L5Q D5Q S5Q  SYS / # / OBS TYPES 
       C7Q L7Q D7Q S7Q C8Q L8Q D8Q S8Q                      SYS / # / OBS TYPES 
S    9 X1  C1C L1C D1C S1C C5I L5I D5I S5I                  SYS / # / OBS TYPES 
R   17 X1  C1C L1C D1C S1C C2P L2P D2P S2P C2C L2C D2C S2C  SYS / # / OBS TYPES 
       C3Q L3Q D3Q S3Q                                      SYS / # / OBS TYPES 
C   25 X1  C1P L1P D1P S1P C5P L5P D5P S5P C2I L2I D2I S2I  SYS / # / OBS TYPES 
       C7I L7I D7I S7I C6I L6I D6I S6I C7D L7D D7D S7D      SYS / # / OBS TYPES 
J   17 X1  C1C L1C D1C S1C C2L L2L D2L S2L C5Q L5Q D5Q S5Q  SYS / # / OBS TYPES 
       C1L L1L D1L S1L                                      SYS / # / OBS TYPES 
I    5 X1  C5A L5A D5A S5A                                  SYS / # / OBS TYPES 
SEPTENTRIO RECEIVERS OUTPUT ALIGNED CARRIER PHASES.         COMMENT             
NO FURTHER PHASE SHIFT APPLIED IN THE RINEX ENCODER.        COMMENT             
G L1C                                                       SYS / PHASE SHIFT   
G L2W                                                       SYS / PHASE SHIFT   
G L2L  0.00000                                              SYS / PHASE SHIFT   
G L5Q  0.00000                                              SYS / PHASE SHIFT   
G L1L  0.00000                                              SYS / PHASE SHIFT   
E L1C  0.00000                                              SYS / PHASE SHIFT   
E L6C  0.00000                                              SYS / PHASE SHIFT   
E L5Q  0.00000                                              SYS / PHASE SHIFT   
E L7Q  0.00000                                              SYS / PHASE SHIFT   
E L8Q  0.00000                                              SYS / PHASE SHIFT   
S L1C                                                       SYS / PHASE SHIFT   
S L5I                                                       SYS / PHASE SHIFT   
R L1C                                                       SYS / PHASE SHIFT   
R L2P  0.00000                                              SYS / PHASE SHIFT   
R L2C                                                       SYS / PHASE SHIFT   
R L3Q  0.00000                                              SYS / PHASE SHIFT   
C L1P  0.00000                                              SYS / PHASE SHIFT   
C L5P  0.00000                                              SYS / PHASE SHIFT   
C L2I                                                       SYS / PHASE SHIFT   
C L7I                                                       SYS / PHASE SHIFT   
C L6I                                                       SYS / PHASE SHIFT   
C L7D                                                       SYS / PHASE SHIFT   
J L1C                                                       SYS / PHASE SHIFT   
J L2L  0.00000                                              SYS / PHASE SHIFT   
J L5Q  0.00000                                              SYS / PHASE SHIFT   
J L1L  0.00000                                              SYS / PHASE SHIFT   
I L5A                                                       SYS / PHASE SHIFT   
  2025     1     1    23    45    0.0000000     GPS         TIME OF FIRST OBS   
 C1C    0.000 C2C    0.000 C2P    0.000                     GLONASS COD/PHS/BIS 
DBHZ                                                        SIGNAL STRENGTH UNIT
    18                                                      LEAP SECONDS        
 24 R01  1 R02 -4 R03  5 R04  6 R05  1 R06 -4 R07  5 R08  6 GLONASS SLOT / FRQ #
    R09 -2 R10 -7 R11  0 R12 -1 R13 -2 R14 -7 R15  0 R16 -1 GLONASS SLOT / FRQ #
    R17  4 R18 -3 R19  3 R20  2 R21  4 R22 -3 R23  3 R24  2 GLONASS SLOT / FRQ #
                                                            END OF HEADER       
> 2025 01 01 23 45  0.0000000  0 35
G03         1.000    21348119.950 7 112185280.20907      1543.903 7        44.710                                    21348112.168 5  87416944.67305      1203.033 5        32.509    21348113.856 5  87417079.69405      1202.809 5        34.467
G32         3.000    22425194.809 6 117845387.35106     -2743.245 6        41.018                                    22425189.578 5  91827533.88105     -2137.599 5        32.862    22425193.072 6  91827408.91106     -2137.473 6        37.104
G14         4.000    24404256.468 6 128245353.94506     -2588.658 6        36.306                                                                                                    24404266.234 4                     -2016.899 4        29.081
E07         5.000    24497550.920 7 128735545.34807     -1451.152 7        43.247                                                                    24497549.996 7  96133789.09807     -1083.631 7        46.949    24497550.507 7  98641487.11107     -1111.926 7        47.689
G08         6.000    23112970.237 6 121459444.82506     -4358.033 6        38.069                                    23112958.811 3  94643968.11903     -3395.876 3        19.373    23113000.305 4  94643811.39804     -3396.302 4        27.150
G21         8.000    20857094.895 6 109604766.81206     -1852.233 6        40.625                                    20857090.176 5  85406286.85805     -1443.296 5        30.475
G02         9.000    20728988.932 8 108931796.21908      -350.634 8        49.511                                    20728981.147 5  84881751.67105      -273.218 5        35.967
G17        11.000    23541578.391 7 123711808.65007      1743.089 7        47.025                                    23541570.264 6  96398881.50906      1358.246 6        38.369    23541572.960 6  96398799.48406      1358.402 6        40.396
E12        13.000    27683465.649 4                      1699.541 4        28.095                                                                    27683469.644 5 108635855.75805      1269.105 5        34.043    27683465.547 5 111469835.30805      1302.606 5        35.038
E29        14.000    24689025.562 7 129741687.65207      1421.164 7        42.916                                                                    24689018.216 6  96885030.83006      1061.435 6        37.611    24689022.085 7  99412535.86607      1089.040 7        43.287
E24        15.000    27812232.994 5 146154245.99605     -1414.687 5        34.776                                                                    27812229.644 6 109141156.98306     -1056.437 6        37.913    27812227.186 6 111988353.30606     -1083.856 6        38.300
E31        17.000    27577210.142 4                     -3280.603 4        25.714
E26        19.000    24159399.579 7 126958465.65607     -2248.102 7        45.716                                                                    24159396.877 7  94806655.36407     -1678.737 7        42.298    24159397.029 6  97279890.32206     -1722.569 6        40.472
R06        21.000    19839252.699 5 105866054.46505      1401.658 5        35.557
E08        22.000    27990791.239 3                     -3559.825 3        22.743
S36        23.000    38202238.231 5 200754138.70805      -854.231 5        31.155
S23        24.000    38154607.594 6 200503760.44106      -851.694 6        39.285
R12        25.000    24385393.917 6 130262396.26106     -3628.503 6        40.350                                                                    24385385.214 4                     -2822.398 4        28.607
R20        26.000    20606987.986 4 110194857.83604     -3588.575 4        24.917                                                                    20607007.838 5  85707080.77205     -2791.031 5        31.849
R05        27.000    20283945.949 8 108429294.39808     -3584.379 8        49.313                                                                    20283943.615 7  84333899.57707     -2787.848 7        44.656
E33        28.000    23528760.806 7 123644460.83407       113.520 7        45.199                                                                    23528758.468 7  92331949.24907        84.751 7        46.960    23528758.783 8  94740563.28708        86.973 8        50.433
R21        30.000    19313351.338 8 103349889.74308       271.488 8        49.044                                                                    19313349.081 7  80383080.48607       211.047 7        43.340
R07        34.000                                                                                                                                    23388942.966 5  97380072.04505      2630.997 5        32.329
R22        35.000    22745032.291 5 121414522.87805      3010.722 5        31.970                                                                    22745036.356 6  94433607.21806      2341.662 6        36.790
C32        36.000                                                                                                                                    22860609.100 6 119041157.63306      1289.332 6        40.019                                                                    22860608.061 7  96730725.17507      1047.543 7        43.177
C33        37.000                                                                                                                                    25608231.934 5                     -3929.684 5        32.719                                                                    25608237.512 4                     -3192.359 4        27.329
C30        38.000                                                                                                                                    22279378.840 8 116014568.62008       502.487 8        48.424                                                                    22279377.635 6  94271355.67206       408.035 6        38.889
C28        40.000                                                                                                                                    25026914.962 5 130321649.47105     -4093.212 5        34.986                                                                    25026888.129 3                     -3326.058 3        22.571
C39        42.000                                                                                                                                    39321135.514 4                       102.658 4        28.825                                                                    39321138.793 4                        83.658 4        27.856
C16        45.000                                                                                                                                                                                                    39666107.722 4                       366.942 4        28.474
C41        49.000                                                                                                                                    22191075.743 8 115554827.03908     -1943.615 8        53.776                                                                    22191078.703 8  93897756.17208     -1579.543 8        50.441
C06        50.000                                                                                                                                                                                                    39375000.835 4                       454.260 4        26.994
C27        52.000                                                                                                                                    21944232.685 6 114269339.96706     -2499.209 6        37.403                                                                    21944227.745 7  92853211.94907     -2031.030 7        45.109
C29        54.000                                                                                                                                    26364621.274 5 137287494.73305      2379.458 5        31.328                                                                    26364621.157 6 111557366.52106      1933.244 6        38.096
I09        60.000    37144774.553 6 145764071.69506      -532.386 6        40.739
> 2025 01 01 23 45  5.0000000  0 36
G03         1.000    21346652.628 7 112177565.97307      1541.873 7        46.588                                    21346643.504 5  87410933.60005      1201.463 5        33.365    21346647.171 5  87411068.57005      1201.233 5        34.138
G32         3.000    22427807.345 7 117859110.79907     -2746.078 7        43.221                                    22427802.186 5  91838227.49005     -2139.802 5        34.348    22427804.595 6  91838102.52906     -2139.832 6        39.517
G14         4.000    24406723.671 6 128258303.26106     -2591.169 6        36.412                                                                                                    24406736.059 4                     -2019.190 4        27.689
E07         5.000    24498933.537 7 128742807.90407     -1453.813 7        43.640                                                                    24498931.746 7  96139212.44307     -1085.691 7        46.742    24498932.272 7  98647051.92807     -1113.939 7        47.711
G08         6.000    23117117.417 6 121481239.67806     -4359.526 6        40.713                                    23117105.115 3  94660951.15103     -3397.018 3        19.821    23117144.323 4  94660794.38004     -3396.683 4        27.425
G21         8.000    20858859.102 6 109614033.39706     -1854.286 6        41.697                                    20858853.784 5  85413507.59405     -1444.887 5        30.543
G02         9.000    20729323.913 8 108933555.30908      -353.014 8        50.577                                    20729315.446 5  84883122.39505      -275.076 5        35.905
G17        11.000    23539921.249 7 123703098.95307      1740.874 7        46.324                                    23539913.479 6  96392094.74306      1356.515 6        38.661    23539915.238 6  96392012.71906      1356.475 6        39.378
E12        13.000    27681849.435 4                      1698.727 4        26.695                                                                    27681857.205 5 108629510.25305      1268.905 5        34.771    27681848.623 5 111463324.29805      1302.019 5        35.329
E29        14.000    24687674.028 7 129734586.58307      1419.157 7        44.044                                                                    24687668.919 6  96879728.05506      1059.765 6        38.904    24687670.761 7  99407094.75907      1087.468 7        43.022
E24        15.000    27813580.211 5 146161325.71005     -1417.140 5        32.305                                                                    27813576.410 5 109146443.81105     -1058.478 5        35.848    27813574.328 6 111993778.03006     -1085.910 6        38.261
E31        17.000    27580334.215 5                     -3281.233 5        30.008
E26        19.000    24161538.977 7 126969710.18207     -2249.706 7        45.871                                                                    24161536.744 7  94815052.27807     -1679.983 7        42.669    24161536.101 6  97288506.26306     -1723.850 6        40.477
R06        21.000    19837940.321 5 105859055.64905      1397.712 5        35.571
E08        22.000    27994183.778 4                     -3560.883 4        26.108
S36        23.000    38203063.447 5 200758410.30805      -854.741 5        32.419
S23        24.000    38155412.173 6 200508020.06206      -852.164 6        38.363
R12        25.000    24388788.409 6 130280545.88206     -3631.514 6        36.711                                                                    24388785.405 4                     -2823.979 4        28.237
R20        26.000                                                                                                                                    20610369.309 5  85721042.17005     -2793.644 5        30.196
R05        27.000    20287300.532 8 108447224.52308     -3587.638 8        49.426                                                                    20287298.479 7  84347845.24807     -2790.320 7        44.718
E33        28.000    23528653.376 7 123643897.46007       111.885 7        45.728                                                                    23528651.192 7  92331528.54407        83.648 7        46.903    23528651.554 8  94740131.60808        85.773 8        50.413
R21        30.000    19313098.912 8 103348541.43408       267.823 8        48.900                                                                    19313097.307 7  80382031.79007       208.398 7        43.708
R13        31.000    23794315.692 5                     -1411.192 5        32.509
R07        34.000    23385764.294 5                      3381.525 5        32.347                                                                    23385786.418 5  97366919.71505      2629.759 5        32.467
R22        35.000    22742213.042 6 121399471.64406      3009.736 6        38.513                                                                    22742218.706 6  94421900.73806      2340.950 6        37.849
C32        36.000                                                                                                                                    22859371.032 6 119034716.67606      1286.986 6        37.868                                                                    22859371.243 6  96725491.35206      1045.933 6        41.988
C33        37.000                                                                                                                                    25611994.930 4                     -3930.593 4        28.910                                                                    25612014.244 4                     -3193.488 4        28.047
C30        38.000                                                                                                                                    22278898.424 8 116012062.89008       499.980 8        48.165                                                                    22278897.253 6  94269319.53406       406.284 6        38.288
C28        40.000                                                                                                                                    25030845.095 5 130342118.08605     -4094.347 5        34.652                                                                    25030817.603 3                     -3322.155 3        21.429
C39        42.000                                                                                                                                    39321038.618 4                       101.528 4        28.559                                                                    39321041.544 5                        82.281 5        30.128
C16        45.000                                                                                                                                    39665638.212 4 206549413.28514       473.337 4        27.461    39665656.700 4                       366.327 4        28.749
C41        49.000                                                                                                                                    22192943.419 8 115564551.54008     -1946.130 8        52.875                                                                    22192946.189 8  93905658.10508     -1581.350 8        50.287
C06        50.000                                                                                                                                    39374445.968 4                       586.918 4        27.904    39374438.207 4                       453.895 4        26.180
C27        52.000                                                                                                                                    21946636.250 6 114281843.14306     -2501.882 6        36.597                                                                    21946628.636 7  92863371.78207     -2032.948 7        44.793
C29        54.000                                                                                                                                    26362336.982 5 137275599.58205      2378.568 5        32.527                                                                    26362335.805 6 111547700.73406      1932.852 6        38.114
I09        60.000    37145452.883 6 145766734.89706      -532.859 6        41.156
> 2025 01 01 23 45 10.0000000  0 35
G03         1.000    21345186.056 7 112169860.28607      1540.461 7        45.846                                    21345176.691 5  87404929.17505      1200.359 5        33.210    21345181.213 5  87405064.13805      1200.549 5        32.431
G32         3.000    22430422.330 7 117872846.83607     -2748.253 7        43.913                                    22430416.976 5  91848930.89905     -2141.492 5        35.762    22430419.087 6  91848805.92606     -2141.581 6        39.931
G14         4.000    24409194.821 4 128271263.21204     -2592.172 4        28.701                                                                                                    24409210.114 5  99951641.85115     -2020.423 5        30.921
E07         5.000    24500317.742 7 128750081.99407     -1455.781 7        42.347                                                                    24500316.193 7  96144644.38407     -1087.172 7        46.233    24500316.797 7  98652625.56807     -1115.455 7        46.776
G08         6.000    23121266.204 6 121503039.25806     -4360.130 6        41.194                                    23121253.094 3  94677937.85003     -3397.509 3        20.071
G21         8.000    20860623.850 7 109623309.01507     -1855.866 7        43.549                                    20860618.939 5  85420735.35805     -1446.137 5        31.072
G02         9.000    20729661.056 8 108935324.03408      -354.531 8        50.953                                    20729651.568 6  84884500.61906      -276.261 6        36.344
G17        11.000    23538265.533 7 123694398.25007      1739.406 7        46.016                                    23538258.388 6  96385314.98006      1355.390 6        38.739    23538258.660 6  96385232.93606      1355.526 6        37.588
E12        13.000    27680232.232 4                      1699.381 4        26.970                                                                    27680239.789 5 108623164.82705      1269.122 5        33.790    27680230.404 5 111456813.35805      1302.557 5        34.990
E29        14.000    24686325.190 7 129727493.61407      1417.918 7        45.717                                                                    24686320.007 6  96874431.35506      1058.836 6        40.741    24686321.244 7  99401659.88007      1086.512 7        44.044
E24        15.000    27814930.322 5 146168416.88005     -1419.311 5        34.352                                                                    27814926.034 6 109151739.13606     -1059.778 6        36.189    27814924.226 6 111999211.53306     -1087.342 6        38.228
E31        17.000    27583457.008 5                     -3281.803 5        31.306
E26        19.000    24163680.095 7 126980960.62207     -2250.497 7        46.421                                                                    24163676.899 7  94823453.54607     -1680.472 7        42.421    24163676.537 6  97297126.67806     -1724.265 6        40.160
R06        21.000    19836630.921 5 105852073.91905      1394.890 5        33.814
S36        23.000    38203890.370 6 200762681.82806      -854.212 6        38.207
S23        24.000    38156217.137 6 200512279.57506      -851.724 6        38.559
R12        25.000    24392187.324 6                     -3633.209 6        40.973                                                                    24392191.113 4                     -2825.173 4        24.120
R20        26.000    20613703.925 5                     -3594.033 5        31.366
R05        27.000    20290655.973 8 108465168.59808     -3590.014 8        48.580                                                                    20290654.567 7  84361801.72507     -2792.170 7        44.453
E33        28.000    23528547.563 7 123643339.65607       111.183 7        46.129                                                                    23528544.897 7  92331112.00107        83.072 7        46.978    23528545.003 8  94739704.18408        85.244 8        50.137
R21        30.000    19312849.887 8 103347209.57308       264.927 8        48.775                                                                    19312848.815 7  80380995.88107       206.159 7        43.801
R13        31.000    23795632.290 5 127067372.05815     -1414.618 5        35.486
R07        34.000    23382612.104 4                      3381.045 4        29.554                                                                    23382624.024 5  97353770.98905      2630.045 5        33.389
R22        35.000    22739397.365 6 121384422.96806      3009.710 6        38.450                                                                    22739393.395 6  94410196.17406      2340.830 6        36.688
C32        36.000                                                                                                                                    22858135.821 6 119028285.02206      1285.709 6        39.162                                                                    22858135.978 7  96720265.13907      1044.445 7        42.768
C33        37.000                                                                                                                                    25615771.448 5                     -3930.571 5        30.943                                                                    25615785.267 4                     -3193.971 4        25.985
C30        38.000                                                                                                                                    22278419.483 7 116009568.12107       498.028 7        47.253                                                                    22278418.581 6  94267292.33906       404.487 6        37.395
C28        40.000                                                                                                                                    25034778.964 6 130362590.48306     -4094.702 6        36.276
C39        42.000                                                                                                                                    39320948.560 4                       100.508 4        25.564                                                                    39320949.581 4                        82.144 4        29.536
C16        45.000                                                                                                                                    39665189.822 4 206547046.74904       473.116 4        26.778    39665204.047 4                       365.680 4        28.246
C41        49.000                                                                                                                                    22194812.615 8 115574286.49908     -1947.840 8        52.673                                                                    22194815.398 8  93913568.57508     -1582.932 8        50.696
C06        50.000                                                                                                                                    39373883.862 3                       585.638 3        21.667    39373875.377 4                       453.964 4        25.353
C27        52.000                                                                                                                                    21949038.957 5 114294357.27905     -2503.698 5        34.605                                                                    21949031.639 7  92873540.63507     -2034.658 7        43.312
C29        54.000                                                                                                                                    26360050.936 5 137263705.97705      2378.765 5        32.018                                                                    26360052.767 6 111538036.22106      1932.657 6        36.885
I09        60.000    37146132.620 6 145769399.12806      -532.797 6        40.346
> 2025 01 01 23 45 15.0000000  0 36
G03         1.000    21343721.231 7 112162163.07607      1538.589 7        45.296                                    21343711.528 5  87398931.34205      1198.887 5        33.641    21343716.636 5  87399066.31105      1199.267 5        33.874
G32         3.000    22433038.076 7 117886595.41207     -2750.875 7        46.522                                    22433033.980 6  91859644.07006     -2143.536 6        37.085    22433035.739 6  91859519.08606     -2143.552 6        39.471
G14         4.000    24411654.607 5 128284233.93005     -2595.006 5        32.036                                                                                                    24411670.317 4  99961748.58704     -2021.405 4        29.716
E07         5.000    24501703.719 6 128757367.53906     -1458.196 6        41.433                                                                    24501702.010 7  96150084.90207     -1088.862 7        46.103    24501703.385 7  98658208.02707     -1117.312 7        47.393
G08         6.000    23125414.914 7 121524843.49707     -4361.266 7        42.030                                    23125402.031 3  94694928.17503     -3398.403 3        20.095    23125426.183 4                     -3398.378 4        28.057
G21         8.000    20862390.837 7 109632593.64307     -1857.721 7        43.591                                    20862385.794 5  85427970.15005     -1447.576 5        31.457
G02         9.000    20729999.508 8 108937102.40608      -356.554 8        51.499                                    20729989.722 6  84885886.35206      -277.831 6        37.342
G17        11.000    23536611.942 7 123685706.49907      1737.553 7        46.286                                    23536604.988 6  96378542.17906      1353.944 6        38.913    23536605.599 6  96378460.13506      1353.951 6        36.760
E12        13.000    27678613.523 4                      1699.449 4        27.497                                                                    27678620.193 5 108616819.49705      1268.761 5        31.766    27678615.858 5 111450302.48805      1302.390 5        35.662
E29        14.000    24684976.511 7 129720408.75007      1416.306 7        44.781                                                                    24684971.504 6  96869140.70706      1057.569 6        41.380    24684973.140 7  99396231.20907      1085.204 7        44.176
E24        15.000    27816280.850 5 146175519.49905     -1421.483 5        35.609                                                                    27816277.502 5 109157043.06505     -1061.572 5        35.305    27816275.641 6 112004653.79106     -1089.045 6        38.288
E31        17.000    27586584.367 5                     -3283.176 5        31.766
E26        19.000    24165821.373 7 126992216.95207     -2251.802 7        45.457                                                                    24165819.487 7  94831859.25407     -1681.528 7        42.326    24165818.397 6  97305751.66606     -1725.317 6        39.601
R06        21.000    19835324.201 5 105845109.24705      1391.338 5        30.287
E08        22.000    28000969.573 4                     -3562.131 4        24.180
S36        23.000    38204694.270 6 200766953.35106      -854.118 6        38.538
S23        24.000    38157027.900 6 200516538.88906      -851.773 6        39.411
R12        25.000    24395594.958 7 130316880.47717     -3635.737 7        42.684                                                                    24395602.277 4                     -2830.394 4        24.316
R20        26.000    20617067.690 5                     -3596.706 5        32.138                                                                    20617066.663 4  85748995.50414     -2797.393 4        28.038
R05        27.000    20294014.524 8 108483126.47108     -3592.883 8        48.482                                                                    20294014.311 7  84375768.97607     -2794.476 7        43.981
E33        28.000    23528442.522 7 123642787.38907       109.994 7        46.672                                                                    23528439.933 7  92330699.58707        82.124 7        46.877    23528439.850 8  94739281.00808        84.300 8        50.022
R21        30.000    19312604.736 8 103345894.04408       261.554 8        48.454                                                                    19312602.321 7  80379972.68807       203.364 7        44.534
R13        31.000    23796954.087 5 127074458.08405     -1419.320 5        34.919
R07        34.000    23379455.461 4 125152060.49814      3379.960 4        27.725                                                                    23379459.760 5  97340625.95215      2628.724 5        33.491
R22        35.000    22736575.131 6 121369376.72316      3008.926 6        38.420                                                                    22736575.419 6  94398493.56716      2340.249 6        37.603
C32        36.000                                                                                                                                    22856904.574 6 119021862.63406      1283.576 6        40.920                                                                    22856902.979 7  96715046.42707      1043.008 7        43.490
C33        37.000                                                                                                                                    25619548.144 4                     -3931.197 4        28.938                                                                    25619564.087 4                     -3194.731 4        25.579
C30        38.000                                                                                                                                    22277941.943 8 116007084.27608       495.794 8        48.040                                                                    22277941.447 6  94265273.99606       402.852 6        38.919
C28        40.000                                                                                                                                    25038709.536 6 130383066.69706     -4095.418 6        36.159
C39        42.000                                                                                                                                    39320849.491 4                       100.311 4        26.587                                                                    39320849.873 5                        81.016 5        31.411
C16        45.000                                                                                                                                    39664733.852 4 206544683.99804       472.649 4        26.383    39664746.716 5                       365.098 5        30.347
C41        49.000                                                                                                                                    22196683.932 8 115584031.89408     -1950.019 8        53.180                                                                    22196687.080 8  93921487.49908     -1584.619 8        50.766
C06        50.000                                                                                                                                    39373320.013 3                       587.333 3        20.500    39373318.647 4                       452.759 4        25.293
C27        52.000                                                                                                                                    21951441.675 6 114306882.49706     -2506.130 6        36.442                                                                    21951435.910 7  92883718.40807     -2036.424 7        43.397
C29        54.000                                                                                                                                    26357769.698 5 137251813.86305      2378.084 5        30.400                                                                    26357768.378 6 111528372.88206      1932.456 6        36.601
I09        60.000    37146811.367 6 145772064.34406      -533.001 6        41.630
> 2025 01 01 23 45 20.0000000  0 36
G03         1.000    21342257.784 7 112154474.79807      1536.726 7        45.102                                    21342248.472 5  87392940.47205      1197.441 5        34.200    21342254.011 5  87393075.47205      1197.208 5        32.719
G32         3.000    22435656.839 7 117900356.93007     -2753.584 7        46.332                                    22435653.353 6  91870367.33106     -2145.640 6        38.643    22435653.491 6  91870242.31606     -2145.733 6        40.930
G14         4.000    24414127.230 5 128297215.52005     -2597.347 5        32.431
E07         5.000    24503092.559 7 128764665.00307     -1460.755 7        42.301                                                                    24503090.316 7  96155534.28707     -1090.738 7        46.147    24503092.443 7  98663799.58307     -1119.203 7        47.452
G08         6.000    23129565.299 7 121546652.81707     -4362.153 7        42.813                                    23129552.006 3  94711922.43603     -3399.098 3        19.761
G21         8.000    20864159.289 7 109641887.68407     -1859.678 7        43.871                                    20864154.423 5  85435212.26405     -1449.100 5        31.532
G02         9.000    20730339.671 8 108938890.81408      -358.708 8        52.411                                    20730329.896 6  84887279.91106      -279.506 6        37.565
G17        11.000    23534959.586 7 123677024.14507      1735.558 7        45.913                                    23534953.274 6  96371776.70506      1352.391 6        38.757    23534953.475 6  96371694.67806      1352.324 6        36.605
E12        13.000    27676997.058 4                      1699.144 4        29.147                                                                    27677002.213 5 108610474.46805      1268.890 5        32.533    27676999.532 5 111443791.97705      1302.124 5        35.043
E29        14.000    24683629.776 7 129713332.41307      1414.398 7        45.416                                                                    24683625.424 6  96863856.43106      1056.180 6        41.621    24683626.276 7  99390809.08907      1083.637 7        44.006
E24        15.000    27817634.327 5 146182633.90205     -1424.313 5        34.081                                                                    27817631.645 5 109162355.79705     -1063.760 5        35.495    27817629.937 6 112010105.13406     -1091.350 6        39.417
E31        17.000    27589709.334 5                     -3284.028 5        30.589
E26        19.000    24167964.541 7 127003479.57907     -2253.228 7        44.844                                                                    24167963.304 6  94840269.64106     -1682.576 6        40.636    24167960.731 6  97314381.46006     -1726.406 6        38.703
R06        21.000    19834022.921 5 105838162.16405      1387.519 5        30.008
E08        22.000    28004355.696 4                     -3563.114 4        25.068
S36        23.000    38205516.391 6 200771226.09206      -854.719 6        38.225
S23        24.000    38157832.868 6 200520798.42706      -851.796 6        38.420
R12        25.000    24399003.303 6 130335065.94506     -3638.212 6        41.504                                                                    24398994.535 3                     -2830.498 3        21.548
R20        26.000    20620434.839 5                     -3599.616 5        30.558                                                                    20620435.349 3                     -2799.353 3        23.638
R05        27.000    20297377.129 8 108501098.75808     -3595.889 8        49.103                                                                    20297376.550 7  84389747.41107     -2796.841 7        44.149
E33        28.000    23528339.110 7 123642241.02707       108.664 7        46.803                                                                    23528336.068 7  92330291.61307        81.105 7        47.123    23528335.879 8  94738862.38808        83.270 8        49.674
R21        30.000    19312361.901 8 103344595.31408       258.029 8        48.213                                                                    19312359.877 7  80378962.57907       200.683 7        44.734
R13        31.000    23798282.133 5 127081564.51105     -1423.259 5        32.695
R07        34.000    23376301.437 4 125135164.55504      3378.626 4        26.263                                                                    23376299.832 5  97327484.70405      2627.775 5        32.293
R22        35.000    22733756.204 6 121354333.46406      3008.370 6        38.204                                                                    22733759.698 6  94386793.23606      2339.825 6        36.499
C32        36.000                                                                                                                                    22855672.817 6 119015449.95306      1281.623 6        38.937                                                                    22855671.293 7  96709835.62207      1041.546 7        42.391
C33        37.000                                                                                                                                    25623318.858 4                     -3931.849 4        24.677                                                                    25623336.433 4                     -3195.358 4        25.519
C30        38.000                                                                                                                                    22277466.784 8 116004611.74508       493.273 8        48.006                                                                    22277467.888 6  94263264.89406       401.030 6        40.482
C28        40.000                                                                                                                                    25042642.452 5 130403546.96105     -4096.260 5        34.781                                                                    25042636.275 4                     -3328.902 4        29.716
C39        42.000                                                                                                                                    39320755.493 4                        98.742 4        27.784                                                                    39320752.772 4                        79.630 4        27.042
C16        45.000                                                                                                                                    39664283.065 4 206542325.46304       471.089 4        26.228    39664295.941 5                       364.411 5        33.275
C41        49.000                                                                                                                                    22198557.205 8 115593788.12608     -1952.337 8        53.028                                                                    22198560.771 8  93929415.21808     -1586.300 8        51.085
C06        50.000                                                                                                                                                                                                    39372761.424 4                       451.622 4        25.398
C27        52.000                                                                                                                                    21953846.354 5 114319419.20005     -2508.507 5        33.347                                                                    21953843.695 7  92893905.43307     -2038.249 7        43.342
C29        54.000                                                                                                                                    26355487.873 5 137239923.60805      2377.708 5        31.094                                                                    26355484.729 6 111518711.06706      1932.352 6        36.631
I09        60.000    37147490.505 6 145774730.88606      -533.369 6        41.452
> 2025 01 01 23 45 25.0000000  0 36
G03         1.000    21340796.880 7 112146795.10607      1535.267 7        44.984                                    21340787.351 5  87386956.30805      1196.312 5        35.743    21340793.409 5  87387091.27405      1196.356 5        35.790
G32         3.000    22438276.799 7 117914130.99707     -2755.830 7        47.680                                    22438275.003 6  91881100.35206     -2147.393 6        40.246    22438275.312 7  91880975.35707     -2147.552 7        42.328
G14         4.000    24416603.157 5 128310207.92905     -2598.994 5        32.030                                                                                                    24416603.593 4  99981988.08504     -2024.865 4        26.850
E07         5.000    24504483.800 7 128771973.97707     -1462.776 7        42.254                                                                    24504481.544 7  96160992.28507     -1092.341 7        46.362    24504483.671 7  98669399.96707     -1120.812 7        47.719
G08         6.000    23133716.564 6 121568466.88806     -4363.106 6        41.831                                    23133702.436 3  94728920.40703     -3399.827 3        19.194
G21         8.000    20865929.829 7 109651190.78107     -1861.379 7        43.414                                    20865924.935 5  85442461.42805     -1450.425 5        31.804
G02         9.000    20730681.737 8 108940688.90908      -360.477 8        52.255                                    20730672.024 6  84888681.03806      -280.893 6        37.894
G17        11.000    23533309.291 7 123668350.85407      1733.883 7        46.224                                    23533303.115 6  96365018.29206      1351.078 6        38.880    23533303.465 6  96364936.26306      1351.118 6        37.236
E12        13.000    27675380.012 4                      1699.262 4        27.677                                                                    27675386.418 5 108604129.55905      1269.177 5        30.211    27675382.799 5 111437281.54205      1302.103 5        35.324
E29        14.000    24682284.379 7 129706264.24607      1412.967 7        44.928                                                                    24682280.413 7  96858578.24307      1055.106 7        42.544    24682281.095 7  99385393.21807      1082.746 7        45.016
E24        15.000    27818990.684 5 146189759.80305     -1426.187 5        35.014                                                                    27818987.867 5 109167677.08805     -1065.043 5        34.710    27818986.135 6 112015565.24606     -1092.787 6        39.189
E31        17.000    27592833.826 5                     -3285.055 5        33.605
E26        19.000    24170108.826 7 127014748.11807     -2254.123 7        44.358                                                                    24170107.745 6  94848684.46906     -1683.237 6        41.111    24170104.943 6  97323015.80506     -1727.271 6        39.369
R06        21.000    19832723.865 4 105831232.23104      1384.762 4        27.293
E08        22.000    28007743.093 3                     -3563.430 3        23.352
S36        23.000    38206326.090 6 200775498.56606      -854.290 6        37.781
S23        24.000    38158642.809 6 200525057.85006      -852.034 6        37.671
R12        25.000    24402410.801 6 130353263.12506     -3640.470 6        39.574
R20        26.000    20623802.159 5                     -3601.838 5        30.226
R05        27.000    20300741.863 8 108519084.92308     -3598.486 8        48.838                                                                    20300741.484 7  84403736.65907     -2798.794 7        44.930
E33        28.000    23528236.144 7 123641700.27007       107.730 7        47.491                                                                    23528233.254 7  92329887.78907        80.471 7        47.158    23528233.011 8  94738448.04608        82.533 8        49.713
R21        30.000    19312122.064 8 103343313.13908       254.941 8        49.488                                                                    19312119.916 7  80377965.32407       198.266 7        44.342
R13        31.000    23799610.555 5 127088691.35205     -1427.209 5        34.048
R07        34.000    23373151.614 5 125118273.44705      3377.885 5        33.868                                                                    23373141.737 5  97314347.13005      2627.369 5        30.362
R22        35.000    22730940.845 5 121339292.77905      3008.221 5        32.671                                                                    22730942.777 6  94375094.88706      2339.603 6        37.921
C32        36.000                                                                                                                                    22854439.371 6 119009046.74106      1279.878 6        36.132                                                                    22854441.203 7  96704632.45907      1039.990 7        43.242
C33        37.000                                                                                                                                    25627098.009 4                     -3931.889 4        28.938                                                                    25627112.347 4                     -3195.300 4        28.332
C30        38.000                                                                                                                                    22276993.983 7 116002150.21407       491.363 7        47.364                                                                    22276995.018 6  94261264.75006       399.125 6        38.622
C28        40.000                                                                                                                                    25046576.725 5 130424031.09605     -4097.266 5        32.719                                                                    25046563.116 5                     -3329.251 5        30.030
C39        42.000                                                                                                                                    39320677.674 4                        97.593 4        25.173                                                                    39320659.717 4                        79.547 4        27.665
C16        45.000                                                                                                                                    39663825.385 4 206539970.78304       470.751 4        28.085    39663840.577 5 159709856.43215       364.060 5        34.019
C41        49.000                                                                                                                                    22200432.830 8 115603554.83208     -1954.250 8        52.738                                                                    22200436.482 8  93937351.49608     -1588.057 8        50.791
C06        50.000                                                                                                                                                                                                    39372195.836 4                       450.679 4        25.805
C27        52.000                                                                                                                                    21956255.579 5 114331966.76205     -2510.533 5        32.892                                                                    21956253.397 7  92904101.47107     -2040.123 7        42.322
C29        54.000                                                                                                                                    26353200.263 4 137228034.99704      2377.715 4        29.469                                                                    26353201.772 5 111509050.58605      1932.094 5        35.790
I09        60.000    37148170.056 6 145777398.43806      -533.434 6        40.372
> 2025 01 01 23 45 30.0000000  0 36
G03         1.000    21339336.834 7 112139124.11207      1533.162 7        46.123                                    21339328.212 6  87380978.90906      1194.671 6        36.926    21339333.761 6  87381113.89606      1194.774 6        36.442
G32         3.000    22440900.399 7 117927917.77407     -2758.750 7        47.756                                    22440898.987 6  91891843.29206     -2149.674 6        40.679    22440899.044 6  91891718.29606     -2149.612 6        41.676
G14         4.000    24419076.403 5 128323211.06505     -2601.814 5        32.168                                                                                                    24419081.877 4  99992120.40904     -2027.300 4        27.257
E07         5.000    24505876.775 6 128779294.62606     -1465.287 6        41.390                                                                    24505874.336 7  96166459.00307     -1094.258 7        46.432    24505876.632 7  98675009.29707     -1122.806 7        46.930
G08         6.000    23137868.278 7 121590285.79107     -4364.545 7        42.637                                    23137852.670 3  94745922.14003     -3400.938 3        18.119
G21         8.000    20867701.617 7 109660503.04207     -1863.464 7        43.010                                    20867697.142 5  85449717.74005     -1452.048 5        31.426
G02         9.000    20731025.561 8 108942496.85908      -362.712 8        51.796                                    20731016.209 6  84890089.82406      -282.637 6        37.834
G17        11.000    23531660.443 7 123659686.76407      1731.770 7        44.909                                    23531654.486 6  96358267.04806      1349.425 6        38.183    23531654.795 6  96358185.04706      1349.321 6        36.473
E12        13.000    27673763.163 4                      1699.314 4        28.682                                                                                                                                    27673765.199 5 111430771.27305      1302.145 5        35.024
E29        14.000    24680940.572 7 129699204.41407      1410.887 7        44.278                                                                    24680937.015 7  96853306.29307      1053.684 7        43.429    24680937.834 7  99379983.74407      1081.125 7        45.237
E24        15.000    27820349.314 5 146196897.27905     -1428.693 5        34.219                                                                    27820345.023 5 109173007.01905     -1066.909 5        33.569    27820344.220 6 112021034.25206     -1094.961 6        39.237
E31        17.000    27595958.449 5 145017748.25615     -3286.334 5        33.263
E26        19.000    24172253.960 7 127026022.74407     -2255.722 7        43.702                                                                    24172252.713 6  94857103.82606     -1684.374 6        39.414    24172250.107 6  97331654.79206     -1728.357 6        38.829
R06        21.000    19831432.035 4 105824319.28804      1380.526 4        26.874
E08        22.000    28011135.364 4                     -3565.113 4        25.414
S36        23.000    38207134.774 6 200779771.32806      -854.638 6        36.491
S23        24.000    38159457.825 6 200529317.28006      -851.960 6        38.772
R12        25.000    24405818.055 6 130371472.31906     -3643.257 6        40.067
R20        26.000    20627172.242 4                     -3604.744 4        29.659
R05        27.000    20304109.638 8 108537085.02708     -3601.578 8        49.276                                                                    20304108.020 7  84417736.75807     -2801.202 7        44.686
E33        28.000    23528134.242 7 123641165.27507       106.267 7        47.672                                                                    23528131.578 8  92329488.28608        79.388 8        48.225    23528131.047 8  94738038.11208        81.439 8        49.289
R21        30.000    19311885.986 8 103342047.59208       251.313 8        48.994                                                                    19311883.291 7  80376980.99207       195.434 7        44.001
R13        31.000    23800943.934 5 127095838.67505     -1431.700 5        32.371
R07        34.000    23370003.312 5 125101387.20805      3376.930 5        35.219                                                                    23369987.849 4  97301213.35904      2625.667 4        25.985
R22        35.000    22728127.371 5 121324254.73105      3007.438 5        34.200                                                                    22728128.676 6  94363398.64406      2338.877 6        37.974
C32        36.000                                                                                                                                    22853210.562 5 119002653.10105      1277.649 5        32.796                                                                    22853213.047 7  96699436.96607      1038.344 7        42.055
C33        37.000                                                                                                                                    25630878.592 5 133466656.07615     -3932.926 5        30.755                                                                    25630887.537 4                     -3195.530 4        24.992
C30        38.000                                                                                                                                    22276523.079 7 115999699.82807       488.812 7        46.924                                                                    22276522.668 6  94259273.61106       397.276 6        38.970
C28        40.000                                                                                                                                    25050508.150 4 130444519.04204     -4098.143 4        29.526                                                                    25050496.087 4                     -3330.124 4        29.554
