     3.04           OBSERVATION DATA    M                   RINEX VERSION / TYPE
ssrcrin-15.6.1x                         20250101 223000 UTC PGM / RUN BY / DATE 
(00000000023479385599111004) Septentrio proprietary         COMMENT             
ract                                                        MARKER NAME         
01                                                          MARKER NUMBER       
geodetic                                                    MARKER TYPE         
NFB                 CLIMERS@TUW                             OBSERVER / AGENCY   
3296359             SEPT ASTERX SB3 PROB4.14.4              REC # / TYPE / VERS 
Unknown             Unknown                                 ANT # / TYPE        
  4127447.0187  1206915.2556  4695542.2697                  APPROX POSITION XYZ 
        0.0000        0.0000        0.0000                  ANTENNA: DELTA H/E/N
G   23 X1  C1C L1C D1C S1C C1W S1W C2W L2W D2W S2W C2L L2L  SYS / # / OBS TYPES 
       D2L S2L C5Q L5Q D5Q S5Q C1L L1L D1L S1L              SYS / # / OBS TYPES 
E   21 X1  C1C L1C D1C S1C C6C L6C D6C S6C C5Q L5Q D5Q S5Q  SYS / # / OBS TYPES 
       C7Q L7Q D7Q S7Q C8Q L8Q D8Q S8Q                      SYS / # / OBS TYPES 
S    9 X1  C1C L1C D1C S1C C5I L5I D5I S5I                  SYS / # / OBS TYPES 
R   17 X1  C1C L1C D1C S1C C2P L2P D2P S2P C2C L2C D2C S2C  SYS / # / OBS TYPES 
       C3Q L3Q D3Q S3Q                                      SYS / # / OBS TYPES 
C   25 X1  C1P L1P D1P S1P C5P L5P D5P S5P C2I L2I D2I S2I  SYS / # / OBS TYPES 
       C7I L7I D7I S7I C6I L6I D6I S6I C7D L7D D7D S7D      SYS / # / OBS TYPES 
J   17 X1  C1C L1C D1C S1C C2L L2L D2L S2L C5Q L5Q D5Q S5Q  SYS / # / OBS TYPES 
       C1L L1L D1L S1L                                      SYS / # / OBS TYPES 
I    5 X1  C5A L5A D5A S5A                                  SYS / # / OBS TYPES 
SEPTENTRIO RECEIVERS OUTPUT ALIGNED CARRIER PHASES.         COMMENT             
NO FURTHER PHASE SHIFT APPLIED IN THE RINEX ENCODER.        COMMENT             
G L1C                                                       SYS / PHASE SHIFT   
G L2W                                                       SYS / PHASE SHIFT   
G L2L  0.00000                                              SYS / PHASE SHIFT   
G L5Q  0.00000                                              SYS / PHASE SHIFT   
G L1L  0.00000                                              SYS / PHASE SHIFT   
E L1C  0.00000                                              SYS / PHASE SHIFT   
E L6C  0.00000                                              SYS / PHASE SHIFT   
E L5Q  0.00000                                              SYS / PHASE SHIFT   
E L7Q  0.00000                                              SYS / PHASE SHIFT   
E L8Q  0.00000                                              SYS / PHASE SHIFT   
S L1C                                                       SYS / PHASE SHIFT   
S L5I                                                       SYS / PHASE SHIFT   
R L1C                                                       SYS / PHASE SHIFT   
R L2P  0.00000                                              SYS / PHASE SHIFT   
R L2C                                                       SYS / PHASE SHIFT   
R L3Q  0.00000                                              SYS / PHASE SHIFT   
C L1P  0.00000                                              SYS / PHASE SHIFT   
C L5P  0.00000                                              SYS / PHASE SHIFT   
C L2I                                                       SYS / PHASE SHIFT   
C L7I                                                       SYS / PHASE SHIFT   
C L6I                                                       SYS / PHASE SHIFT   
C L7D                                                       SYS / PHASE SHIFT   
J L1C                                                       SYS / PHASE SHIFT   
J L2L  0.00000                                              SYS / PHASE SHIFT   
J L5Q  0.00000                                              SYS / PHASE SHIFT   
J L1L  0.00000                                              SYS / PHASE SHIFT   
I L5A                                                       SYS / PHASE SHIFT   
  2025     1     1    22    30    0.0000000     GPS         TIME OF FIRST OBS   
 C1C    0.000 C2C    0.000 C2P    0.000                     GLONASS COD/PHS/BIS 
DBHZ                                                        SIGNAL STRENGTH UNIT
    18                                                      LEAP SECONDS        
 24 R01  1 R02 -4 R03  5 R04  6 R05  1 R06 -4 R07  5 R08  6 GLONASS SLOT / FRQ #
    R09 -2 R10 -7 R11  0 R12 -1 R13 -2 R14 -7 R15  0 R16 -1 GLONASS SLOT / FRQ #
    R17  4 R18 -3 R19  3 R20  2 R21  4 R22 -3 R23  3 R24  2 GLONASS SLOT / FRQ #
                                                            END OF HEADER       
> 2025 01 01 22 30  0.0000000  0 35
G14         1.000    24120240.728 6 126752857.96606       -37.079 6        37.357                                    24120223.600 1  98768304.55401       -28.865 1         8.762    24120238.745 6  98768443.59706       -28.745 6        36.049
G10         2.000    22364811.096 6 117528056.66206     -3353.039 6        40.019                                    22364803.962 5  91580230.68605     -2612.750 5        32.808    22364806.177 6  91580180.69706     -2612.618 6        36.499
G32         3.000    22105096.817 7 116163054.67307       -19.121 7        42.409                                    22105101.775 3  90516598.84103       -14.877 3        21.500    22105108.184 4  90516611.83304       -14.184 4        28.294
E07         5.000    25079139.846 6 131791760.74006       678.452 6        36.147                                                                    25079139.449 7  98415998.02507       506.741 7        43.539    25079140.623 7 100983302.91407       519.916 7        45.451
G08         6.000    20917094.277 5 109920534.68505     -2596.318 5        34.638                                    20917078.660 5  85651931.11705     -2023.107 5        32.760    20917078.565 6  85651959.13306     -2023.068 6        41.866
G27         7.000    22837642.488 5 120012701.40905     -4304.696 5        32.671                                    22837648.339 2  93516361.35502     -3354.317 2        16.113    22837668.035 5  93516434.40405     -3354.475 5        34.876
G21         8.000    20863939.880 6 109640730.84206      -259.013 6        41.287                                    20863935.874 5  85434310.39505      -201.824 5        30.725
G02         9.000    21974207.752 6 115475427.73606      1032.531 6        41.936                                    21974198.239 3  89980613.20103       804.580 3        20.024
E08        12.000    26396159.383 5 138712851.96905     -2069.983 5        31.841                                                                    26396151.817 5 103584210.84005     -1545.919 5        35.005    26396154.049 5 106286369.39205     -1586.191 5        34.329
E29        14.000    27275212.827 4 143332135.05504      2304.991 4        26.251                                                                    27275189.259 5 107033712.21205      1721.610 5        30.053    27275189.172 5 109825886.37705      1766.571 5        30.445
E24        15.000    28412093.853 5 149306590.71905       673.752 5        32.449                                                                    28412091.123 4 111495156.39404       503.365 4        26.311    28412088.663 5 114403695.76005       516.482 5        30.687
E13        16.000    26483197.445 5                     -3035.508 5        32.365                                                                                                                                    26483180.626 5                     -2325.959 5        31.434
E31        17.000    26245004.700 6 137918406.92306     -1727.632 6        41.430                                                                    26245002.858 5 102991041.81605     -1290.138 5        33.527    26245018.058 5                     -1323.655 5        31.441
E26        19.000    23584467.678 7 123937208.11107     -1217.019 7        46.606                                                                    23584466.580 8  92550586.83508      -908.786 8        49.030    23584466.150 7  94964882.71207      -932.436 7        47.609
S36        23.000    38370675.797 6 201639143.13906      -853.208 6        37.667
S23        24.000    38324889.061 6 201398631.69406      -851.253 6        41.630
R12        25.000    23480289.310 4 125427494.68904      -377.423 4        26.563                                                                    23480307.449 5                      -293.036 5        30.551
R20        26.000    19561878.450 6 104606144.91006     -1027.859 6        37.664                                                                    19561878.509 7  81360535.81507      -799.384 7        46.013
R05        27.000    19553767.808 6 104526140.40906       -21.036 6        39.195                                                                    19553770.852 6  81298068.03006       -16.209 6        37.025
E33        28.000    24886499.399 6 130779587.53406       880.560 6        41.356                                                                    24886493.533 5  97659958.00305       657.640 5        32.557    24886493.310 5 100207611.54905       674.789 5        34.681
R21        30.000    21409598.271 7 114567322.52907      2232.825 7        47.393                                                                    21409595.892 6  89107749.36106      1736.716 6        41.633
R04        31.000    21295999.789 7 114039075.44107     -3943.514 7        44.567                                                                    21295996.617 4  88697066.25204     -3067.432 4        29.953
C32        36.000                                                                                                                                    25490976.531 4 132738266.62604      2546.211 4        28.152                                                                    25490973.415 6 107860684.54306      2069.882 6        37.856
C33        37.000                                                                                                                                    23505362.089 6 122398617.89106     -2776.771 6        40.269                                                                    23505370.305 6  99458905.03606     -2256.116 6        40.131
C30        38.000                                                                                                                                    24296070.107 7 126516013.16007      1870.862 7        42.817                                                                    24296070.646 6 102804648.00706      1520.604 6        40.453
C28        40.000                                                                                                                                    22828087.158 6 118872105.49106     -2946.214 6        36.620                                                                    22828086.642 6  96593104.36906     -2393.988 6        37.497
R11        41.000    23539597.499 5 125788517.06405     -3745.815 5        34.757                                                                    23539598.286 6  97835465.16406     -2913.724 6        37.527
I01        44.000   371270965.200 7 153806247.13707     -2469.572 7        46.656
C13        45.000                                                                                                                                    40208239.626 4                     -1777.035 4        28.000
C14        47.000                                                                                                                                    25429465.492 4                     -3808.684 4        24.120    25429442.056 4 102394043.77504     -2945.783 4        26.994    25429483.094 4                     -3095.729 4        28.066
C41        49.000                                                                                                                                    22348586.077 8 116375016.19408       301.900 8        48.331                                                                    22348590.925 8  94564239.96708       245.508 8        49.764
C27        52.000                                                                                                                                    21578316.645 7 112363940.91507      -452.649 7        47.450                                                                    21578314.256 6  91304919.22006      -367.584 6        41.206
C36        56.000                                                                                                                                    26978187.839 6 140482482.82006     -2641.379 6        36.563                                                                    26978178.278 4 114153496.22904     -2145.518 4        28.730
I06        58.000    38595244.952 6 151456205.61506      -531.991 6        36.185
I09        60.000    37555895.162 5 147377406.76005      -314.673 5        34.552
> 2025 01 01 22 30  5.0000000  0 35
G14         1.000    24120273.193 6 126753049.98006       -39.910 6        37.214                                    24120260.191 1  98768454.21401       -31.115 1        11.111    24120273.552 6  98768593.21306       -31.180 6        36.907
G10         2.000    22368001.564 6 117544823.41906     -3354.014 6        40.858                                    22367995.480 5  91593295.68005     -2613.519 5        32.509    22367997.369 6  91593245.69406     -2613.445 6        36.110
G32         3.000    22105115.951 6 116163156.36606       -22.031 6        38.886                                    22105120.998 2  90516678.11802       -17.178 2        17.472    22105125.887 4  90516691.13004       -17.710 4        26.144
E07         5.000    25078496.460 6 131788371.88506       676.676 6        36.442                                                                    25078494.741 7  98413467.39107       505.288 7        44.051    25078495.621 7 100980706.25707       518.480 7        45.708
G08         6.000                                                                                                                                                                    20919549.727 6  85662078.70406     -2025.020 6        41.962
G27         7.000    22841740.072 5 120034227.03105     -4305.541 5        31.049                                    22841744.091 2  93533134.62102     -3354.965 2        15.000    22841765.216 5  93533207.64705     -3355.062 5        32.216
G21         8.000    20864187.573 7 109642028.62307      -260.467 7        42.385                                    20864182.649 5  85435321.64205      -202.958 5        30.438
G02         9.000    21973226.298 7 115470266.26207      1031.727 7        44.814                                    21973216.221 3  89976591.27803       803.942 3        21.452
E08        12.000                                                                                                                                    26398121.346 5 103591943.22905     -1547.521 5        34.562    26398123.484 5 106294303.48605     -1588.056 5        31.940
E29        14.000    27273019.973 4 143320606.86404      2305.879 4        26.874                                                                    27272995.533 5 107025103.55905      1721.379 5        30.098    27272995.404 4 109817053.17304      1766.190 4        29.640
E24        15.000    28411449.813 5 149303224.91705       672.793 5        32.527                                                                    28411450.281 4 111492643.01404       501.523 4        26.228    28411448.142 4 114401116.80004       514.924 4        28.616
E13        16.000    26486083.242 5                     -3035.999 5        30.385                                                                                                                                    26486069.768 5                     -2326.025 5        30.943
E31        17.000    26246648.748 6 137927049.20606     -1729.607 6        41.051                                                                    26246645.927 5 102997495.42805     -1291.152 5        32.120    26246658.387 5 105684423.92315     -1325.398 5        32.868
E26        19.000    23585626.011 7 123943294.26707     -1217.801 7        46.595                                                                    23585624.840 8  92555131.69308      -909.362 8        49.163    23585624.272 7  94969546.14607      -933.088 7        47.641
S36        23.000    38371486.847 6 201643407.86806      -852.508 6        37.497
S23        24.000    38325697.078 6 201402886.62406      -851.124 6        41.225
R12        25.000    23480644.144 5 125429388.86305      -380.771 5        32.102                                                                    23480664.642 5  97556283.26115      -296.348 5        35.143
R20        26.000    19562838.686 6 104611289.25906     -1030.236 6        36.805                                                                    19562839.629 7  81364536.96007      -801.310 7        44.169
R05        27.000    19553789.820 6 104526255.04006       -25.152 6        39.102                                                                    19553791.120 5  81298157.19905       -19.576 5        34.967
E33        28.000    24885661.163 6 130775185.58906       880.006 6        41.352                                                                    24885655.615 5  97656670.85205       657.219 5        33.832    24885655.934 5 100204238.61905       674.544 5        35.505
R21        30.000    21407513.349 7 114556159.57107      2232.021 7        45.982                                                                    21407509.799 6  89099067.06806      1736.042 6        41.333
R04        31.000    21299677.445 7 114058798.92707     -3946.186 7        42.521                                                                    21299676.239 4  88712406.79204     -3069.384 4        28.720
C32        36.000                                                                                                                                    25488526.650 4 132725532.11804      2546.700 4        29.223                                                                    25488527.561 6 107850336.73006      2069.264 6        37.312
C33        37.000                                                                                                                                    23508028.457 6 122412505.93206     -2778.749 6        39.538                                                                    23508037.618 6  99470190.15506     -2257.765 6        40.787
C30        38.000                                                                                                                                    24294272.429 7 126506659.07807      1870.435 7        43.219                                                                    24294273.845 6 102797047.07106      1519.833 6        38.766
C28        40.000                                                                                                                                    22830917.731 6 118886839.00806     -2947.611 6        37.603                                                                    22830915.826 6  96605076.56906     -2395.049 6        36.756
R11        41.000    23543104.772 5 125807252.47405     -3748.106 5        33.772                                                                    23543105.940 5  97850037.13905     -2915.482 5        34.219
I01        44.000   371274111.629 7 153818594.76807     -2469.647 7        46.730
C13        45.000                                                                                                                                    40209945.895 4                     -1776.554 4        24.090
C14        47.000                                                                                                                                    25433122.345 4                     -3810.895 4        24.135    25433096.559 3                     -2949.249 3        22.571    25433142.084 4                     -3096.661 4        28.550
C41        49.000                                                                                                                                    22348297.040 7 116373511.87007       299.578 7        47.611                                                                    22348302.369 8  94563017.56608       243.477 8        50.173
C27        52.000                                                                                                                                    21578752.113 8 112366207.93408      -454.486 8        49.047                                                                    21578749.847 6  91306761.37006      -369.246 6        41.530
C36        56.000                                                                                                                                    26980726.676 5 140495692.13305     -2642.994 5        34.119                                                                    26980713.713 4 114164229.77204     -2147.160 4        26.144
I06        58.000    38595922.328 6 151458864.93506      -531.596 6        36.276
I09        60.000    37556297.947 5 147378979.65205      -314.677 5        34.029
> 2025 01 01 22 30 10.0000000  0 35
G14         1.000    24120310.542 6 126753257.72306       -43.172 6        38.444                                    24120299.864 2  98768616.06902       -33.555 2        12.000
G10         2.000    22371194.109 6 117561597.16306     -3355.297 6        40.691                                    22371188.000 5  91606366.14105     -2614.530 5        31.811    22371189.137 5  91606316.19105     -2614.475 5        33.485
G32         3.000    22105136.861 6 116163273.94206       -24.941 6        38.462                                    22105143.656 2  90516769.40802       -19.403 2        13.818
E07         5.000    25077854.843 6 131784994.05706       674.466 6        38.559                                                                    25077852.324 7  98410944.98907       503.710 7        44.152    25077853.273 7 100978118.06207       516.865 7        45.013
G08         6.000    20922018.234 6 109946522.93606     -2601.503 6        39.213                                    20922023.904 5  85672181.39505     -2027.136 5        31.985    20922023.945 6  85672209.37906     -2027.209 6        41.630
G27         7.000    22845837.867 5 120055759.78505     -4307.209 5        32.886                                    22845841.121 2  93549913.42102     -3356.290 2        14.381    22845857.548 4  93549986.47804     -3356.376 4        29.659
G21         8.000    20864436.307 6 109643335.07506      -262.150 6        41.285                                    20864431.043 4  85436339.64304      -204.272 4        29.687
G02         9.000    21972245.692 7 115465110.84807      1030.493 7        43.987                                    21972235.366 3  89972574.05503       802.949 3        21.571
E08        12.000    26400092.184 4 138733573.12204     -2074.872 4        28.910                                                                    26400092.308 5 103599684.29005     -1548.902 5        33.329    26400094.912 5 106302246.41305     -1589.317 5        30.981
E29        14.000    27270824.246 4 143309080.44704      2304.697 4        28.436                                                                    27270802.325 5 107016496.14005      1721.550 5        30.098    27270802.763 4 109808221.23804      1766.522 4        29.953
E24        15.000    28410810.160 5 149299869.95205       669.962 5        34.462                                                                    28410810.585 4 111490137.62204       500.333 4        26.467    28410803.811 4 114398546.16204       512.874 4        26.180
E13        16.000                                                                                                                                                                                                    26488962.313 3                     -2325.667 3        23.905
E31        17.000    26248295.603 6 137935703.44406     -1732.094 6        41.616                                                                    26248291.303 4 103003958.06004     -1294.126 4        29.981    26248301.849 5 105691055.18805     -1327.536 5        35.571
E26        19.000    23586785.521 7 123949386.18107     -1218.871 7        46.565                                                                    23586784.040 8  92559680.85408      -910.213 8        49.090    23586783.431 7  94974213.97507      -933.988 7        47.995
S36        23.000    38372294.050 6 201647672.90906      -852.762 6        40.334
S23        24.000    38326507.372 6 201407141.94806      -851.105 6        40.198
R12        25.000    23481010.231 6 125431304.54706      -385.388 6        36.121                                                                    23481017.986 6  97557773.23206      -299.501 6        37.225
R20        26.000    19563802.887 6 104616447.48506     -1032.962 6        37.656                                                                    19563804.899 7  81368548.93407      -803.428 7        43.833
R05        27.000    19553815.701 6 104526392.40706       -29.663 6        38.231                                                                    19553815.483 5  81298264.05205       -23.215 5        34.114
E33        28.000    24884823.082 6 130770787.20206       879.268 6        38.856                                                                    24884819.756 5  97653386.34805       656.450 5        35.414    24884819.492 5 100200868.44305       673.754 5        35.571
R21        30.000    21405427.548 7 114545002.37507      2230.860 7        46.373                                                                    21405425.279 6  89090389.26706      1735.223 6        41.211
R04        31.000    21303364.661 7 114078537.62307     -3949.219 7        45.321                                                                    21303368.033 5  88727759.10505     -3071.294 5        34.567
C32        36.000                                                                                                                                    25486082.272 4 132712801.98404      2545.063 4        27.796                                                                    25486082.673 6 107839992.41706      2068.688 6        36.805
C33        37.000                                                                                                                                    23510694.901 6 122426404.78306     -2780.768 6        37.932                                                                    23510706.808 6  99481484.13806     -2259.562 6        41.964
C30        38.000                                                                                                                                    24292476.877 7 126497309.53607      1869.510 7        42.311                                                                    24292477.750 6 102789449.82206      1519.136 6        38.237
C28        40.000                                                                                                                                    22833749.463 6 118901581.20806     -2949.086 6        38.474                                                                    22833746.666 6  96617055.82306     -2396.497 6        37.043
R11        41.000    23546613.960 5 125826000.84305     -3751.011 5        32.617                                                                    23546613.693 5  97864619.21605     -2917.388 5        32.952
I01        44.000   371277258.792 7 153830944.11507     -2470.057 7        46.459
C13        45.000                                                                                                                                                                                                    40211631.430 4                     -1372.715 4        25.714
C14        47.000                                                                                                                                    25436778.370 3                     -3811.051 3        23.105    25436747.455 4                     -2947.742 4        24.511    25436800.426 5                     -3097.847 5        30.128
C41        49.000                                                                                                                                    22348010.317 7 116372020.94707       296.932 7        46.441                                                                    22348016.018 8  94561806.07108       241.321 8        50.207
C27        52.000                                                                                                                                    21579189.359 8 112368485.80508      -456.660 8        48.743                                                                    21579187.353 7  91308612.32307      -370.971 7        42.662
C36        56.000                                                                                                                                    26983269.316 5 140508910.19405     -2644.312 5        32.335                                                                    26983253.040 3                     -2150.648 3        21.881
I06        58.000    38596601.152 6 151461524.54106      -532.002 6        36.696
I09        60.000    37556699.996 5 147380554.05005      -314.527 5        32.647
> 2025 01 01 22 30 15.0000000  0 35
G14         1.000    24120355.114 5 126753480.52505       -45.803 5        34.833                                    24120342.389 2  98768789.67302       -35.694 2        14.381    24120338.193 6  98768928.72706       -35.731 6        36.590
G10         2.000    22374384.637 6 117578377.35306     -3356.435 6        37.353                                    22374381.731 4  91619441.62104     -2615.399 4        29.848    22374383.286 5  91619391.65705     -2615.456 5        35.029
G32         3.000    22105162.816 6 116163406.87506       -27.905 6        36.522                                    22105169.261 2  90516872.96802       -21.755 2        17.132
E07         5.000    25077213.502 6 131781626.70906       672.486 6        39.279                                                                    25077211.393 7  98408430.39907       502.291 7        44.153    25077212.297 7 100975537.88707       515.375 7        44.637
G08         6.000    20924499.874 7 109959537.60207     -2604.133 7        44.468                                    20924500.181 5  85682322.68605     -2029.184 5        35.433    20924500.106 6  85682350.66606     -2029.182 6        41.595
G27         7.000    22849935.555 5 120077299.11605     -4308.275 5        32.269                                    22849939.139 2  93566697.39902     -3357.078 2        14.905
G21         8.000    20864685.433 6 109644649.64606      -263.620 6        39.895                                    20864681.065 4  85437363.97704      -205.410 4        29.223
G02         9.000    21971262.932 7 115459960.90707      1029.591 7        42.895                                    21971255.518 3  89968561.09103       802.279 3        21.643
E08        12.000                                                                                                                                    26402068.379 5 103607433.63805     -1550.593 5        33.629    26402076.879 5 106310197.94605     -1590.944 5        31.109
E29        14.000    27268627.538 4 143297554.99604      2305.542 4        29.014                                                                    27268609.676 5 107007889.52505      1721.338 5        30.015    27268608.746 4 109799390.10104      1766.163 4        28.588
E24        15.000    28410172.675 5 149296524.99305       668.137 5        33.072                                                                    28410175.972 4 111487639.70704       499.098 4        26.922    28410167.523 4 114395983.13704       511.902 4        25.474
E13        16.000                                                                                                                                                                                                    26491851.240 3                     -2325.417 3        22.590
E31        17.000    26249945.554 6 137944369.04406     -1734.221 6        41.023                                                                    26249941.933 5 103010429.05005     -1294.799 5        31.268    26249949.104 6 105697695.01206     -1328.649 6        37.153
E26        19.000    23587945.881 7 123955483.28807     -1219.858 7        45.710                                                                    23587944.244 8  92564233.88008      -910.879 8        49.055    23587943.539 7  94978885.78107      -934.624 7        47.745
S36        23.000    38373108.306 6 201651937.47606      -852.685 6        38.324
S23        24.000    38327319.092 6 201411397.07206      -850.962 6        39.171
R12        25.000    23481377.041 6 125433240.87406      -389.317 6        37.217                                                                    23481381.104 6  97559279.34706      -302.660 6        36.465
R20        26.000    19564770.971 6 104621618.98506     -1035.402 6        37.081                                                                    19564772.798 7  81372571.18207      -805.385 7        43.424
R05        27.000    19553844.941 6 104526552.18806       -33.854 6        36.257                                                                    19553847.130 5  81298388.30205       -26.818 5        34.895
E33        28.000    24883987.360 6 130766391.80906       878.747 6        36.994                                                                    24883983.782 5  97650104.07205       656.267 5        35.271    24883982.719 5 100197500.51805       673.214 5        34.776
R21        30.000    21403343.693 7 114533850.40207      2230.048 7        46.824                                                                    21403342.113 6  89081715.51906      1734.415 6        41.499
R04        31.000    21307054.863 7 114098290.84007     -3951.943 7        44.682                                                                    21307055.836 6  88743122.77906     -3073.724 6        37.456
C32        36.000                                                                                                                                    25483632.883 4 132700075.37904      2545.177 4        27.820                                                                    25483639.150 6 107829651.11306      2068.043 6        36.941
C33        37.000                                                                                                                                    23513361.997 6 122440313.92306     -2782.624 6        37.191                                                                    23513377.335 6  99492786.44006     -2261.140 6        41.421
C30        38.000                                                                                                                                    24290682.406 7 126487963.91307      1868.876 7        42.171                                                                    24290682.250 6 102781855.76206      1518.992 6        36.563
C28        40.000                                                                                                                                    22836580.726 6 118916331.45806     -2950.713 6        38.844                                                                    22836580.458 6  96629041.62106     -2397.563 6        38.048
R11        41.000    23550122.048 5 125844761.42505     -3752.961 5        35.100                                                                    23550124.692 5  97879210.89205     -2919.133 5        32.868
I01        44.000   371280406.092 7 153843294.77707     -2470.126 7        46.986
C13        45.000                                                                                                                                    40213327.523 4                     -1776.396 4        24.541    40213335.449 4                     -1372.719 4        24.226
C14        47.000                                                                                                                                    25440441.823 4                     -3813.387 4        29.744    25440414.946 4                     -2948.618 4        27.796    25440458.079 5                     -3098.409 5        31.804
C41        49.000                                                                                                                                    22347726.319 7 116370542.87107       294.503 7        45.621                                                                    22347732.332 8  94560605.00808       239.389 8        50.787
C27        52.000                                                                                                                                    21579629.299 8 112370773.91808      -458.473 8        49.527                                                                    21579626.515 7  91310471.63007      -372.488 7        42.737
C36        56.000                                                                                                                                    26985809.295 5 140522136.46705     -2646.053 5        35.576                                                                    26985793.834 3                     -2148.394 3        18.955
I06        58.000    38597278.829 6 151464183.89206      -531.853 6        37.244
I09        60.000    37557097.810 5 147382129.72205      -315.148 5        32.144
> 2025 01 01 22 30 20.0000000  0 35
G14         1.000    24120402.426 5 126753718.46605       -48.983 5        34.195                                    24120387.794 2  98768975.10102       -38.119 2        13.758    24120388.130 6  98769114.14106       -38.279 6        37.735
G10         2.000    22377579.081 6 117595163.92306     -3358.026 6        36.000                                    22377576.482 4  91632522.06404     -2616.651 4        28.787    22377578.196 5  91632472.08205     -2616.482 5        33.497
G32         3.000    22105192.068 5 116163555.00305       -31.062 5        34.343                                    22105197.329 2  90516988.36602       -24.223 2        17.321    22105197.195 5                       -24.309 5        30.574
E07         5.000    25076574.539 6 131778269.75806       670.529 6        39.598                                                                    25076572.389 7  98405923.60507       500.565 7        44.888    25076573.913 7 100972965.69107       513.686 7        44.293
G08         6.000    20926982.687 7 109972565.86107     -2606.988 7        46.769                                    20926979.020 6  85692474.57406     -2031.409 6        38.913    20926978.766 6  85692502.55206     -2031.457 6        41.962
G27         7.000    22854035.858 5 120098844.95705     -4310.104 5        30.543                                    22854038.338 2  93583486.41402     -3358.509 2        16.038
G21         8.000    20864936.732 6 109645972.26206      -265.468 6        40.436                                    20864932.571 4  85438394.58004      -206.865 4        28.730
G02         9.000    21970282.008 6 115454816.46006      1028.316 6        40.389                                    21970276.447 3  89964552.42503       801.288 3        21.500
E08        12.000    26404060.327 3                     -2078.367 3        21.833                                                                    26404045.173 5 103615191.15305     -1552.647 5        33.790
E29        14.000                                                                                                                                    27266416.546 5 106999283.72005      1721.046 5        31.117    27266416.327 4 109790559.78604      1765.905 4        29.147
E24        15.000    28409536.603 5 149293190.07605       666.101 5        31.192                                                                    28409541.241 4 111485149.41804       497.404 4        27.497    28409532.973 4 114393427.78504       509.966 4        24.271
E13        16.000    26494718.799 4                     -3037.308 4        27.245                                                                                                                                    26494748.731 4                     -2327.219 4        24.782
E31        17.000    26251595.353 6 137953045.94706     -1736.518 6        40.536                                                                    26251593.845 5 103016908.61105     -1296.617 5        32.856    26251600.456 6 105704343.60106     -1330.570 6        36.280
E26        19.000    23589107.573 7 123961585.50507     -1220.925 7        46.055                                                                    23589105.494 8  92568790.73008      -911.685 8        49.277    23589104.846 7  94983561.50807      -935.511 7        47.939
S36        23.000    38373917.321 6 201656201.65406      -852.831 6        39.090
S23        24.000    38328117.152 6 201415651.91806      -850.864 6        39.586
R12        25.000    23481744.201 6 125435198.02806      -393.384 6        37.403                                                                    23481748.224 6  97560801.54406      -306.121 6        36.079
R20        26.000    19565739.058 6 104626803.75106     -1038.149 6        36.374                                                                    19565742.357 7  81376603.80107      -807.506 7        44.742
R05        27.000    19553882.269 6 104526734.17806       -38.818 6        39.820                                                                    19553878.569 5  81298529.81905       -30.298 5        34.181
E33        28.000    24883152.808 5 130761999.33105       878.143 5        35.643                                                                    24883145.403 5  97646823.95005       655.667 5        33.461    24883146.433 5 100194134.84105       673.036 5        35.524
R21        30.000    21401260.772 7 114522703.64307      2228.829 7        47.578                                                                    21401259.577 6  89073045.79706      1733.567 6        41.821
R04        31.000    21310746.445 7 114118058.57007     -3954.947 7        44.468                                                                    21310746.782 6  88758497.65706     -3076.057 6        39.045
C32        36.000                                                                                                                                    25481191.384 5 132687352.52005      2544.382 5        31.026                                                                    25481195.699 6 107819312.74606      2067.308 6        36.227
C33        37.000                                                                                                                                    23516035.424 6 122454233.29806     -2784.703 6        36.975                                                                    23516050.848 6  99504097.03606     -2262.911 6        41.816
C30        38.000                                                                                                                                    24288888.909 7 126478622.19607      1867.911 7        43.145                                                                    24288888.211 6 102774264.88806      1517.663 6        37.164
C28        40.000                                                                                                                                    22839415.388 6 118931089.69306     -2952.251 6        38.255                                                                    22839414.886 6  96641033.89906     -2399.029 6        39.105
R11        41.000    23553633.378 4 125863534.36204     -3755.842 4        28.844                                                                    23553636.832 4  97893812.11604     -2921.335 4        29.564
I01        44.000   371283553.348 7 153855646.70307     -2470.500 7        46.746
C13        45.000                                                                                                                                    40215038.831 3                     -1777.240 3        23.848    40215030.690 3                     -1376.758 3        21.238
C14        47.000                                                                                                                                                                                                                                                                    25444120.338 4                     -3099.149 4        29.668
C41        49.000                                                                                                                                    22347445.406 7 116369077.54507       291.721 7        45.991                                                                    22347451.291 8  94559414.31308       237.142 8        51.055
C27        52.000                                                                                                                                    21580071.239 8 112373072.27008      -460.694 8        49.498                                                                    21580068.184 7  91312339.23507      -374.270 7        42.591
C36        56.000                                                                                                                                    26988345.700 5 140535370.83205     -2647.887 5        31.162                                                                    26988338.617 3                     -2154.905 3        21.095
I06        58.000    38597956.475 6 151466843.07506      -531.720 6        36.998
I09        60.000    37557500.297 5 147383706.34005      -315.893 5        34.524
> 2025 01 01 22 30 25.0000000  0 33
G14         1.000    24120450.975 4 126753971.50804       -51.903 4        29.336                                    24120436.297 1  98769172.23901       -40.444 1        11.185    24120442.220 6  98769311.29006       -40.468 6        39.276
G10         2.000    22380775.136 6 117611956.73206     -3359.049 6        37.123                                    22380771.863 4  91645607.38204     -2617.448 4        27.665    22380774.241 5  91645557.45905     -2617.658 5        34.352
G32         3.000    22105225.724 6 116163718.37006       -34.263 6        36.159                                    22105228.460 3  90517115.70203       -26.690 3        18.448    22105222.477 4                       -26.546 4        29.716
E07         5.000    25075937.981 6 131774923.24806       668.350 6        41.800                                                                    25075935.877 7  98403424.59407       499.059 7        44.856    25075936.852 7 100970401.48407       512.084 7        42.762
G08         6.000    20929463.717 7 109985607.72407     -2609.781 7        46.735                                    20929460.440 6  85702637.04306     -2033.581 6        40.117    20929460.409 6  85702665.03806     -2033.630 6        41.702
G27         7.000    22858139.230 6 120120397.16506     -4311.262 6        36.469                                    22858138.897 3  93600280.37603     -3359.412 3        18.060    22858127.839 4  93600353.35104     -3359.812 4        26.539
G21         8.000    20865190.938 6 109647302.94506      -266.789 6        40.942                                    20865185.558 4  85439431.46804      -207.893 4        29.033
G02         9.000    21969305.399 6 115449677.39206      1027.218 6        38.775                                    21969298.686 3  89960547.95303       800.430 3        21.786
E08        12.000                                                                                                                                    26406021.632 5 103622956.89805     -1554.201 5        31.011    26406054.782 4 106326125.93804     -1594.434 4        29.640
E29        14.000    27264239.700 3                      2304.534 3        22.419                                                                    27264223.587 5 106990678.65905      1720.659 5        30.551    27264224.079 4 109781730.23004      1765.890 4        29.981
E24        15.000    28408905.158 4 149289865.19404       663.953 4        29.137                                                                    28408911.236 4 111482666.50804       495.981 4        26.719
E13        16.000    26497609.972 4                     -3037.800 4        26.838                                                                                                                                    26497641.844 4                     -2327.850 4        25.023
E31        17.000    26253248.471 6 137961734.16706     -1738.777 6        41.983                                                                    26253247.660 5 103023396.57905     -1298.448 5        33.168    26253250.269 6 105711000.77506     -1332.133 6        38.087
E26        19.000    23590270.404 7 123967692.83807     -1221.903 7        47.358                                                                    23590267.764 8  92573351.41708      -912.475 8        49.295    23590267.093 7  94988241.17007      -936.335 7        47.447
S36        23.000    38374729.426 6 201660465.23806      -852.696 6        39.402
S23        24.000    38328927.101 6 201419906.54906      -850.822 6        39.126
R12        25.000    23482118.273 5 125437175.90105      -397.613 5        34.533
R20        26.000    19566710.100 5 104632001.78405     -1040.796 5        34.876                                                                    19566714.176 7  81380646.71607      -809.557 7        45.336
R05        27.000    19553926.363 6 104526938.47506       -43.310 6        36.703                                                                    19553912.449 5  81298688.81605       -33.545 5        32.048
E33        28.000    24882315.879 5 130757609.78205       877.660 5        33.395                                                                    24882312.311 5  97643545.97905       655.516 5        35.143    24882311.250 5 100190771.40405       672.489 5        35.462
R21        30.000    21399178.453 8 114511562.09908      2227.798 8        48.448                                                                    21399177.397 7  89064380.15807      1732.630 7        42.195
R04        31.000    21314441.504 7 114137840.75607     -3957.916 7        43.602                                                                    21314442.808 5  88773883.86005     -3078.243 5        35.771
C32        36.000                                                                                                                                    25478757.900 5 132674633.34305      2543.231 5        35.671                                                                    25478753.521 6 107808977.34906      2066.796 6        36.650
C33        37.000                                                                                                                                                                                                                                                                    23518725.952 7  99515415.92007     -2264.600 7        42.508
C30        38.000                                                                                                                                    24287098.393 7 126469284.37907      1867.200 7        44.516                                                                    24287095.009 6 102766677.13606      1517.370 6        37.293
C28        40.000                                                                                                                                    22842253.873 6 118945855.92106     -2954.238 6        40.186                                                                    22842250.611 6  96653032.65606     -2400.493 6        40.274
R11        41.000    23557150.454 6 125882319.76106     -3758.129 6        36.507
I01        44.000   371286701.473 7 153867999.88207     -2470.780 7        46.613
C14        47.000                                                                                                                                                                                                    25447759.778 5                     -2950.049 5        31.940    25447789.313 5                     -3100.145 5        30.445
C41        49.000                                                                                                                                    22347167.083 7 116367625.03807       289.197 7        46.001                                                                    22347172.180 8  94558233.99408       235.048 8        51.206
C27        52.000                                                                                                                                    21580515.744 8 112375380.83208      -462.720 8        49.395                                                                    21580511.362 7  91314215.12007      -376.022 7        43.211
I06        58.000    38598633.909 5 151469502.03805      -531.847 5        35.938
I09        60.000    37557905.136 6 147385284.00706      -315.601 6        36.038
> 2025 01 01 22 30 30.0000000  0 34
G14         1.000    24120503.710 5 126754240.29305       -55.169 5        32.413                                    24120487.569 1  98769381.73301       -42.906 1        10.815    24120495.375 6  98769520.75806       -43.047 6        40.508
G10         2.000                                                                                                                                                                    22383970.958 6  91658648.26306     -2618.700 6        36.609
G32         3.000    22105256.311 6 116163897.54706       -37.513 6        38.796                                    22105261.837 3  90517255.37203       -29.274 3        20.167    22105260.442 4                       -28.863 4        28.588
E07         5.000    25075302.742 7 131771587.83407       665.865 7        43.526                                                                    25075301.258 7  98400933.87007       497.276 7        44.722    25075302.310 7 100967845.77407       510.255 7        42.929
G08         6.000    20931946.982 7 109998663.81307     -2612.722 7        46.395                                    20931944.650 6  85712810.60406     -2035.881 6        40.839    20931945.612 7  85712838.60407     -2035.870 7        42.354
G27         7.000    22862242.714 6 120141956.60106     -4312.564 6        38.691                                    22862240.712 3  93617079.92203     -3360.447 3        20.667    22862240.297 5  93617152.93005     -3360.344 5        31.404
G21         8.000    20865445.832 6 109648642.38606      -268.895 6        41.261                                    20865440.060 4  85440475.17504      -209.529 4        29.412
G02         9.000    21968328.239 6 115444544.44506      1025.788 6        40.105                                    21968322.079 3  89956548.25003       799.304 3        22.076
E08        12.000                                                                                                                                    26408004.470 5 103630731.30705     -1555.874 5        32.371    26408038.256 4 106334103.21404     -1596.564 4        25.850
E29        14.000    27262047.907 3                      2302.112 3        21.833                                                                    27262031.614 5 106982074.85305      1720.563 5        30.611    27262032.581 5 109772902.04705      1765.160 5        30.853
E24        15.000    28408276.837 4 149286551.08704       661.641 4        28.332                                                                    28408275.156 3                       494.196 3        21.286
E13        16.000    26500501.564 4                     -3038.160 4        26.994                                                                                                                                    26500531.134 5                     -2328.139 5        30.596
E31        17.000    26254904.785 7 137970434.35807     -1741.253 7        42.161                                                                    26254904.526 5 103029893.45605     -1300.454 5        34.967    26254902.940 6 105717667.15406     -1334.189 6        36.170
E26        19.000    23591433.536 7 123973805.97507     -1223.228 7        47.447                                                                    23591431.109 8  92577916.40808      -913.458 8        49.806    23591430.166 7  94992925.25807      -937.297 7        47.562
S36        23.000    38375542.456 6 201664729.37306      -852.753 6        39.916
S23        24.000    38329730.786 6 201424161.53206      -851.202 6        39.577
R12        25.000    23482481.750 5 125439175.10605      -401.973 5        33.132                                                                    23482477.452 6  97563894.76606      -312.536 6        36.280
R20        26.000    19567686.509 6 104637213.89806     -1043.926 6        36.382                                                                    19567688.785 7  81384700.56307      -811.876 7        45.586
R05        27.000    19553970.924 6 104527165.61006       -47.790 6        37.183                                                                    19553956.704 5  81298865.51005       -36.885 5        32.707
E33        28.000    24881474.350 4 130753223.85504       876.859 4        24.842                                                                    24881477.006 5  97640270.75405       654.722 5        34.405    24881477.396 5 100187410.70005       671.750 5        34.757
R21        30.000    21397096.204 7 114500426.45907      2226.445 7        47.753                                                                    21397096.995 7  89055719.11407      1731.664 7        42.935
R04        31.000    21318138.373 6 114157638.00906     -3960.969 6        41.559                                                                    21318144.590 5  88789281.82305     -3081.103 5        33.832
C32        36.000                                                                                                                                    25476318.813 5 132661918.44305      2542.327 5        33.371                                                                    25476312.349 6 107798645.47306      2065.972 6        37.388
C33        37.000                                                                                                                                    23521410.057 6 122482103.38806     -2789.031 6        37.070                                                                    23521402.237 6  99526743.62806     -2266.375 6        41.514
