     3.04           OBSERVATION DATA    M                   RINEX VERSION / TYPE
ssrcrin-15.6.1x                         20250101 203000 UTC PGM / RUN BY / DATE 
(00000000023479385599111004) Septentrio proprietary         COMMENT             
ract                                                        MARKER NAME         
01                                                          MARKER NUMBER       
geodetic                                                    MARKER TYPE         
NFB                 CLIMERS@TUW                             OBSERVER / AGENCY   
3296359             SEPT ASTERX SB3 PROB4.14.4              REC # / TYPE / VERS 
Unknown             Unknown                                 ANT # / TYPE        
  4127446.1421  1206915.4130  4695543.0642                  APPROX POSITION XYZ 
        0.0000        0.0000        0.0000                  ANTENNA: DELTA H/E/N
G   23 X1  C1C L1C D1C S1C C1W S1W C2W L2W D2W S2W C2L L2L  SYS / # / OBS TYPES 
       D2L S2L C5Q L5Q D5Q S5Q C1L L1L D1L S1L              SYS / # / OBS TYPES 
E   21 X1  C1C L1C D1C S1C C6C L6C D6C S6C C5Q L5Q D5Q S5Q  SYS / # / OBS TYPES 
       C7Q L7Q D7Q S7Q C8Q L8Q D8Q S8Q                      SYS / # / OBS TYPES 
S    9 X1  C1C L1C D1C S1C C5I L5I D5I S5I                  SYS / # / OBS TYPES 
R   17 X1  C1C L1C D1C S1C C2P L2P D2P S2P C2C L2C D2C S2C  SYS / # / OBS TYPES 
       C3Q L3Q D3Q S3Q                                      SYS / # / OBS TYPES 
C   25 X1  C1P L1P D1P S1P C5P L5P D5P S5P C2I L2I D2I S2I  SYS / # / OBS TYPES 
       C7I L7I D7I S7I C6I L6I D6I S6I C7D L7D D7D S7D      SYS / # / OBS TYPES 
J   17 X1  C1C L1C D1C S1C C2L L2L D2L S2L C5Q L5Q D5Q S5Q  SYS / # / OBS TYPES 
       C1L L1L D1L S1L                                      SYS / # / OBS TYPES 
I    5 X1  C5A L5A D5A S5A                                  SYS / # / OBS TYPES 
SEPTENTRIO RECEIVERS OUTPUT ALIGNED CARRIER PHASES.         COMMENT             
NO FURTHER PHASE SHIFT APPLIED IN THE RINEX ENCODER.        COMMENT             
G L1C                                                       SYS / PHASE SHIFT   
G L2W                                                       SYS / PHASE SHIFT   
G L2L  0.00000                                              SYS / PHASE SHIFT   
G L5Q  0.00000                                              SYS / PHASE SHIFT   
G L1L  0.00000                                              SYS / PHASE SHIFT   
E L1C  0.00000                                              SYS / PHASE SHIFT   
E L6C  0.00000                                              SYS / PHASE SHIFT   
E L5Q  0.00000                                              SYS / PHASE SHIFT   
E L7Q  0.00000                                              SYS / PHASE SHIFT   
E L8Q  0.00000                                              SYS / PHASE SHIFT   
S L1C                                                       SYS / PHASE SHIFT   
S L5I                                                       SYS / PHASE SHIFT   
R L1C                                                       SYS / PHASE SHIFT   
R L2P  0.00000                                              SYS / PHASE SHIFT   
R L2C                                                       SYS / PHASE SHIFT   
R L3Q  0.00000                                              SYS / PHASE SHIFT   
C L1P  0.00000                                              SYS / PHASE SHIFT   
C L5P  0.00000                                              SYS / PHASE SHIFT   
C L2I                                                       SYS / PHASE SHIFT   
C L7I                                                       SYS / PHASE SHIFT   
C L6I                                                       SYS / PHASE SHIFT   
C L7D                                                       SYS / PHASE SHIFT   
J L1C                                                       SYS / PHASE SHIFT   
J L2L  0.00000                                              SYS / PHASE SHIFT   
J L5Q  0.00000                                              SYS / PHASE SHIFT   
J L1L  0.00000                                              SYS / PHASE SHIFT   
I L5A                                                       SYS / PHASE SHIFT   
  2025     1     1    20    30    0.0000000     GPS         TIME OF FIRST OBS   
 C1C    0.000 C2C    0.000 C2P    0.000                     GLONASS COD/PHS/BIS 
DBHZ                                                        SIGNAL STRENGTH UNIT
    18                                                      LEAP SECONDS        
 24 R01  1 R02 -4 R03  5 R04  6 R05  1 R06 -4 R07  5 R08  6 GLONASS SLOT / FRQ #
    R09 -2 R10 -7 R11  0 R12 -1 R13 -2 R14 -7 R15  0 R16 -1 GLONASS SLOT / FRQ #
    R17  4 R18 -3 R19  3 R20  2 R21  4 R22 -3 R23  3 R24  2 GLONASS SLOT / FRQ #
                                                            END OF HEADER       
> 2025 01 01 20 30  0.0000000  0 39
G18         1.000                                                                                                                                                                    23919091.379 4                     -3049.808 4        29.810
G10         2.000    20741263.954 8 108996323.71408       100.964 8        48.899                                    20741261.736 6  84931975.38806        78.677 6        40.934    20741260.096 6  84932007.36106        78.683 6        39.312
G07         3.000                                                                                                                                                                    25442261.455 4                     -1787.762 4        29.886
G23         4.000    21295401.191 7 111908062.81807     -2698.332 7        43.994                                    21295395.463 4  87201052.37004     -2102.601 4        27.988    21295396.518 7  87201131.35107     -2102.650 7        44.072
G15         5.000    24031173.242 3                     -2684.353 3        19.164
G08         6.000    21102492.412 7 110894289.19007      1324.260 7        45.058                                    21102524.023 2  86411285.32602      1031.922 2        15.762    21102490.017 5  86411178.67305      1031.866 5        34.781
G27         7.000    19948243.231 8 104828757.81208      -867.408 8        51.289                                    19948241.038 8  81684682.70108      -675.901 8        49.635    19948240.293 7  81684741.69407      -675.873 7        42.809
G21         8.000    22900319.307 5 120342049.88705      1807.441 5        33.569                                    22900316.945 1  93772973.93401      1408.437 1         4.857
E13        16.000    23778928.325 7 124959196.59607     -2126.812 7        42.722                                                                    23778928.909 7  93313682.97107     -1588.195 7        47.745    23778929.380 7  95747907.17307     -1629.624 7        47.490
E31        17.000    27091628.009 6 142367415.14106      1437.758 6        37.142                                                                    27091623.038 5 106313457.85305      1073.686 5        32.916    27091623.027 6 109086745.34806      1101.742 6        37.429
G16        18.000    22354895.045 7 117475855.59907     -4081.396 7        45.335                                    22354896.335 3  91539514.35703     -3180.314 3        22.152
E26        19.000    23851466.333 6 125340319.16106       310.127 6        40.026                                                                    23851465.616 8  93598346.84308       231.567 8        48.856    23851465.396 8  96040035.64008       237.597 8        50.966
E03        21.000    27280239.236 4                     -1065.006 4        28.009
E21        22.000    25392668.842 5 133439354.78505     -3514.643 5        31.230                                                                    25392672.308 6  99646317.97806     -2624.441 6        39.703    25392670.269 4 102245762.83704     -2693.483 4        26.575
S36        23.000    38101120.607 6 200222609.35406      -852.066 6        36.507
S23        24.000    38056643.640 6 199988978.63206      -852.370 6        40.627
G26        25.000    24694533.892 4                     -4490.744 4        25.203                                                                                                    24694540.160 4                     -3498.605 4        24.647
R20        26.000    21143488.566 4                      1646.911 4        28.806                                                                    21143486.711 5  87938506.32605      1280.669 5        33.880
R02        27.000                                                                                                                                    24143729.225 3                     -3578.301 3        20.548
E33        28.000                                                                                                                                    27512766.408 5 107966026.69305      1192.374 5        32.605    27512763.785 5 110782501.54205      1223.535 5        31.585
R19        29.000    19789809.849 7 105862045.81907     -1964.580 7        42.586                                                                    19789806.398 6  82337203.13606     -1528.024 6        38.793
R18        30.000    22113684.155 5 118044472.64305     -3796.702 5        35.829                                                                    22113687.050 4                     -2952.511 4        29.479
R04        31.000    20830313.897 6 111545262.31106      2040.586 6        37.028
R03        32.000    20978028.777 7 112297495.26907     -1764.227 7        44.483                                                                    20978028.390 6  87342120.99306     -1372.379 6        40.744
R09        34.000    21984904.889 6 117398132.58306     -4497.461 6        39.880
C37        36.000                                                                                                                                    25603606.933 5 133324737.65305     -3649.503 5        32.617                                                                    25603583.182 5                     -2965.285 5        30.445
C33        37.000                                                                                                                                    23180327.956 5 120706115.13405      1095.215 5        32.695                                                                    23180341.219 5  98083645.07205       889.807 5        34.524
C28        40.000                                                                                                                                    21381273.628 8 111338164.24108      -483.602 8        52.110                                                                    21381271.205 8  90471158.01508      -392.853 8        48.566
R11        41.000    23013415.091 5 122976576.32405      1846.078 5        33.611                                                                    23013378.895 5  95648427.22205      1435.946 5        32.401
C43        42.000                                                                                                                                    24003347.429 6 124991704.71206     -3308.799 6        39.679                                                                    24003342.394 5 101566066.76305     -2689.198 5        32.192
C13        45.000                                                                                                                                    38541265.025 6 200694500.29706     -1839.500 6        38.655    38541262.916 6 155189723.83906     -1422.575 6        39.231    38541247.727 3                     -1494.771 3        22.343
C08        46.000                                                                                                                                    39066646.529 4                     -2066.586 4        29.052    39066674.568 6 157305163.75406     -1598.140 6        36.442    39066629.046 4                     -1679.658 4        24.767
C14        47.000                                                                                                                                    23014114.435 5                      -496.765 5        34.619    23014115.846 6  92668594.04006      -384.120 6        40.248    23014116.038 6  97380267.58306      -403.595 6        40.524
C42        48.000                                                                                                                                    23979003.489 6 124864982.86206     -2120.554 6        39.544                                                                    23979007.105 6 101463060.29406     -1723.114 6        41.661
C41        49.000                                                                                                                                    25698256.576 4 133817640.83904      2660.785 4        29.261
C38        50.000                                                                                                                                    40549482.028 4                     -2111.919 4        24.105
C27        52.000                                                                                                                                    23453658.511 6 122129354.53906      1518.662 6        41.521                                                                    23453655.607 6  99240123.60006      1234.078 6        36.930
C36        56.000                                                                                                                                    26494270.452 5                       785.377 5        31.215                                                                    26494283.600 4                       638.099 4        29.972
I06        58.000    38498404.147 6 151076173.00506      -557.536 6        37.323
> 2025 01 01 20 30  5.0000000  0 37
G18         1.000                                                                                                                                                                    23922815.981 4                     -3050.078 4        29.592
G10         2.000    20741169.239 8 108995824.86208        98.098 8        48.957                                    20741166.737 6  84931586.66106        76.442 6        40.827    20741165.048 6  84931618.64206        76.444 6        38.913
G07         3.000                                                                                                                                                                    25444443.357 4                     -1789.428 4        28.218
G23         4.000    21297970.141 7 111921559.86607     -2700.968 7        43.706                                    21297964.012 4  87211569.55004     -2104.648 4        28.370    21297965.065 7  87211648.53807     -2104.621 7        44.971
G08         6.000    21101232.707 7 110887670.95907      1322.525 7        44.739                                    21101266.969 2  86406128.26902      1030.524 2        17.774    21101231.207 5  86406021.60605      1030.538 5        35.810
G27         7.000    19949069.652 8 104833100.24708      -870.140 8        52.093                                    19949066.920 8  81688066.41708      -678.033 8        49.762    19949067.171 7  81688125.40307      -677.896 7        42.626
G21         8.000    22898600.653 5 120333012.83205      1806.620 5        34.762                                    22898597.096 1  93765932.04501      1407.675 1         4.429
E13        16.000    23780951.996 7 124969831.17407     -2127.604 7        43.024                                                                    23780952.563 7  93321624.37107     -1588.722 7        47.535    23780952.835 7  95756055.73807     -1630.157 7        46.672
E31        17.000    27090260.276 6 142360228.21906      1436.245 6        37.429                                                                    27090255.196 5 106308090.97605      1072.812 5        33.323    27090255.475 6 109081238.44906      1100.760 6        37.149
G16        18.000    22358778.772 7 117496265.31207     -4083.009 7        43.628                                    22358780.713 3  91555418.03603     -3181.557 3        20.667
E26        19.000    23851172.232 6 125338770.12206       309.061 6        39.571                                                                    23851170.712 8  93597190.08608       230.768 8        48.683    23851170.670 8  96038848.70608       236.802 8        50.823
E03        21.000    27281252.948 4                     -1067.023 4        28.370                                                                                                                                    27281246.503 3                      -817.673 3        22.781
E21        22.000    25396013.191 5 133456929.43505     -3515.587 5        31.547                                                                    25396016.907 6  99659441.91506     -2625.527 6        39.547    25396014.884 4 102259229.14804     -2694.656 4        26.539
S36        23.000    38101932.685 6 200226869.68006      -852.466 6        36.730
S23        24.000    38057454.238 6 199993238.19506      -851.890 6        40.570
G26        25.000    24698805.602 4                     -4490.217 4        24.316                                                                                                    24698812.165 3                     -3498.878 3        23.029
R20        26.000    21141944.895 4                      1645.562 4        25.459                                                                    21141947.485 5  87932103.59805      1279.699 5        34.752
E33        28.000                                                                                                                                    27511248.391 5 107960064.91405      1192.546 5        31.019    27511245.557 5 110776384.27305      1223.227 5        32.281
R19        29.000    19791647.760 7 105871871.19107     -1966.244 7        42.622                                                                    19791643.026 6  82344845.06706     -1529.287 6        38.420
R18        30.000    22117243.775 6 118063456.97506     -3797.296 6        37.013                                                                    22117235.395 4                     -2953.983 4        24.857
R04        31.000    20828412.789 5 111535065.90805      2037.590 5        32.617
R03        32.000    20979677.797 7 112306326.68007     -1768.766 7        44.117                                                                    20979678.266 6  87348989.88506     -1375.597 6        40.970
R09        34.000    21989117.933 6 117420623.85516     -4499.452 6        40.439                                                                    21989132.580 4                     -3499.631 4        29.327
C37        36.000                                                                                                                                    25607106.770 5 133342985.49505     -3649.894 5        30.000                                                                    25607087.262 4                     -2965.661 4        28.739
C33        37.000                                                                                                                                    23179282.165 6 120700644.12206      1092.692 6        36.287                                                                    23179288.094 5  98079199.52005       887.756 5        32.617
C28        40.000                                                                                                                                    21381738.311 8 111340584.62908      -485.068 8        52.034                                                                    21381736.215 8  90473124.79708      -394.243 8        48.394
R11        41.000    23011685.156 5 122967351.50305      1842.860 5        30.453                                                                    23011650.691 5  95641252.35905      1433.578 5        31.743
C43        42.000                                                                                                                                    24006524.253 6 125008249.56506     -3309.509 6        40.133                                                                    24006519.777 5 101579510.81005     -2689.410 5        31.283
C13        45.000                                                                                                                                    38543030.761 6 200703697.11706     -1839.900 6        38.390    38543028.748 6 155196835.38606     -1422.540 6        39.018    38543011.465 3                     -1495.520 3        20.262
C08        46.000                                                                                                                                    39068629.792 4                     -2066.710 4        28.815    39068658.077 6 157313153.28706     -1598.146 6        36.246    39068613.490 3                     -1678.972 3        23.619
C14        47.000                                                                                                                                    23014594.177 6 119843020.56016      -499.592 6        37.259    23014594.499 6  92670519.11006      -386.365 6        39.880    23014595.164 6  97382290.58006      -406.133 6        40.586
C42        48.000                                                                                                                                    23981040.452 6 124875591.45606     -2123.213 6        40.887                                                                    23981044.403 6 101471680.67406     -1725.348 6        41.380
C41        49.000                                                                                                                                                                                                                                                                    25695732.545 4                      2161.882 4        28.863
C38        50.000                                                                                                                                    40551506.904 3                     -2111.668 3        23.238
C27        52.000                                                                                                                                    23452199.224 6 122121761.59106      1518.029 6        41.082                                                                    23452197.243 6  99233953.70406      1233.442 6        36.416
C36        56.000                                                                                                                                    26493520.404 5                       783.508 5        30.762                                                                    26493530.561 4                       636.325 4        28.796
I06        58.000    38499114.890 6 151078960.26706      -557.577 6        37.100
> 2025 01 01 20 30 10.0000000  0 38
G18         1.000                                                                                                                                                                    23926542.117 4                     -3050.345 4        29.308
G10         2.000    20741077.030 8 108995341.22108        95.443 8        48.307                                    20741074.509 6  84931209.78406        74.373 6        40.524    20741072.914 6  84931241.76206        74.487 6        37.796
G07         3.000    25446633.988 3                     -2298.036 3        22.819                                                                                                    25446623.125 4                     -1790.843 4        27.892
G23         4.000    21300541.902 7 111935070.37407     -2703.325 7        42.442                                    21300535.217 4  87222097.21504     -2106.489 4        28.445    21300536.437 7  87222176.19807     -2106.409 7        45.846
G08         6.000    21099975.137 7 110881062.68507      1320.899 7        44.203                                    21100012.697 3  86400978.97903      1029.275 3        18.567    21099974.158 6  86400872.31506      1029.163 6        36.389
G27         7.000    19949898.392 8 104837456.93708      -872.578 8        52.062                                    19949895.507 8  81691461.23808      -679.930 8        49.872    19949896.536 7  81691520.23107      -679.937 7        42.573
G21         8.000    22896883.277 5 120323982.06505      1805.807 5        35.400                                    22896878.396 1  93758894.90301      1407.000 1         4.000
E13        16.000    23782976.444 7 124980470.69007     -2128.179 7        42.764                                                                    23782977.145 7  93329569.46807     -1589.215 7        47.334    23782977.382 7  95764208.09507     -1630.713 7        46.074
E31        17.000    27088893.633 6 142353049.12006      1435.320 6        37.482                                                                    27088890.341 5 106302729.92805      1071.481 5        34.024    27088889.478 6 109075737.55806      1099.513 6        36.896
G16        18.000    22362663.227 6 117516683.80106     -4084.400 6        41.161                                    22362666.754 3  91571328.54203     -3182.617 3        18.567
E26        19.000    23850878.463 6 125337227.07206       308.319 6        39.297                                                                    23850877.033 8  93596037.79808       230.161 8        48.730    23850877.030 8  96037666.36308       236.192 8        50.883
E03        21.000    27282269.733 4                     -1069.630 4        27.281                                                                                                                                    27282265.640 3                      -819.102 3        23.562
E21        22.000    25399360.053 5 133474511.01405     -3516.478 5        32.635                                                                    25399362.661 6  99672571.02906     -2626.128 6        39.189    25399359.456 4 102272700.75804     -2694.697 4        25.970
S36        23.000    38102742.706 6 200231129.77906      -852.438 6        36.155
S23        24.000    38058262.269 6 199997498.12406      -852.099 6        40.281
G26        25.000    24703078.855 4                     -4490.131 4        24.632                                                                                                    24703081.263 3                     -3498.736 3        21.238
R20        26.000                                                                                                                                    21140410.589 6  87925705.59306      1279.185 6        37.278
E33        28.000                                                                                                                                    27509733.257 4 107954104.99704      1192.127 4        29.469    27509727.500 5 110770268.88405      1222.955 5        33.126
R19        29.000    19793485.402 7 105881706.31907     -1967.728 7        42.339                                                                    19793482.121 6  82352494.62206     -1530.561 6        38.868
R18        30.000    22120804.551 6 118082445.56116     -3797.851 6        36.866                                                                    22120782.295 3                     -2953.756 3        21.738
R04        31.000                                                                                                                                    20826489.099 6  86741614.17316      1582.269 6        40.467
R03        32.000    20981331.932 7 112315181.05107     -1772.906 7        45.071                                                                    20981333.153 6  87355876.60506     -1378.909 6        40.269
R09        34.000    21993331.458 7                     -4501.207 7        42.163                                                                    21993343.463 5                     -3501.195 5        31.238
R10        35.000    21218950.843 4                     -1807.024 4        29.697
C37        36.000                                                                                                                                    25610608.178 4 133361237.62204     -3650.720 4        25.609                                                                    25610590.210 4                     -2966.024 4        26.575
C33        37.000                                                                                                                                    23178235.712 6 120695185.55506      1090.652 6        36.639                                                                    23178239.271 5  98074763.99005       886.304 5        31.638
C28        40.000                                                                                                                                    21382204.477 8 111343013.08008      -486.346 8        52.286                                                                    21382202.574 8  90475098.08408      -395.203 8        48.390
R11        41.000    23009963.265 4 122958143.83704      1839.757 4        29.573                                                                    23009926.847 5  95634090.85505      1431.108 5        30.755
C43        42.000                                                                                                                                    24009701.143 6 125024799.02906     -3310.153 6        40.334                                                                    24009697.636 5 101592958.58405     -2689.926 5        30.777
C13        45.000                                                                                                                                    38544796.369 6 200712895.27606     -1839.616 6        38.628    38544794.990 6 155203947.98906     -1422.399 6        38.808    38544778.427 3                     -1495.657 3        21.310
C08        46.000                                                                                                                                    39070613.672 4                     -2066.852 4        28.256    39070640.515 6 157321143.64106     -1598.063 6        36.367    39070598.282 3                     -1679.397 3        23.524
C14        47.000                                                                                                                                    23015076.060 6 119845525.39806      -502.183 6        39.501    23015075.112 6  92672455.99506      -388.297 6        39.225    23015076.608 6  97384325.92206      -408.106 6        40.303
C42        48.000                                                                                                                                    23983079.726 6 124886213.84606     -2125.635 6        41.707                                                                    23983084.147 6 101480312.21206     -1727.264 6        41.056
C41        49.000                                                                                                                                    25693133.031 4 133791034.09404      2661.095 4        27.653                                                                    25693175.613 4                      2161.683 4        28.104
C38        50.000                                                                                                                                    40553533.426 3                     -2111.896 3        22.705
C27        52.000                                                                                                                                    23450741.911 6 122114172.55006      1517.675 6        40.484                                                                    23450739.699 5  99227786.97105      1233.214 5        35.824
C36        56.000                                                                                                                                    26492776.621 5                       780.711 5        31.366                                                                    26492779.878 4                       634.962 4        28.739
I06        58.000    38499825.390 6 151081747.66606      -557.325 6        37.138
> 2025 01 01 20 30 15.0000000  0 40
G18         1.000    23930364.842 4                     -3914.736 4        28.948                                                                                                    23930270.042 4                     -3050.814 4        28.663
G10         2.000    20740987.442 8 108994871.84608        92.354 8        48.397                                    20740984.759 6  84930844.02506        71.968 6        40.043    20740983.577 6  84930875.99206        72.076 6        36.306
G07         3.000    25448820.451 4                     -2300.545 4        26.731                                                                                                    25448807.763 4                     -1792.653 4        26.886
G23         4.000    21303115.136 6 111948593.35006     -2705.872 6        40.932                                    21303108.837 4  87232634.60404     -2108.475 4        28.142    21303109.574 7  87232713.57807     -2108.400 7        45.920
G08         6.000    21098719.985 7 110874463.42507      1318.893 7        44.974                                    21098760.880 3  86395836.71403      1027.710 3        19.940    21098718.585 6  86395730.04306      1027.714 6        36.129
G27         7.000    19950729.726 8 104841826.91808      -875.367 8        51.955                                    19950726.705 8  81694866.41608      -682.103 8        50.162    19950727.901 7  81694925.41007      -682.135 7        43.281
G21         8.000    22895164.417 6 120314956.68006      1804.538 6        36.238
G30        10.000    25629449.877 3                     -1191.571 3        19.612
E13        16.000    23785001.649 7 124991114.17607     -2129.096 7        42.652                                                                    23785002.550 7  93337517.53607     -1590.013 7        47.111    23785002.764 7  95772363.49007     -1631.385 7        45.478
E31        17.000    27087528.215 6 142345876.88806      1433.656 6        37.217                                                                    27087528.194 5 106297374.00505      1070.554 5        34.367    27087524.553 6 109070241.90906      1098.616 6        36.790
G16        18.000    22366549.630 6 117537110.06106     -4085.885 6        36.922                                    22366553.958 2  91587245.12602     -3183.808 2        15.952
E26        19.000    23850585.646 6 125335689.07706       307.001 6        39.742                                                                    23850584.364 8  93594889.28908       229.344 8        48.669    23850584.381 8  96036487.89508       235.288 8        50.907
E03        21.000    27283286.799 4                     -1071.890 4        24.105                                                                                                                                    27283286.905 3                      -821.503 3        22.971
E21        22.000    25402707.326 5 133492098.62605     -3518.234 5        33.551                                                                    25402709.606 6  99685704.62106     -2627.188 6        38.486    25402706.558 4 102286176.96604     -2696.070 4        28.161
S36        23.000    38103551.829 5 200235389.18905      -852.127 5        35.857
S23        24.000    38059073.654 6 200001757.47406      -852.099 6        40.505
G26        25.000    24707352.456 4                     -4489.122 4        26.132                                                                                                    24707355.119 3                     -3498.864 3        21.786
R20        26.000    21138862.413 3                      1644.645 3        21.810                                                                    21138874.576 6  87919311.57506      1278.201 6        38.018
R02        27.000                                                                                                                                    24156659.682 3                     -3581.005 3        22.286
E33        28.000                                                                                                                                    27508220.960 4 107948146.21804      1191.308 4        28.569    27508209.571 5 110764154.65605      1222.956 5        34.271
R19        29.000    19795325.510 7 105891550.21907     -1969.743 7        42.076                                                                    19795322.393 6  82360150.98506     -1532.135 6        39.550
R18        30.000    22124371.293 6 118101437.54006     -3798.787 6        36.439                                                                    22124339.435 4                     -2954.356 4        27.820
R04        31.000    20824593.548 6 111514724.06406      2030.800 6        36.095                                                                    20824595.016 6  86733709.87106      1579.448 6        40.594
R03        32.000    20982990.072 7 112324057.17507     -1777.447 7        44.938                                                                    20982991.826 6  87362780.25206     -1382.563 6        39.132
R09        34.000    21997548.568 6 117465637.48716     -4503.370 6        41.781                                                                    21997558.392 5                     -3502.597 5        32.018
R10        35.000    21220655.404 4                     -1811.153 4        28.019
C37        36.000                                                                                                                                                                                                                                                                    25614093.565 3                     -2968.763 3        23.067
C33        37.000                                                                                                                                    23177190.059 5 120689738.51805      1088.331 5        35.638                                                                    23177194.498 5  98070337.89805       884.327 5        30.913
C28        40.000                                                                                                                                    21382672.247 8 111345448.65108      -487.869 8        52.188                                                                    21382670.478 8  90477077.20408      -396.446 8        48.346
R11        41.000                                                                                                                                    23008210.353 5  95626942.01605      1428.224 5        31.275
C43        42.000                                                                                                                                    24012877.639 6 125041352.09906     -3310.887 6        39.760                                                                    24012876.885 4 101606409.35804     -2690.924 4        29.763
C13        45.000                                                                                                                                    38546562.900 6 200722093.83906     -1839.942 6        38.321    38546562.046 6 155211060.87506     -1422.530 6        38.526    38546543.532 3                     -1495.096 3        20.881
C08        46.000                                                                                                                                    39072598.603 4                     -2067.557 4        27.198    39072621.946 5 157329133.98005     -1598.046 5        35.467    39072582.909 3                     -1679.906 3        23.714
C14        47.000                                                                                                                                    23015561.343 6 119848044.51906      -505.209 6        41.712    23015557.257 6  92674403.93806      -390.650 6        38.763    23015560.734 6  97386372.92106      -410.696 6        39.550
C42        48.000                                                                                                                                    23985121.121 7 124896849.10307     -2128.459 7        42.311                                                                    23985126.541 6 101488954.26006     -1729.568 6        41.085
C41        49.000                                                                                                                                    25690582.599 4 133777732.59004      2660.471 4        25.263
C38        50.000                                                                                                                                    40555564.387 3                     -2112.882 3        21.071
C27        52.000                                                                                                                                    23449285.378 6 122106586.47506      1516.814 6        39.583                                                                    23449282.733 5  99221622.63605      1232.767 5        35.257
C36        56.000                                                                                                                                                                                                                                                                    26492032.147 4                       632.659 4        27.581
I06        58.000    38500535.081 6 151084534.53106      -557.469 6        37.331
> 2025 01 01 20 30 20.0000000  0 38
G18         1.000                                                                                                                                                                    23933999.048 4                     -3050.683 4        27.665
G10         2.000    20740901.257 8 108994417.54508        89.368 8        48.008                                    20740897.545 6  84930490.01206        69.642 6        39.300    20740897.675 5  84930521.99205        69.745 5        33.144
G07         3.000    25451010.334 4                     -2302.125 4        29.536                                                                                                    25450996.739 4                     -1793.664 4        25.714
G23         4.000    21305692.257 6 111962129.62106     -2708.571 6        38.471                                    21305684.908 4  87243182.35204     -2110.575 4        27.234    21305685.288 7  87243261.33707     -2110.558 7        45.512
G08         6.000    21097466.756 7 110867874.02907      1316.969 7        45.369                                    21097511.177 3  86390702.17503      1026.197 3        20.024    21097462.941 5  86390595.46705      1026.200 5        35.871
G27         7.000    19951563.859 8 104846211.05308      -878.148 8        51.415                                    19951560.717 8  81698282.62008      -684.271 8        50.315    19951562.563 7  81698341.62007      -684.299 7        44.054
G21         8.000    22893449.095 6 120305937.40206      1803.168 6        38.114
G30        10.000    25630589.000 3                     -1188.887 3        20.310
E13        16.000    23787027.475 7 125001762.47507     -2130.062 7        42.726                                                                    23787028.925 7  93345469.18407     -1590.659 7        46.984    23787028.966 7  95780522.56507     -1632.068 7        44.901
E31        17.000    27086164.970 6 142338712.44906      1432.135 6        37.301                                                                    27086165.757 5 106292023.92305      1069.385 5        34.738    27086161.710 6 109064752.25406      1097.342 6        37.062
G16        18.000    22370435.681 4 117557544.97204     -4087.877 4        28.825                                    22370442.740 2  91603168.40702     -3185.372 2        13.030
E26        19.000    23850294.702 6 125334156.93506       305.901 6        40.675                                                                    23850292.767 8  93593745.16608       228.423 8        48.699    23850292.740 8  96035313.92208       234.394 8        50.936
E03        21.000    27284303.033 3                     -1074.489 3        23.429                                                                                                                                    27284308.313 3                      -823.014 3        19.701
E21        22.000    25406054.815 5 133509693.02105     -3519.424 5        35.124                                                                    25406058.199 6  99698843.30706     -2628.345 6        38.024    25406055.308 4 102299658.40404     -2696.852 4        29.393
S36        23.000    38104367.148 6 200239648.63806      -851.970 6        36.594
S23        24.000    38059883.586 6 200006017.11106      -852.047 6        40.417
G26        25.000    24711624.492 4                     -4489.524 4        25.038                                                                                                    24711635.200 3                     -3498.791 3        22.438
R20        26.000                                                                                                                                    21137336.184 6  87912922.11506      1277.484 6        36.771
R02        27.000                                                                                                                                    24160967.728 3                     -3582.612 3        23.771
E33        28.000                                                                                                                                                                                                    27506692.439 5 110758042.23005      1222.539 5        34.748
R19        29.000    19797167.296 6 105901403.68906     -1971.622 6        41.726                                                                    19797165.005 6  82367814.76106     -1533.389 6        39.631
R04        31.000    20822700.009 6 111504578.62406      2027.489 6        38.021                                                                    20822705.192 6  86725818.94006      1576.880 6        40.000
R03        32.000    20984652.810 7 112332956.16707     -1782.011 7        45.679                                                                    20984652.570 6  87369701.66306     -1385.941 6        37.792
R09        34.000    22001766.047 7 117488159.58617     -4505.513 7        42.004                                                                    22001772.574 5                     -3504.164 5        32.383
C37        36.000                                                                                                                                                                                                                                                                    25617598.150 3                     -2968.674 3        22.438
C33        37.000                                                                                                                                    23176149.267 6 120684303.84006      1085.542 6        36.060                                                                    23176154.840 5  98065921.73905       882.364 5        31.683
C28        40.000                                                                                                                                    21383141.642 8 111347892.16508      -489.416 8        52.102                                                                    21383139.810 8  90479062.74608      -397.682 8        48.635
R11        41.000    23006549.773 5 122939778.10605      1833.835 5        30.106                                                                    23006493.476 5  95619806.37805      1426.085 5        30.732
C43        42.000                                                                                                                                    24016055.761 6 125057909.66306     -3311.938 6        38.805                                                                    24016055.957 4 101619863.70304     -2691.454 4        29.716
C13        45.000                                                                                                                                    38548329.882 6 200731293.63206     -1840.018 6        38.616    38548328.587 6 155218174.75806     -1422.976 6        38.165    38548311.943 3                     -1498.161 3        20.500
C08        46.000                                                                                                                                    39074580.144 4                     -2066.482 4        26.982    39074603.980 5 157337125.00205     -1598.246 5        35.200    39074566.869 4                     -1679.426 4        24.571
C14        47.000                                                                                                                                    23016050.254 7 119850578.78207      -508.362 7        43.289    23016044.155 6  92676363.56406      -393.120 6        38.486    23016047.718 6  97388432.17406      -412.936 6        38.468
C42        48.000                                                                                                                                    23987165.938 7 124907498.02407     -2131.095 7        42.597                                                                    23987171.539 6 101497607.37706     -1731.642 6        41.282
C41        49.000                                                                                                                                    25688025.197 3                      2659.629 3        22.438
C38        50.000                                                                                                                                    40557590.010 3                     -2110.657 3        21.024
C27        52.000                                                                                                                                    23447829.329 6 122099004.18006      1516.246 6        38.721                                                                    23447826.763 5  99215461.40805      1231.768 5        35.414
C36        56.000                                                                                                                                                                                                                                                                    26491285.932 4                       631.542 4        27.760
I06        58.000    38501244.535 6 151087321.46306      -557.277 6        36.964
> 2025 01 01 20 30 25.0000000  0 38
G18         1.000                                                                                                                                                                    23937721.983 4                     -3051.380 4        27.713
G10         2.000    20740817.193 7 108993977.53107        86.392 7        47.438                                    20740812.767 6  84930147.13806        67.317 6        38.447    20740812.709 5  84930179.12205        67.415 5        30.347
G07         3.000    25453208.208 5                     -2304.035 5        32.521
G23         4.000    21308271.610 5 111975678.37505     -2711.086 5        35.262                                    21308263.111 4  87253739.83604     -2112.523 4        25.489    21308263.736 7  87253818.83207     -2112.503 7        44.789
G08         6.000    21096214.083 7 110861293.69107      1315.054 7        44.424                                    21096262.419 3  86385574.70803      1024.708 3        18.478    21096210.776 5  86385467.91705      1024.882 5        35.833
G27         7.000    19952400.714 8 104850608.52908      -880.926 8        51.098                                    19952397.371 8  81701709.22208      -686.436 8        50.484    19952398.428 7  81701768.23007      -686.549 7        44.047
G21         8.000    22891735.070 6 120296923.46406      1802.305 6        39.003
G30        10.000    25631729.975 3                     -1191.972 3        23.524
E13        16.000    23789054.522 7 125012414.78707     -2131.046 7        42.347                                                                    23789056.031 7  93353423.81807     -1591.233 7        46.643    23789055.852 7  95788684.72007     -1632.787 7        44.507
E31        17.000    27084802.297 6 142331554.96106      1430.829 6        37.285                                                                    27084802.911 5 106286679.00905      1068.492 5        34.776    27084799.886 6 109059267.94106      1096.292 6        36.949
G16        18.000    22374316.822 3                     -4090.157 3        19.910
E26        19.000    23850004.357 6 125332629.90006       304.890 6        41.447                                                                    23850002.281 8  93592604.83908       227.660 8        48.697    23850002.083 8  96034143.84508       233.547 8        50.954
E03        21.000    27285310.776 3                     -1076.578 3        22.057                                                                                                                                    27285334.809 3                      -821.457 3        18.776
E21        22.000    25409404.243 5 133527293.43105     -3520.707 5        35.652                                                                    25409407.681 6  99711986.48606     -2629.280 6        37.025    25409404.442 5 102313144.38605     -2697.686 5        30.747
S36        23.000    38105173.230 5 200243907.63405      -851.461 5        35.981
S23        24.000    38060692.502 6 200010276.39406      -851.906 6        40.522
G26        25.000    24715892.937 3                     -4489.344 3        23.105
R20        26.000    21135800.948 5                      1641.469 5        32.054                                                                    21135800.630 6  87906536.62506      1276.502 6        36.427
R02        27.000    24165244.599 3                     -4605.229 3        21.619
E33        28.000                                                                                                                                    27505208.411 4 107936233.33004      1191.192 4        28.322    27505174.580 5 110751930.97505      1222.056 5        35.300
R19        29.000    19799011.678 6 105911265.95506     -1973.535 6        41.194                                                                    19799007.713 6  82375485.42206     -1534.888 6        39.559
R18        30.000    22131503.828 3                     -3800.476 3        22.629                                                                    22131477.785 5                     -2954.816 5        34.152
R04        31.000                                                                                                                                    20820816.879 6  86717940.78206      1574.300 6        39.961
R03        32.000    20986321.150 7 112341877.08207     -1786.447 7        46.569                                                                    20986318.303 6  87376640.13506     -1389.467 6        38.562
R09        34.000    22005983.892 7 117510691.31007     -4507.422 7        42.563                                                                    22005989.149 5                     -3505.658 5        30.241
C37        36.000                                                                                                                                                                                                                                                                    25621104.470 3                     -2973.335 3        20.143
C33        37.000                                                                                                                                    23175110.147 5 120678880.64805      1083.269 5        35.019
C28        40.000                                                                                                                                    21383612.385 8 111350342.84608      -490.907 8        51.599                                                                    21383610.429 8  90481054.13008      -398.945 8        48.634
R11        41.000    23004833.096 5 122930620.13105      1829.732 5        35.376                                                                    23004778.557 5  95612683.51905      1423.439 5        31.879
C43        42.000                                                                                                                                    24019235.247 6 125074470.87306     -3312.735 6        37.459                                                                    24019237.157 5 101633321.05005     -2692.190 5        30.121
C13        45.000                                                                                                                                    38550096.637 6 200740493.79406     -1840.169 6        38.393    38550095.022 6 155225288.90806     -1422.959 6        38.024    38550079.790 3                     -1504.330 3        18.627
C08        46.000                                                                                                                                    39076566.108 4                     -2066.947 4        27.126    39076585.064 5 157345116.08605     -1598.273 5        35.243    39076551.554 3                     -1679.698 3        23.295
C14        47.000                                                                                                                                    23016540.694 7 119853127.36007      -511.259 7        44.539    23016533.609 6  92678334.27306      -395.449 6        37.614    23016535.538 6  97390503.04206      -415.159 6        37.350
C42        48.000                                                                                                                                    23989213.363 7 124918159.84007     -2133.697 7        42.961                                                                    23989218.939 6 101506270.97206     -1733.776 6        41.569
C41        49.000                                                                                                                                    25685469.132 3                      2658.764 3        21.714                                                                    25685484.494 5                      2161.024 5        32.850
C27        52.000                                                                                                                                    23446372.871 6 122091424.91106      1515.211 6        38.703                                                                    23446371.064 5  99209302.61005      1231.418 5        34.952
