     3.04           OBSERVATION DATA    M                   RINEX VERSION / TYPE
ssrcrin-15.6.1x                         20250101 220000 UTC PGM / RUN BY / DATE 
(00000000023479385599111004) Septentrio proprietary         COMMENT             
ract                                                        MARKER NAME         
01                                                          MARKER NUMBER       
geodetic                                                    MARKER TYPE         
NFB                 CLIMERS@TUW                             OBSERVER / AGENCY   
3296359             SEPT ASTERX SB3 PROB4.14.4              REC # / TYPE / VERS 
Unknown             Unknown                                 ANT # / TYPE        
  4127447.4657  1206915.1454  4695543.9747                  APPROX POSITION XYZ 
        0.0000        0.0000        0.0000                  ANTENNA: DELTA H/E/N
G   23 X1  C1C L1C D1C S1C C1W S1W C2W L2W D2W S2W C2L L2L  SYS / # / OBS TYPES 
       D2L S2L C5Q L5Q D5Q S5Q C1L L1L D1L S1L              SYS / # / OBS TYPES 
E   21 X1  C1C L1C D1C S1C C6C L6C D6C S6C C5Q L5Q D5Q S5Q  SYS / # / OBS TYPES 
       C7Q L7Q D7Q S7Q C8Q L8Q D8Q S8Q                      SYS / # / OBS TYPES 
S    9 X1  C1C L1C D1C S1C C5I L5I D5I S5I                  SYS / # / OBS TYPES 
R   17 X1  C1C L1C D1C S1C C2P L2P D2P S2P C2C L2C D2C S2C  SYS / # / OBS TYPES 
       C3Q L3Q D3Q S3Q                                      SYS / # / OBS TYPES 
C   25 X1  C1P L1P D1P S1P C5P L5P D5P S5P C2I L2I D2I S2I  SYS / # / OBS TYPES 
       C7I L7I D7I S7I C6I L6I D6I S6I C7D L7D D7D S7D      SYS / # / OBS TYPES 
J   17 X1  C1C L1C D1C S1C C2L L2L D2L S2L C5Q L5Q D5Q S5Q  SYS / # / OBS TYPES 
       C1L L1L D1L S1L                                      SYS / # / OBS TYPES 
I    5 X1  C5A L5A D5A S5A                                  SYS / # / OBS TYPES 
SEPTENTRIO RECEIVERS OUTPUT ALIGNED CARRIER PHASES.         COMMENT             
NO FURTHER PHASE SHIFT APPLIED IN THE RINEX ENCODER.        COMMENT             
G L1C                                                       SYS / PHASE SHIFT   
G L2W                                                       SYS / PHASE SHIFT   
G L2L  0.00000                                              SYS / PHASE SHIFT   
G L5Q  0.00000                                              SYS / PHASE SHIFT   
G L1L  0.00000                                              SYS / PHASE SHIFT   
E L1C  0.00000                                              SYS / PHASE SHIFT   
E L6C  0.00000                                              SYS / PHASE SHIFT   
E L5Q  0.00000                                              SYS / PHASE SHIFT   
E L7Q  0.00000                                              SYS / PHASE SHIFT   
E L8Q  0.00000                                              SYS / PHASE SHIFT   
S L1C                                                       SYS / PHASE SHIFT   
S L5I                                                       SYS / PHASE SHIFT   
R L1C                                                       SYS / PHASE SHIFT   
R L2P  0.00000                                              SYS / PHASE SHIFT   
R L2C                                                       SYS / PHASE SHIFT   
R L3Q  0.00000                                              SYS / PHASE SHIFT   
C L1P  0.00000                                              SYS / PHASE SHIFT   
C L5P  0.00000                                              SYS / PHASE SHIFT   
C L2I                                                       SYS / PHASE SHIFT   
C L7I                                                       SYS / PHASE SHIFT   
C L6I                                                       SYS / PHASE SHIFT   
C L7D                                                       SYS / PHASE SHIFT   
J L1C                                                       SYS / PHASE SHIFT   
J L2L  0.00000                                              SYS / PHASE SHIFT   
J L5Q  0.00000                                              SYS / PHASE SHIFT   
J L1L  0.00000                                              SYS / PHASE SHIFT   
I L5A                                                       SYS / PHASE SHIFT   
  2025     1     1    22     0    0.0000000     GPS         TIME OF FIRST OBS   
 C1C    0.000 C2C    0.000 C2P    0.000                     GLONASS COD/PHS/BIS 
DBHZ                                                        SIGNAL STRENGTH UNIT
    18                                                      LEAP SECONDS        
 24 R01  1 R02 -4 R03  5 R04  6 R05  1 R06 -4 R07  5 R08  6 GLONASS SLOT / FRQ #
    R09 -2 R10 -7 R11  0 R12 -1 R13 -2 R14 -7 R15  0 R16 -1 GLONASS SLOT / FRQ #
    R17  4 R18 -3 R19  3 R20  2 R21  4 R22 -3 R23  3 R24  2 GLONASS SLOT / FRQ #
                                                            END OF HEADER       
> 2025 01 01 22 00  0.0000000  0 35
G14         1.000    24589956.891 6 129221110.45306      1004.540 6        40.605                                    24589956.169 1 100691785.55801       782.716 1        11.185    24589951.700 4 100691800.54804       783.076 4        29.924
G10         2.000    21610474.562 8 113563785.86408     -2764.329 8        49.148                                    21610470.259 6  88491262.36306     -2154.025 6        38.997    21610474.361 6  88491273.35006     -2154.152 6        36.681
G32         3.000    22580177.106 5 118659767.17105      1010.900 5        35.133                                    22580176.430 3  92462054.24403       787.708 3        20.571    22580173.481 5  92462087.24305       787.966 5        32.269
G23         4.000                                                                                                                                                                    24496758.030 4                     -3340.988 4        27.054
E07         5.000    25733443.009 6 135230169.08306      1361.339 6        39.408                                                                    25733444.347 4 100983604.46204      1016.295 4        27.353    25733451.365 6 103617955.11106      1043.191 6        39.303
G08         6.000    20505724.839 8 107758845.11108     -1540.314 8        51.336                                    20505720.940 7  83967498.10907     -1200.240 7        45.421    20505721.599 6  83967526.09606     -1200.115 6        41.945
G27         7.000    21761088.897 5 114355199.03705     -3690.781 5        32.760                                    21761072.709 4  89107887.92604     -2875.912 4        24.466    21761071.438 5  89107955.87505     -2875.932 5        34.876
G21         8.000    21175239.189 7 111276724.76707       319.410 7        44.537                                    21175229.051 3  86709046.90703       248.895 3        22.133
G02         9.000    22692261.108 6 119248866.90606      1394.614 6        37.123                                    22692248.181 2  92920933.09602      1086.708 2        15.619
E08        12.000    26131548.606 7 137322209.74307     -1211.598 7        42.449                                                                    26131547.377 7 102545846.07907      -904.797 7        45.485    26131545.474 7 105220929.60207      -928.344 7        43.509
E13        16.000    25774114.061 6 135443860.61006     -2852.943 6        39.492                                                                    25774117.513 4 101143207.46704     -2129.886 4        25.398    25774120.844 5 103781680.32305     -2186.038 5        34.033
E31        17.000    26100455.302 5 137158812.22605      -857.557 5        34.662                                                                    26100465.162 5 102423789.58205      -640.388 5        32.539    26100454.330 5 105095720.40105      -657.007 5        35.005
E26        19.000    23532748.490 7 123665415.26407      -837.639 7        43.767                                                                    23532745.940 7  92347624.41307      -625.563 7        43.342    23532744.980 7  94756625.61007      -641.951 7        44.688
S36        23.000    38378436.012 6 201679924.40806      -852.112 6        36.374
S23        24.000    38333214.014 6 201442359.74906      -850.760 6        40.405
R12        25.000    23900338.586 5 127671344.58105      1059.283 5        32.856                                                                    23900344.951 4  99300019.67804       823.988 4        29.602
R20        26.000    19671562.320 6 105192707.21206      -127.119 6        40.007                                                                    19671563.231 7  81816725.89507       -98.960 7        42.148
R05        27.000    20111791.056 7 107509304.52507      1519.749 7        47.735                                                                    20111790.097 7  83618162.47507      1182.096 7        44.474
E33        28.000    25524543.736 6 134132370.16106      1088.956 6        41.359                                                                    25524536.783 6 100163775.50906       813.139 6        37.062    25524537.488 6 102776823.08106       834.114 6        40.107
R21        30.000    22511900.549 7 120465968.74107      2499.834 7        43.539                                                                    22511902.140 6  93695584.50406      1944.422 6        37.750
R04        31.000    20474264.486 7 109638732.25907     -2659.587 7        44.033
R03        32.000                                                                                                                                    24130688.195 3                     -3919.343 3        21.310
C05        33.000                                                                                                                                                                                                    39337496.700 5                      -618.811 5        31.509
C33        37.000                                                                                                                                    22987894.564 6 119703978.16306     -1918.956 6        40.083                                                                    22987903.758 6  97269318.51606     -1559.710 6        39.625
C30        38.000                                                                                                                                    25283925.340 5                      2081.916 5        34.971                                                                    25283891.462 5 106984490.04405      1691.575 5        34.981
C28        40.000                                                                                                                                    22215431.757 6 115681866.22706     -2325.819 6        39.270                                                                    22215434.491 6  94000772.27806     -1890.103 6        41.018
R11        41.000    22757347.916 6 121608607.66206     -2604.019 6        41.001                                                                    22757356.158 4                     -2026.073 4        26.539
I01        44.000   370462489.959 6 150633612.73906     -2361.612 6        40.095
C13        45.000                                                                                                                                    39882477.425 3                     -1841.604 3        21.810    39882495.609 5 160590263.11905     -1422.238 5        31.192    39882497.352 4                     -1494.718 4        29.393
C14        47.000                                                                                                                                    24494626.983 4 127550105.08004     -3291.080 4        29.223    24494651.024 6  98629831.17306     -2544.726 6        36.079    24494638.064 6 103644833.49306     -2674.074 6        37.573
C41        49.000                                                                                                                                    22909840.042 7 119297609.10807      1192.216 7        47.364                                                                    22909844.314 5  96939084.87705       968.490 5        34.895
C27        52.000                                                                                                                                    21844956.083 6 113752452.92006       239.731 6        38.489                                                                    21844959.427 6  92433175.18906       194.790 6        37.648
C42        54.000                                                                                                                                    26757714.188 3                     -4030.959 3        21.071
C36        56.000                                                                                                                                    26482958.407 5 137903693.48005     -1922.681 5        33.503                                                                    26482948.701 5 112058102.33905     -1562.788 5        33.742
I06        58.000    38650317.828 5 151672318.14905      -535.604 5        30.921
> 2025 01 01 22 00  5.0000000  0 36
G14         1.000    24589001.855 6 129216095.12906      1001.769 6        39.562                                    24589001.518 1 100687877.50201       780.592 1        11.481    24588999.032 4 100687892.45904       780.876 4        28.199
G10         2.000    21613106.346 8 113577614.15608     -2766.606 8        49.245                                    21613102.028 6  88502037.65806     -2155.795 6        39.009    21613104.796 6  88502048.63006     -2155.794 6        37.939
G32         3.000    22579215.775 5 118654720.71605      1008.038 5        34.595                                    22579214.799 3  92458121.91203       785.475 3        22.438    22579215.363 5  92458154.97905       785.291 5        35.381
G23         4.000                                                                                                                                                                    24500839.888 4                     -3341.571 4        24.842
E07         5.000    25732148.831 6 135223367.45406      1359.583 6        39.853                                                                    25732149.611 4 100978525.24904      1015.188 4        29.005    25732157.514 6 103612743.48806      1041.625 6        37.875
G08         6.000    20507192.370 8 107766555.84508     -1543.682 8        51.621                                    20507188.455 7  83973506.46207     -1202.865 7        45.485    20507189.640 6  83973534.46406     -1202.961 6        41.788
G27         7.000    21764601.585 5 114373658.23705     -3692.785 5        33.695                                    21764585.276 4  89122271.62404     -2877.499 4        24.211    21764584.342 5  89122339.55705     -2877.532 5        33.772
G21         8.000    21174936.516 7 111275132.80107       317.658 7        44.566                                    21174925.419 3  86707806.41003       247.527 3        22.019
G02         9.000    22690932.278 6 119241897.35006      1393.559 6        37.618                                    22690923.088 2  92915502.25002      1085.878 2        16.340
E08        12.000    26132703.358 7 137328275.41007     -1214.349 7        42.400                                                                    26132701.473 7 102550375.64007      -906.828 7        45.618    26132699.614 7 105225577.32407      -930.503 7        43.230
R10        15.000    24282294.959 3                     -4722.121 3        18.687
E13        16.000    25776829.740 6 135458127.69706     -2853.969 6        39.550                                                                    25776835.791 4 101153861.42204     -2130.774 4        25.865    25776833.032 5 103792612.25105     -2186.535 5        33.760
E31        17.000    26101273.220 5 137163107.14805      -860.391 5        35.286                                                                    26101277.902 5 102426996.85805      -642.461 5        30.091    26101275.522 6 105099011.32206      -659.238 6        36.832
E26        19.000    23533546.687 7 123669607.74907      -839.028 7        44.105                                                                    23533543.471 7  92350755.16907      -626.607 7        42.573    23533542.830 7  94759838.02207      -642.863 7        44.888
S36        23.000    38379245.894 6 201684187.09306      -852.669 6        36.359
S23        24.000    38334025.104 6 201446615.11406      -851.148 6        40.358
R12        25.000    23899354.434 5 127666058.92905      1055.241 5        34.500                                                                    23899362.296 4  99295908.61904       821.148 4        27.449
R20        26.000    19671682.732 6 105193349.74006      -129.616 6        40.346                                                                    19671683.271 7  81817225.61707      -100.913 7        42.009
R05        27.000    20110372.798 8 107501717.40508      1515.469 8        48.861                                                                    20110370.439 7  83612261.38907      1178.641 7        44.691
E33        28.000    25523508.789 6 134126928.85006      1087.877 6        41.790                                                                    25523501.900 6 100159712.19306       812.304 6        37.633    25523502.010 6 102772653.75006       833.738 6        39.724
R21        30.000    22509564.030 7 120453471.60807      2499.240 7        42.279                                                                    22509567.537 6  93685864.53406      1943.774 6        39.237
R04        31.000    20476755.098 7 109652042.25307     -2664.074 7        44.388                                                                    20476750.659 5                     -2072.304 5        34.281
R03        32.000    24135323.220 4                     -5039.983 4        24.932
C05        33.000                                                                                                                                                                                                    39338265.077 5                      -619.512 5        31.502
C33        37.000                                                                                                                                    22989737.285 6 119713581.61606     -1921.996 6        39.733                                                                    22989752.572 6  97277121.99506     -1561.847 6        40.324
C30        38.000                                                                                                                                    25281921.094 5 131649633.80215      2081.408 5        35.881                                                                    25281892.875 5 106976032.35105      1691.362 5        35.224
C28        40.000                                                                                                                                    22217666.509 6 115693500.94506     -2327.927 6        38.664                                                                    22217668.215 6  94010226.43106     -1891.674 6        39.393
R11        41.000    22759785.144 6 121621638.97316     -2608.095 6        40.849                                                                    22759799.667 4                     -2028.448 4        26.910
I01        44.000   370465499.455 6 150645422.42106     -2362.073 6        39.907
C13        45.000                                                                                                                                    39884235.117 3                     -1839.436 3        22.629    39884263.607 4 160597375.20604     -1422.663 4        29.867    39884264.117 4                     -1494.794 4        28.929
C14        47.000                                                                                                                                                                                                    24497806.208 5  98642558.71705     -2546.436 5        34.876    24497799.547 6 103658208.19206     -2675.805 6        37.962
C41        49.000                                                                                                                                    22908696.639 7 119291655.19007      1189.659 7        47.352                                                                    22908699.078 5  96934246.84205       966.930 5        32.383
C27        52.000                                                                                                                                    21844732.675 6 113751259.93606       237.641 6        39.967                                                                    21844730.724 6  92432205.82406       193.300 6        37.372
C42        54.000                                                                                                                                    26761586.000 3                     -4031.845 3        20.810
C36        56.000                                                                                                                                    26484810.209 5 137913315.24405     -1925.443 5        33.713                                                                    26484797.194 5 112065920.79305     -1564.611 5        34.376
I06        58.000    38651000.120 5 151674996.01505      -535.410 5        30.762
> 2025 01 01 22 00 10.0000000  0 36
G14         1.000    24588049.511 6 129211093.75706       998.731 6        39.090                                    24588049.474 1 100683980.33901       778.239 1        10.074    24588048.070 4 100683995.33104       778.730 4        29.147
G10         2.000    21615739.537 8 113591452.82908     -2768.865 8        48.561                                    21615736.144 6  88512821.04206     -2157.556 6        39.108    21615738.915 6  88512832.01506     -2157.522 6        38.559
G32         3.000    22578259.000 5 118649687.75005      1005.237 5        34.629                                    22578256.490 3  92454200.13003       783.293 3        23.981    22578259.814 6  92454233.16706       783.311 6        37.992
G23         4.000                                                                                                                                                                    24504920.320 4                     -3341.621 4        25.669
E07         5.000    25730856.356 6 135216574.66606      1357.577 6        40.384                                                                    25730857.765 5 100973452.63705      1014.357 5        30.340    25730865.204 5 103607538.62005      1040.436 5        35.895
G08         6.000    20508662.797 8 107774282.39208     -1546.896 8        51.679                                    20508658.894 7  83979527.13607     -1205.374 7        45.710    20508659.180 6  83979555.13006     -1205.338 6        40.853
G27         7.000    21768113.835 5 114392128.28705     -3694.876 5        34.371                                    21768099.815 4  89136663.79404     -2879.113 4        24.165    21768098.593 5  89136731.72005     -2879.423 5        32.018
G21         8.000    21174635.330 7 111273549.28507       315.778 7        44.215                                    21174623.683 3  86706572.49503       246.063 3        22.095
G02         9.000    22689605.403 6 119234932.87006      1392.267 6        38.685                                    22689598.508 2  92910075.36502      1084.893 2        17.434
E08        12.000    26133860.442 7 137334354.11807     -1217.051 7        43.039                                                                    26133857.894 7 102554914.94507      -908.828 7        45.330    26133856.363 7 105230235.03807      -932.548 7        43.069
R10        15.000    24286724.892 3                     -4717.438 3        20.762
E13        16.000    25779545.844 6 135472398.04606     -2854.496 6        40.029                                                                    25779557.055 4 101164517.72604     -2130.470 4        24.707    25779547.220 5 103803546.68605     -2187.182 5        33.551
E31        17.000    26102092.974 6 137167415.11006      -863.095 6        36.193                                                                    26102093.325 5 102430213.86505      -644.727 5        30.121    26102097.107 6 105102312.20806      -661.344 6        37.255
E26        19.000    23534345.402 7 123673806.06807      -840.363 7        44.292                                                                    23534341.894 7  92353890.27407      -627.443 7        42.017    23534341.883 7  94763054.92207      -643.931 7        45.010
S36        23.000    38380061.491 6 201688450.64706      -852.829 6        36.208
S23        24.000    38334833.037 6 201450871.27906      -851.335 6        40.429
R12        25.000    23898370.869 5 127660792.27505      1051.354 5        33.737                                                                    23898376.593 4  99291812.25404       817.398 4        24.917
R20        26.000    19671804.836 6 105194004.34806      -132.184 6        40.703                                                                    19671805.952 6  81817734.75106      -102.927 6        41.156
R05        27.000    20108957.041 8 107494150.34808      1511.317 8        49.605                                                                    20108954.504 7  83606375.91007      1175.468 7        44.191
E33        28.000    25522474.057 6 134121490.86306      1087.181 6        41.661                                                                    25522467.344 6 100155651.35006       811.950 6        37.834    25522467.035 6 102768486.99606       833.069 6        39.255
R19        29.000                                                                                                                                    22132291.477 5                     -2944.088 5        31.517
R21        30.000    22507230.863 7 120440977.39507      2498.490 7        42.021                                                                    22507232.556 6  93676146.82406      1943.376 6        39.565
R04        31.000    20479247.374 7 109665373.34707     -2668.318 7        42.789                                                                    20479235.859 6  85295318.41916     -2075.324 6        36.026
R03        32.000    24140034.160 4                     -5041.414 4        27.940
C05        33.000                                                                                                                                                                                                    39339033.007 5                      -619.417 5        31.200
C33        37.000                                                                                                                                    22991582.275 6 119723198.92306     -1925.026 6        39.456                                                                    22991596.737 6  97284936.75906     -1563.960 6        41.042
C30        38.000                                                                                                                                    25279920.694 6 131639227.84006      2080.876 6        36.567                                                                    25279894.726 5 106967576.66505      1690.924 5        34.967
C28        40.000                                                                                                                                    22219903.730 6 115705145.14006     -2329.838 6        38.928                                                                    22219903.715 6  94019688.26706     -1892.879 6        37.406
R11        41.000    22762228.965 6                     -2612.037 6        38.880                                                                    22762255.241 4                     -2031.464 4        28.645
I01        44.000   370468509.608 6 150657234.15906     -2362.570 6        39.679
C13        45.000                                                                                                                                    39886000.723 3                     -1840.819 3        20.976    39886028.227 4 160604487.19304     -1422.564 4        29.687    39886029.267 4                     -1495.003 4        28.815
C14        47.000                                                                                                                                    24500977.354 5 127583033.78305     -3294.659 5        34.938    24500968.938 5  98655293.74205     -2547.901 5        33.689    24500962.650 6 103671590.67406     -2677.313 6        38.252
C41        49.000                                                                                                                                    22907555.436 7 119285713.38707      1187.113 7        47.126                                                                    22907556.024 5  96929418.64305       964.588 5        30.287
C27        52.000                                                                                                                                    21844509.188 6 113750076.34406       235.741 6        40.224                                                                    21844503.821 6  92431244.04106       191.726 6        37.463
C36        56.000                                                                                                                                    26486663.428 5 137922949.00405     -1927.943 5        30.370                                                                    26486647.436 5 112073748.98205     -1566.449 5        35.086
I06        58.000    38651682.685 5 151677674.35405      -535.610 5        30.317
> 2025 01 01 22 00 15.0000000  0 36
G14         1.000    24587100.320 6 129206105.52206       996.623 6        36.771                                    24587099.983 1 100680093.39401       776.535 1        10.296    24587098.078 5 100680108.42105       776.553 5        30.219
G10         2.000    21618374.051 8 113605301.02308     -2770.421 8        48.440                                    21618372.233 6  88523611.84406     -2158.768 6        39.174    21618374.514 6  88523622.81706     -2158.855 6        38.928
G32         3.000    22577305.869 6 118644667.44606      1002.961 6        38.300                                    22577301.289 4  92450288.20204       781.537 4        25.654    22577304.653 6  92450321.23206       781.388 6        39.156
G23         4.000                                                                                                                                                                    24508999.124 4                     -3341.083 4        24.331
E07         5.000    25729565.132 6 135209789.85206      1356.363 6        40.462                                                                    25729567.557 5 100968386.10505      1012.433 5        32.150    25729576.064 5 103602339.85205      1039.235 5        34.162
G08         6.000    20510135.891 8 107782023.91008     -1549.629 8        52.024                                    20510132.035 7  83985559.47607     -1207.501 7        45.884    20510132.916 6  83985587.48206     -1207.541 6        40.498
G27         7.000    21771625.121 6 114410608.36006     -3697.040 6        36.204                                    21771616.245 3  89151063.75103     -2880.813 3        23.543    21771615.045 5  89151131.71005     -2880.390 5        30.943
G21         8.000    21174335.291 7 111271973.35007       314.571 7        43.378                                    21174323.700 3  86705344.48803       245.121 3        21.833
G02         9.000    22688281.217 6 119227972.56306      1391.746 6        39.144                                    22688274.644 3  92904651.75403      1084.472 3        18.478
E08        12.000    26135019.481 7 137340445.03007     -1219.295 7        43.390                                                                    26135016.633 7 102559463.35707      -910.466 7        45.115    26135015.440 7 105234902.10207      -934.184 7        42.840
E13        16.000    25782261.989 6 135486670.84906     -2854.776 6        40.462                                                                    25782275.469 4 101175176.07604     -2131.485 4        24.286    25782261.497 5 103814482.95205     -2187.097 5        32.874
E31        17.000    26102915.610 6 137171735.20206      -864.992 6        36.628                                                                    26102914.599 5 102433439.93905      -645.954 5        30.498    26102920.146 6 105105622.41006      -663.014 6        37.837
E26        19.000    23535144.852 7 123678009.36707      -840.965 7        44.360                                                                    23535141.502 6  92357029.11906      -627.941 6        41.330    23535141.978 7  94766275.64007      -644.505 7        45.196
S36        23.000    38380869.375 5 201692714.35005      -852.553 5        35.824
S23        24.000    38335643.997 6 201455127.26606      -851.177 6        40.057
R12        25.000    23897387.149 5 127655543.86005      1048.083 5        33.737
R20        26.000    19671928.674 6 105194670.29006      -134.162 6        40.691                                                                    19671931.567 7  81818252.69807      -104.353 7        42.326
R05        27.000    20107544.247 8 107486602.83208      1507.767 8        49.205                                                                    20107542.695 7  83600505.63107      1172.751 7        43.968
E33        28.000    25521438.192 6 134116055.37106      1086.984 6        41.316                                                                    25521433.410 6 100151592.36406       811.837 6        38.168    25521432.893 6 102764322.12406       832.879 6        38.934
R19        29.000    22135836.006 4                     -3786.778 4        26.635
R21        30.000    22504897.116 6 120428485.22406      2498.322 6        41.504                                                                    22504897.320 6  93666430.69106      1943.129 6        39.643
R04        31.000    20481735.354 6 109678724.81806     -2672.195 6        40.927                                                                    20481728.309 5  85305702.97105     -2078.388 5        35.362
R03        32.000    24144746.637 5                     -5042.308 5        30.053
C05        33.000                                                                                                                                                                                                    39339801.433 5                      -619.463 5        31.351
C33        37.000                                                                                                                                    22993430.842 6 119732829.12206     -1927.072 6        40.787                                                                    22993442.521 6  97292762.15006     -1566.146 6        41.173
C30        38.000                                                                                                                                    25277919.499 6 131628823.54506      2080.958 6        37.709                                                                    25277896.841 5 106959122.36805      1690.526 5        34.614
C28        40.000                                                                                                                                    22222141.664 6 115716798.00406     -2331.336 6        39.423                                                                    22222140.555 5  94029157.25605     -1894.640 5        35.805
R11        41.000    22764672.792 6 121647759.08516     -2615.485 6        38.480                                                                    22764711.329 4                     -2034.589 4        24.692
I01        44.000   370471519.885 6 150669047.31006     -2362.678 6        39.817
C13        45.000                                                                                                                                    39887766.777 3                     -1840.816 3        21.190    39887792.725 4 160611598.52304     -1422.076 4        29.147    39887793.179 4                     -1494.635 4        29.431
C14        47.000                                                                                                                                    24504146.323 5 127599511.69505     -3296.114 5        35.743    24504131.497 5  98668035.50605     -2549.134 5        31.034    24504127.719 6 103684980.36306     -2678.592 6        39.009
C41        49.000                                                                                                                                    22906416.499 7 119279782.86607      1185.173 7        46.871                                                                    22906414.150 4  96924599.66804       962.885 4        29.109
C27        52.000                                                                                                                                    21844278.236 6 113748901.25906       234.438 6        40.343                                                                    21844278.883 6  92430289.24006       190.373 6        37.955
C42        54.000                                                                                                                                    26769333.118 3                     -4039.009 3        19.612
C36        56.000                                                                                                                                                                                                                                                                    26488499.371 5 112081586.31605     -1568.174 5        35.471
I06        58.000    38652365.393 5 151680352.47705      -535.314 5        30.725
> 2025 01 01 22 00 20.0000000  0 35
G14         1.000    24586151.263 5 129201130.39005       993.722 5        32.066                                    24586153.054 1 100676216.65601       774.282 1         8.857    24586151.112 5 100676231.68205       774.301 5        30.581
G10         2.000    21621011.109 8 113619158.77708     -2772.599 8        48.051                                    21621010.213 6  88534410.10006     -2160.465 6        39.147    21621011.950 6  88534421.04006     -2160.173 6        39.066
G32         3.000    22576352.268 6 118639659.82306      1000.225 6        40.992                                    22576348.726 4  92446386.15704       779.400 4        28.142    22576351.295 6  92446419.17806       779.421 6        39.778
G23         4.000                                                                                                                                                                    24513078.831 3                     -3341.480 3        23.676
E07         5.000    25728275.075 6 135203013.07306      1354.400 6        40.574                                                                    25728278.401 5 100963325.47505      1011.561 5        33.970    25728293.535 5 103597147.18505      1037.802 5        34.357
G08         6.000    20511611.943 8 107789780.43208     -1552.884 8        51.789                                    20511607.912 7  83991603.51407     -1210.037 7        46.068    20511609.062 6  83991631.50806     -1209.965 6        40.112
G27         7.000    21775139.672 6 114429098.39706     -3699.185 6        38.841                                    21775134.514 4  89165471.52304     -2882.476 4        24.361    21775134.506 5  89165539.44605     -2882.211 5        31.728
G21         8.000    21174035.929 6 111270405.03106       312.869 6        41.774                                    21174025.389 3  86704122.43303       243.791 3        21.357
G02         9.000    22686957.396 6 119221016.53106      1390.809 6        40.558                                    22686951.111 3  92899231.48203      1083.751 3        19.164
E08        12.000    26136180.639 7 137346548.14507     -1221.926 7        43.513                                                                    26136177.958 7 102564020.87807      -912.452 7        44.838    26136176.780 7 105239578.51707      -936.155 7        43.012
E13        16.000    25784978.675 6 135500946.12606     -2855.375 6        41.001                                                                    25784995.480 3 101185836.18103     -2132.234 3        23.619    25784976.824 5 103825421.16605     -2187.707 5        32.485
E31        17.000    26103740.204 6 137176067.52506      -867.861 6        36.979                                                                    26103739.135 5 102436675.10805      -647.833 5        31.698    26103746.187 6 105108941.95106      -664.845 6        38.444
E26        19.000    23535945.303 7 123682217.72107      -842.174 7        45.077                                                                    23535941.724 6  92360171.71706      -628.837 6        40.555    23535943.073 7  94769500.21807      -645.337 7        45.434
S36        23.000    38381677.786 6 201696978.04006      -852.809 6        36.189
S23        24.000    38336453.289 6 201459383.14806      -851.249 6        40.400
R12        25.000    23896406.534 5 127650313.72105      1044.139 5        34.524
R20        26.000    19672056.016 6 105195347.52606      -136.609 6        40.717                                                                    19672057.836 7  81818779.44207      -106.292 7        43.206
R05        27.000    20106135.046 8 107479074.83308      1503.636 8        48.491                                                                    20106133.882 7  83594650.53907      1169.480 7        43.869
E33        28.000    25520401.962 6 134110622.38906      1086.227 6        40.603                                                                    25520399.853 6 100147535.26906       811.194 6        38.495    25520399.034 6 102760159.19806       832.266 6        38.652
R19        29.000    22139381.122 4                     -3787.947 4        29.564                                                                    22139394.811 4                     -2946.146 4        29.896
R21        30.000    22502563.164 6 120415994.99306      2497.788 6        41.940                                                                    22502562.822 6  93656716.07806      1942.648 6        40.610
R04        31.000    20484229.550 7 109692096.82907     -2676.427 7        43.481                                                                    20484224.853 6  85316103.38106     -2081.672 6        36.125
R03        32.000    24149460.617 5                     -5043.323 5        30.060                                                                    24149425.836 3                     -3923.253 3        21.262
C05        33.000                                                                                                                                                                                                    39340573.105 5 158408174.71715      -619.032 5        31.260
C33        37.000                                                                                                                                    22995283.229 6 119742472.33806     -1929.964 6        41.623                                                                    22995293.455 6  97300598.05206     -1568.379 6        41.282
C30        38.000                                                                                                                                    25275920.485 6 131618420.93206      2080.228 6        38.243                                                                    25275898.594 5 106950669.37705      1690.277 5        34.505
C28        40.000                                                                                                                                    22224382.108 6 115728459.57106     -2333.068 6        39.219                                                                    22224379.324 5  94038633.22205     -1896.115 5        34.829
R11        41.000    22767122.539 5 121660846.92405     -2619.615 5        34.967                                                                    22767157.333 3                     -2033.746 3        20.167
I01        44.000   370474530.576 6 150680861.89906     -2362.949 6        39.709
C13        45.000                                                                                                                                                                                                    39889558.296 4 160618709.08404     -1421.804 4        29.886    39889558.433 4                     -1494.454 4        28.730
C14        47.000                                                                                                                                    24507312.538 5 127615998.41605     -3298.271 5        35.448    24507297.746 5  98680784.07505     -2550.576 5        30.174    24507294.258 6 103698377.14906     -2680.096 6        39.637
C41        49.000                                                                                                                                    22905279.673 7 119273863.67707      1182.678 7        46.843                                                                    22905274.907 4  96919789.82904       961.068 4        26.587
C27        52.000                                                                                                                                    21844050.414 6 113747734.78006       232.328 6        40.508                                                                    21844055.503 6  92429341.34406       188.728 6        38.021
C36        56.000                                                                                                                                                                                                                                                                    26490353.494 5 112089432.67805     -1570.253 5        35.181
I06        58.000    38653047.384 5 151683030.44205      -535.568 5        30.740
> 2025 01 01 22 00 25.0000000  0 35
G14         1.000    24585202.152 4 129196168.82604       990.769 4        24.526                                    24585208.741 1 100672350.53301       772.055 1         6.750    24585206.927 5 100672365.51905       772.456 5        31.208
G10         2.000    21623650.216 7 113633026.52807     -2774.386 7        47.250                                    21623650.089 6  88545216.13106     -2161.858 6        38.721    21623651.792 6  88545227.10306     -2161.776 6        38.883
G32         3.000    22575401.481 7 118634665.33907       997.808 7        42.197                                    22575398.900 5  92442494.35005       777.510 5        30.098    22575400.711 6  92442527.36806       777.535 6        39.958
G23         4.000                                                                                                                                                                    24517155.990 3                     -3342.638 3        22.781
E07         5.000    25726987.073 6 135196244.75606      1353.103 6        39.928                                                                    25726990.333 5 100958271.24705      1010.265 5        35.371    25727010.555 5 103591961.03105      1036.907 5        35.067
G08         6.000    20513090.742 8 107797552.37908     -1555.747 8        51.784                                    20513086.691 7  83997659.56507     -1212.272 7        45.902    20513088.512 6  83997687.56906     -1212.225 6        40.369
G27         7.000    21778659.661 6 114447598.80606     -3700.936 6        40.958                                    21778654.986 4  89179887.41004     -2883.835 4        25.835    21778654.817 5  89179955.35605     -2883.812 5        33.353
G21         8.000    21173739.575 6 111268844.77106       311.457 6        38.913                                    21173728.639 3  86702906.64603       242.697 3        20.690
G02         9.000    22685634.591 6 119214065.23906      1390.046 6        40.694                                    22685628.271 3  92893814.88703      1083.148 3        19.582
E08        12.000    26137343.985 7 137352663.93507     -1224.144 7        43.084                                                                    26137341.600 7 102568587.87107      -914.135 7        44.551    26137340.535 7 105244264.65007      -937.988 7        43.154
E13        16.000    25787695.344 6 135515224.29906     -2855.726 6        41.497                                                                    25787716.153 3 101196498.44403     -2132.791 3        23.238    25787693.373 5 103836361.56105     -2187.863 5        31.841
E31        17.000    26104567.232 6 137180412.44906      -869.997 6        36.336                                                                    26104567.051 5 102439919.70205      -649.282 5        33.323    26104575.253 6 105112271.18706      -666.766 6        39.018
E26        19.000    23536747.216 7 123686431.52107      -843.019 7        44.944                                                                    23536743.218 6  92363318.40606      -629.655 6        39.793    23536745.056 7  94772728.98007      -646.052 7        45.442
S36        23.000    38382492.619 5 201701242.13705      -852.643 5        35.995
S23        24.000    38337265.877 6 201463639.37106      -850.927 6        40.367
R12        25.000    23895434.808 5 127645102.26405      1040.625 5        35.229                                                                    23895478.972 4                       809.307 4        28.284
R20        26.000    19672185.627 6 105196036.39706      -138.719 6        40.715                                                                    19672186.519 7  81819315.24407      -107.942 7        44.302
R05        27.000    20104730.067 7 107471566.60107      1499.788 7        47.430                                                                    20104729.237 7  83588810.82607      1166.541 7        43.767
E33        28.000    25519368.423 6 134105192.37306      1085.966 6        39.586                                                                    25519366.945 6 100143480.37206       811.042 6        38.838    25519366.082 6 102755998.52906       832.097 6        38.517
R19        29.000    22142930.057 5                     -3789.362 5        31.940
R21        30.000    22500230.040 7 120403507.31807      2497.490 7        42.645                                                                    22500230.180 6  93647003.43506      1942.519 6        41.414
R04        31.000    20486732.699 7 109705489.52907     -2680.397 7        44.769                                                                    20486726.592 6  85326519.88706     -2084.679 6        37.664
R03        32.000    24154175.313 5                     -5044.700 5        30.211                                                                    24154140.004 3                     -3924.626 3        21.167
C05        33.000                                                                                                                                                                                                    39341343.038 5 158411272.29305      -619.861 5        30.921
C33        37.000                                                                                                                                    22997137.934 7 119752128.98307     -1932.446 7        42.322                                                                    22997147.649 6  97308444.87606     -1570.457 6        40.794
C30        38.000                                                                                                                                    25273922.401 6 131608020.42706      2080.016 6        38.021                                                                    25273900.766 5 106942218.15105      1690.008 5        33.874
C28        40.000                                                                                                                                    22226623.772 6 115740130.29506     -2334.989 6        39.012                                                                    22226619.938 5  94048116.61905     -1897.531 5        34.038
R11        41.000    22769575.083 5 121673953.67805     -2623.174 5        33.742                                                                    22769610.989 4                     -2039.817 4        26.024
I01        44.000   370477541.840 6 150692678.24606     -2363.186 6        39.718
C13        45.000                                                                                                                                                                                                    39891324.614 4 160625819.33204     -1422.128 4        29.621    39891326.168 4                     -1494.290 4        29.678
C14        47.000                                                                                                                                    24510479.571 5 127632494.30705     -3299.954 5        34.381                                                                    24510462.575 6 103711781.39206     -2681.414 6        40.126
C41        49.000                                                                                                                                    22904145.183 7 119267956.24807      1180.473 7        46.772                                                                    22904141.906 4  96914989.63204       958.819 4        27.281
C27        52.000                                                                                                                                    21843830.110 6 113746577.24606       230.919 6        40.810                                                                    21843833.466 6  92428400.76206       187.324 6        38.039
C36        56.000                                                                                                                                                                                                                                                                    26492209.706 5 112097288.50105     -1572.214 5        34.814
I06        58.000    38653729.526 5 151685708.47405      -535.566 5        30.558
> 2025 01 01 22 00 30.0000000  0 35
G14         1.000                                                                                                                                                                    24584265.280 4 100668509.58204       770.247 4        29.820
G10         2.000    21626290.763 7 113646903.65807     -2776.179 7        46.881                                    21626291.472 6  88556029.47206     -2163.257 6        38.147    21626294.131 6  88556040.46806     -2163.485 6        37.913
G32         3.000    22574453.698 7 118629683.41507       995.292 7        42.751                                    22574451.412 5  92438612.33305       775.557 5        31.487    22574452.298 6  92438645.34306       775.580 6        40.405
G23         4.000                                                                                                                                                                    24521238.004 3                     -3341.744 3        22.990
E07         5.000    25725701.014 6 135189484.31906      1351.622 6        39.174                                                                    25725703.664 6 100953222.86106      1009.323 6        36.798    25725722.773 6 103586780.92306      1035.580 6        36.091
G08         6.000    20514572.469 8 107805339.17408     -1558.634 8        51.507                                    20514568.296 7  84003727.18707     -1214.517 7        45.753    20514569.876 6  84003755.19206     -1214.490 6        41.266
G27         7.000    21782182.114 7 114466109.02807     -3702.679 7        42.421                                    21782177.485 4  89194310.94604     -2885.193 4        27.533    21782177.544 5  89194378.91805     -2885.605 5        34.614
G21         8.000    21173444.661 6 111267291.94106       310.120 6        37.486                                    21173433.404 3  86701696.65403       241.653 3        20.238
G02         9.000    22684312.072 6 119207118.07406      1389.307 6        40.625                                    22684305.806 3  92888401.51403      1082.590 3        19.254
E08        12.000    26138509.838 7 137358791.80607     -1226.401 7        42.991                                                                    26138507.592 7 102573163.87607      -915.806 7        44.280    26138506.574 7 105248960.01307      -939.767 7        43.276
R10        15.000    24304512.627 4                     -4720.051 4        27.784
E13        16.000    25790412.668 7 135529504.76407     -2856.052 7        42.354                                                                                                                                    25790411.511 5 103847303.73205     -2188.220 5        31.592
E31        17.000    26105397.119 5 137184769.40405      -872.185 5        34.767                                                                    26105397.312 5 102443173.35405      -651.871 5        34.038    26105406.522 6 105115609.63606      -668.391 6        38.883
E26        19.000    23537550.165 7 123690650.19907      -843.908 7        44.575                                                                    23537545.788 6  92366468.72306      -630.363 6        38.958    23537547.923 7  94775961.46907      -646.644 7        45.466
S36        23.000    38383307.067 6 201705505.30106      -852.424 6        36.250
S23        24.000    38338075.326 6 201467895.33106      -851.029 6        40.348
R20        26.000    19672316.349 6 105196736.41006      -140.953 6        40.112                                                                    19672317.971 7  81819859.70907      -109.600 7        45.484
R05        27.000    20103327.631 7 107464078.02407      1496.051 7        46.148                                                                    20103328.472 7  83582986.40107      1163.553 7        43.934
E33        28.000    25518336.650 6 134099764.68706      1085.549 6        38.592                                                                    25518334.098 6 100139427.23106       810.518 6        39.084    25518333.389 6 102751839.67106       831.727 6        38.640
R19        29.000    22146477.444 5                     -3790.567 5        31.185                                                                    22146495.421 3                     -2948.841 3        22.152
R21        30.000    22497896.102 7 120391021.57807      2497.279 7        42.451                                                                    22497898.483 7  93637292.32107      1942.218 7        42.580
R04        31.000    20489238.788 7 109718902.33507     -2684.175 7        44.464                                                                    20489232.581 6  85336952.09906     -2087.906 6        38.529
R03        32.000    24158883.636 4                     -5045.941 4        29.374
