     3.04           OBSERVATION DATA    M                   RINEX VERSION / TYPE
ssrcrin-15.6.1x                         20250101 170000 UTC PGM / RUN BY / DATE 
(00000000023479385599111004) Septentrio proprietary         COMMENT             
ract                                                        MARKER NAME         
01                                                          MARKER NUMBER       
geodetic                                                    MARKER TYPE         
NFB                 CLIMERS@TUW                             OBSERVER / AGENCY   
3296359             SEPT ASTERX SB3 PROB4.14.4              REC # / TYPE / VERS 
Unknown             Unknown                                 ANT # / TYPE        
  4127446.7777  1206914.3414  4695543.3603                  APPROX POSITION XYZ 
        0.0000        0.0000        0.0000                  ANTENNA: DELTA H/E/N
G   23 X1  C1C L1C D1C S1C C1W S1W C2W L2W D2W S2W C2L L2L  SYS / # / OBS TYPES 
       D2L S2L C5Q L5Q D5Q S5Q C1L L1L D1L S1L              SYS / # / OBS TYPES 
E   21 X1  C1C L1C D1C S1C C6C L6C D6C S6C C5Q L5Q D5Q S5Q  SYS / # / OBS TYPES 
       C7Q L7Q D7Q S7Q C8Q L8Q D8Q S8Q                      SYS / # / OBS TYPES 
S    9 X1  C1C L1C D1C S1C C5I L5I D5I S5I                  SYS / # / OBS TYPES 
R   17 X1  C1C L1C D1C S1C C2P L2P D2P S2P C2C L2C D2C S2C  SYS / # / OBS TYPES 
       C3Q L3Q D3Q S3Q                                      SYS / # / OBS TYPES 
C   25 X1  C1P L1P D1P S1P C5P L5P D5P S5P C2I L2I D2I S2I  SYS / # / OBS TYPES 
       C7I L7I D7I S7I C6I L6I D6I S6I C7D L7D D7D S7D      SYS / # / OBS TYPES 
J   17 X1  C1C L1C D1C S1C C2L L2L D2L S2L C5Q L5Q D5Q S5Q  SYS / # / OBS TYPES 
       C1L L1L D1L S1L                                      SYS / # / OBS TYPES 
I    5 X1  C5A L5A D5A S5A                                  SYS / # / OBS TYPES 
SEPTENTRIO RECEIVERS OUTPUT ALIGNED CARRIER PHASES.         COMMENT             
NO FURTHER PHASE SHIFT APPLIED IN THE RINEX ENCODER.        COMMENT             
G L1C                                                       SYS / PHASE SHIFT   
G L2W                                                       SYS / PHASE SHIFT   
G L2L  0.00000                                              SYS / PHASE SHIFT   
G L5Q  0.00000                                              SYS / PHASE SHIFT   
G L1L  0.00000                                              SYS / PHASE SHIFT   
E L1C  0.00000                                              SYS / PHASE SHIFT   
E L6C  0.00000                                              SYS / PHASE SHIFT   
E L5Q  0.00000                                              SYS / PHASE SHIFT   
E L7Q  0.00000                                              SYS / PHASE SHIFT   
E L8Q  0.00000                                              SYS / PHASE SHIFT   
S L1C                                                       SYS / PHASE SHIFT   
S L5I                                                       SYS / PHASE SHIFT   
R L1C                                                       SYS / PHASE SHIFT   
R L2P  0.00000                                              SYS / PHASE SHIFT   
R L2C                                                       SYS / PHASE SHIFT   
R L3Q  0.00000                                              SYS / PHASE SHIFT   
C L1P  0.00000                                              SYS / PHASE SHIFT   
C L5P  0.00000                                              SYS / PHASE SHIFT   
C L2I                                                       SYS / PHASE SHIFT   
C L7I                                                       SYS / PHASE SHIFT   
C L6I                                                       SYS / PHASE SHIFT   
C L7D                                                       SYS / PHASE SHIFT   
J L1C                                                       SYS / PHASE SHIFT   
J L2L  0.00000                                              SYS / PHASE SHIFT   
J L5Q  0.00000                                              SYS / PHASE SHIFT   
J L1L  0.00000                                              SYS / PHASE SHIFT   
I L5A                                                       SYS / PHASE SHIFT   
  2025     1     1    17     0    0.0000000     GPS         TIME OF FIRST OBS   
 C1C    0.000 C2C    0.000 C2P    0.000                     GLONASS COD/PHS/BIS 
DBHZ                                                        SIGNAL STRENGTH UNIT
    18                                                      LEAP SECONDS        
 24 R01  1 R02 -4 R03  5 R04  6 R05  1 R06 -4 R07  5 R08  6 GLONASS SLOT / FRQ #
    R09 -2 R10 -7 R11  0 R12 -1 R13 -2 R14 -7 R15  0 R16 -1 GLONASS SLOT / FRQ #
    R17  4 R18 -3 R19  3 R20  2 R21  4 R22 -3 R23  3 R24  2 GLONASS SLOT / FRQ #
                                                            END OF HEADER       
> 2025 01 01 17 00  0.0000000  0 39
G18         1.000    20973845.424 8 110218504.00108       918.654 8        51.349                                    20973843.127 6  85884418.87706       715.825 6        38.622    20973842.865 7  85884429.87607       715.833 7        46.065
G20         2.000    24201652.274 4                     -2850.373 4        29.829
G25         3.000    22781177.847 5 119715835.70505     -4286.316 5        34.362                                    22781162.454 3  93285098.68503     -3339.977 3        22.381    22781164.462 5  93285061.67405     -3339.921 5        35.767
G31         5.000    21945035.117 7 115321948.45207     -2407.162 7        42.100                                    21945030.457 4  89861252.86404     -1875.710 4        29.934    21945032.093 5  89861267.88505     -1876.069 5        33.515
G28         6.000    22734793.471 6 119472120.61406     -3730.108 6        38.952                                    22734795.473 2  93095103.20102     -2906.560 2        15.000    22734792.275 6  93095172.22106     -2906.631 6        36.839
G29         8.000    20970960.206 7 110203277.35807     -2503.764 7        46.496                                    20970955.720 5  85872883.01805     -1950.981 5        35.624    20970955.668 6  85872685.02006     -1951.048 6        36.333
E30         9.000    26661189.506 4                     -3457.317 4        28.436                                                                    26661215.546 5 104624231.43405     -2581.942 5        31.940    26661202.349 5 107353646.45005     -2649.263 5        34.586
E15        10.000    23476470.410 7 123369671.57307      -904.268 7        45.348                                                                    23476471.565 7  92126860.56007      -675.341 7        47.284    23476470.549 7  94530111.87807      -692.890 7        44.530
G05        11.000    22831343.090 5 119979820.49605      -581.734 5        34.148                                    22831350.836 1  93490476.37701      -453.284 1        10.889
E34        12.000    26183014.651 4 137592596.01404     -3361.066 4        29.545                                                                    26182999.419 4                     -2509.834 4        28.114    26182989.807 5 105428060.51205     -2575.485 5        33.772
G04        13.000    25406497.214 5                     -2233.089 5        30.626                                                                                                    25406482.152 4                     -1740.075 4        27.174
E27        15.000    23434270.783 7 123148018.80707     -1512.249 7        45.187                                                                    23434269.353 7  91961220.11107     -1129.396 7        42.248    23434269.182 7  94360318.27007     -1158.788 7        43.581
E13        16.000    25075426.592 6 131772403.49906      1747.302 6        38.159                                                                    25075430.493 6  98401380.32606      1304.566 6        41.554    25075425.823 6 100968385.23606      1338.694 6        39.745
R17        17.000    19296827.844 7 103261330.58107     -2222.052 7        45.214                                                                    19296826.383 7  80314389.74807     -1728.346 7        42.235
G16        18.000    22990475.723 6 120815781.68006      2441.157 6        41.104                                    22990469.726 2  94142120.95802      1902.199 2        16.113
R15        20.000    19654755.225 8 105029374.76908     -3112.029 8        49.403                                                                    19654754.569 6  81689578.90806     -2420.493 6        39.964
R24        21.000    22877091.475 5                     -4748.603 5        31.343                                                                    22877084.030 4                     -3692.811 4        25.579
E21        22.000    24837515.797 6 130522161.86206      1095.590 6        40.794                                                                    24837516.332 8  97467772.84508       818.082 8        48.336    24837515.587 7 100010533.36007       839.388 7        45.753
S36        23.000    38156262.457 6 200512394.71406      -853.931 6        36.779
S23        24.000    38107769.154 6 200257659.97606      -857.316 6        38.015
G26        25.000                                                                                                                                                                    20979476.677 5  85907487.99005       697.998 5        31.223
E04        26.000                                                                                                                                                                                                    28489732.480 4 114716377.08004     -1158.687 4        28.853
C34        28.000                                                                                                                                    22085965.232 6 115007546.60906     -2540.944 6        41.917                                                                    22085965.035 7  93453144.23507     -2064.650 7        46.391
R18        30.000    19956388.793 7 106528475.36407      1343.374 7        46.852                                                                    19956388.815 7  82855598.57307      1044.876 7        44.900
R08        31.000    23718034.292 3                     -1406.772 3        21.762
R16        33.000    19857354.056 8 106074382.55308      1262.179 8        49.155                                                                    19857353.251 7  82502560.33407       981.689 7        44.710
R09        34.000                                                                                                                                    24142341.281 5 100270173.59005      2668.650 5        31.698
R14        35.000    23497173.947 3                     -5258.470 3        21.690
C37        36.000                                                                                                                                    25210651.745 6 131278491.81606      1864.641 6        41.616                                                                    25210655.947 7 106674586.30007      1515.114 7        43.922
S21        38.000    38384407.783 5 201711530.33805      -854.407 5        35.581
C25        41.000                                                                                                                                    23142845.019 5 120510858.07805     -3642.671 5        32.689                                                                    23142843.707 6  97925041.05606     -2959.575 6        40.734
C43        42.000                                                                                                                                    21685739.242 7 112923347.85307       135.247 7        47.656                                                                    21685738.039 8  91759617.04108       109.934 8        48.081
C12        43.000                                                                                                                                                                                                    24397006.510 7  98236697.38307     -2772.838 7        43.323    24397003.682 6 103231835.56906     -2913.712 6        40.014
C11        44.000                                                                                                                                    21446944.866 7 111679934.51507     -1217.955 7        44.656    21446942.712 7  86358098.39707      -941.828 7        45.056    21446942.399 7  90749184.41807      -989.692 7        44.748
C13        45.000                                                                                                                                    37911848.997 6 197416981.54506       -34.134 6        40.613    37911853.515 6 152655284.98206       -26.334 6        41.790    37911850.954 6 160417472.81706       -27.729 6        39.553
C08        46.000                                                                                                                                    37818153.974 5 196929104.42405      -237.598 5        33.521    37818154.102 7 152277950.04907      -183.627 7        47.619    37818152.294 6 160021049.87706      -192.864 6        39.829
C38        49.000                                                                                                                                    38532897.831 5                      -817.803 5        33.162                                                                    38532911.419 5 163045283.97305      -664.464 5        33.174
C23        55.000                                                                                                                                                                                                                                                                    22400246.841 8  94782885.75008      -589.424 8        51.083
I06        58.000    38665309.530 5 151731096.09905      -653.050 5        35.643
> 2025 01 01 17 00  5.0000000  0 39
G18         1.000    20972972.730 8 110213916.33808       916.412 8        51.378                                    20972970.405 6  85880844.09906       714.083 6        38.495    20972969.609 7  85880855.09307       714.028 7        46.080
G20         2.000    24204369.943 4                     -2852.726 4        27.952
G25         3.000    22785255.775 5 119737267.67405     -4286.569 5        33.299                                    22785241.419 3  93301798.90603     -3340.203 3        21.643    22785242.892 5  93301761.89405     -3340.393 5        35.095
G31         5.000    21947326.337 6 115333990.37606     -2409.583 6        39.039                                    21947321.336 4  89870636.19104     -1877.599 4        28.265    21947322.877 5  89870651.21105     -1877.839 5        33.054
G28         6.000    22738342.631 6 119490773.94006     -3731.462 6        40.291                                    22738344.720 2  93109638.27602     -2907.623 2        16.830    22738341.494 6  93109707.28106     -2907.468 6        36.703
G29         8.000    20973341.949 7 110215799.27507     -2504.939 7        46.189                                    20973338.133 6  85882640.37906     -1951.902 6        36.038    20973338.409 6  85882442.36906     -1952.058 6        36.299
E30         9.000    26664478.322 4                     -3458.438 4        26.742                                                                                                                                    26664491.989 5 107366893.99905     -2649.849 5        34.057
E15        10.000    23477332.148 7 123374197.31707      -906.054 7        45.845                                                                    23477332.752 7  92130240.18007      -676.668 7        47.112    23477331.715 7  94533579.65607      -694.210 7        44.447
G05        11.000    22831896.473 5 119982736.52305      -584.937 5        35.490                                    22831906.328 2  93492748.57602      -455.819 2        12.727    22831888.742 4  93492800.77214      -455.659 4        26.515
E34        12.000    26186211.628 5 137609403.38605     -3361.835 5        30.928                                                                    26186197.769 4                     -2510.259 4        28.085    26186188.382 5 105440938.85905     -2575.670 5        33.281
G04        13.000    25408624.628 5                     -2235.288 5        31.313                                                                                                    25408606.687 4                     -1741.497 4        27.006
E27        15.000    23435709.920 7 123155582.96807     -1513.468 7        44.274                                                                    23435708.651 7  91966868.67707     -1130.236 7        42.282    23435708.882 7  94366114.19007     -1159.742 7        43.185
E13        16.000    25073762.754 6 131763669.70606      1746.172 6        36.302                                                                    25073768.164 6  98394858.35806      1304.085 6        41.273    25073763.712 6 100961693.13006      1337.966 6        38.634
R17        17.000    19298904.432 7 103272447.15207     -2224.617 7        44.808                                                                    19298903.273 6  80323035.98406     -1730.234 6        41.673
G16        18.000    22988153.348 7 120803576.89507      2440.590 7        42.675                                    22988147.152 2  94132610.73902      1901.740 2        16.377
R15        20.000    19657669.686 8 105044942.88208     -3115.188 8        50.166                                                                    19657668.359 6  81701687.44006     -2422.819 6        39.526
R24        21.000    22881526.658 5                     -4748.663 5        31.502                                                                    22881524.181 4                     -3693.933 4        26.826
E21        22.000    24836473.751 6 130516685.34306      1094.933 6        40.234                                                                    24836474.056 8  97463683.23008       817.725 8        48.430    24836473.285 7 100006337.05907       839.032 7        46.038
S36        23.000    38157082.078 6 200516661.86106      -853.130 6        36.563
S23        24.000    38108583.750 6 200261944.74906      -856.699 6        37.928
G26        25.000                                                                                                                                                                    20978626.486 5  85904001.99705       696.566 5        31.736
E04        26.000                                                                                                                                                                                                    28491170.309 4 114722174.14304     -1159.606 4        29.450
C34        28.000                                                                                                                                    22088406.152 7 115020253.25807     -2541.841 7        42.345                                                                    22088405.152 7  93463469.44907     -2065.635 7        46.360
R18        30.000    19955130.370 7 106521764.54007      1340.924 7        47.280                                                                    19955131.034 7  82850379.06107      1042.873 7        44.155
R08        31.000                                                                                                                                    23719369.346 4                     -1096.428 4        26.275
R16        33.000    19856173.744 8 106068079.05308      1259.149 8        49.386                                                                    19856171.782 7  82497657.61407       979.359 7        42.396
R09        34.000                                                                                                                                    24139126.555 5 100256826.89605      2669.495 5        31.374
R14        35.000                                                                                                                                    23502095.741 3                     -4090.031 3        20.762
C37        36.000                                                                                                                                    25208861.962 6 131269171.26906      1863.616 6        40.868                                                                    25208865.953 7 106667012.58207      1514.209 7        43.744
S21        38.000    38385218.573 5 201715802.08105      -854.359 5        35.057
C25        41.000                                                                                                                                    23146343.751 5 120529071.82205     -3643.675 5        30.211                                                                    23146341.623 6  97939841.19806     -2960.720 6        40.789
C43        42.000                                                                                                                                    21685609.983 8 112922675.13008       133.764 8        48.022                                                                    21685608.891 8  91759070.42608       108.494 8        48.251
C12        43.000                                                                                                                                                                                                    24400449.601 7  98250561.69107     -2772.930 7        43.467    24400446.726 6 103246404.86606     -2914.174 6        39.565
C11        44.000                                                                                                                                    21448114.744 7 111686028.00207     -1219.450 7        44.146    21448112.562 7  86362810.27807      -942.932 7        44.778    21448112.607 7  90754135.91007      -991.193 7        44.956
C13        45.000                                                                                                                                    37911882.506 6 197417153.11006       -34.712 6        40.791    37911886.431 6 152655417.64806       -26.603 6        41.733    37911883.636 6 160417612.23906       -28.362 6        39.294
C08        46.000                                                                                                                                    37818383.850 5 196930293.40405      -238.131 5        34.476    37818382.266 7 152278869.44407      -184.193 7        47.321    37818380.558 6 160022016.04106      -193.627 6        39.808
C38        49.000                                                                                                                                    38533682.299 5 200655028.85615      -818.441 5        33.126                                                                    38533697.863 5 163048607.93805      -665.188 5        32.419
C23        55.000                                                                                                                                    22400942.898 6 116647886.93016      -727.814 6        36.507                                                                    22400944.409 8  94785837.70608      -591.538 8        50.953
I06        58.000    38666141.108 5 151734359.55705      -652.750 5        35.943
> 2025 01 01 17 00 10.0000000  0 38
G18         1.000    20972102.317 8 110209342.42308       913.365 8        51.172                                    20972100.236 6  85877280.03006       711.708 6        38.216    20972099.120 7  85877291.01507       711.725 7        45.491
G25         3.000    22789331.226 4 119758705.57704     -4288.146 4        29.137                                    22789321.314 3  93318503.74803     -3341.396 3        20.429    22789322.968 5  93318466.76405     -3341.840 5        34.529
G31         5.000    21949620.758 6 115346047.40006     -2413.015 6        37.384                                    21949615.323 4  89880031.27404     -1880.271 4        26.731    21949616.442 5  89880046.30405     -1880.145 5        31.472
G28         6.000    22741894.117 6 119509436.68706     -3733.613 6        41.528                                    22741895.761 2  93124180.70502     -2909.307 2        17.849    22741892.312 5  93124249.67905     -2909.113 5        35.719
G29         8.000    20975726.043 7 110228329.40107     -2506.889 7        46.815                                    20975722.197 6  85892404.12506     -1953.422 6        36.321    20975722.849 6  85892206.12206     -1953.426 6        36.382
E30         9.000    26667769.244 4                     -3459.346 4        27.437                                                                    26667771.236 6 104650056.24006     -2583.058 6        36.968    26667781.817 5 107380144.80805     -2650.810 5        33.329
E15        10.000    23478195.778 7 123378734.48507      -908.597 7        46.634                                                                    23478195.929 7  92133628.32607      -678.473 7        46.990    23478194.997 7  94537056.18907      -696.298 7        44.363
G05        11.000    22832455.503 6 119985669.91006      -588.525 6        37.350                                    22832464.976 2  93495034.27202      -458.586 2        12.606    22832444.282 4  93495086.47204      -458.656 4        26.072
E34        12.000    26189409.772 5 137626216.25005     -3363.156 5        32.503                                                                    26189397.099 4                     -2511.356 4        28.493    26189387.912 5 105453821.37805     -2576.821 5        33.257
G04        13.000    25410752.070 5                     -2237.815 5        30.445                                                                                                    25410733.296 4                     -1743.273 4        24.256
E27        15.000    23437150.440 7 123163155.83507     -1515.540 7        43.536                                                                    23437149.806 7  91972523.74507     -1131.635 7        42.330    23437150.100 7  94371916.77507     -1161.199 7        42.904
E13        16.000    25072101.384 5 131754942.86605      1744.628 5        34.100                                                                    25072107.078 6  98388341.61206      1302.762 6        40.467    25072103.559 6 100955006.37806      1336.686 6        38.003
R17        17.000    19300983.562 7 103283578.87207     -2227.897 7        45.115                                                                    19300982.554 6  80331694.00506     -1732.718 6        41.240
G16        18.000    22985832.351 7 120791377.50607      2439.341 7        44.840                                    22985825.499 2  94123104.74702      1900.749 2        16.377
R15        20.000    19660586.229 8 105060529.26308     -3119.226 8        49.732                                                                    19660585.417 6  81713810.15906     -2426.060 6        40.050
R24        21.000    22885963.549 5                     -4749.122 5        32.168                                                                    22885965.329 4                     -3693.509 4        28.322
E21        22.000    24835432.033 6 130511214.02306      1093.530 6        39.964                                                                    24835432.846 8  97459597.50508       816.750 8        48.509    24835431.955 7 100002144.75207       838.013 7        46.041
S36        23.000    38157892.810 5 200520930.06005      -853.320 5        35.924
S23        24.000    38109400.505 6 200266229.39906      -856.942 6        37.762
G26        25.000    20977783.053 5                       891.365 5        33.293                                                                                                    20977777.154 5  85900525.53505       694.652 5        31.766
E04        26.000                                                                                                                                                                                                    28492607.040 4 114727979.85804     -1162.113 4        29.043
C34        28.000                                                                                                                                    22090848.508 7 115032967.14407     -2543.529 7        43.401                                                                    22090846.560 7  93473800.54007     -2066.896 7        46.355
R18        30.000    19953875.345 7 106515068.61107      1337.649 7        47.415                                                                    19953876.418 7  82845171.14507      1040.391 7        43.520
R08        31.000                                                                                                                                    23720695.191 3                     -1099.766 3        23.143
R16        33.000    19854997.966 8 106061793.01608      1255.405 8        50.309                                                                    19854994.042 6  82492768.47906       976.294 6        40.899
R09        34.000    24135913.683 5                      3431.472 5        31.932                                                                    24135912.757 5 100243481.62605      2668.917 5        31.970
R14        35.000    23507058.281 3                     -5261.998 3        22.248                                                                    23507040.283 3                     -4092.653 3        20.762
C37        36.000                                                                                                                                    25207073.931 6 131259857.96106      1861.862 6        40.427                                                                    25207077.462 7 106659444.73207      1512.889 7        43.600
S21        38.000    38386032.279 5 201720073.81105      -854.231 5        34.910
C25        41.000                                                                                                                                    23149843.824 5 120547293.51805     -3645.517 5        30.453                                                                    23149841.067 6  97954647.85806     -2962.062 6        40.815
C43        42.000                                                                                                                                    21685482.229 8 112922011.93208       131.696 8        48.820                                                                    21685481.521 8  91758531.53108       106.972 8        48.424
C12        43.000                                                                                                                                                                                                    24403893.655 7  98264428.28607     -2773.658 7        43.606    24403890.257 6 103260976.51806     -2914.617 6        39.411
C11        44.000                                                                                                                                    21449286.671 7 111692131.26307     -1221.728 7        44.050    21449284.564 7  86367529.70907      -944.635 7        44.629    21449284.697 7  90759095.30907      -992.681 7        45.120
C13        45.000                                                                                                                                    37911916.866 6 197417329.97406       -35.936 6        41.197    37911920.506 6 152655554.43806       -27.815 6        41.919    37911917.600 6 160417755.96406       -29.209 6        39.468
C08        46.000                                                                                                                                    37818615.329 5 196931488.22705      -239.808 5        35.805    37818611.664 7 152279793.36007      -185.235 7        47.352    37818609.982 6 160022986.92706      -194.608 6        39.838
C38        49.000                                                                                                                                    38534468.070 5 200659124.63705      -819.634 5        32.473                                                                    38534485.340 5 163051936.08405      -666.038 5        31.336
C23        55.000                                                                                                                                    22401644.733 6 116651533.55806      -730.704 6        36.843                                                                    22401644.608 8  94788800.90308      -593.750 8        50.709
I06        58.000    38666971.903 5 151737622.87905      -652.601 5        35.795
> 2025 01 01 17 00 15.0000000  0 38
G18         1.000    20971234.432 8 110204781.68008       910.553 8        50.747                                    20971232.464 6  85873726.22306       709.518 6        37.985    20971230.882 7  85873737.21107       709.582 7        44.933
G25         3.000    22793409.407 3                     -4292.062 3        20.690                                                                                                    22793404.197 5  93335175.77205     -3342.361 5        34.367
G31         5.000    21951917.670 5 115358118.95805     -2416.122 5        35.757                                    21951912.280 4  89889437.69504     -1882.694 4        25.654    21951913.471 5  89889452.73005     -1882.568 5        31.977
G28         6.000    22745447.657 6 119528108.28306     -3735.521 6        40.953                                    22745448.237 2  93138729.97602     -2910.795 2        17.660    22745445.423 6  93138798.97606     -2910.771 6        36.110
G29         8.000    20978112.179 7 110240867.17507     -2508.609 7        46.845                                    20978107.901 6  85902173.84006     -1954.766 6        36.964    20978109.433 6  85901975.81606     -1954.759 6        37.210
E30         9.000    26671061.060 4                     -3459.764 4        27.234                                                                    26671067.259 6 104662972.87106     -2583.823 6        37.357    26671072.461 5 107393398.35805     -2651.184 5        32.132
E15        10.000    23479061.256 7 123383282.50107      -910.922 7        47.472                                                                    23479061.273 7  92137024.58107      -680.256 7        46.726    23479060.366 7  94540541.04307      -698.065 7        44.485
G05        11.000    22833017.547 6 119988620.21606      -592.073 6        38.586                                    22833026.970 2  93497333.18802      -461.329 2        12.788
E34        12.000    26192608.595 5 137643033.93505     -3364.368 5        34.005                                                                    26192597.537 4                     -2511.976 4        29.336    26192588.557 5 105466707.65305     -2577.977 5        33.251
G04        13.000    25412879.172 4                     -2240.525 4        29.573                                                                                                    25412852.533 4                     -1745.847 4        24.511
E27        15.000    23438593.304 7 123170736.83607     -1517.247 7        42.923                                                                    23438592.348 7  91978184.89007     -1133.030 7        42.510    23438592.723 7  94377725.59507     -1162.517 7        42.800
E13        16.000    25070441.632 5 131746222.42905      1743.498 5        31.238                                                                    25070446.889 6  98381829.65506      1301.806 6        39.583    25070445.004 6 100948324.54606      1335.746 6        37.595
R17        17.000    19303066.727 7 103294725.05507     -2230.928 7        45.851                                                                    19303064.857 6  80340363.27106     -1735.126 6        41.402
G16        18.000    22983511.955 7 120779182.92907      2438.218 7        45.911                                    22983504.785 2  94113602.49702      1899.903 2        16.906
R15        20.000    19663505.645 8 105076133.33308     -3122.886 8        49.179                                                                    19663506.443 6  81725946.67206     -2428.908 6        39.529
R24        21.000    22890405.592 5                     -4749.300 5        31.736                                                                    22890405.973 4                     -3694.033 4        29.185
E21        22.000    24834391.745 6 130505747.33406      1092.633 6        40.138                                                                    24834392.501 8  97455515.23908       815.905 8        48.581    24834391.553 7  99997955.98607       837.175 7        46.340
S36        23.000    38158707.254 5 200525198.48905      -854.172 5        35.919
S23        24.000    38110215.704 6 200270513.67806      -857.292 6        37.822
G26        25.000    20976941.047 6 110234545.46316       888.393 6        36.340                                    20976938.841 3  85897064.16913       692.244 3        19.075    20976930.975 5  85897058.11505       692.469 5        32.401
E04        26.000    28494135.447 3                     -1517.921 3        22.438                                                                                                                                    28494048.129 5 114733793.77105     -1163.612 5        30.241
C34        28.000                                                                                                                                    22093291.755 7 115045687.70007     -2544.953 7        44.301                                                                    22093289.366 7  93484137.01807     -2067.833 7        46.165
R18        30.000    19952622.984 7 106508387.04207      1334.552 7        46.954                                                                    19952624.747 7  82839974.38607      1037.964 7        42.518
R08        31.000                                                                                                                                    23722019.556 3                     -1106.029 3        21.214
R16        33.000    19853824.511 8 106055523.91108      1251.873 8        50.569                                                                    19853820.477 6  82487892.51506       973.702 6        39.405
R09        34.000    24132704.744 5                      3431.249 5        33.317                                                                    24132701.475 5 100230136.93405      2668.476 5        32.479
R14        35.000                                                                                                                                    23511967.318 3                     -4088.058 3        19.612
C37        36.000                                                                                                                                    25205286.783 6 131250551.23106      1860.484 6        39.601                                                                    25205290.188 7 106651882.24607      1511.998 7        43.594
S21        38.000    38386845.766 5 201724345.29105      -854.147 5        35.105
C25        41.000                                                                                                                                    23153345.753 5 120565522.68705     -3646.658 5        30.762                                                                    23153341.892 6  97969460.55506     -2963.061 6        40.923
C43        42.000                                                                                                                                    21685356.249 8 112921357.69608       129.663 8        49.442                                                                    21685355.870 8  91757999.89408       105.625 8        48.596
C12        43.000                                                                                                                                                                                                    24407337.623 7  98278296.73807     -2774.119 7        43.655    24407334.291 6 103275550.11606     -2914.943 6        38.982
C11        44.000                                                                                                                                    21450460.888 7 111698243.72107     -1223.778 7        43.810    21450458.282 7  86372256.24807      -946.172 7        44.128    21450458.538 7  90764062.17007      -994.201 7        45.160
C13        45.000                                                                                                                                    37911952.288 6 197417511.54106       -37.127 6        41.490    37911955.436 7 152655694.84607       -28.594 7        42.009    37911952.372 6 160417903.48206       -29.933 6        39.580
C08        46.000                                                                                                                                    37818846.929 6 196932688.32306      -240.886 6        36.620    37818842.187 7 152280721.37307      -186.208 7        47.133    37818840.504 6 160023962.09206      -195.458 6        39.985
C38        49.000                                                                                                                                    38535254.865 5 200663225.04605      -820.923 5        31.185                                                                    38535274.408 5 163055267.98405      -666.391 5        31.011
C23        55.000                                                                                                                                    22402350.188 6 116655193.46406      -733.488 6        38.510                                                                    22402347.338 8  94791774.89008      -595.884 8        50.535
I06        58.000    38667804.147 6 151740885.70506      -652.854 6        36.064
> 2025 01 01 17 00 20.0000000  0 36
G18         1.000    20970369.541 8 110200234.78608       907.982 8        50.330                                    20970367.165 6  85870183.20406       707.517 6        37.611    20970365.701 7  85870194.19707       707.529 7        44.599
G25         3.000                                                                                                                                                                    22797483.418 5  93351889.50205     -3343.213 5        34.329
G31         5.000    21954215.601 5 115370205.67905     -2418.895 5        32.880                                    21954212.151 4  89898855.90904     -1884.856 4        24.256    21954213.595 5  89898870.96605     -1884.648 5        31.849
G28         6.000    22749001.578 6 119546789.34806     -3737.154 6        40.667                                    22749002.515 2  93153286.64802     -2912.060 2        17.057    22749000.026 6  93153355.63206     -2912.082 6        36.537
G29         8.000    20980499.410 7 110253413.23907     -2510.014 7        46.243                                    20980495.569 6  85911950.00406     -1955.860 6        37.713    20980497.213 6  85911751.99206     -1955.891 6        37.970
E30         9.000    26674354.956 4                     -3461.038 4        27.665                                                                    26674361.512 6 104675892.74506     -2584.133 6        37.391    26674364.243 5 107406655.29905     -2651.977 5        31.079
E15        10.000    23479928.672 7 123387842.03207      -913.045 7        47.901                                                                    23479928.787 7  92140429.43907      -681.847 7        46.530    23479927.977 7  94544034.71307      -699.647 7        44.837
G05        11.000    22833581.042 6 119991588.08906      -595.239 6        38.781                                    22833592.366 2  93499645.85802      -463.816 2        13.151
E34        12.000    26195809.175 5 137659857.19405     -3365.053 5        35.300                                                                    26195798.423 5                     -2512.822 5        30.053    26195789.499 5 105479598.14405     -2578.410 5        32.347
G04        13.000    25415008.782 4                     -2241.741 4        25.263                                                                                                    25414991.399 4                     -1747.360 4        26.479
E27        15.000    23440037.582 7 123178326.62707     -1518.869 7        43.069                                                                    23440036.660 7  91983852.59607     -1134.148 7        42.718    23440037.086 7  94383541.16807     -1163.780 7        42.646
E13        16.000    25068784.337 4 131737509.20204      1741.627 4        29.185                                                                    25068788.011 6  98375322.99706      1300.974 6        38.510    25068787.512 6 100941648.15506      1334.891 6        37.561
R17        17.000    19305151.955 7 103305886.37607     -2233.907 7        45.380                                                                    19305151.458 7  80349044.33507     -1737.476 7        42.411
G16        18.000    22981191.698 7 120766993.80407      2437.249 7        46.306                                    22981184.813 2  94104104.48702      1899.143 2        16.679
R15        20.000    19666428.525 8 105091755.94108     -3126.434 8        49.292                                                                    19666430.122 6  81738097.58106     -2431.552 6        40.184
R24        21.000    22894845.909 5                     -4749.853 5        30.694                                                                    22894849.782 5                     -3694.443 5        31.117
E21        22.000    24833352.262 6 130500285.93406      1091.833 6        40.462                                                                    24833353.172 8  97451436.93408       815.263 8        48.517    24833352.098 7  99993771.29707       836.433 7        46.677
S36        23.000    38159518.406 6 200529467.30806      -853.866 6        36.537
S23        24.000    38111031.409 6 200274798.26206      -857.009 6        37.958
G26        25.000    20976095.719 6 110230107.95106       886.357 6        39.093                                    20976091.875 3  85893606.37603       690.651 3        22.286    20976086.170 5  85893600.37905       690.417 5        33.204
E04        26.000                                                                                                                                    28495493.387 5 111822433.63015     -1135.435 5        32.234    28495495.073 4 114739616.42004     -1165.312 4        29.810
C34        28.000                                                                                                                                    22095735.824 7 115058415.62907     -2546.324 7        44.328                                                                    22095733.593 7  93494479.53707     -2069.222 7        45.953
R18        30.000    19951373.723 7 106501720.55807      1331.783 7        46.778                                                                    19951375.893 7  82834789.37407      1035.781 7        43.329
R16        33.000    19852653.936 8 106049272.43008      1248.526 8        50.604                                                                    19852651.013 6  82483030.27006       971.081 6        39.997
R09        34.000    24129490.886 5 128850135.26115      3430.564 5        34.505                                                                    24129487.129 5 100216793.83905      2668.491 5        33.299
C37        36.000                                                                                                                                    25203501.742 6 131241251.80606      1859.055 6        39.081                                                                    25203504.328 7 106644325.72007      1510.613 7        43.297
S21        38.000    38387658.890 5 201728616.96905      -854.257 5        34.790
C25        41.000                                                                                                                                    23156848.523 5 120583760.04405     -3648.282 5        32.048                                                                    23156844.197 6  97984279.91906     -2964.577 6        41.120
C43        42.000                                                                                                                                    21685231.758 8 112920713.07708       127.944 8        49.780                                                                    21685232.132 8  91757476.13208       103.913 8        48.651
C12        43.000                                                                                                                                    24410871.037 4 127113366.79414     -3587.305 4        27.473    24410781.938 7  98292167.55407     -2774.310 7        43.551    24410779.246 6 103290126.27306     -2915.546 6        38.757
C11        44.000                                                                                                                                    21451637.433 7 111704366.05107     -1225.459 7        43.384    21451633.415 7  86376990.41707      -947.549 7        43.845    21451634.236 7  90769037.08907      -995.878 7        44.986
C13        45.000                                                                                                                                    37911988.550 6 197417698.51406       -37.959 6        41.924    37911990.988 7 152655839.45207       -29.253 7        42.002    37911988.259 6 160418055.45906       -30.848 6        39.117
C08        46.000                                                                                                                                    37819080.233 6 196933894.34306      -241.658 6        36.885    37819073.617 7 152281653.96007      -186.982 7        47.085    37819072.121 6 160024942.12206      -196.432 6        39.997
C38        49.000                                                                                                                                    38536041.500 5 200667330.77205      -821.654 5        30.423                                                                    38536062.068 5 163058604.26305      -667.426 5        30.000
C23        55.000                                                                                                                                    22403055.735 6 116658867.35006      -736.135 6        39.946                                                                    22403052.741 8  94794760.28208      -598.288 8        50.093
I06        58.000    38668635.607 6 151744148.44906      -652.519 6        36.064
> 2025 01 01 17 00 25.0000000  0 36
G18         1.000    20969507.083 8 110195702.35408       904.929 8        50.537                                    20969504.464 6  85866651.45306       705.135 6        37.471    20969503.086 7  85866662.43907       705.173 7        44.262
G20         2.000    24215285.590 4                     -2862.512 4        25.098
G25         3.000    22801559.489 4                     -4291.286 4        27.880                                                                                                    22801567.573 5  93368608.39405     -3344.373 5        34.281
G31         5.000    21956521.777 6 115382308.21306     -2422.316 6        37.206                                    21956514.992 3  89908286.45603     -1887.528 3        23.162    21956515.507 5  89908301.49705     -1887.063 5        30.347
G28         6.000    22752558.101 6 119565480.48306     -3739.313 6        41.719                                    22752558.770 2  93167851.17402     -2913.743 2        17.094    22752556.355 6  93167920.15206     -2913.695 6        37.240
G29         8.000    20982888.324 7 110265968.21607     -2511.944 7        45.899                                    20982885.119 6  85921733.10406     -1957.361 6        38.267    20982886.812 6  85921535.09906     -1957.432 6        38.510
E30         9.000    26677648.378 4                     -3461.554 4        27.365                                                                    26677654.418 6 104688816.31506     -2585.039 6        36.707    26677656.807 4 107419915.95704     -2652.458 4        29.318
E15        10.000    23480798.710 7 123392413.69207      -915.637 7        47.773                                                                    23480798.580 7  92143843.34407      -683.723 7        46.011    23480797.905 7  94547537.67207      -701.597 7        45.165
G05        11.000    22834148.429 6 119994574.17006      -599.063 6        39.970                                    22834161.403 1  93501972.62201      -466.818 1        11.926    22834135.445 3                      -467.020 3        20.738
E34        12.000    26199012.135 5 137676686.64305     -3366.654 5        35.929                                                                    26199000.923 5                     -2513.936 5        30.475    26198992.112 5 105492493.43305     -2579.758 5        31.902
E27        15.000    23441483.850 7 123185925.81507     -1520.942 7        42.900                                                                    23441482.875 7  91989527.32507     -1135.632 7        42.476    23441483.170 7  94389363.92607     -1165.342 7        42.663
E13        16.000    25067129.223 4 131728803.60504      1740.219 4        27.832                                                                    25067130.492 6  98368822.11506      1299.465 6        37.338    25067131.262 6 100934977.66406      1333.640 6        38.153
R17        17.000    19307240.679 7 103317063.54607     -2237.089 7        46.004                                                                    19307240.134 7  80357737.70907     -1739.848 7        43.067
G16        18.000    22978872.597 7 120754810.75207      2435.903 7        46.197                                    22978866.085 2  94094611.21802      1898.111 2        17.283
R15        20.000    19669355.588 8 105107397.54608     -3130.292 8        49.859                                                                    19669356.892 6  81750263.26806     -2434.794 6        40.181
R24        21.000    22899292.200 5                     -4750.615 5        30.762                                                                    22899291.109 5                     -3694.830 5        31.464
E21        22.000    24832314.259 6 130494830.45306      1090.323 6        41.344                                                                    24832314.968 8  97447363.04208       814.285 8        48.306    24832313.750 7  99989591.12707       835.570 7        47.050
S36        23.000    38160328.785 6 200533736.59606      -853.942 6        36.578
S23        24.000    38111844.681 6 200279083.43706      -857.233 6        38.021
G26        25.000    20975251.546 6 110225683.38106       883.649 6        40.355                                    20975247.977 4  85890158.68804       688.544 4        24.977    20975244.311 5  85890152.64405       688.445 5        33.054
E04        26.000                                                                                                                                    28496944.010 5 111828117.24305     -1137.625 5        32.677    28496943.092 5 114745448.28405     -1167.143 5        30.830
C34        28.000                                                                                                                                    22098181.146 7 115071151.48207     -2548.063 7        43.987                                                                    22098179.369 7  93504828.44907     -2070.600 7        45.422
R18        30.000    19950127.669 7 106495069.70107      1328.530 7        45.705                                                                    19950130.588 7  82829616.50907      1033.302 7        44.080
R16        33.000    19851486.906 8 106043039.08108      1244.756 8        50.110                                                                    19851484.350 6  82478182.13706       968.089 6        40.586
R09        34.000    24126277.059 5 128832982.23105      3430.244 5        35.414                                                                    24126275.834 5 100203452.70905      2667.981 5        34.233
C37        36.000                                                                                                                                    25201717.216 6 131231960.26506      1857.345 6        39.517                                                                    25201720.045 7 106636775.58907      1509.293 7        43.153
S21        38.000    38388468.030 5 201732889.43305      -854.870 5        34.948
C25        41.000                                                                                                                                    23160353.859 5 120602006.06905     -3650.198 5        34.519                                                                    23160348.150 6  97999106.31506     -2965.906 6        40.970
C43        42.000                                                                                                                                    21685109.800 8 112920078.69008       125.729 8        50.029                                                                    21685110.266 8  91756960.64108       102.137 8        48.567
C12        43.000                                                                                                                                    24414321.907 4 127131308.68204     -3588.701 4        27.401    24414227.605 7  98306041.24007     -2775.025 7        43.295    24414224.669 6 103304705.36606     -2916.228 6        38.369
C11        44.000                                                                                                                                    21452814.865 7 111710498.80807     -1227.767 7        42.857    21452811.409 7  86381732.66507      -949.458 7        43.903    21452811.965 7  90774020.46207      -997.739 7        44.665
C13        45.000                                                                                                                                    37912025.307 7 197417891.44807       -39.291 7        42.483    37912028.073 6 152655988.66106       -30.150 6        41.635    37912025.314 6 160418212.23606       -31.975 6        38.889
C08        46.000                                                                                                                                    37819311.999 6 196935106.83006      -243.343 6        37.353    37819306.618 7 152282591.54507      -188.137 7        46.938    37819304.917 6 160025927.38106      -197.714 6        39.748
C38        49.000                                                                                                                                    38536831.000 5 200671442.27905      -822.814 5        30.498                                                                    38536850.233 4 163061945.23604      -668.503 4        29.299
