     3.04           OBSERVATION DATA    M                   RINEX VERSION / TYPE
ssrcrin-15.6.1x                         20250101 134500 UTC PGM / RUN BY / DATE 
(00000000023479385599111004) Septentrio proprietary         COMMENT             
ract                                                        MARKER NAME         
01                                                          MARKER NUMBER       
geodetic                                                    MARKER TYPE         
NFB                 CLIMERS@TUW                             OBSERVER / AGENCY   
3296359             SEPT ASTERX SB3 PROB4.14.4              REC # / TYPE / VERS 
Unknown             Unknown                                 ANT # / TYPE        
  4127448.3077  1206915.3837  4695543.8781                  APPROX POSITION XYZ 
        0.0000        0.0000        0.0000                  ANTENNA: DELTA H/E/N
G   23 X1  C1C L1C D1C S1C C1W S1W C2W L2W D2W S2W C2L L2L  SYS / # / OBS TYPES 
       D2L S2L C5Q L5Q D5Q S5Q C1L L1L D1L S1L              SYS / # / OBS TYPES 
E   21 X1  C1C L1C D1C S1C C6C L6C D6C S6C C5Q L5Q D5Q S5Q  SYS / # / OBS TYPES 
       C7Q L7Q D7Q S7Q C8Q L8Q D8Q S8Q                      SYS / # / OBS TYPES 
S    9 X1  C1C L1C D1C S1C C5I L5I D5I S5I                  SYS / # / OBS TYPES 
R   17 X1  C1C L1C D1C S1C C2P L2P D2P S2P C2C L2C D2C S2C  SYS / # / OBS TYPES 
       C3Q L3Q D3Q S3Q                                      SYS / # / OBS TYPES 
C   25 X1  C1P L1P D1P S1P C5P L5P D5P S5P C2I L2I D2I S2I  SYS / # / OBS TYPES 
       C7I L7I D7I S7I C6I L6I D6I S6I C7D L7D D7D S7D      SYS / # / OBS TYPES 
J   17 X1  C1C L1C D1C S1C C2L L2L D2L S2L C5Q L5Q D5Q S5Q  SYS / # / OBS TYPES 
       C1L L1L D1L S1L                                      SYS / # / OBS TYPES 
I    5 X1  C5A L5A D5A S5A                                  SYS / # / OBS TYPES 
SEPTENTRIO RECEIVERS OUTPUT ALIGNED CARRIER PHASES.         COMMENT             
NO FURTHER PHASE SHIFT APPLIED IN THE RINEX ENCODER.        COMMENT             
G L1C                                                       SYS / PHASE SHIFT   
G L2W                                                       SYS / PHASE SHIFT   
G L2L  0.00000                                              SYS / PHASE SHIFT   
G L5Q  0.00000                                              SYS / PHASE SHIFT   
G L1L  0.00000                                              SYS / PHASE SHIFT   
E L1C  0.00000                                              SYS / PHASE SHIFT   
E L6C  0.00000                                              SYS / PHASE SHIFT   
E L5Q  0.00000                                              SYS / PHASE SHIFT   
E L7Q  0.00000                                              SYS / PHASE SHIFT   
E L8Q  0.00000                                              SYS / PHASE SHIFT   
S L1C                                                       SYS / PHASE SHIFT   
S L5I                                                       SYS / PHASE SHIFT   
R L1C                                                       SYS / PHASE SHIFT   
R L2P  0.00000                                              SYS / PHASE SHIFT   
R L2C                                                       SYS / PHASE SHIFT   
R L3Q  0.00000                                              SYS / PHASE SHIFT   
C L1P  0.00000                                              SYS / PHASE SHIFT   
C L5P  0.00000                                              SYS / PHASE SHIFT   
C L2I                                                       SYS / PHASE SHIFT   
C L7I                                                       SYS / PHASE SHIFT   
C L6I                                                       SYS / PHASE SHIFT   
C L7D                                                       SYS / PHASE SHIFT   
J L1C                                                       SYS / PHASE SHIFT   
J L2L  0.00000                                              SYS / PHASE SHIFT   
J L5Q  0.00000                                              SYS / PHASE SHIFT   
J L1L  0.00000                                              SYS / PHASE SHIFT   
I L5A                                                       SYS / PHASE SHIFT   
  2025     1     1    13    45    0.0000000     GPS         TIME OF FIRST OBS   
 C1C    0.000 C2C    0.000 C2P    0.000                     GLONASS COD/PHS/BIS 
DBHZ                                                        SIGNAL STRENGTH UNIT
    18                                                      LEAP SECONDS        
 24 R01  1 R02 -4 R03  5 R04  6 R05  1 R06 -4 R07  5 R08  6 GLONASS SLOT / FRQ #
    R09 -2 R10 -7 R11  0 R12 -1 R13 -2 R14 -7 R15  0 R16 -1 GLONASS SLOT / FRQ #
    R17  4 R18 -3 R19  3 R20  2 R21  4 R22 -3 R23  3 R24  2 GLONASS SLOT / FRQ #
                                                            END OF HEADER       
> 2025 01 01 13 45  0.0000000  0 38
G19         1.000    24537655.622 4                     -4383.671 4        24.827
G06         2.000    23194089.993 4                     -1828.310 4        28.758                                                                                                    23194097.579 5  94976050.84705     -1424.528 5        35.767
G25         3.000    20378860.168 7 107091634.30307       567.080 7        47.035                                    20378864.749 6  83447991.46306       441.880 6        38.952    20378864.869 6  83448050.48006       441.902 6        39.444
G11         4.000    22813414.267 6 119885343.40506       590.102 6        39.180                                    22813424.801 2  93417159.38802       459.832 2        12.727
G28         6.000    23921132.902 6 125706305.85906      2463.252 6        40.870                                    23921138.866 3  97953110.08103      1919.383 3        18.896    23921144.854 6  97953103.06406      1919.493 6        39.520
G12         7.000    20587524.910 8 108188181.41808     -1986.371 8        50.815                                    20587526.455 7  84302495.35407     -1547.822 7        47.586    20587526.502 7  84302475.36307     -1547.896 7        43.657
G29         8.000                                                                                                                                                                    22978891.421 4                      1886.876 4        29.867
E30         9.000    23735069.576 7 124728750.67507      -991.680 7        42.976                                                                    23735077.951 7  93141569.87007      -740.510 7        45.431    23735075.737 7  95571353.82107      -759.790 7        44.787
G32        11.000    23040921.291 7 121080965.72207     -1485.173 7        47.867                                    23040929.834 4  94348819.90304     -1157.282 4        24.316
E34        12.000    25935697.339 6 136293002.00106      1529.641 6        40.350                                                                                                                                    25935704.868 5 104432388.79105      1171.825 5        30.626
E02        13.000    25868396.263 5 135939277.63605     -2961.965 5        33.958                                                                    25868398.630 6 101513170.50506     -2211.916 6        38.718    25868398.925 6 104161348.41206     -2269.634 6        41.349
E27        15.000    25586449.351 7 134457864.81807      1087.600 7        42.506                                                                    25586461.664 6 100406928.24406       812.033 6        40.594    25586511.344 3                       833.611 3        23.695
G24        16.000    22920729.073 5 120449228.76505     -4337.477 5        34.686                                    22920734.659 3  93856493.74803     -3379.840 3        23.981    22920734.453 4  93856617.74104     -3379.829 4        28.645
E07        18.000    25887444.144 6 136039424.84806     -3261.143 6        41.404                                                                    25887457.366 4 101587946.73904     -2435.285 4        25.564    25887472.873 4 104238051.08404     -2498.359 4        29.526
E36        19.000    26153503.076 6 137437624.83506     -1035.169 6        41.111                                                                    26153513.703 6 102632073.73106      -773.064 6        41.323    26153513.452 7 105309426.02407      -793.210 7        43.996
R15        20.000    23040623.307 6 123122351.55706      2590.341 6        37.198                                                                    23040633.153 5                      2014.529 5        30.626
R24        21.000    20831712.156 6 111396588.22306      2420.385 6        39.357                                                                    20831719.935 5  86641805.90505      1882.275 5        34.833
R22        22.000    23616136.931 4 126064401.91504     -4763.610 4        29.943
S36        23.000    38353425.820 6 201548476.52306      -850.381 6        36.314
S23        24.000    38295487.677 5 201244100.20805      -854.794 5        35.295
R04        25.000    22955920.520 6 122927905.46006     -4341.538 6        36.786                                                                    22955923.308 5  95610570.07605     -3376.200 5        32.994
E29        26.000    25940778.733 6 136319715.48506      -681.331 6        37.161                                                                    25940820.309 5 101797245.30105      -508.914 5        30.604    25940789.364 6 104452851.30306      -522.094 6        39.102
C34        28.000                                                                                                                                    23858562.681 6 124237874.52906      2242.365 6        37.713                                                                    23858568.495 6 100953492.44906      1821.914 6        37.255
R13        29.000    21001979.555 6 112149380.51406     -3302.853 6        39.925
C10        32.000                                                                                                                                    39838162.029 4                     -1575.526 4        24.226    39838189.407 5                     -1218.488 5        31.841
C24        34.000                                                                                                                                    21664621.611 8 112813568.20008     -1758.368 8        50.827                                                                    21664621.598 8  91670154.33408     -1428.901 8        49.069
R14        35.000    19728855.213 7 105166061.12107       470.890 7        44.892                                                                    19728861.663 6  81795790.41906       366.400 6        39.129
R23        36.000    20452690.644 7 109408106.54607     -2125.722 7        42.995
C26        37.000                                                                                                                                    25260025.766 6 131535577.83706     -3693.371 6        36.688                                                                    25260053.779 3                     -3001.878 3        23.219
S21        38.000    38581112.684 5 202745100.71405      -849.969 5        35.086
C44        39.000                                                                                                                                    22046688.370 8 114802949.20008      -520.588 8        48.428                                                                    22046691.833 7  93286778.36207      -423.085 7        44.424
C35        40.000                                                                                                                                    24278994.724 5                     -3176.088 5        35.490                                                                    24279000.136 5 102732406.26305     -2580.857 5        35.490
C25        41.000                                                                                                                                    22724125.133 6 118330519.15706      1178.099 6        40.911                                                                    22724127.714 4  96153233.24904       957.034 4        29.972
R05        42.000    22346131.580 7 119452908.01207     -1468.583 7        46.758                                                                    22346143.133 6  92907859.03906     -1142.426 6        37.123
C12        43.000                                                                                                                                    22734904.662 6 118386599.90006      1113.402 6        41.251    22734904.267 7  91544080.54807       860.914 7        47.254    22734900.507 7  96198867.05507       904.634 7        42.159
C32        44.000                                                                                                                                                                                                                                                                    26749626.495 5 113186336.80405      -566.387 5        30.838
C41        50.000                                                                                                                                    26471827.469 5 137845884.64005     -2935.295 5        34.457                                                                    26471844.136 5                     -2385.260 5        32.641
I06        58.000    38686310.682 6 151813346.45706      -730.250 6        36.915
> 2025 01 01 13 45  5.0000000  0 38
G19         1.000    24541818.837 3                     -4385.538 3        23.695
G06         2.000    23195830.438 4                     -1831.476 4        28.787                                                                                                    23195838.089 5  94983179.55105     -1427.090 5        35.424
G25         3.000    20378321.063 7 107088803.47007       565.060 7        47.932                                    20378326.383 6  83445785.62506       440.302 6        39.874    20378325.749 6  83445844.64506       440.391 6        38.991
G11         4.000    22812854.980 6 119882400.12906       586.951 6        40.894                                    22812864.941 2  93414865.95502       457.356 2        14.143
G28         6.000    23918790.823 6 125693991.48006      2462.195 6        40.789                                    23918796.550 3  97943514.49903      1918.579 3        19.851    23918801.326 6  97943507.47106      1918.600 6        40.010
G12         7.000    20589415.707 8 108198117.93608     -1988.458 8        50.861                                    20589417.160 7  84310238.09007     -1549.448 7        47.506    20589417.499 7  84310218.08107     -1549.385 7        43.249
G29         8.000                                                                                                                                                                    22976585.924 4                      1886.122 4        27.940
E30         9.000    23736013.808 7 124733711.36407      -992.774 7        42.675                                                                    23736021.839 7  93145274.27307      -741.382 7        45.418    23736020.013 7  95575154.86807      -760.741 7        44.879
G32        11.000    23042335.925 7 121088399.29907     -1488.455 7        46.974                                    23042345.961 4  94354612.27004     -1159.828 4        27.341
E34        12.000    25934242.802 6 136285356.88906      1528.261 6        40.286                                                                                                                                    25934249.659 4 104426530.87904      1170.698 4        29.355
E02        13.000    25871214.231 5 135954088.02705     -2962.496 5        33.737                                                                    25871216.808 6 101524230.14306     -2212.236 6        38.742    25871217.145 6 104172696.58806     -2269.972 6        40.861
E27        15.000    25585415.050 7 134452428.48507      1086.896 7        42.514                                                                    25585427.132 6 100402868.66806       811.638 6        41.049    25585473.923 4                       832.680 4        25.293
G24        16.000    22924855.681 5 120470918.93005     -4339.095 5        32.437                                    22924862.504 3  93873395.11803     -3381.122 3        23.105    22924863.027 4  93873519.11504     -3380.655 4        28.076
E07        18.000    25890547.513 6 136055733.29806     -3262.605 6        41.352                                                                    25890564.959 4 101600124.97104     -2435.850 4        28.635    25890583.401 4 104250547.19404     -2499.735 4        28.900
E36        19.000    26154489.329 6 137442806.89106     -1037.802 6        41.533                                                                    26154499.306 6 102635943.45606      -774.981 6        40.520    26154499.656 7 105313396.70707      -795.165 7        44.582
R15        20.000    23038203.108 6 123109400.69206      2589.967 6        36.473                                                                    23038213.706 5                      2014.362 5        31.185
R24        21.000    20829450.755 6 111384493.71006      2417.251 6        38.826                                                                    20829456.067 5  86632399.07905      1879.880 5        34.038
R22        22.000    23620596.434 5 126088224.18505     -4765.690 5        30.098                                                                    23620704.884 3                     -3710.188 3        21.524
S36        23.000    38354234.356 6 201552728.95406      -850.762 6        36.280
S23        24.000    38296297.014 5 201248375.10505      -855.027 5        34.881
R04        25.000    22959977.283 6 122949617.09906     -4343.485 6        36.234                                                                    22959978.951 5  95627456.85905     -3378.495 5        30.408
E29        26.000    25941432.806 6 136323127.86006      -684.034 6        38.357                                                                    25941469.420 4 101799793.53704      -511.148 4        29.460    25941438.802 6 104455465.99106      -524.178 6        38.649
C34        28.000                                                                                                                                    23856409.599 6 124226666.22906      2240.841 6        37.539                                                                    23856415.956 6 100944384.78206      1820.761 6        37.694
R13        29.000    21005066.946 6 112165898.76206     -3304.598 6        38.087
C10        32.000                                                                                                                                    39839672.105 4                     -1575.941 4        24.827    39839702.107 5                     -1218.453 5        32.305
C24        34.000                                                                                                                                    21666310.367 8 112822364.39208     -1760.273 8        51.068                                                                    21666310.793 8  91677301.94708     -1430.497 8        49.192
R14        35.000    19728414.578 7 105163711.63207       468.790 7        46.130                                                                    19728421.445 6  81793963.06506       364.569 6        38.144
R23        36.000    20454678.927 7 109418745.99107     -2130.283 7        43.458
C26        37.000                                                                                                                                    25263573.524 6 131554046.43906     -3694.092 6        36.590                                                                    25263606.238 4                     -3002.328 4        24.286
S21        38.000    38581922.522 5 202749350.14505      -850.052 5        35.119
C44        39.000                                                                                                                                    22047189.132 7 114805559.06007      -523.523 7        47.694                                                                    22047193.095 7  93288899.07607      -425.530 7        44.051
C35        40.000                                                                                                                                    24282045.140 6 126442977.45316     -3177.845 6        36.775                                                                    24282050.833 5 102745313.59205     -2582.371 5        35.710
C25        41.000                                                                                                                                    22722992.979 6 118324631.07806      1176.858 6        39.724                                                                    22722996.296 4  96148448.69004       956.218 4        26.994
R05        42.000    22347506.623 7 119460261.39207     -1473.079 7        45.269                                                                    22347519.152 6  92913578.28606     -1145.611 6        39.438
C12        43.000                                                                                                                                    22733838.949 6 118381038.57606      1110.858 6        40.963    22733836.338 8  91539780.17908       859.091 8        48.433    22733832.522 6  96194348.00806       902.685 6        41.979
C32        44.000                                                                                                                                                                                                                                                                    26750298.862 5 113189173.38505      -568.713 5        31.457
C41        50.000                                                                                                                                    26474657.398 6 137860565.73006     -2936.975 6        36.159                                                                    26474663.043 5                     -2386.752 5        32.359
I06        58.000    38687240.893 6 151816996.95206      -730.322 6        37.059
> 2025 01 01 13 45 10.0000000  0 38
G19         1.000    24545987.015 3                     -4385.219 3        22.819
G06         2.000    23197574.004 4                     -1834.873 4        29.403                                                                                                    23197578.715 5  94990321.52605     -1429.861 5        34.590
G25         3.000    20377784.958 8 107085983.18608       562.713 8        49.071                                    20377789.816 6  83443588.01706       438.474 6        40.400    20377788.499 6  83443647.04006       438.586 6        37.614
G11         4.000    22812298.572 6 119879471.93706       583.959 6        41.271                                    22812307.929 2  93412584.25702       455.020 2        14.238    22812307.424 5                       455.126 5        33.096
G28         6.000    23916448.951 6 125681682.82206      2460.887 6        40.412                                    23916455.669 3  97933923.33503      1917.584 3        20.881    23916459.168 6  97933916.30406      1917.575 6        40.632
G12         7.000    20591308.720 8 108208065.00508     -1990.726 8        50.923                                    20591309.918 7  84317989.04907     -1551.213 7        47.533    20591310.314 7  84317969.05307     -1551.187 7        43.399
G29         8.000    22974279.950 6 120730977.49616      2418.519 6        36.442                                    22974289.004 2  94075871.50212      1884.556 2        17.509    22974283.284 4                      1884.796 4        28.142
E30         9.000    23736959.468 7 124738678.02107      -994.286 7        42.923                                                                    23736966.794 7  93148983.13007      -742.377 7        45.279    23736965.414 7  95578960.48207      -761.831 7        45.196
G32        11.000    23043753.212 7 121095848.99607     -1491.777 7        46.207                                    23043765.263 4  94360417.20704     -1162.418 4        29.972    23043760.454 5  94360351.22015     -1162.108 5        33.293
E34        12.000    25932789.550 6 136277720.30106      1526.226 6        39.607                                                                    25932814.719 5 101765935.53415      1139.793 5        35.652    25932795.952 4 104420679.46804      1169.581 4        28.512
E02        13.000    25874033.047 5 135968901.26205     -2963.223 5        34.310                                                                    25874035.286 6 101535291.91806     -2212.818 6        39.042    25874036.177 6 104184046.94506     -2270.487 6        40.350
E27        15.000    25584382.004 7 134446995.74507      1085.960 7        42.478                                                                    25584393.294 6 100398811.78706       810.850 6        41.070    25584436.162 4                       832.334 4        26.455
G24        16.000    22928983.029 5 120492616.05705     -4340.501 5        30.106                                    22928991.569 3  93890301.93703     -3382.208 3        22.705    22928992.235 4  93890425.95204     -3382.283 4        29.867
E07        18.000    25893652.467 6 136072049.42406     -3264.093 6        41.094                                                                    25893671.768 5 101612309.02005     -2437.581 5        32.491
E36        19.000    26155478.704 7 137448002.36607     -1040.574 7        42.273                                                                    26155487.575 6 102639823.20406      -777.077 6        40.098    26155488.364 7 105317377.67307      -797.345 7        45.180
R15        20.000    23035784.192 5                      2589.409 5        33.587                                                                    23035793.315 5                      2014.198 5        30.302
R24        21.000    20827195.235 6 111372415.33606      2413.815 6        37.705                                                                    20827195.850 5  86623004.80505      1877.467 5        31.125
R22        22.000    23625062.241 4 126112055.93004     -4767.102 4        28.227
S36        23.000    38355045.071 6 201556981.91206      -850.686 6        36.072
S23        24.000    38297113.389 5 201252650.70505      -855.344 5        35.000
R04        25.000    22964033.868 5 122971339.40505     -4345.670 5        34.067
E29        26.000    25942087.979 6 136326552.99806      -686.494 6        38.366                                                                    25942119.324 4 101802351.33304      -512.868 4        27.138    25942090.967 6 104458090.45406      -525.981 6        38.327
C34        28.000                                                                                                                                    23854256.800 6 124215464.85106      2239.309 6        37.611                                                                    23854264.814 6 100935282.75306      1819.882 6        37.928
R13        29.000    21008159.842 5 112182426.99105     -3307.083 5        35.571
C10        32.000                                                                                                                                    39841184.712 3                     -1574.926 3        23.295    39841214.969 5                     -1218.579 5        32.557
C24        34.000                                                                                                                                    21668001.117 8 112831170.35208     -1762.411 8        51.104                                                                    21668001.947 8  91684457.51308     -1431.974 8        49.293
R14        35.000    19727976.108 7 105161373.41807       466.279 7        47.505                                                                    19727983.089 6  81792144.46106       362.525 6        38.054
R23        36.000    20456672.651 7 109429408.33407     -2135.109 7        42.982
C26        37.000                                                                                                                                    25267118.920 5 131572519.49805     -3694.999 5        35.657                                                                    25267150.374 4                     -3003.018 4        24.241
S21        38.000    38582729.122 5 202753600.58705      -850.196 5        34.967
C44        39.000                                                                                                                                    22047693.332 7 114808183.43507      -526.559 7        47.014                                                                    22047696.992 7  93291031.60207      -427.747 7        43.877
C35        40.000                                                                                                                                    24285097.849 6 126458871.62906     -3179.917 6        37.312                                                                    24285103.415 5 102758228.91705     -2583.938 5        35.976
C25        41.000                                                                                                                                    22721863.695 6 118318749.58106      1175.549 6        40.338                                                                    22721864.634 3  96143669.54903       954.611 3        22.819
R05        42.000    22348885.226 7 119467637.30707     -1477.620 7        44.569                                                                    22348898.139 6  92919315.10706     -1149.379 6        39.976
C12        43.000                                                                                                                                    22732773.246 6 118375489.63106      1108.403 6        40.229    22732771.086 8  91535489.38808       857.039 8        49.049    22732766.653 7  96189839.03807       900.698 7        42.053
C32        44.000                                                                                                                                                                                                                                                                    26750973.385 5 113192021.55605      -571.211 5        30.634
C41        50.000                                                                                                                                    26477483.773 6 137875255.45606     -2939.178 6        36.896                                                                    26477484.681 5                     -2388.147 5        32.060
I06        58.000    38688170.770 6 151820647.68006      -730.087 6        37.270
> 2025 01 01 13 45 15.0000000  0 37
G06         2.000    23199323.879 5                     -1838.182 5        31.072                                                                                                    23199325.180 5  94997476.79905     -1432.274 5        32.760
G25         3.000    20377250.504 8 107083173.49708       561.032 8        49.967                                    20377255.050 6  83441398.66706       437.161 6        41.044    20377254.542 6  83441457.67606       437.230 6        36.476
G11         4.000    22811743.258 6 119876558.88706       581.210 6        40.870                                    22811753.725 2  93410314.38602       452.844 2        12.545    22811760.803 5                       453.047 5        31.064
G28         6.000    23914107.148 6 125669380.08706      2460.120 6        40.203                                    23914115.441 3  97924336.77603      1916.973 3        22.038    23914118.374 6  97924329.74906      1916.929 6        40.691
G12         7.000    20593203.735 8 108218022.62708     -1992.451 8        50.891                                    20593204.786 7  84325748.23107     -1552.558 7        47.847    20593205.153 7  84325728.22907     -1552.594 7        43.596
G29         8.000    22971986.983 5 120718887.22005      2417.405 5        34.224                                    22971988.215 2  94066450.40302      1883.670 2        15.667    22971984.088 4                      1883.754 4        28.389
E30         9.000    23737905.519 7 124743650.60807      -995.104 7        42.847                                                                    23737912.627 7  93152696.42207      -742.979 7        44.816    23737911.989 7  95582770.65107      -762.438 7        45.526
G32        11.000    23045174.521 7 121103314.83807     -1494.596 7        45.937                                    23045187.471 5  94366234.73205     -1164.619 5        32.006    23045189.598 5  94366168.72705     -1164.544 5        34.510
E34        12.000    25931337.105 6 136270092.19106      1524.953 6        37.992                                                                    25931362.626 6 101760239.18406      1138.889 6        36.091    25931344.048 4 104414834.64004      1167.591 4        27.006
E02        13.000    25876853.178 5 135983717.31705     -2963.189 5        35.176                                                                    25876854.629 6 101546355.82606     -2212.918 6        38.850    25876855.759 6 104195399.48306     -2270.612 6        40.036
E27        15.000    25583349.343 6 134441566.59706      1085.581 6        41.764                                                                    25583360.148 6 100394757.56706       810.603 6        40.818
G24        16.000    22933115.072 5 120514320.22505     -4341.541 5        30.302                                    22933122.024 3  93907214.22603     -3383.043 3        22.305    22933123.813 5  93907338.28705     -3383.312 5        31.162
E07        18.000    25896758.814 6 136088373.24406     -3265.450 6        40.968                                                                    25896778.331 5 101624498.84905     -2438.412 5        34.790    25896821.748 4 104275557.29404     -2502.600 4        28.787
E36        19.000    26156470.158 7 137453211.24607     -1042.943 7        42.830                                                                    26156478.847 6 102643712.96506      -778.845 6        39.724    26156479.708 7 105321368.90407      -799.103 7        45.673
R15        20.000                                                                                                                                    23033369.897 4                      2013.987 4        29.839
R24        21.000    20824939.629 6 111360352.96606      2410.893 6        36.272                                                                    20824940.733 4  86613622.94704      1874.847 4        26.180
R22        22.000    23629535.981 3                     -4770.455 3        19.731
S36        23.000    38355850.030 6 201561234.27706      -850.278 6        36.098
S23        24.000    38297926.880 5 201256926.87605      -855.283 5        34.852
R04        25.000    22968086.995 5 122993072.18805     -4347.682 5        30.551                                                                    22968112.389 5  95661255.53905     -3381.282 5        31.623
E29        26.000    25942737.536 6 136329990.92606      -688.734 6        38.099                                                                    25942767.304 4 101804918.77504      -514.341 4        25.865    25942745.893 6 104460724.73706      -527.817 6        38.387
C34        28.000                                                                                                                                    23852106.201 6 124204270.38606      2238.553 6        37.622                                                                    23852115.353 6 100926186.40706      1818.732 6        38.039
R13        29.000    21011258.120 5 112198965.01405     -3308.520 5        34.343
C10        32.000                                                                                                                                    39842703.360 4                     -1575.282 4        24.556    39842728.153 5                     -1218.602 5        32.341
C24        34.000                                                                                                                                    21669693.971 8 112839986.07208     -1763.958 8        50.883                                                                    21669695.032 8  91691621.01108     -1433.315 8        49.518
R14        35.000    19727540.360 8 105159046.50208       464.418 8        48.771                                                                    19727546.598 6  81790334.66306       361.231 6        38.468
R23        36.000    20458670.730 7 109440093.71407     -2139.158 7        43.359
C26        37.000                                                                                                                                    25270666.129 5 131590996.96905     -3695.898 5        33.892                                                                    25270689.994 4                     -3002.636 4        25.323
S21        38.000    38583537.945 5 202757851.60605      -850.113 5        35.257
C44        39.000                                                                                                                                    22048200.852 7 114810822.32907      -529.092 7        47.126                                                                    22048203.706 7  93293175.94207      -429.900 7        43.524
C35        40.000                                                                                                                                    24288152.531 6 126474775.60906     -3181.756 6        36.363                                                                    24288158.035 6 102771152.21206     -2585.516 6        36.178
C25        41.000                                                                                                                                    22720736.291 6 118312874.69606      1174.627 6        40.810                                                                    22720737.170 3                       953.713 3        19.403
R05        42.000    22350270.385 7 119475035.73507     -1481.730 7        44.485                                                                    22350280.770 6  92925069.45806     -1152.327 6        38.991
C12        43.000                                                                                                                                    22731706.295 6 118369953.09606      1106.114 6        38.024    22731707.817 8  91531208.15908       855.350 8        49.286    22731703.240 7  96185340.13407       898.958 7        42.053
C32        44.000                                                                                                                                                                                                                                                                    26751650.376 5 113194881.17205      -572.882 5        30.075
C41        50.000                                                                                                                                    26480305.335 6 137889953.87006     -2940.379 6        36.771                                                                    26480307.621 5                     -2389.431 5        32.120
I06        58.000    38689101.157 6 151824298.76006      -730.177 6        37.259
> 2025 01 01 13 45 20.0000000  0 37
G19         1.000    24554336.594 3                     -4388.542 3        22.057
G06         2.000    23201080.208 5                     -1841.416 5        31.834                                                                                                    23201077.658 5  95004644.63205     -1434.779 5        31.472
G25         3.000    20376717.479 8 107080373.59708       558.991 8        49.775                                    20376721.983 6  83439216.93906       435.572 6        41.509    20376722.859 6  83439275.95506       435.511 6        36.749
G11         4.000    22811192.225 6 119873660.15006       578.343 6        40.801                                    22811202.155 1  93408055.62501       450.665 1        10.296    22811208.929 4                       450.841 4        29.062
G28         6.000    23911766.141 6 125657082.32706      2459.021 6        40.005                                    23911776.165 3  97914754.12103      1916.123 3        23.543    23911777.884 6  97914747.08406      1916.179 6        40.164
G12         7.000    20595100.654 8 108227989.98908     -1994.469 8        50.869                                    20595101.634 8  84333515.00108     -1554.131 8        48.125    20595101.798 7  84333495.00607     -1554.149 7        43.668
G29         8.000    22969684.054 4 120706803.83104      2415.248 4        29.261                                    22969688.518 2  94057034.77102      1882.069 2        12.485    22969687.212 5                      1882.485 5        30.604
E30         9.000    23738852.182 7 124748628.34207      -996.097 7        42.391                                                                    23738859.432 7  93156413.55307      -743.868 7        44.322    23738859.299 7  95586584.75107      -763.244 7        45.673
G32        11.000    23046599.138 7 121110795.97207     -1497.791 7        45.302                                    23046612.157 5  94372064.18205     -1167.105 5        33.449    23046614.084 5  94371998.18805     -1167.161 5        34.010
E34        12.000    25929886.496 6 136262471.77806      1523.271 6        36.427                                                                    25929912.067 6 101754548.63706      1137.546 6        36.314    25929892.573 4 104408995.53004      1167.312 4        25.173
E02        13.000    25879673.128 5 135998535.40805     -2963.903 5        35.952                                                                    25879674.559 6 101557421.22906     -2213.210 6        39.210    25879675.763 6 104206753.57806     -2271.026 6        39.826
E27        15.000    25582316.296 6 134436140.23706      1084.864 6        40.451                                                                    25582327.384 6 100390705.43206       810.074 6        40.768    25582338.730 6 103009506.57016       831.185 6        36.650
G24        16.000    22937246.360 5 120536030.56305     -4342.627 5        33.054                                    22937253.794 3  93924131.34703     -3383.870 3        22.590    22937256.098 5  93924255.38105     -3384.036 5        32.946
E07        18.000    25899865.860 6 136104703.91506     -3266.830 6        40.820                                                                    25899885.796 6 101636693.80206     -2439.519 6        36.397    25899928.856 4 104288070.44104     -2503.408 4        27.174
E36        19.000    26157463.050 7 137458432.73407     -1045.668 7        42.317                                                                    26157472.897 6 102647612.12806      -780.910 6        39.625    26157473.269 7 105325369.77907      -801.167 7        45.857
R15        20.000    23030952.039 4                      2588.619 4        25.925                                                                    23030941.086 4                      2013.899 4        29.137
R24        21.000    20822681.009 5                      2407.863 5        34.300
S36        23.000    38356659.724 6 201565485.85506      -850.133 6        36.461
S23        24.000    38298742.652 5 201261202.51505      -855.081 5        35.119
R04        25.000    22972145.901 4 123014814.69004     -4349.730 4        28.853                                                                    22972180.853 5  95678166.45705     -3382.894 5        33.742
E29        26.000    25943385.783 6 136333440.81506      -691.095 6        37.365                                                                    25943423.317 4 101807495.07304      -516.049 4        27.880    25943403.069 6 104463368.19406      -529.648 6        38.541
C34        28.000                                                                                                                                    23849957.000 6 124193082.04906      2237.002 6        37.917                                                                    23849967.036 6 100917094.98506      1817.852 6        38.084
R13        29.000    21014355.504 5 112215511.98405     -3310.066 5        33.012
C10        32.000                                                                                                                                    39844213.798 4                     -1576.069 4        24.256    39844241.426 5                     -1218.488 5        32.575
C24        34.000                                                                                                                                    21671388.275 8 112848810.73608     -1765.840 8        50.223                                                                    21671389.837 8  91698791.77508     -1434.873 8        49.828
R14        35.000    19727106.153 8 105156729.78808       462.313 8        49.610                                                                    19727111.471 6  81788532.79406       359.623 6        38.501
R23        36.000    20460674.563 7 109450801.18507     -2143.813 7        43.043
C26        37.000                                                                                                                                    25274215.686 5 131609478.02505     -3696.571 5        32.114                                                                    25274236.170 4                     -3004.643 4        24.947
S21        38.000    38584349.057 5 202762102.23705      -850.129 5        35.171
C44        39.000                                                                                                                                    22048711.039 7 114813474.93707      -531.901 7        47.329                                                                    22048712.962 7  93295331.42307      -432.254 7        43.310
C35        40.000                                                                                                                                    24291209.736 6 126490688.53606     -3183.533 6        36.163                                                                    24291213.818 6 102784082.76106     -2586.684 6        36.147
C25        41.000                                                                                                                                    22719608.662 6 118307005.62106      1173.155 6        40.293                                                                    22719613.366 4                       952.695 4        25.188
R05        42.000    22351659.273 7 119482455.62207     -1486.046 7        45.014                                                                    22351669.467 6  92930840.48406     -1155.832 6        38.952
C12        43.000                                                                                                                                    22730639.414 5 118364428.14405      1103.822 5        34.714    22730646.921 8  91526935.88508       853.577 8        49.459    22730642.300 7  96180850.63407       896.968 7        42.172
C32        44.000                                                                                                                                                                                                                                                                    26752330.715 4 113197751.65804      -575.080 4        28.626
C41        50.000                                                                                                                                    26483125.742 5 137904660.16505     -2942.246 5        34.433                                                                    26483132.019 5                     -2390.523 5        31.600
I06        58.000    38690031.730 6 151827949.47606      -730.288 6        37.183
> 2025 01 01 13 45 25.0000000  0 37
G19         1.000    24558514.091 3                     -4388.941 3        21.595
G06         2.000    23202838.025 5                     -1845.053 5        30.543                                                                                                    23202830.846 5  95011825.48905     -1437.710 5        30.241
G25         3.000    20376186.160 8 107077583.95608       556.763 8        49.810                                    20376190.763 6  83437043.20806       433.839 6        41.497    20376192.340 6  83437102.20406       433.922 6        36.760
G11         4.000    22810643.368 6 119870776.21506       575.189 6        41.454                                    22810653.281 1  93405808.27701       448.266 1         8.000    22810663.347 4                       448.144 4        28.967
G28         6.000    23909427.832 6 125644790.11806      2457.631 6        40.808                                    23909437.739 4  97905175.79904      1915.029 4        24.211    23909438.176 6  97905168.78706      1915.048 6        39.853
G12         7.000    20596999.479 8 108237967.57608     -1996.610 8        51.006                                    20597000.473 8  84341289.73608     -1555.800 8        48.304    20597000.272 7  84341269.74207     -1555.776 7        43.920
G29         8.000    22967384.604 4 120694727.77104      2414.708 4        28.190                                    22967390.909 2  94047624.93202      1881.607 2        13.455    22967391.012 5                      1881.266 5        32.473
E30         9.000    23739800.501 7 124753611.69807      -997.340 7        42.025                                                                    23739807.233 7  93160134.90007      -744.826 7        43.746    23739807.673 7  95590403.17707      -764.217 7        45.690
G32        11.000    23048025.769 7 121118292.92507     -1501.069 7        45.422                                    23048039.347 5  94377905.96105     -1169.666 5        34.248    23048039.179 5  94377839.95505     -1169.409 5        33.198
E34        12.000    25928439.022 5 136254859.59005      1521.550 5        34.871                                                                    25928463.134 5 101748864.21305      1136.141 5        35.933    25928443.467 4 104403162.88504      1165.377 4        24.827
E02        13.000    25882493.236 6 136013356.01606     -2964.267 6        36.181                                                                    25882494.662 6 101568488.52706     -2213.766 6        39.384    25882496.447 6 104218109.58406     -2271.270 6        39.414
E27        15.000    25581283.285 6 134430717.14806      1084.177 6        39.336                                                                    25581295.146 6 100386655.74006       809.645 6        40.591    25581304.625 6 103005351.27106       830.798 6        37.236
G24        16.000    22941380.233 5 120557747.62005     -4344.063 5        35.214                                    22941386.942 3  93941053.68203     -3384.966 3        23.733    22941389.100 5  93941177.70705     -3385.275 5        34.186
E07        18.000    25902974.595 6 136121041.94906     -3268.397 6        40.934                                                                    25902993.847 6 101648894.23906     -2440.639 6        37.119
E36        19.000    26158458.398 6 137463667.31906     -1048.413 6        41.425                                                                    26158469.550 6 102651521.07906      -782.967 6        39.997    26158469.220 7 105329380.70007      -803.271 7        45.849
R15        20.000    23028522.723 3                      2589.121 3        21.548                                                                    23028517.717 4                      2013.792 4        28.284
R24        21.000    20820430.472 5 111336274.11215      2404.765 5        35.533
S36        23.000    38357468.659 6 201569737.64506      -850.693 6        36.287
S23        24.000    38299555.003 5 201265478.39305      -855.059 5        35.076
R04        25.000    22976210.728 4 123036567.68304     -4351.779 4        28.616                                                                    22976241.663 5  95695085.36705     -3384.791 5        34.405
E29        26.000    25944046.233 6 136336903.22506      -693.908 6        36.775                                                                    25944085.291 4 101810080.62404      -518.371 4        29.602    25944062.690 6 104466021.20506      -531.441 6        38.556
C34        28.000                                                                                                                                    23847809.155 6 124181900.34906      2235.523 6        37.985                                                                    23847819.822 6 100908008.96006      1816.734 6        38.141
R13        29.000    21017454.135 5 112232068.74605     -3312.503 5        34.114
C10        32.000                                                                                                                                    39845728.726 4                     -1575.958 4        25.474    39845755.674 5                     -1218.656 5        32.820
C24        34.000                                                                                                                                    21673084.605 8 112857644.84308     -1767.814 8        49.704                                                                    21673086.426 8  91705970.20408     -1436.462 8        50.056
R14        35.000    19726673.064 8 105154424.15908       459.922 8        49.263                                                                    19726679.442 6  81786739.56506       357.608 6        38.204
R23        36.000    20462679.854 6 109461531.20406     -2148.326 6        41.366
C26        37.000                                                                                                                                    25277768.892 5 131627963.18505     -3697.444 5        30.702                                                                    25277788.798 3                     -3004.220 3        23.238
S21        38.000    38585156.695 5 202766353.03405      -850.190 5        34.695
C44        39.000                                                                                                                                    22049223.597 7 114816141.75007      -534.851 7        47.621                                                                    22049225.084 7  93297498.42907      -434.470 7        43.270
C35        40.000                                                                                                                                    24294270.066 6 126506611.01006     -3185.457 6        36.688                                                                    24294271.519 6 102797021.03806     -2588.224 6        36.189
C25        41.000                                                                                                                                    22718481.868 6 118301142.84806      1172.002 6        39.628                                                                    22718488.176 4                       952.253 4        28.427
R05        42.000    22353052.207 7 119489897.81807     -1490.775 7        45.508                                                                    22353061.781 6  92936628.85006     -1159.577 6        40.513
C12        43.000                                                                                                                                    22729575.909 5 118358915.28005      1101.390 5        31.758    22729588.230 8  91522672.96008       851.622 8        49.442    22729583.903 7  96176370.97107       894.895 7        42.834
C32        44.000                                                                                                                                                                                                                                                                    26753017.407 4 113200633.34404      -577.188 4        27.234
C41        50.000                                                                                                                                    26485944.518 5 137919374.74805     -2943.940 5        30.438                                                                    26485957.655 5                     -2392.119 5        30.951
I06        58.000    38690962.276 6 151831600.20206      -730.065 6        37.096
> 2025 01 01 13 45 30.0000000  0 37
G19         1.000    24562691.964 3                     -4386.627 3        20.952
G06         2.000    23204599.366 5                     -1848.038 5        32.737                                                                                                    23204588.344 5  95019019.21405     -1439.874 5        32.473
G25         3.000    20375657.259 8 107074804.48608       554.760 8        49.556                                    20375661.475 6  83434877.40106       432.274 6        41.340    20375663.066 6  83434936.40706       432.217 6        36.594
G11         4.000    22810098.449 6 119867906.98606       572.277 6        40.696                                    22810107.095 1  93403572.50201       445.811 1         4.714
G28         6.000    23907091.020 7 125632503.45307      2456.737 7        42.356                                    23907100.266 4  97895601.83104      1914.324 4        24.421    23907100.068 6  97895594.86206      1914.258 6        39.880
G12         7.000    20598900.133 8 108247955.25208     -1998.642 8        50.859                                    20598901.226 8  84349072.33308     -1557.382 8        48.496    20598900.953 7  84349052.33807     -1557.372 7        44.119
G29         8.000    22965087.874 4 120682659.22504      2412.469 4        29.716                                    22965094.225 2  94038220.89602      1879.863 2        15.381    22965095.696 5                      1877.222 5        33.904
E30         9.000    23740749.962 6 124758600.59606      -998.502 6        41.926                                                                    23740756.052 7  93163860.36807      -745.482 7        42.849    23740757.123 7  95594225.84807      -765.089 7        46.044
G32        11.000    23049455.918 7 121125805.55207     -1504.024 7        45.093                                    23049469.135 5  94383759.95805     -1171.971 5        34.752    23049469.904 5  94383693.95205     -1171.646 5        33.168
E34        12.000    25926994.021 5 136247255.52005      1519.887 5        33.467                                                                    25927015.154 5 101743185.82505      1135.151 5        35.495    25926995.278 3 104397336.30803      1165.482 3        23.695
E02        13.000    25885312.349 6 136028179.05206     -2964.853 6        36.257                                                                    25885315.678 6 101579557.63106     -2214.156 6        39.318    25885317.373 6 104229467.45306     -2271.839 6        39.060
