     3.04           OBSERVATION DATA    M                   RINEX VERSION / TYPE
ssrcrin-15.6.1x                         20250101 133000 UTC PGM / RUN BY / DATE 
(00000000023479385599111004) Septentrio proprietary         COMMENT             
ract                                                        MARKER NAME         
01                                                          MARKER NUMBER       
geodetic                                                    MARKER TYPE         
NFB                 CLIMERS@TUW                             OBSERVER / AGENCY   
3296359             SEPT ASTERX SB3 PROB4.14.4              REC # / TYPE / VERS 
Unknown             Unknown                                 ANT # / TYPE        
  4127448.8364  1206915.9481  4695543.2290                  APPROX POSITION XYZ 
        0.0000        0.0000        0.0000                  ANTENNA: DELTA H/E/N
G   23 X1  C1C L1C D1C S1C C1W S1W C2W L2W D2W S2W C2L L2L  SYS / # / OBS TYPES 
       D2L S2L C5Q L5Q D5Q S5Q C1L L1L D1L S1L              SYS / # / OBS TYPES 
E   21 X1  C1C L1C D1C S1C C6C L6C D6C S6C C5Q L5Q D5Q S5Q  SYS / # / OBS TYPES 
       C7Q L7Q D7Q S7Q C8Q L8Q D8Q S8Q                      SYS / # / OBS TYPES 
S    9 X1  C1C L1C D1C S1C C5I L5I D5I S5I                  SYS / # / OBS TYPES 
R   17 X1  C1C L1C D1C S1C C2P L2P D2P S2P C2C L2C D2C S2C  SYS / # / OBS TYPES 
       C3Q L3Q D3Q S3Q                                      SYS / # / OBS TYPES 
C   25 X1  C1P L1P D1P S1P C5P L5P D5P S5P C2I L2I D2I S2I  SYS / # / OBS TYPES 
       C7I L7I D7I S7I C6I L6I D6I S6I C7D L7D D7D S7D      SYS / # / OBS TYPES 
J   17 X1  C1C L1C D1C S1C C2L L2L D2L S2L C5Q L5Q D5Q S5Q  SYS / # / OBS TYPES 
       C1L L1L D1L S1L                                      SYS / # / OBS TYPES 
I    5 X1  C5A L5A D5A S5A                                  SYS / # / OBS TYPES 
SEPTENTRIO RECEIVERS OUTPUT ALIGNED CARRIER PHASES.         COMMENT             
NO FURTHER PHASE SHIFT APPLIED IN THE RINEX ENCODER.        COMMENT             
G L1C                                                       SYS / PHASE SHIFT   
G L2W                                                       SYS / PHASE SHIFT   
G L2L  0.00000                                              SYS / PHASE SHIFT   
G L5Q  0.00000                                              SYS / PHASE SHIFT   
G L1L  0.00000                                              SYS / PHASE SHIFT   
E L1C  0.00000                                              SYS / PHASE SHIFT   
E L6C  0.00000                                              SYS / PHASE SHIFT   
E L5Q  0.00000                                              SYS / PHASE SHIFT   
E L7Q  0.00000                                              SYS / PHASE SHIFT   
E L8Q  0.00000                                              SYS / PHASE SHIFT   
S L1C                                                       SYS / PHASE SHIFT   
S L5I                                                       SYS / PHASE SHIFT   
R L1C                                                       SYS / PHASE SHIFT   
R L2P  0.00000                                              SYS / PHASE SHIFT   
R L2C                                                       SYS / PHASE SHIFT   
R L3Q  0.00000                                              SYS / PHASE SHIFT   
C L1P  0.00000                                              SYS / PHASE SHIFT   
C L5P  0.00000                                              SYS / PHASE SHIFT   
C L2I                                                       SYS / PHASE SHIFT   
C L7I                                                       SYS / PHASE SHIFT   
C L6I                                                       SYS / PHASE SHIFT   
C L7D                                                       SYS / PHASE SHIFT   
J L1C                                                       SYS / PHASE SHIFT   
J L2L  0.00000                                              SYS / PHASE SHIFT   
J L5Q  0.00000                                              SYS / PHASE SHIFT   
J L1L  0.00000                                              SYS / PHASE SHIFT   
I L5A                                                       SYS / PHASE SHIFT   
  2025     1     1    13    30    0.0000000     GPS         TIME OF FIRST OBS   
 C1C    0.000 C2C    0.000 C2P    0.000                     GLONASS COD/PHS/BIS 
DBHZ                                                        SIGNAL STRENGTH UNIT
    18                                                      LEAP SECONDS        
 24 R01  1 R02 -4 R03  5 R04  6 R05  1 R06 -4 R07  5 R08  6 GLONASS SLOT / FRQ #
    R09 -2 R10 -7 R11  0 R12 -1 R13 -2 R14 -7 R15  0 R16 -1 GLONASS SLOT / FRQ #
    R17  4 R18 -3 R19  3 R20  2 R21  4 R22 -3 R23  3 R24  2 GLONASS SLOT / FRQ #
                                                            END OF HEADER       
> 2025 01 01 13 30  0.0000000  0 39
G19         1.000    23798905.847 4                     -4231.144 4        24.526
G06         2.000    22932759.897 5 120512556.62005     -1221.249 5        32.473                                    22932762.870 3  93905727.39703      -951.611 3        18.836    22932764.419 6  93905857.33206      -951.906 6        36.393
G25         3.000    20506554.547 6 107762669.96606       919.591 6        39.267                                    20506560.882 6  83970874.42906       716.568 6        40.768    20506561.030 7  83970939.42707       716.644 7        43.903
G11         4.000    22957866.977 7 120644369.55907      1085.349 7        44.638                                    22957867.500 4  94008586.42904       845.721 4        25.504    22957868.798 6  94008654.45106       845.573 6        39.697
G28         6.000                                                                                                                                                                    24357597.678 5  99740279.81105      2042.374 5        35.052
G12         7.000    20278994.927 8 106566842.32708     -1614.173 8        51.172                                    20278994.370 7  83039114.61607     -1257.792 7        46.653    20278995.945 7  83039127.59907     -1257.669 7        44.060
G29         8.000    23414695.858 6 123045058.90606      2657.697 6        38.054                                    23414703.330 2  95879337.49002      2070.927 2        14.048    23414698.156 3                      2073.268 3        18.866
E30         9.000    23582296.529 7 123925839.51307      -792.437 7        47.038                                                                    23582303.650 7  92542048.89907      -591.773 7        44.476    23582301.537 7  94956193.30007      -607.165 7        45.270
G32        11.000    22835712.664 4 120002454.78304      -908.607 4        29.687                                    22835689.121 2  93508423.28102      -707.979 2        13.030    22835696.770 5  93508350.29605      -707.817 5        34.548
E34        12.000    26220801.751 6 137791252.84806      1789.046 6        37.951                                                                    26220820.714 4 102896107.82704      1335.590 4        29.517    26220811.096 5 105580403.22805      1371.105 5        33.569
E02        13.000    25368745.534 7 133313633.21507     -2871.990 7        45.093                                                                    25368753.439 7  99552464.49607     -2144.753 7        43.012    25368753.101 7 102149492.33407     -2200.570 7        44.427
E27        15.000    25782251.719 6 135486737.60006      1197.478 6        39.015                                                                    25782253.339 6 101175239.78506       894.200 6        37.198    25782247.560 5 103814604.45205       917.576 5        33.060
G24        16.000    22199954.185 6 116661525.23006     -4069.753 6        36.257                                    22199951.662 4  90905051.94304     -3171.225 4        26.383    22199951.895 5  90905088.91605     -3171.536 5        33.754
E07        18.000    25352842.808 7 133230053.84207     -2973.693 7        44.147                                                                    25352854.144 7  99490108.57107     -2220.646 7        42.447    25352855.359 7 102085399.84807     -2278.690 7        42.834
E36        19.000    26016223.182 5 136716169.81705      -568.858 5        32.485                                                                    26016231.718 4 102093343.49204      -425.630 4        27.701    26016230.630 5 104756641.93605      -435.959 5        30.830
R15        20.000    23479260.399 5 125466308.00505      2612.322 5        31.245                                                                    23479313.913 4                      2031.979 4        29.308
R24        21.000    21282844.486 7 113808967.47907      2920.288 7        46.190                                                                    21282851.841 6  88518116.11806      2271.305 6        37.369
R22        22.000    22844163.153 4 121943781.31804     -4373.598 4        28.370
S36        23.000    38208022.199 6 200784406.30806      -848.214 6        36.318
S23        24.000    38149282.276 5 200475809.17605      -852.692 5        34.738
R04        25.000                                                                                                                                    22261003.503 6  92716344.28006     -3037.844 6        36.870
E29        26.000    25861958.581 5 135905588.64405      -241.026 5        32.635                                                                                                                                    25861990.834 5 104135485.72705      -184.869 5        34.105
C34        28.000                                                                                                                                    24264551.698 6 126351959.26106      2445.459 6        40.608                                                                    24264559.569 6 102671354.43906      1986.960 6        37.989
R13        29.000    20474407.064 5 109332158.86805     -2955.738 5        34.529
C10        32.000                                                                                                                                    39566217.710 4                     -1571.066 4        29.848                                                                    39566185.619 4                     -1276.391 4        29.270
C24        34.000                                                                                                                                    21389568.103 8 111381305.21408     -1425.844 8        48.746                                                                    21389570.183 7  90506323.82807     -1158.669 7        47.362
R14        35.000    19839669.899 8 105756752.44908       833.092 8        49.541                                                                    19839677.125 8  82255214.59908       647.946 8        48.147
R23        36.000    20164762.138 6 107867904.27706     -1289.992 6        41.168
C26        37.000                                                                                                                                    24634615.875 6 128278925.27106     -3540.901 6        37.584                                                                    24634636.660 5 104237119.14205     -2877.208 5        33.048
S21        38.000    38435765.741 5 201981311.74405      -847.975 5        35.295
C44        39.000                                                                                                                                    22000413.604 8 114561971.95608       -16.590 8        49.215                                                                    22000413.806 6  93090964.08706       -13.519 6        39.225
C35        40.000                                                                                                                                    23760915.629 6 123729333.62606     -2809.940 6        41.323                                                                    23760916.609 6 100540334.99506     -2283.373 6        36.779
C25        41.000                                                                                                                                    22945768.852 6 119484784.18906      1379.901 6        36.628                                                                    22945780.417 6  97091120.13006      1121.216 6        36.113
R05        42.000    22166435.789 7 118492354.13807      -663.170 7        46.448                                                                    22166449.888 7  92160763.03207      -515.884 7        42.692
C12        43.000                                                                                                                                    22963135.451 7 119575080.88107      1519.073 7        44.263    22963142.679 8  92463086.83908      1174.731 8        49.281    22963138.609 7  97164604.24907      1234.463 7        44.695
C32        44.000                                                                                                                                    26671921.440 5 138887797.12105      -203.305 5        34.781                                                                    26671929.373 3                      -163.081 3        22.305
C41        50.000                                                                                                                                                                                                                                                                    25992183.763 5 109981448.84005     -2116.190 5        34.833
I06        58.000    38518658.367 6 151155450.31606      -732.143 6        38.255
I02        60.000    37110904.085 4 145631164.10804      -858.545 4        29.450
> 2025 01 01 13 30  5.0000000  0 39
G19         1.000    23802930.348 4                     -4232.377 4        25.083
G06         2.000    22933928.637 5 120518669.90105     -1224.392 5        32.623                                    22933926.994 2  93910490.99202      -954.047 2        15.524    22933929.142 6  93910620.95006      -954.019 6        37.263
G25         3.000    20505678.614 6 107758075.08806       918.087 6        38.547                                    20505686.460 6  83967294.00206       715.404 6        40.079    20505686.554 7  83967358.98907       715.439 7        42.961
G11         4.000    22956834.865 7 120638947.75207      1083.233 7        45.998                                    22956835.963 4  94004361.68004       844.061 4        26.204    22956836.772 6  94004429.68906       844.032 6        39.961
G28         6.000                                                                                                                                                                    24355103.912 5  99730067.74505      2042.125 5        34.790
G12         7.000    20280530.947 8 106574916.66308     -1615.758 8        50.533                                    20280531.262 7  83045406.29007     -1259.027 7        47.178    20280532.568 7  83045419.28807     -1259.058 7        45.117
G29         8.000    23412166.106 6 123031771.41306      2657.093 6        36.363                                    23412174.028 2  95868983.65802      2070.480 2        13.818
E30         9.000    23583050.824 7 123929802.68307      -792.969 7        46.850                                                                    23583057.904 7  92545008.39807      -592.137 7        44.447    23583055.702 7  94959230.01507      -607.611 7        45.126
G32        11.000                                                                                                                                                                    22836564.080 6  93511895.05606      -710.168 6        36.484
E34        12.000    26219099.161 6 137782308.40506      1788.514 6        37.841                                                                    26219115.506 4 102889428.48704      1335.935 4        28.796    26219110.007 5 105573549.76105      1370.397 5        34.776
E02        13.000    25371478.119 7 133327992.72507     -2872.024 7        45.129                                                                    25371486.067 7  99563187.48307     -2144.643 7        42.730    25371485.754 7 102160495.05807     -2200.562 7        43.856
E27        15.000    25781111.455 6 135480750.01506      1197.228 6        38.357                                                                    25781114.576 6 101170768.55406       894.147 6        37.524    25781108.352 5 103810016.57405       917.549 5        32.934
G24        16.000    22203828.805 5 116681877.53905     -4071.032 5        33.868                                    22203824.293 4  90920910.83104     -3172.219 4        26.359    22203824.256 5  90920947.77005     -3172.239 5        31.328
E07        18.000    25355673.253 7 133244925.10407     -2974.960 7        43.992                                                                    25355684.242 7  99501213.70707     -2221.497 7        42.703    25355685.699 6 102096794.69206     -2279.545 6        41.762
E36        19.000    26016766.630 5 136719019.17005      -570.859 5        32.665                                                                                                                                    26016773.844 5 104758825.20405      -437.539 5        32.108
R15        20.000    23476817.833 5 125453244.50705      2612.787 5        32.359                                                                    23476877.978 5                      2032.186 5        31.313
R24        21.000    21280115.620 7 113794370.12707      2918.442 7        46.675                                                                    21280122.600 6  88506762.65806      2269.935 6        37.301
R22        22.000    22848268.362 4 121965653.96404     -4375.976 4        28.408                                                                    22848281.988 3                     -3401.362 3        21.357
S36        23.000    38208831.272 6 200788645.82506      -847.978 6        36.204
S23        24.000    38150092.722 5 200480071.24005      -852.073 5        34.695
R04        25.000                                                                                                                                    22264655.860 6  92731537.98906     -3039.737 6        36.004
E29        26.000    25862190.299 5 135906799.27005      -243.077 5        31.630                                                                                                                                    25862221.446 5 104136413.36205      -186.480 5        32.263
C34        28.000                                                                                                                                    24262203.697 7 126339733.17307      2444.907 7        42.072                                                                    24262211.305 6 102661419.79406      1986.606 6        37.656
R13        29.000    20477170.691 5 109346940.85105     -2957.029 5        33.802
C10        32.000                                                                                                                                    39567725.469 4                     -1571.141 4        29.630                                                                    39567693.356 4                     -1276.685 4        29.355
C24        34.000                                                                                                                                    21390937.535 8 111388437.36308     -1427.205 8        48.066                                                                    21390939.652 7  90512119.26507     -1159.837 7        47.074
R14        35.000    19838889.533 8 105752589.79008       831.764 8        49.337                                                                    19838896.204 7  82251976.98607       646.952 7        47.666
R23        36.000    20165966.977 6 107874364.34106     -1294.315 6        40.427
C26        37.000                                                                                                                                    24638014.575 6 128296630.35506     -3541.401 6        36.616                                                                    24638030.903 5 104251505.97505     -2877.759 5        32.527
S21        38.000    38436571.747 5 201985549.50205      -847.564 5        35.419
C44        39.000                                                                                                                                    22000430.267 8 114562060.26908       -18.939 8        49.668                                                                    22000431.746 6  93091035.84306       -15.398 6        39.874
C35        40.000                                                                                                                                    23763614.840 6 123743387.55306     -2811.729 6        40.999                                                                    23763614.938 5 100551754.95105     -2284.810 5        35.971
C25        41.000                                                                                                                                    22944447.892 6 119477885.51706      1379.348 6        37.603                                                                    22944456.261 6  97085514.44006      1120.956 6        36.688
R05        42.000    22167057.681 7 118495679.51907      -667.117 7        45.174                                                                    22167072.102 7  92163349.46307      -518.815 7        42.785
C12        43.000                                                                                                                                    22961678.371 7 119567488.68007      1517.534 7        43.812    22961683.836 8  92457216.08908      1173.414 8        48.731    22961680.584 7  97158434.98507      1232.985 7        45.236
C32        44.000                                                                                                                                    26672120.024 5 138888819.54305      -205.828 5        34.657                                                                    26672124.229 3                      -164.526 3        21.357
C41        50.000                                                                                                                                                                                                                                                                    25994683.795 5 109992033.04105     -2117.505 5        32.808
I06        58.000    38519590.521 6 151159109.77106      -731.712 6        38.144
I02        60.000    37111997.770 4 145635454.99504      -857.999 4        29.469
> 2025 01 01 13 30 10.0000000  0 39
G19         1.000    23806958.363 4                     -4233.200 4        25.955
G06         2.000                                                                                                                                                                    22935094.992 6  93915397.53206      -956.417 6        37.784
G25         3.000    20504808.204 6 107753489.29606       916.619 6        40.861                                    20504813.729 6  83963720.65106       714.254 6        39.483    20504813.809 6  83963785.66106       714.277 6        41.928
G11         4.000    22955805.273 7 120633538.41107      1080.837 7        46.386                                    22955806.770 4  94000146.63604       842.205 4        26.778    22955806.891 6  94000214.64106       842.224 6        39.835
G28         6.000    24352543.447 5                      2620.192 5        30.181                                                                                                    24352609.922 5  99719858.02205      2042.001 5        35.138
G12         7.000    20282069.086 8 106583001.23208     -1617.682 8        50.184                                    20282070.068 7  83051705.93707     -1260.528 7        47.467    20282070.695 7  83051718.93407     -1260.534 7        45.693
G29         8.000    23409638.676 5 123018489.32305      2656.351 5        33.970                                    23409645.822 2  95858633.99102      2069.912 2        14.143    23409642.316 3                      2069.991 3        22.038
E30         9.000    23583805.584 7 123933771.09307      -793.929 7        46.586                                                                    23583813.048 7  92547971.81607      -592.852 7        44.477    23583810.623 7  94962270.74507      -608.277 7        44.862
G32        11.000                                                                                                                                                                    22837432.315 6  93515452.22206      -712.618 6        37.486
E34        12.000    26217397.951 6 137773369.99406      1787.380 6        37.501                                                                    26217415.461 4 102882753.71004      1334.910 4        29.431    26217410.556 6 105566700.86606      1369.749 6        36.272
E02        13.000    25374211.196 7 133342354.50507     -2872.307 7        45.266                                                                    25374218.946 7  99573912.17107     -2144.882 7        42.586    25374218.658 7 102171499.51207     -2200.755 7        43.185
E27        15.000    25779969.983 6 135474765.04406      1196.991 6        38.078                                                                    25779976.132 6 101166299.30006       893.844 6        37.943    25779968.927 5 103805430.69305       917.339 5        32.240
G24        16.000    22207706.280 4 116702237.79004     -4072.188 4        29.194                                    22207697.997 4  90936775.86604     -3173.103 4        24.556    22207698.900 4  90936812.87604     -3173.386 4        29.886
E07        18.000    25358504.859 7 133259804.69907     -2976.551 7        43.820                                                                    25358515.963 7  99512325.06507     -2222.606 7        42.840    25358517.898 6 102108195.92706     -2280.671 6        40.627
E36        19.000    26017310.731 5 136721881.05105      -573.440 5        32.838                                                                                                                                    26017319.212 5 104761018.10305      -439.396 5        33.042
R15        20.000    23474374.526 5 125440180.80215      2613.230 5        32.305                                                                    23474433.226 5                      2032.384 5        31.004
R24        21.000    21277388.900 7 113779784.65507      2916.135 7        46.740                                                                    21277396.181 6  88495418.39706      2268.155 6        38.823
R22        22.000                                                                                                                                    22852374.502 4                     -3405.118 4        26.144
S36        23.000    38209640.913 6 200792885.73806      -847.682 6        36.004
S23        24.000    38150904.304 5 200484332.91505      -852.037 5        34.338
R04        25.000                                                                                                                                    22268304.676 5                     -3041.727 5        33.904
E29        26.000    25862423.230 5 135908021.63005      -245.240 5        32.629                                                                                                                                    25862452.447 4 104137349.99204      -187.885 4        29.592
C34        28.000                                                                                                                                    24259856.974 7 126327511.56607      2444.171 7        43.532                                                                    24259864.021 6 102651488.81006      1985.828 6        37.259
R13        29.000    20479939.879 5 109361732.54005     -2959.256 5        35.043
C10        32.000                                                                                                                                    39569231.879 4                     -1570.873 4        28.976                                                                    39569201.746 4                     -1276.504 4        29.839
C24        34.000                                                                                                                                    21392309.026 7 111395578.32507     -1428.826 7        47.334                                                                    21392310.970 7  90517921.86507     -1161.169 7        46.610
R14        35.000    19838109.844 8 105748436.15808       830.094 8        48.571                                                                    19838116.701 7  82248746.41107       645.634 7        47.142
R23        36.000    20167177.887 6 107880847.62106     -1298.649 6        39.228
C26        37.000                                                                                                                                    24641415.347 6 128314339.56606     -3542.102 6        36.064                                                                    24641420.996 5 104265896.19405     -2878.071 5        32.006
S21        38.000    38437377.278 5 201989786.75105      -847.018 5        34.633
C44        39.000                                                                                                                                    22000449.448 8 114562162.09808       -21.472 8        49.949                                                                    22000452.147 6  93091118.61406       -17.576 6        40.472
C35        40.000                                                                                                                                    23766315.640 6 123757452.06906     -2813.631 6        40.958                                                                    23766315.791 5 100563183.50405     -2286.585 5        35.510
C25        41.000                                                                                                                                    22943133.718 6 119470991.64406      1378.721 6        38.021                                                                    22943133.154 6  97079912.62506      1119.962 6        36.998
R05        42.000    22167684.891 7 118499027.07207      -671.393 7        45.389                                                                    22167698.881 7  92165953.10307      -522.342 7        43.103
C12        43.000                                                                                                                                    22960222.632 7 119559906.73107      1515.672 7        43.414    22960227.165 8  92451353.25008      1171.962 8        48.184    22960224.418 7  97152274.04707      1231.514 7        45.673
C32        44.000                                                                                                                                    26672319.050 5 138889855.40605      -208.150 5        35.095
C41        50.000                                                                                                                                                                                                                                                                    25997185.869 5 110002625.13905     -2118.651 5        30.038
I06        58.000    38520523.233 6 151162768.92306      -731.531 6        38.213
I02        60.000    37113090.943 4 145639746.33904      -857.953 4        29.223
> 2025 01 01 13 30 15.0000000  0 39
G19         1.000    23810990.054 4                     -4234.176 4        25.714
G06         2.000    22936290.018 4 120530947.01404     -1230.568 4        26.539                                    22936264.665 2  93920057.38802      -958.921 2        15.333    22936263.994 6  93920187.37906      -959.352 6        38.168
G25         3.000    20503937.465 7 107748912.89407       914.414 7        42.864                                    20503942.724 6  83960154.63106       712.527 6        39.453    20503943.123 6  83960219.64806       712.621 6        41.237
G11         4.000    22954777.676 7 120628141.85407      1078.061 7        46.088                                    22954780.122 4  93995941.55004       840.044 4        27.150    22954779.866 6  93996009.55806       839.983 6        39.495
G28         6.000                                                                                                                                                                    24350117.140 5  99709651.03405      2041.113 5        35.605
G12         7.000    20283609.651 8 106591096.33008     -1619.990 8        49.620                                    20283610.824 7  83058013.79107     -1262.325 7        47.469    20283610.788 7  83058026.78507     -1262.338 7        45.764
G29         8.000    23407111.652 5 123005213.01105      2654.662 5        32.198                                    23407118.975 2  95848288.85502      2068.571 2        15.333    23407117.097 3                      2068.936 3        22.571
E30         9.000    23584561.642 7 123937745.04407      -795.274 7        45.974                                                                    23584569.320 7  92550939.37707      -593.820 7        44.495    23584566.756 7  94965315.72207      -609.337 7        44.596
G32        11.000    22838286.827 5 120016150.24805      -917.493 5        34.929                                    22838295.437 2  93519094.94302      -714.927 2        17.962    22838303.065 6  93519021.98506      -715.281 6        38.646
E34        12.000    26215697.817 6 137764437.93106      1785.779 6        37.142                                                                    26215716.739 5 102876083.67705      1333.147 5        30.732    26215711.111 6 105559856.85506      1368.158 6        37.077
E02        13.000    25376944.765 7 133356718.84307     -2872.964 7        45.335                                                                    25376952.391 7  99584638.77907     -2145.451 7        42.641    25376952.191 7 102182505.94607     -2201.409 7        42.718
E27        15.000    25778829.340 6 135468783.02206      1196.167 6        36.809                                                                    25778838.274 6 101161832.26106       893.290 6        38.315    25778830.276 5 103800847.08605       917.131 5        31.351
G24        16.000    22211578.477 3                     -4074.575 3        23.086                                                                                                    22211575.091 5  90952684.31505     -3175.000 5        30.996
E07        18.000    25361338.224 7 133274692.90107     -2978.372 7        43.583                                                                    25361349.267 7  99523442.87607     -2224.193 7        43.354    25361352.630 6 102119603.78806     -2282.105 6        39.513
E36        19.000    26017855.947 5 136724755.75605      -576.219 5        33.192                                                                    26017877.883 4 102099754.82304      -430.276 4        27.198    26017867.063 5 104763220.85505      -441.461 5        34.676
R15        20.000    23471930.935 5 125427117.16605      2612.920 5        34.933
R24        21.000    21274662.537 7 113765211.38907      2913.467 7        45.902                                                                    21274671.457 6  88484083.67606      2266.074 6        40.105
R22        22.000                                                                                                                                    22856479.478 5                     -3407.143 5        30.513
S36        23.000    38210443.958 6 200797126.03606      -847.779 6        36.004
S23        24.000    38151715.621 5 200488594.53905      -852.225 5        34.619
R04        25.000    22271989.170 5 119265492.92915     -3913.645 5        35.981                                                                    22271951.950 5  92761957.26415     -3043.815 5        32.449
E29        26.000    25862660.225 5 135909255.94905      -248.086 5        34.200                                                                                                                                    25862681.034 4 104138295.91304      -189.588 4        28.123
C34        28.000                                                                                                                                    24257511.385 7 126315294.75407      2442.932 7        44.734                                                                    24257517.556 6 102641561.71206      1984.996 6        37.233
R13        29.000    20482714.995 6 109376533.92406     -2961.239 6        37.210
C10        32.000                                                                                                                                    39570739.839 4                     -1571.146 4        28.701    39570735.696 5 159334957.01015     -1214.764 5        34.086    39570710.802 4                     -1276.671 4        29.393
C24        34.000                                                                                                                                    21393682.208 7 111402728.39307     -1430.811 7        47.028                                                                    21393684.090 7  90523731.88407     -1162.708 7        46.392
R14        35.000    19837332.025 8 105744291.81208       828.010 8        48.231                                                                    19837339.505 7  82245523.03407       644.055 7        47.234
R23        36.000    20168394.233 6 107887354.64506     -1303.664 6        41.425
C26        37.000                                                                                                                                    24644817.081 5 128332053.22405     -3543.122 5        35.390                                                                    24644822.209 5 104280289.98805     -2878.970 5        32.198
S21        38.000    38438182.219 5 201994023.74005      -847.377 5        34.876
C44        39.000                                                                                                                                    22000471.735 8 114562277.74808       -24.409 8        50.181                                                                    22000474.988 6  93091212.62006       -19.874 6        40.725
C35        40.000                                                                                                                                    23769018.133 6 123771527.45006     -2816.145 6        41.433                                                                    23769019.245 5 100574620.90105     -2288.470 5        35.176
C25        41.000                                                                                                                                    22941814.704 6 119464102.83806      1377.178 6        37.800                                                                    22941810.664 6  97074314.92106      1119.011 6        37.138
R05        42.000    22168315.967 7 118502396.96407      -676.184 7        46.500                                                                    22168329.136 7  92168574.05807      -525.884 7        44.053
C12        43.000                                                                                                                                    22958768.184 7 119552335.31807      1513.221 7        42.313    22958772.725 8  92445498.55608      1170.140 8        48.008    22958770.531 7  97146121.67607      1229.593 7        46.105
C32        44.000                                                                                                                                    26672519.758 5 138890904.30905      -211.370 5        33.742                                                                    26672544.682 4                      -171.212 4        26.168
C41        50.000                                                                                                                                    25999688.914 4                     -2608.696 4        24.361                                                                    25999691.092 4 110013225.45604     -2120.729 4        28.085
I06        58.000    38521455.676 6 151166428.01806      -731.894 6        38.255
I02        60.000    37114185.076 4 145644038.44204      -858.169 4        29.384
> 2025 01 01 13 30 20.0000000  0 38
G19         1.000    23815022.836 4                     -4235.034 4        26.515
G06         2.000    22937458.223 4 120537110.97204     -1234.918 4        25.835                                    22937438.416 1  93924860.51101      -962.372 1        10.074    22937436.836 6  93924990.47106      -962.077 6        38.607
G25         3.000    20503067.570 7 107744345.93807       912.392 7        44.995                                    20503073.481 6  83956595.96806       710.953 6        39.778    20503074.450 6  83956660.99806       710.926 6        41.564
G11         4.000    22953752.782 7 120622758.08307      1075.388 7        45.682                                    22953755.847 4  93991746.43404       837.954 4        27.126    22953755.786 6  93991814.44206       837.859 6        39.444
G28         6.000    24347585.218 5                      2618.863 5        32.593                                                                                                    24347623.260 5  99699446.71205      2040.363 5        35.276
G12         7.000    20285151.826 8 106599202.10108     -1622.313 8        49.043                                    20285153.534 7  83064329.96307     -1264.138 7        47.408    20285153.166 7  83064342.97407     -1264.212 7        45.726
G29         8.000    23404586.097 5 122991942.45105      2653.423 5        31.230                                    23404593.192 2  95837948.16502      2067.623 2        16.604    23404589.490 4                      2067.305 4        24.677
E30         9.000    23585318.957 7 123941724.52607      -796.584 7        45.517                                                                    23585326.575 7  92553911.07307      -594.896 7        44.387    23585323.785 7  94968364.93607      -610.395 7        44.328
G32        11.000    22839170.848 5 120020747.62405      -921.633 5        34.248                                    22839171.620 3  93522677.38003      -718.176 3        19.552    22839178.536 6  93522604.38406      -717.874 6        39.420
E34        12.000    26213999.420 6 137755512.20406      1784.283 6        36.737                                                                    26214018.992 5 102869418.31905      1332.777 5        30.883    26214013.037 6 105553017.69306      1367.339 6        38.006
E02        13.000    25379678.966 7 133371085.76907     -2873.833 7        45.546                                                                    25379686.244 7  99595367.29907     -2145.995 7        42.722    25379686.243 7 102193514.34507     -2201.934 7        42.068
E27        15.000    25777691.398 5 135462803.90105      1195.662 5        35.881                                                                    25777700.440 6 101157367.38706       892.615 6        38.703    25777692.184 5 103796265.81305       915.795 5        30.302
G24        16.000    22215454.086 5                     -4076.122 5        33.365                                                                                                    22215453.299 5  90968562.16305     -3176.494 5        32.509
E07        18.000    25364172.668 7 133289589.72807     -2980.235 7        43.209                                                                    25364184.179 7  99534567.11307     -2225.580 7        43.488    25364189.632 6 102131018.28406     -2283.570 6        38.706
E36        19.000    26018403.571 5 136727643.32205      -578.827 5        33.497                                                                    26018425.332 4 102101911.10904      -432.506 4        26.886    26018417.074 5 104765433.43705      -443.461 5        35.557
R15        20.000    23469489.078 5 125414053.70515      2612.656 5        35.910
R24        21.000    21271937.839 7 113750650.32407      2910.842 7        44.975                                                                    21271948.523 6  88472758.46306      2263.877 6        41.178
R22        22.000    22860613.118 5 122031345.90005     -4383.322 5        34.352                                                                    22860588.439 5                     -3408.877 5        32.251
S36        23.000    38211253.313 6 200801365.54506      -847.876 6        36.155
S23        24.000    38152522.280 5 200492856.34705      -852.524 5        34.605
R04        25.000                                                                                                                                    22275605.472 5  92777183.13705     -3046.613 5        33.234
E29        26.000    25862897.647 6 135910502.31206      -250.610 6        36.159
C34        28.000                                                                                                                                    24255166.621 7 126303082.73507      2441.860 7        45.818                                                                    24255172.398 6 102631638.50706      1984.000 6        37.720
R13        29.000    20485489.196 6 109391344.95006     -2963.316 6        39.066
C10        32.000                                                                                                                                    39572250.640 4                     -1571.242 4        28.275    39572238.725 5 159341031.21205     -1215.165 5        34.043    39572219.072 4                     -1276.426 4        29.754
C24        34.000                                                                                                                                    21395057.251 7 111409887.55407     -1432.858 7        46.990                                                                    21395058.882 7  90529549.27907     -1164.438 7        46.353
R14        35.000    19836556.848 8 105740156.86708       825.950 8        49.045                                                                    19836564.243 7  82242306.98207       642.423 7        47.645
R23        36.000    20169618.114 7 107893885.40907     -1308.637 7        43.136
C26        37.000                                                                                                                                    24648219.065 5 128349771.33205     -3544.058 5        34.448                                                                    24648225.951 5 104294687.37605     -2880.000 5        31.562
S21        38.000    38438989.410 5 201998260.77505      -847.671 5        34.976
C44        39.000                                                                                                                                    22000496.970 8 114562407.22508       -27.391 8        50.459                                                                    22000499.940 6  93091317.85006       -22.445 6        41.185
C35        40.000                                                                                                                                    23771723.162 7 123785613.69407     -2818.406 7        42.542                                                                    23771725.387 5 100586067.12205     -2290.497 5        35.243
C25        41.000                                                                                                                                    22940491.785 6 119457219.04506      1376.266 6        37.629                                                                    22940488.877 6  97068721.31006      1118.114 6        37.278
R05        42.000    22168951.034 7 118505789.63307      -680.819 7        46.338                                                                    22168963.892 7  92171212.80607      -529.616 7        44.412
C12        43.000                                                                                                                                    22957315.465 6 119544774.45306      1510.989 6        41.299    22957321.314 8  92439652.02908      1168.348 8        48.209    22957318.638 7  97139977.85907      1227.709 7        46.530
C32        44.000                                                                                                                                    26672722.843 5 138891966.93605      -213.890 5        31.608                                                                    26672745.999 4                      -173.909 4        29.194
I06        58.000    38522387.622 6 151170087.02606      -731.891 6        38.141
I02        60.000    37115279.659 4 145648331.07604      -858.644 4        28.711
> 2025 01 01 13 30 25.0000000  0 39
G19         1.000    23819056.168 4                     -4235.856 4        26.371
G06         2.000    22938633.781 4 120543291.48004     -1237.588 4        28.332                                    22938615.102 1  93929676.55601      -964.530 1         5.571    22938612.749 6  93929806.51706      -964.403 6        38.931
G25         3.000    20502199.883 7 107739788.03007       910.845 7        45.600                                    20502205.973 6  83953044.36006       709.742 6        40.215    20502207.086 6  83953109.39306       709.741 6        41.447
G11         4.000    22952730.537 7 120617386.75107      1073.176 7        45.798                                    22952733.688 4  93987561.01104       836.238 4        27.054    22952733.633 6  93987629.00006       836.267 6        39.910
G28         6.000    24345091.412 5                      2618.274 5        32.904                                                                                                    24345129.631 5  99689244.76205      2040.162 5        34.143
G12         7.000    20286696.225 7 106607317.97507     -1623.944 7        47.522                                    20286698.086 7  83070654.00707     -1265.409 7        47.292    20286698.099 7  83070667.00207     -1265.416 7        45.755
G29         8.000    23402062.524 5 122978677.30405      2652.970 5        31.623                                    23402068.693 3  95827611.70203      2067.255 3        18.806    23402066.350 4                      2067.118 4        25.188
E30         9.000    23586077.221 7 123945709.14207      -797.267 7        44.841                                                                    23586084.797 7  92556886.59007      -595.277 7        44.152    23586081.853 7  94971418.07907      -610.900 7        43.879
G32        11.000    22840044.017 5 120025360.90305      -924.457 5        35.638                                    22840051.247 3  93526272.10203      -720.379 3        22.381    22840055.737 6  93526199.13206      -720.052 6        39.435
E34        12.000    26212302.235 6 137746592.43806      1783.592 6        36.964                                                                    26212320.296 5 102862757.44905      1331.915 5        31.525    26212315.935 6 105546183.09706      1366.459 6        38.553
E02        13.000    25382413.421 7 133385454.87307     -2873.922 7        45.518                                                                    25382420.676 7  99606097.46007     -2146.076 7        42.770    25382420.661 6 102204524.43306     -2202.175 6        41.669
E27        15.000    25776555.162 5 135456827.39105      1195.324 5        35.819                                                                    25776562.935 6 101152904.43406       892.479 6        38.826    25776553.793 4 103791686.41404       915.475 4        29.848
G24        16.000    22219331.552 6 116763382.67816     -4077.587 6        38.384                                    22219324.104 3  90984415.12213     -3177.332 3        22.552    22219331.456 5  90984446.09605     -3177.373 5        33.245
E07        18.000    25367008.394 7 133304494.80407     -2981.668 7        42.529                                                                    25367020.624 7  99545697.50707     -2226.642 7        43.304    25367028.733 6 102142439.10906     -2284.654 6        38.348
E36        19.000    26018955.363 5 136730543.34105      -580.872 5        33.353                                                                                                                                    26018969.241 6 104767655.55206      -445.309 6        36.352
R15        20.000                                                                                                                                    23467046.767 5                      2032.120 5        32.994
R24        21.000    21269216.766 7 113736101.15507      2908.874 7        44.951                                                                    21269227.564 6  88461442.46006      2262.373 6        41.654
R22        22.000    22864716.937 5 122053267.58815     -4385.433 5        35.190                                                                    22864694.712 5  94930340.43515     -3410.823 5        34.005
S36        23.000    38212058.030 6 200805603.43606      -847.310 6        36.348
S23        24.000    38153336.044 5 200497117.77005      -852.021 5        34.600
R04        25.000                                                                                                                                    22279269.213 5  92792419.34105     -3048.219 5        33.461
E29        26.000    25863137.225 6 135911760.32606      -252.555 6        36.745                                                                                                                                    25863141.987 5 104140214.95705      -193.965 5        30.641
C34        28.000                                                                                                                                    24252822.711 7 126290875.15007      2441.228 7        46.357                                                                    24252828.822 6 102621718.87006      1983.764 6        38.760
R13        29.000    20488264.697 6 109406165.51506     -2964.927 6        39.333
C10        32.000                                                                                                                                    39573758.493 4                     -1570.636 4        26.910    39573745.392 5 159347105.09105     -1214.731 5        34.109    39573726.769 4                     -1276.532 4        28.844
C24        34.000                                                                                                                                    21396433.881 7 111417055.45807     -1434.271 7        46.943                                                                    21396435.458 7  90535373.75907     -1165.292 7        46.243
R14        35.000    19835782.877 8 105736030.88908       824.441 8        49.082                                                                    19835790.559 8  82239097.90308       641.222 8        48.383
R23        36.000    20170845.536 7 107900439.54307     -1312.976 7        43.621
C26        37.000                                                                                                                                    24651622.363 5 128367493.49105     -3544.799 5        34.452                                                                    24651629.736 5 104309088.03705     -2880.430 5        31.419
S21        38.000    38439797.799 5 202002496.99405      -846.777 5        34.986
C44        39.000                                                                                                                                    22000524.764 8 114562550.15208       -29.693 8        50.343                                                                    22000527.555 6  93091433.98706       -24.034 6        41.764
C35        40.000                                                                                                                                    23774430.589 7 123799710.45507     -2820.182 7        43.526                                                                    23774433.503 6 100597521.86606     -2291.616 6        36.302
C25        41.000                                                                                                                                    22939171.676 6 119450339.95106      1375.685 6        37.214                                                                    22939167.372 6  97063131.47006      1117.915 6        37.206
R05        42.000    22169589.403 7 118509204.37307      -684.942 7        46.313                                                                    22169602.406 7  92173868.68807      -532.695 7        43.960
C12        43.000                                                                                                                                    22955864.342 6 119537223.79406      1509.254 6        40.193    22955871.549 8  92433813.38808      1167.028 8        48.152    22955868.737 7  97133842.31607      1226.604 7        46.863
C32        44.000                                                                                                                                    26672930.215 5 138893042.88405      -216.201 5        30.974                                                                    26672949.511 5                      -176.006 5        31.713
C41        50.000                                                                                                                                    26004694.247 5                     -2613.960 5        33.042                                                                    26004734.429 5 110034450.36405     -2123.482 5        34.343
I06        58.000    38523320.500 6 151173745.62906      -731.450 6        38.501
I02        60.000    37116372.231 4 145652623.97204      -858.315 4        29.223
> 2025 01 01 13 30 30.0000000  0 38
G19         1.000    23823087.573 4                     -4237.347 4        26.635
G06         2.000    22939808.679 5 120549489.37105     -1241.715 5        30.098                                    22939795.078 1  93934506.12401      -967.583 1         8.286    22939792.017 6  93934636.13906      -967.541 6        38.889
G25         3.000    20501333.825 7 107735239.99607       908.379 7        44.987                                    20501340.352 6  83949500.43506       707.824 6        40.434    20501341.438 6  83949565.47306       707.771 6        41.659
G11         4.000    22951710.876 7 120612028.66607      1070.000 7        45.655                                    22951713.966 4  93983385.90604       833.765 4        26.575    22951714.219 6  93983453.90206       833.757 6        40.291
G28         6.000    24342598.170 5                      2617.079 5        32.222                                                                                                    24342636.823 5  99679045.86305      2038.953 5        32.599
