     3.04           OBSERVATION DATA    M                   RINEX VERSION / TYPE
ssrcrin-15.6.1x                         20250101 190000 UTC PGM / RUN BY / DATE 
(00000000023479385599111004) Septentrio proprietary         COMMENT             
ract                                                        MARKER NAME         
01                                                          MARKER NUMBER       
geodetic                                                    MARKER TYPE         
NFB                 CLIMERS@TUW                             OBSERVER / AGENCY   
3296359             SEPT ASTERX SB3 PROB4.14.4              REC # / TYPE / VERS 
Unknown             Unknown                                 ANT # / TYPE        
  4127447.2456  1206914.3908  4695544.0957                  APPROX POSITION XYZ 
        0.0000        0.0000        0.0000                  ANTENNA: DELTA H/E/N
G   23 X1  C1C L1C D1C S1C C1W S1W C2W L2W D2W S2W C2L L2L  SYS / # / OBS TYPES 
       D2L S2L C5Q L5Q D5Q S5Q C1L L1L D1L S1L              SYS / # / OBS TYPES 
E   21 X1  C1C L1C D1C S1C C6C L6C D6C S6C C5Q L5Q D5Q S5Q  SYS / # / OBS TYPES 
       C7Q L7Q D7Q S7Q C8Q L8Q D8Q S8Q                      SYS / # / OBS TYPES 
S    9 X1  C1C L1C D1C S1C C5I L5I D5I S5I                  SYS / # / OBS TYPES 
R   17 X1  C1C L1C D1C S1C C2P L2P D2P S2P C2C L2C D2C S2C  SYS / # / OBS TYPES 
       C3Q L3Q D3Q S3Q                                      SYS / # / OBS TYPES 
C   25 X1  C1P L1P D1P S1P C5P L5P D5P S5P C2I L2I D2I S2I  SYS / # / OBS TYPES 
       C7I L7I D7I S7I C6I L6I D6I S6I C7D L7D D7D S7D      SYS / # / OBS TYPES 
J   17 X1  C1C L1C D1C S1C C2L L2L D2L S2L C5Q L5Q D5Q S5Q  SYS / # / OBS TYPES 
       C1L L1L D1L S1L                                      SYS / # / OBS TYPES 
I    5 X1  C5A L5A D5A S5A                                  SYS / # / OBS TYPES 
SEPTENTRIO RECEIVERS OUTPUT ALIGNED CARRIER PHASES.         COMMENT             
NO FURTHER PHASE SHIFT APPLIED IN THE RINEX ENCODER.        COMMENT             
G L1C                                                       SYS / PHASE SHIFT   
G L2W                                                       SYS / PHASE SHIFT   
G L2L  0.00000                                              SYS / PHASE SHIFT   
G L5Q  0.00000                                              SYS / PHASE SHIFT   
G L1L  0.00000                                              SYS / PHASE SHIFT   
E L1C  0.00000                                              SYS / PHASE SHIFT   
E L6C  0.00000                                              SYS / PHASE SHIFT   
E L5Q  0.00000                                              SYS / PHASE SHIFT   
E L7Q  0.00000                                              SYS / PHASE SHIFT   
E L8Q  0.00000                                              SYS / PHASE SHIFT   
S L1C                                                       SYS / PHASE SHIFT   
S L5I                                                       SYS / PHASE SHIFT   
R L1C                                                       SYS / PHASE SHIFT   
R L2P  0.00000                                              SYS / PHASE SHIFT   
R L2C                                                       SYS / PHASE SHIFT   
R L3Q  0.00000                                              SYS / PHASE SHIFT   
C L1P  0.00000                                              SYS / PHASE SHIFT   
C L5P  0.00000                                              SYS / PHASE SHIFT   
C L2I                                                       SYS / PHASE SHIFT   
C L7I                                                       SYS / PHASE SHIFT   
C L6I                                                       SYS / PHASE SHIFT   
C L7D                                                       SYS / PHASE SHIFT   
J L1C                                                       SYS / PHASE SHIFT   
J L2L  0.00000                                              SYS / PHASE SHIFT   
J L5Q  0.00000                                              SYS / PHASE SHIFT   
J L1L  0.00000                                              SYS / PHASE SHIFT   
I L5A                                                       SYS / PHASE SHIFT   
  2025     1     1    19     0    0.0000000     GPS         TIME OF FIRST OBS   
 C1C    0.000 C2C    0.000 C2P    0.000                     GLONASS COD/PHS/BIS 
DBHZ                                                        SIGNAL STRENGTH UNIT
    18                                                      LEAP SECONDS        
 24 R01  1 R02 -4 R03  5 R04  6 R05  1 R06 -4 R07  5 R08  6 GLONASS SLOT / FRQ #
    R09 -2 R10 -7 R11  0 R12 -1 R13 -2 R14 -7 R15  0 R16 -1 GLONASS SLOT / FRQ #
    R17  4 R18 -3 R19  3 R20  2 R21  4 R22 -3 R23  3 R24  2 GLONASS SLOT / FRQ #
                                                            END OF HEADER       
> 2025 01 01 19 00  0.0000000  0 38
G18         1.000    21238953.225 7 111611674.32907     -2801.578 7        45.144                                    21238948.392 3  86970012.28403     -2183.051 3        19.343    21238947.385 5  86970022.27105     -2183.261 5        33.257
G10         2.000    23164049.111 7 121727900.60407      2529.708 7        44.430                                    23164045.553 5  94852929.61805      1971.196 5        31.826    23164044.749 5  94852914.63505      1971.298 5        34.171
G07         3.000    25320953.732 5 133062442.68605       417.575 5        31.215                                    25320923.006 1 103684946.93501       325.562 1         1.778
G23         4.000    21126425.968 5 111020127.85705       702.658 5        30.196                                    21126420.247 1  86509201.09501       547.554 1         7.125    21126428.896 4  86509175.99004       547.669 4        29.554
G08         6.000    24092170.965 5 126605214.75705      2453.762 5        35.405                                    24092179.753 1  98653448.45501      1912.011 1        10.148    24092181.001 4                      1911.739 4        26.311
G27         7.000    21310374.750 4 111986774.83504      1535.898 4        29.109                                                                                                    21310376.952 6  87262396.32506      1197.032 6        38.501
G29         8.000    24424114.796 4                     -4036.768 4        25.910                                                                                                    24424118.533 3                     -3147.891 3        20.262
E15        10.000    25301270.965 4 132959084.40604     -3107.069 4        28.370                                                                    25301274.561 6  99287690.90206     -2320.113 6        41.805    25301274.087 6 101877734.74606     -2380.835 6        38.396
E27        15.000    25943175.825 5 136332317.59005     -3719.637 5        30.657                                                                    25943175.327 4 101806588.55304     -2777.576 4        29.829    25943176.510 5 104462635.52005     -2850.525 5        33.305
E13        16.000    23136980.179 7 121585734.68707      -732.391 7        46.420                                                                    23136980.897 8  90794539.11908      -546.912 8        51.203    23136980.249 8  93163046.55608      -561.206 8        51.172
R17        17.000    22910674.247 5                     -4232.129 5        33.599                                                                    22910630.419 4                     -3291.530 4        29.327
G16        18.000    20439463.114 6 107410126.13106     -1074.362 6        40.984                                    20439458.082 4  83696104.46204      -837.162 4        24.511
E26        19.000    25699543.182 7 135052021.38707      1520.738 7        42.783                                                                    25699540.390 7 100850515.74607      1135.614 7        42.392    25699539.292 7 103481445.26607      1165.277 7        43.077
E21        22.000    23659638.395 7 124332344.84607     -1437.376 7        47.338                                                                    23659638.034 8  92845516.87308     -1073.417 8        50.130    23659637.279 8  95267600.14108     -1101.406 8        49.292
S36        23.000    38126022.725 6 200353480.19306      -849.162 6        36.639
S23        24.000    38080802.292 6 200115968.22506      -850.471 6        40.215
G26        25.000    21385923.654 7 112383790.75507     -3237.184 7        43.046                                    21385921.005 5  87571797.67305     -2522.475 5        35.952    21385919.818 6  87571840.68806     -2522.493 6        39.733
R02        27.000    22115064.963 6 118010400.82406      -721.206 6        37.577                                                                    22115063.563 4  91785762.59504      -561.684 4        28.171
C34        28.000                                                                                                                                    25324198.899 3                     -3586.543 3        22.229
R19        29.000    19792910.271 5 105878750.56405       265.904 5        31.872                                                                    19792911.000 7  82350146.88107       206.768 7        43.033
R18        30.000    19743169.028 7 105390409.53707     -2486.168 7        46.190                                                                    19743168.881 7  81970292.26307     -1933.662 7        42.474
C21        31.000                                                                                                                                    25328860.487 3 131894172.00403     -1735.320 3        23.810                                                                    25328854.136 4 107174692.29604     -1410.365 4        27.820
R03        32.000    22437476.983 5                      2457.641 5        34.824
R16        33.000    20976080.374 4 112050433.83804     -4497.285 4        29.573                                                                    20976085.017 5  87150413.59305     -3497.812 5        34.852
R09        34.000    20158481.725 6 107645603.88706      -410.238 6        41.004                                                                    20158479.857 6  83723920.77706      -318.982 6        36.253
R10        35.000    22659452.704 5 120787637.08605      2538.310 5        32.796
C37        36.000                                                                                                                                    23592004.806 7 122849771.01707     -1600.936 7        45.526                                                                    23592007.617 7  99825579.48407     -1300.942 7        43.295
R01        37.000    24079742.294 3                     -3863.459 3        23.562
C28        40.000                                                                                                                                    22557223.528 7 117461630.86807       945.138 7        42.650                                                                    22557219.430 6  95447017.92106       767.986 6        41.855
C43        42.000                                                                                                                                    22016012.340 8 114643186.53608     -2183.619 8        50.226                                                                    22016011.055 7  93157129.69207     -1774.563 7        45.470
C11        44.000                                                                                                                                    23408529.751 7 121894855.07707     -3047.169 7        45.512    23408528.382 7  94256593.35307     -2356.213 7        46.445    23408526.747 7  99049297.38107     -2476.068 7        44.468
C13        45.000                                                                                                                                    37734915.721 6 196495710.86006     -1358.230 6        39.739    37734910.270 6 151942872.24106     -1050.407 6        36.253    37734907.306 5 159668818.46105     -1103.867 5        32.096
C08        46.000                                                                                                                                    37994022.695 5 197844846.10905     -1634.502 5        33.814    37994015.064 7 152986192.55707     -1263.831 7        42.483    37994015.582 6 160765105.75306     -1328.220 6        40.017
C14        47.000                                                                                                                                    24853768.915 5                      1988.645 5        33.934    24853762.039 4 100075948.55104      1537.913 4        26.383
C42        48.000                                                                                                                                                                                                                                                                    24272086.219 5 102703137.96505       719.204 5        33.479
C38        49.000                                                                                                                                    39319553.352 5 204747377.78205     -1908.614 5        32.593                                                                    39319554.324 5                     -1551.009 5        30.626
C23        55.000                                                                                                                                    24698391.983 4 128611151.71404     -3884.992 4        29.630                                                                    24698377.572 4                     -3156.595 4        27.329
I06        58.000    38608489.363 6 151508166.72106      -590.802 6        41.397
> 2025 01 01 19 00  5.0000000  0 36
G18         1.000    21241619.898 7 111625687.62207     -2803.582 7        44.414                                    21241614.154 3  86980931.70103     -2184.620 3        18.000    21241614.713 5  86980941.74805     -2184.791 5        34.343
G10         2.000    23161642.334 7 121715255.43507      2528.486 7        44.501                                    23161638.545 5  94843076.26305      1970.237 5        31.653    23161639.421 5  94843061.30205      1970.226 5        33.569
G23         4.000    21125759.660 5 111016621.22505       699.849 5        31.600                                    21125752.902 1  86506468.55701       545.403 1         5.857    21125763.717 5  86506443.62005       545.095 5        31.434
G08         6.000    24089837.622 5 126592947.82505      2453.061 5        35.514                                    24089846.666 1  98643889.85301      1911.466 1        10.000    24089845.825 4                      1911.370 4        26.742
G27         7.000    21308923.840 5 111979098.81505      1534.104 5        30.860                                                                                                    21308916.188 6  87256414.97606      1195.632 6        37.977
G29         8.000    24427953.000 4                     -4038.755 4        24.917                                                                                                    24427963.462 3                     -3145.401 3        19.851
E15        10.000    25304227.393 4 132974622.11604     -3108.182 4        26.790                                                                    25304231.013 6  99299293.73306     -2320.878 6        41.032    25304230.704 6 101889640.23806     -2381.325 6        38.324
E27        15.000    25946716.982 5 136350919.92305     -3721.270 5        31.449                                                                    25946717.537 5 101820479.94905     -2778.531 5        31.049    25946718.888 5 104476889.20905     -2850.962 5        34.148
E13        16.000    23137677.980 7 121589401.64707      -734.251 7        46.466                                                                    23137678.681 8  90797277.43308      -548.373 8        51.049    23137677.853 8  93165856.29708      -562.612 8        50.794
R17        17.000    22914624.898 5 122620809.61115     -4232.424 5        34.019                                                                    22914583.248 5                     -3291.791 5        30.430
G16        18.000    20440487.457 6 107415506.43606     -1077.720 6        36.881                                    20440482.773 3  83700296.89803      -839.777 3        23.448
E26        19.000    25698096.749 7 135044421.12407      1519.413 7        43.037                                                                    25698094.441 7 100844840.23207      1134.618 7        42.622    25698093.111 7 103475621.68007      1164.333 7        42.565
E21        22.000    23661007.451 7 124339538.27607     -1439.862 7        47.341                                                                    23661006.910 8  92850888.57608     -1075.196 8        50.041    23661006.202 8  95273111.97308     -1103.229 8        49.162
S36        23.000    38126834.691 6 200357727.01706      -849.576 6        36.639
S23        24.000    38081611.719 6 200120221.54106      -850.734 6        40.250
G26        25.000    21389004.269 7 112399983.47507     -3239.785 7        42.669                                    21389002.328 5  87584415.37905     -2524.511 5        35.457    21389001.431 6  87584458.39706     -2524.595 6        39.471
R02        27.000    22115746.727 5 118014018.79005      -725.955 5        32.916                                                                    22115738.882 5  91788576.47905      -564.227 5        30.340
R19        29.000    19792664.083 5 105877427.12805       263.452 5        32.862                                                                    19792663.042 6  82349117.56306       204.854 6        41.845
R18        30.000    19745499.145 7 105402845.39907     -2488.100 7        45.976                                                                    19745497.977 7  81979964.59807     -1935.231 7        42.241
C21        31.000                                                                                                                                                                                                                                                                    25330522.999 4 107181746.84404     -1412.047 4        28.076
R03        32.000    22435181.826 5 120097274.08215      2455.010 5        34.914
R16        33.000    20980293.472 5 112072926.40305     -4499.926 5        34.424                                                                    20980297.073 5  87167907.80305     -3499.782 5        35.519
R09        34.000    20158864.987 6 107647667.42006      -415.094 6        38.375                                                                    20158867.802 6  83725525.74806      -322.705 6        40.977
R10        35.000    22657070.331 4 120774953.01104      2535.675 4        26.802
C37        36.000                                                                                                                                    23593543.885 7 122857782.98507     -1603.833 7        45.302                                                                    23593546.263 7  99832089.85107     -1303.093 7        43.733
R01        37.000    24083366.504 3                     -3866.381 3        23.733
C28        40.000                                                                                                                                    22556316.737 7 117456908.52507       943.814 7        42.279                                                                    22556312.642 6  95443180.63606       767.038 6        41.571
C43        42.000                                                                                                                                    22018109.774 8 114654108.51608     -2185.065 8        50.195                                                                    22018108.634 7  93166004.67707     -1775.388 7        45.759
C11        44.000                                                                                                                                    23411456.348 7 121910092.86407     -3047.993 7        45.467    23411454.397 7  94268376.16807     -2356.862 7        45.886    23411453.166 7  99061679.32207     -2476.513 7        45.115
C13        45.000                                                                                                                                    37736221.559 6 196502504.48306     -1359.225 6        40.131    37736215.261 6 151948125.50106     -1050.933 6        36.779    37736211.708 5 159674338.81505     -1104.431 5        31.645
C08        46.000                                                                                                                                    37995592.327 5 197853020.62905     -1635.230 5        34.181    37995584.971 7 152992513.57107     -1264.395 7        42.447    37995585.545 6 160771748.17306     -1328.704 6        39.925
C14        47.000                                                                                                                                    24851861.122 5 129410156.81915      1987.622 5        34.095    24851857.804 4 100068262.20004      1537.094 4        28.540
C42        48.000                                                                                                                                                                                                                                                                    24271236.969 5 102699545.75805       717.560 5        33.850
C38        49.000                                                                                                                                    39321384.774 5 204756921.53405     -1909.039 5        32.042                                                                    39321387.466 5                     -1551.288 5        30.611
C23        55.000                                                                                                                                    24702125.616 5 128630579.71005     -3886.247 5        31.019                                                                    24702111.015 4                     -3158.214 4        26.922
I06        58.000    38609242.758 6 151511121.41906      -590.924 6        41.361
> 2025 01 01 19 00 10.0000000  0 37
G18         1.000    21244287.951 7 111639709.29907     -2805.012 7        43.869                                    21244281.584 2  86991857.67502     -2185.719 2        16.113    21244282.568 5  86991867.72605     -2185.772 5        34.043
G10         2.000    23159237.055 7 121702615.52007      2527.653 7        44.092                                    23159232.593 5  94833227.00405      1969.593 5        32.060    23159234.422 5  94833212.06005      1969.513 5        34.000
G07         3.000    25320129.912 5 133058294.10105       412.611 5        35.638                                                                                                    25320175.342 4                       321.101 4        26.228
G23         4.000    21125095.893 5 111013129.24505       697.004 5        32.287                                    21125088.477 1  86503747.61701       543.043 1         4.429    21125104.284 5  86503722.63105       543.204 5        31.215
G08         6.000    24087501.371 5 126580681.89505      2453.153 5        35.329                                    24087512.823 1  98634332.00401      1911.535 1        10.963    24087515.524 4                      1911.125 4        26.407
G27         7.000    21307463.082 5 111971429.78305      1533.084 5        33.701                                                                                                    21307456.771 6  87250439.15106      1194.778 6        37.743
G29         8.000    24431798.461 3                     -4038.780 3        23.181                                                                                                    24431805.811 3                     -3145.930 3        19.224
E15        10.000    25307185.395 4 132990162.70604     -3108.305 4        29.953                                                                    25307187.972 6  99310898.68606     -2321.160 6        40.246    25307188.070 6 101901547.92506     -2381.567 6        38.069
E27        15.000    25950257.343 5 136369526.65505     -3721.843 5        32.287                                                                    25950258.829 5 101834374.53505     -2778.994 5        32.886    25950266.187 5 104491146.26805     -2851.566 5        35.952
E13        16.000    23138377.496 7 121593076.37307      -735.581 7        46.283                                                                    23138377.920 8  90800021.55008      -549.275 8        50.942    23138376.955 8  93168671.99708      -563.615 8        50.444
R17        17.000    22918573.936 5                     -4232.123 5        34.557
G16        18.000    20441513.224 5 107420903.14205     -1081.064 5        33.066                                    20441510.615 3  83704502.12803      -842.367 3        22.419
E26        19.000    25696650.927 7 135036825.39607      1518.833 7        42.914                                                                    25696649.235 7 100839168.10507      1134.136 7        42.828    25696647.748 7 103469801.59407      1163.758 7        42.074
E21        22.000    23662378.242 7 124346742.34907     -1441.738 7        47.203                                                                    23662377.737 8  92856268.23708     -1076.645 8        50.111    23662377.291 8  95278631.97108     -1104.740 8        49.023
S36        23.000    38127639.010 6 200361972.70606      -848.688 6        36.442
S23        24.000    38082421.283 6 200124474.46406      -850.376 6        40.200
G26        25.000    21392087.231 6 112416187.55406     -3241.744 6        41.614                                    21392085.507 5  87597041.93905     -2526.038 5        34.814    21392084.567 6  87597084.94906     -2526.065 6        38.411
R02        27.000                                                                                                                                    22116426.817 5  91791407.12005      -567.550 5        31.306
R19        29.000    19792420.249 5 105876114.47705       261.706 5        34.367                                                                    19792418.077 7  82348096.57007       203.297 7        42.461
R18        30.000    19747830.360 7 105415289.69907     -2489.593 7        45.591                                                                    19747828.004 6  81989643.52006     -1936.413 6        40.970
C21        31.000                                                                                                                                                                                                                                                                    25332200.279 4 107188812.31904     -1414.493 4        27.892
R03        32.000    22432890.150 5                      2452.901 5        33.138
R16        33.000    20984510.442 5 112095432.02505     -4502.453 5        35.429                                                                    20984508.016 6  87185412.13606     -3501.712 6        36.715
R09        34.000    20159254.788 6 107649753.33506      -419.280 6        36.960                                                                    20159258.411 7  83727148.16107      -326.105 7        42.512
C37        36.000                                                                                                                                    23595084.691 7 122865808.08707     -1606.186 7        45.061                                                                    23595087.398 7  99838610.92007     -1305.364 7        44.119
R01        37.000    24086986.712 4                     -3868.401 4        24.436
C28        40.000                                                                                                                                    22555410.503 6 117452191.29106       943.133 6        41.743                                                                    22555406.684 6  95439347.51206       766.127 6        41.168
C43        42.000                                                                                                                                    22020208.359 8 114665036.25008     -2185.974 8        49.977                                                                    22020207.307 7  93174884.36807     -1776.380 7        45.965
C11        44.000                                                                                                                                    23414383.981 7 121925333.65707     -3048.282 7        45.768    23414381.234 7  94280161.31007     -2357.148 7        45.338    23414379.984 7  99074063.74607     -2477.179 7        45.550
C13        45.000                                                                                                                                    37737527.621 6 196509300.99106     -1359.419 6        40.057    37737520.203 6 151953380.99406     -1051.113 6        36.945    37737516.724 5 159679861.55405     -1104.824 5        30.785
C08        46.000                                                                                                                                    37997162.033 5 197861197.82205     -1635.464 5        34.276    37997155.094 7 152998836.72607     -1264.620 7        42.296    37997156.009 6 160778392.87106     -1329.109 6        39.973
C14        47.000                                                                                                                                    24849952.784 5 129400222.39705      1986.392 5        33.533    24849949.919 4 100060580.32904      1536.214 4        29.223
C42        48.000                                                                                                                                                                                                                                                                    24270389.517 5 102695962.56005       715.845 5        33.449
C38        49.000                                                                                                                                    39323215.759 5 204766466.98305     -1909.257 5        31.389                                                                    39323220.246 5                     -1551.281 5        30.687
C27        52.000                                                                                                                                    26205835.989 4                      1976.340 4        27.689
C23        55.000                                                                                                                                    24705859.130 5 128650012.08105     -3886.807 5        30.377                                                                    24705846.769 4                     -3158.072 4        26.060
I06        58.000    38609994.908 6 151514075.51206      -590.696 6        41.406
> 2025 01 01 19 00 15.0000000  0 37
G18         1.000    21246958.182 7 111653740.58007     -2807.055 7        44.251                                    21246951.107 2  87002791.14702     -2187.282 2        14.524    21246950.781 5  87002801.15905     -2187.304 5        33.778
G10         2.000    23156832.687 7 121689982.12507      2526.117 7        44.074                                    23156828.139 5  94823382.81205      1968.403 5        32.874    23156831.218 5  94823367.83105      1968.269 5        34.748
G07         3.000    25319747.698 6 133056239.14506       409.984 6        37.380                                                                                                    25319786.208 4                       319.344 4        28.512
G23         4.000    21124435.336 5 111009653.16205       693.837 5        32.132                                    21124426.905 1  86501038.82901       540.873 1         3.200
G08         6.000    24085167.170 5 126568418.26005      2452.573 5        34.814                                    24085179.271 1  98624775.88801      1911.072 1        10.667    24085183.488 4                      1911.453 4        27.054
G27         7.000    21305999.198 6 111963769.24906      1531.521 6        37.130                                    21306062.170 1  87244762.28711      1193.438 1         8.667    21305999.591 6  87244469.83706      1193.356 6        37.864
G29         8.000    24435641.307 3                     -4039.778 3        21.238
E15        10.000    25310145.985 5 133005707.37005     -3109.155 5        34.067                                                                    25310145.680 6  99322506.70506     -2321.836 6        39.495    25310146.329 6 101913458.77906     -2382.410 6        38.234
E27        15.000    25953798.638 5 136388138.99605     -3723.026 5        32.748                                                                    25953801.351 5 101848273.35005     -2780.126 5        34.510    25953810.637 6 104505407.64806     -2852.475 6        36.836
E13        16.000    23139078.524 7 121596760.10807      -737.553 7        46.123                                                                    23139078.909 8  90802772.40208      -550.782 8        50.902    23139077.895 8  93171494.60408      -565.108 8        50.321
R17        17.000    22922521.269 5 122663133.20115     -4232.371 5        34.171
G16        18.000    20442545.838 5 107426317.48705     -1084.628 5        35.714                                    20442541.633 3  83708721.07603      -845.148 3        21.738
E26        19.000    25695205.784 7 135029235.46407      1517.444 7        42.256                                                                    25695204.936 7 100833500.29007      1133.221 7        42.802    25695203.247 6 103463985.92606      1162.784 6        41.642
E21        22.000    23663751.479 7 124353958.31707     -1444.328 7        47.090                                                                    23663750.901 8  92861656.77608     -1078.506 8        50.278    23663750.468 8  95284161.08208     -1106.667 8        49.142
S36        23.000    38128449.201 6 200366218.78106      -849.296 6        36.915
S23        24.000    38083231.640 6 200128727.96206      -850.554 6        40.334
G26        25.000    21395171.898 6 112432404.26106     -3244.458 6        40.098                                    21395170.909 5  87609678.33805     -2528.153 5        34.048    21395171.212 6  87609721.35806     -2528.277 6        37.282
R02        27.000    22117128.355 4                      -734.666 4        28.919                                                                    22117116.288 5  91794255.50615      -571.245 5        30.913
R19        29.000    19792176.228 5 105874813.77205       259.027 5        35.771                                                                    19792174.937 7  82347084.93707       201.437 7        42.224
R18        30.000    19750162.615 7 105427743.68407     -2491.684 7        44.632                                                                    19750161.517 6  81999329.94706     -1937.992 6        39.216
C21        31.000                                                                                                                                                                                                                                                                    25333878.593 4 107195889.57404     -1417.219 4        27.401
R03        32.000    22430598.957 5 120072745.77915      2450.558 5        32.916                                                                    22430582.510 5                      1905.867 5        30.113
R16        33.000    20988728.210 6 112117951.57506     -4505.292 6        36.306                                                                    20988728.175 6  87202927.31006     -3503.902 6        37.747
R09        34.000    20159651.172 5 107651862.89205      -424.136 5        33.647                                                                    20159651.665 7  83728788.87507      -329.894 7        42.389
C37        36.000                                                                                                                                    23596628.724 7 122873847.55007     -1609.238 7        45.240                                                                    23596631.268 7  99845143.60107     -1307.523 7        44.396
R01        37.000    24090609.253 4                     -3871.480 4        25.083
C28        40.000                                                                                                                                    22554504.526 6 117447480.41306       941.577 6        40.853                                                                    22554502.028 6  95435519.51506       765.332 6        40.827
C43        42.000                                                                                                                                    22022308.269 8 114675970.94408     -2187.482 8        50.141                                                                    22022307.334 7  93183769.66707     -1777.388 7        45.878
C11        44.000                                                                                                                                    23417312.337 7 121940578.67907     -3049.317 7        46.019    23417309.264 7  94291949.72207     -2357.909 7        45.189    23417307.716 7  99086451.54907     -2477.680 7        45.854
C13        45.000                                                                                                                                    37738832.923 6 196516101.66606     -1360.504 6        40.055    37738826.536 6 151958639.71406     -1052.045 6        37.225    37738822.869 5 159685387.62905     -1105.393 5        30.611
C08        46.000                                                                                                                                    37998732.701 5 197869379.19505     -1636.782 5        34.238    37998726.024 7 153005163.05807     -1265.429 7        42.425    37998727.184 6 160785040.86106     -1329.695 6        39.510
C14        47.000                                                                                                                                    24848044.804 5 129390294.85305      1984.832 5        32.982    24848044.632 5 100052903.70905      1535.005 5        32.257
C42        48.000                                                                                                                                    24269540.612 6 126377866.94116       878.303 6        36.325                                                                    24269544.721 5 102692389.33005       714.190 5        32.928
C38        49.000                                                                                                                                    39325044.563 5 204776015.27505     -1909.546 5        31.525                                                                    39325053.852 5                     -1551.866 5        30.951
C27        52.000                                                                                                                                    26203936.923 4                      1975.495 4        28.000
C23        55.000                                                                                                                                    24709595.095 5 128669450.07505     -3887.492 5        30.898                                                                    24709585.578 4                     -3159.857 4        26.216
I06        58.000    38610748.362 6 151517029.92606      -590.844 6        41.380
> 2025 01 01 19 00 20.0000000  0 35
G18         1.000    21249629.533 7 111667780.67107     -2808.993 7        43.947                                    21249622.414 2  87013731.43702     -2188.829 2        14.952    21249622.772 5  87013741.49605     -2188.880 5        33.515
G10         2.000    23154430.435 7 121677354.44107      2524.942 7        43.627                                    23154425.031 5  94813543.07405      1967.487 5        34.310    23154428.406 6  94813528.07206      1967.421 6        36.026
G07         3.000    25319364.229 6 133054196.72006       407.110 6        38.291                                                                                                    25319395.223 4                       317.547 4        29.583
G23         4.000    21123774.001 4 111006192.24404       690.619 4        29.090                                    21123767.985 1  86498341.68801       538.213 1         5.000    21123800.545 4  86498316.94004       538.258 4        29.896
G08         6.000    24082833.366 5 126556156.07005      2452.147 5        34.381                                    24082846.717 1  98615220.98801      1910.828 1        10.148    24082855.901 4                      1910.790 4        28.199
G27         7.000    21304541.774 6 111956116.25906      1529.785 6        38.213                                    21304607.292 1  87238798.81701      1192.090 1         8.190    21304543.825 6  87238506.45806      1192.030 6        38.820
E15        10.000    25313106.637 6 133021255.35406     -3109.977 6        37.009                                                                    25313103.996 6  99334117.20206     -2322.458 6        38.847    25313105.561 6 101925372.13906     -2382.803 6        38.387
E27        15.000    25957339.810 5 136406756.14805     -3723.803 5        33.150                                                                    25957344.396 5 101862175.77305     -2780.768 5        35.871    25957351.103 6 104519672.74906     -2853.382 6        37.508
E13        16.000    23139781.195 7 121600452.05307      -739.215 7        45.985                                                                    23139781.485 8  90805529.37808      -552.062 8        50.728    23139780.514 8  93174323.49708      -566.454 8        50.223
R17        17.000    22926464.675 5 122684296.72605     -4232.802 5        32.431                                                                    22926479.848 5                     -3292.022 5        31.894
G16        18.000    20443579.329 6 107431748.66506     -1088.039 6        39.165                                    20443575.718 3  83712953.18003      -847.836 3        20.929
E26        19.000    25693761.225 6 135021650.52906      1516.490 6        41.027                                                                    25693761.518 7 100827836.20907      1132.455 7        42.461    25693759.645 6 103458174.07906      1162.093 6        41.240
E21        22.000    23665126.696 7 124361185.38607     -1446.606 7        46.866                                                                    23665126.209 8  92867053.60808     -1080.262 8        50.413    23665125.816 8  95289698.69508     -1108.384 8        49.345
S36        23.000    38129256.888 6 200370464.56106      -849.210 6        36.904
S23        24.000    38084038.406 6 200132981.38206      -850.754 6        40.262
G26        25.000    21398259.886 6 112448632.75806     -3246.739 6        39.129                                    21398258.453 5  87622323.92905     -2529.935 5        32.880    21398260.569 6  87622366.96006     -2530.248 6        37.422
R02        27.000    22117821.474 5                      -738.908 5        33.611                                                                    22117801.796 5  91797120.88605      -574.661 5        32.263
R19        29.000    19791935.063 6 105873524.33206       256.508 6        36.900                                                                    19791933.454 6  82346081.99106       199.704 6        40.546
R18        30.000    19752497.380 7 105440206.60807     -2493.584 7        43.863                                                                    19752497.122 6  82009023.32206     -1939.465 6        38.411
C21        31.000                                                                                                                                                                                                                                                                    25335553.315 4 107202978.09504     -1418.027 4        26.695
R03        32.000    22428318.833 5 120060499.17905      2448.052 5        35.081
R09        34.000    20160052.150 6 107653995.22506      -428.706 6        36.692                                                                    20160050.524 6  83730447.37506      -333.580 6        41.876
R10        35.000    22649981.912 4                      2527.439 4        27.425
C37        36.000                                                                                                                                    23598175.537 7 122881900.56807     -1612.010 7        44.870                                                                    23598177.810 7  99851687.36807     -1309.798 7        44.784
C28        40.000                                                                                                                                    22553599.877 6 117442775.08206       940.678 6        39.381                                                                    22553598.030 6  95431696.10206       764.251 6        41.025
C43        42.000                                                                                                                                    22024409.285 8 114686911.83408     -2188.833 8        50.161                                                                    22024408.436 7  93192660.06007     -1778.571 7        46.314
C11        44.000                                                                                                                                    23420240.923 7 121955827.16907     -3050.101 7        46.277    23420237.852 7  94303740.80607     -2358.551 7        44.805    23420236.047 7  99098842.23207     -2478.425 7        46.245
C13        45.000                                                                                                                                    37740139.526 6 196522905.68906     -1361.240 6        39.604    37740132.948 6 151963901.01706     -1052.482 6        37.709    37740128.925 5 159690916.45805     -1105.971 5        30.068
C08        46.000                                                                                                                                    38000305.832 5 197877563.88205     -1637.428 5        34.210    38000297.974 7 153011491.97907     -1266.094 7        42.209    38000299.210 6 160791691.61606     -1330.234 6        39.577
C14        47.000                                                                                                                                    24846139.272 5 129380373.47405      1983.703 5        32.928    24846141.027 5 100045231.91305      1534.041 5        34.152
C42        48.000                                                                                                                                    24268698.854 6 126373481.09406       876.007 6        37.648                                                                    24268702.719 5 102688825.51705       711.985 5        33.150
C38        49.000                                                                                                                                    39326876.352 5 204785565.65905     -1910.350 5        30.641                                                                    39326887.835 5                     -1552.170 5        31.162
C27        52.000                                                                                                                                    26202042.752 4                      1975.802 4        28.180
C23        55.000                                                                                                                                    24713330.258 4 128688892.93504     -3888.915 4        29.536                                                                    24713323.805 4                     -3160.610 4        26.228
I06        58.000    38611500.882 6 151519984.07806      -590.809 6        41.302
> 2025 01 01 19 00 25.0000000  0 37
G18         1.000    21252302.518 7 111681829.92907     -2811.039 7        43.469                                    21252295.345 2  87024678.91802     -2190.414 2        14.571    21252296.230 5  87024688.99705     -2190.744 5        32.341
G10         2.000    23152029.634 7 121664732.85307      2523.494 7        43.500                                    23152023.394 5  94803708.07705      1966.361 5        35.738    23152027.269 6  94803693.08006      1966.186 6        36.960
G07         3.000    25318977.313 6 133052167.16506       404.593 6        38.883                                                                                                    25319004.591 5                       315.400 5        31.872
G23         4.000    21123120.263 5 111002746.74105       687.694 5        30.423                                    21123112.194 1  86495657.14601       535.964 1         1.556    21123136.703 5  86495632.11005       535.710 5        33.371
G08         6.000    24080500.107 5 126543895.69605      2451.639 5        34.043                                    24080514.291 1  98605667.44801      1910.350 1         9.048    24080528.042 4                      1910.356 4        28.559
G27         7.000    21303087.861 6 111948471.14006      1527.935 6        38.574                                    21303154.998 1  87232841.39901      1190.571 1         8.571    21303089.692 6  87232549.19606      1190.773 6        39.628
E15        10.000    25316065.956 6 133036806.97206     -3110.875 6        39.378                                                                    25316063.093 6  99345730.41106     -2323.156 6        38.309    25316065.284 6 101937288.33006     -2383.635 6        38.898
E27        15.000    25960883.940 5 136425378.52105     -3725.254 5        33.275                                                                    25960888.173 6 101876082.07406     -2781.851 6        36.749    25960893.844 6 104533941.79806     -2854.360 6        37.312
E13        16.000    23140485.505 7 121604152.55407      -741.132 7        45.732                                                                    23140485.600 8  90808292.73608      -553.436 8        50.607    23140484.762 8  93177158.93908      -567.897 8        50.065
R17        17.000                                                                                                                                    22930435.338 5                     -3292.359 5        32.335
G16        18.000    20444615.622 6 107437197.06406     -1091.541 6        40.520                                    20444612.692 3  83717198.68203      -850.565 3        20.857
E26        19.000    25692318.070 6 135014070.93206      1515.249 6        39.348                                                                    25692319.090 7 100822176.13307      1131.497 7        42.383    25692317.039 6 103452366.35506      1161.010 6        40.777
E21        22.000    23666503.980 7 124368423.90007     -1449.065 7        46.871                                                                    23666503.715 8  92872458.98308     -1082.062 8        50.565    23666503.270 8  95295245.08408     -1110.319 8        49.360
S36        23.000    38130063.466 6 200374710.77606      -849.731 6        36.983
S23        24.000    38084849.455 6 200137234.84606      -850.851 6        40.257
G26        25.000    21401352.040 6 112464873.42806     -3249.493 6        38.312                                    21401348.442 5  87634979.00105     -2532.076 5        31.177    21401351.205 6  87635022.00506     -2532.099 6        37.815
R02        27.000                                                                                                                                    22118498.924 5  91800003.59105      -578.439 5        31.615
C34        28.000                                                                                                                                    25341446.256 3                     -3590.188 3        23.314
R19        29.000    19791696.872 6 105872246.32006       254.346 6        37.686                                                                    19791694.689 6  82345088.02706       197.706 6        40.029
R18        30.000    19754834.551 7 105452678.77007     -2495.506 7        43.016                                                                    19754833.976 6  82018723.88006     -1940.840 6        38.291
C21        31.000                                                                                                                                                                                                                                                                    25337229.377 4 107210078.07504     -1421.096 4        25.624
R03        32.000    22426040.000 6                      2445.584 6        37.089                                                                    22426025.537 4                      1902.426 4        29.090
R09        34.000    20160456.737 6 107656150.82806      -433.617 6        39.030                                                                    20160453.657 6  83732123.91906      -337.281 6        39.940
R10        35.000    22647601.949 5                      2524.848 5        30.196
C37        36.000                                                                                                                                    23599724.803 7 122889967.50607     -1614.997 7        45.145                                                                    23599727.089 7  99858242.38507     -1312.250 7        45.258
R01        37.000    24097838.579 4                     -3876.827 4        26.204
C28        40.000                                                                                                                                    22552696.808 6 117438075.71206       939.094 6        37.384                                                                    22552695.555 6  95427877.44306       763.091 6        40.923
C43        42.000                                                                                                                                    22026511.758 8 114697859.24508     -2190.378 8        50.402                                                                    22026510.908 7  93201555.70907     -1779.827 7        46.396
C11        44.000                                                                                                                                    23423169.609 7 121971079.42007     -3050.982 7        46.334    23423166.578 7  94315534.80507     -2359.191 7        44.695    23423164.976 7  99111235.92207     -2479.199 7        46.471
C13        45.000                                                                                                                                    37741446.486 6 196529713.43706     -1362.021 6        39.321    37741440.064 6 151969165.19706     -1053.228 6        38.153    37741436.262 4 159696448.29604     -1106.528 4        29.867
C08        46.000                                                                                                                                    38001879.243 5 197885752.16305     -1638.150 5        34.362    38001870.209 7 153017823.66807     -1266.760 7        42.354    38001871.377 6 160798345.25206     -1331.235 6        39.405
C14        47.000                                                                                                                                    24844236.771 5 129370458.60605      1982.350 5        32.503    24844238.005 5 100037565.13205      1532.896 5        35.538
C42        48.000                                                                                                                                    24267860.352 6 126369107.14406       873.300 6        38.378                                                                    24267863.503 5 102685271.35605       709.476 5        33.102
C38        49.000                                                                                                                                    39328712.294 5 204795118.40905     -1910.937 5        30.030                                                                    39328721.464 5                     -1552.771 5        30.755
C27        52.000                                                                                                                                    26200147.746 4                      1975.753 4        28.000
C23        55.000                                                                                                                                    24717065.934 4 128708340.99304     -3890.425 4        28.474                                                                    24717060.163 4                     -3160.343 4        24.571
I06        58.000    38612253.713 6 151522938.22406      -590.885 6        41.423
> 2025 01 01 19 00 30.0000000  0 37
G18         1.000    21254977.329 7 111695887.83507     -2812.578 7        43.748                                    21254969.992 2  87035633.16102     -2191.655 2        14.381    21254972.159 5  87035643.19205     -2191.116 5        32.192
G10         2.000    23149628.350 7 121652116.85407      2522.505 7        43.088                                    23149623.023 6  94793877.43206      1965.586 6        37.043    23149626.600 6  94793862.41806      1965.601 6        38.336
G07         3.000    25318592.603 6 133050150.01706       402.017 6        39.018                                                                                                    25318614.147 5                       313.383 5        32.784
G23         4.000    21122470.770 5 110999316.18705       684.101 5        32.180                                                                                                    21122475.698 5  86492958.93805       533.279 5        35.067
G08         6.000    24078167.091 5 126531636.71405      2451.736 5        34.395                                    24078181.991 1  98596115.01901      1910.411 1         9.238    24078197.964 4                      1910.111 4        28.948
G27         7.000    21301635.410 6 111940833.39806      1526.646 6        38.414                                    21301702.110 1  87226889.87301      1189.583 1        10.667    21301635.358 6  87226597.74006      1189.731 6        39.919
E15        10.000    25319025.078 6 133052361.72906     -3111.409 6        41.011                                                                    25319023.056 6  99357345.94406     -2323.163 6        37.834    25319025.557 6 101949206.88806     -2383.871 6        38.949
