     3.04           OBSERVATION DATA    M                   RINEX VERSION / TYPE
ssrcrin-15.6.1x                         20250101 124500 UTC PGM / RUN BY / DATE 
(00000000023479385599111004) Septentrio proprietary         COMMENT             
ract                                                        MARKER NAME         
01                                                          MARKER NUMBER       
geodetic                                                    MARKER TYPE         
NFB                 CLIMERS@TUW                             OBSERVER / AGENCY   
3296359             SEPT ASTERX SB3 PROB4.14.4              REC # / TYPE / VERS 
Unknown             Unknown                                 ANT # / TYPE        
  4127446.5258  1206915.1049  4695543.1922                  APPROX POSITION XYZ 
        0.0000        0.0000        0.0000                  ANTENNA: DELTA H/E/N
G   23 X1  C1C L1C D1C S1C C1W S1W C2W L2W D2W S2W C2L L2L  SYS / # / OBS TYPES 
       D2L S2L C5Q L5Q D5Q S5Q C1L L1L D1L S1L              SYS / # / OBS TYPES 
E   21 X1  C1C L1C D1C S1C C6C L6C D6C S6C C5Q L5Q D5Q S5Q  SYS / # / OBS TYPES 
       C7Q L7Q D7Q S7Q C8Q L8Q D8Q S8Q                      SYS / # / OBS TYPES 
S    9 X1  C1C L1C D1C S1C C5I L5I D5I S5I                  SYS / # / OBS TYPES 
R   17 X1  C1C L1C D1C S1C C2P L2P D2P S2P C2C L2C D2C S2C  SYS / # / OBS TYPES 
       C3Q L3Q D3Q S3Q                                      SYS / # / OBS TYPES 
C   25 X1  C1P L1P D1P S1P C5P L5P D5P S5P C2I L2I D2I S2I  SYS / # / OBS TYPES 
       C7I L7I D7I S7I C6I L6I D6I S6I C7D L7D D7D S7D      SYS / # / OBS TYPES 
J   17 X1  C1C L1C D1C S1C C2L L2L D2L S2L C5Q L5Q D5Q S5Q  SYS / # / OBS TYPES 
       C1L L1L D1L S1L                                      SYS / # / OBS TYPES 
I    5 X1  C5A L5A D5A S5A                                  SYS / # / OBS TYPES 
SEPTENTRIO RECEIVERS OUTPUT ALIGNED CARRIER PHASES.         COMMENT             
NO FURTHER PHASE SHIFT APPLIED IN THE RINEX ENCODER.        COMMENT             
G L1C                                                       SYS / PHASE SHIFT   
G L2W                                                       SYS / PHASE SHIFT   
G L2L  0.00000                                              SYS / PHASE SHIFT   
G L5Q  0.00000                                              SYS / PHASE SHIFT   
G L1L  0.00000                                              SYS / PHASE SHIFT   
E L1C  0.00000                                              SYS / PHASE SHIFT   
E L6C  0.00000                                              SYS / PHASE SHIFT   
E L5Q  0.00000                                              SYS / PHASE SHIFT   
E L7Q  0.00000                                              SYS / PHASE SHIFT   
E L8Q  0.00000                                              SYS / PHASE SHIFT   
S L1C                                                       SYS / PHASE SHIFT   
S L5I                                                       SYS / PHASE SHIFT   
R L1C                                                       SYS / PHASE SHIFT   
R L2P  0.00000                                              SYS / PHASE SHIFT   
R L2C                                                       SYS / PHASE SHIFT   
R L3Q  0.00000                                              SYS / PHASE SHIFT   
C L1P  0.00000                                              SYS / PHASE SHIFT   
C L5P  0.00000                                              SYS / PHASE SHIFT   
C L2I                                                       SYS / PHASE SHIFT   
C L7I                                                       SYS / PHASE SHIFT   
C L6I                                                       SYS / PHASE SHIFT   
C L7D                                                       SYS / PHASE SHIFT   
J L1C                                                       SYS / PHASE SHIFT   
J L2L  0.00000                                              SYS / PHASE SHIFT   
J L5Q  0.00000                                              SYS / PHASE SHIFT   
J L1L  0.00000                                              SYS / PHASE SHIFT   
I L5A                                                       SYS / PHASE SHIFT   
  2025     1     1    12    45    0.0000000     GPS         TIME OF FIRST OBS   
 C1C    0.000 C2C    0.000 C2P    0.000                     GLONASS COD/PHS/BIS 
DBHZ                                                        SIGNAL STRENGTH UNIT
    18                                                      LEAP SECONDS        
 24 R01  1 R02 -4 R03  5 R04  6 R05  1 R06 -4 R07  5 R08  6 GLONASS SLOT / FRQ #
    R09 -2 R10 -7 R11  0 R12 -1 R13 -2 R14 -7 R15  0 R16 -1 GLONASS SLOT / FRQ #
    R17  4 R18 -3 R19  3 R20  2 R21  4 R22 -3 R23  3 R24  2 GLONASS SLOT / FRQ #
                                                            END OF HEADER       
> 2025 01 01 12 45  0.0000000  0 38
G19         1.000    22426248.331 5 117850770.03405     -3333.580 5        35.352                                    22426245.080 1  91831776.29401     -2597.658 1         7.500
G06         2.000    23369011.855 5                       541.152 5        34.152                                                                                                    23369021.906 4                       421.698 4        28.351
G25         3.000    21821467.955 7 114672628.85607      1824.537 7        42.844                                    21821476.258 5  89355239.25805      1421.717 5        34.429    21821473.157 6  89355396.26006      1421.653 6        38.384
G17         5.000    25457634.092 4                     -4264.054 4        24.421
G12         7.000    20354064.576 7 106961336.13107      -411.048 7        47.940                                    20354067.617 6  83346511.49106      -320.295 6        38.006    20354067.211 5  83346524.53005      -320.286 5        35.786
E30         9.000    23933436.798 7 125771095.85007      -167.444 7        45.774                                                                    23933445.378 8  93919998.46108      -124.994 8        49.561    23933443.286 7  96370089.49107      -128.288 7        47.325
G32        11.000    23414711.637 7 123045164.37507       794.607 7        47.848                                    23414721.378 6  95879394.40406       619.168 6        39.333    23414721.183 7  95879411.41507       619.132 7        42.135
E02        13.000    24574593.069 6 129140347.41906     -2533.524 6        40.079                                                                    24574598.569 6  96436054.94406     -1891.926 6        40.112    24574600.420 7  98951784.56007     -1941.224 7        43.570
E27        15.000    27076825.890 4 142289588.53204      1500.930 4        27.677                                                                    27076826.462 6 106255309.65806      1120.666 6        38.910    27076823.677 5 109027223.10105      1149.801 5        31.049
G24        16.000    20981193.016 8 110256910.38008     -2932.973 8        50.112                                    20981197.875 8  85914514.29708     -2285.434 8        48.564    20981198.060 7  85914471.30307     -2285.415 7        44.965
E08        17.000    26567690.731 6 139614143.02606     -3907.703 6        37.735                                                                    26567701.573 6 104257321.68706     -2918.138 6        37.550    26567702.043 6 106976999.73306     -2994.176 6        41.449
E07        18.000    24699485.734 5 129796742.58605     -1849.010 5        34.119                                                                    24699493.949 6  96926155.41606     -1380.571 6        37.153    24699493.854 7  99454633.60407     -1416.741 7        43.826
E36        19.000    26666738.707 4                       723.754 4        24.211                                                                    26666718.924 5 104645983.22305       540.502 5        30.317
R22        22.000    21660304.328 6 115624272.70506     -2523.675 6        36.949                                                                    21660310.963 5  89930054.22105     -1962.715 5        35.286
S36        23.000    38374056.804 5 201656950.84905      -839.647 5        34.676
S23        24.000    38312974.735 5 201336032.30005      -844.265 5        34.148
R04        25.000    21360961.893 7 114386903.07307     -1891.088 7        45.029                                                                    21360966.087 7  88967649.30507     -1470.775 7        43.757
E29        26.000    26654362.881 7 140069664.57407       945.143 7        45.606                                                                    26654377.831 7 104597589.81007       705.855 7        43.376    26654375.496 7 107326133.83907       724.174 7        43.371
R13        29.000    19854738.349 7 106023181.97607     -1857.761 7        47.274
R12        31.000    22658819.616 4 121039377.22304     -3906.238 4        28.351
C10        32.000                                                                                                                                    39361665.489 5 204966501.30505     -1520.486 5        30.951    39361660.241 6 158493076.42406     -1175.719 6        36.336    39361658.993 5 166552013.67905     -1235.315 5        34.500
R03        33.000    22618346.520 4 121077793.66204     -4771.020 4        25.008                                                                    22618392.491 5                     -3710.324 5        30.475
C24        34.000                                                                                                                                    21498407.961 8 111948052.37108      -486.111 8        52.859                                                                    21498408.538 8  90966851.74608      -395.030 8        48.307
R14        35.000    21084828.805 5 112394124.18805      1654.110 5        32.186                                                                    21084844.371 7  87417697.57107      1286.722 7        43.223
R23        36.000    20757577.443 5 111039089.58105      1209.493 5        30.891
C26        37.000                                                                                                                                    23536961.599 5                     -2984.834 5        32.862                                                                    23536947.010 6  99592521.84006     -2425.340 6        41.681
S21        38.000    38602018.101 5 202854948.89105      -839.370 5        34.171
C44        39.000                                                                                                                                    22959429.275 7 119555870.01107      1347.602 7        45.567                                                                    22959433.122 6  97148948.68606      1095.091 6        36.484
C35        40.000                                                                                                                                    23247651.017 7 121056606.17907     -1423.170 7        47.751                                                                    23247654.731 7  98368566.07607     -1156.393 7        42.991
R05        42.000                                                                                                                                    23026205.067 6  95735257.24206      1254.433 6        36.529
C12        43.000                                                                                                                                    24601102.881 5 128104409.01605      2390.088 5        32.976    24601109.813 6  99058516.85206      1848.104 6        39.429    24601108.813 6 104095396.67306      1941.951 6        38.979
C40        44.000                                                                                                                                    40851310.706 4                     -2039.784 4        26.263
C33        46.000                                                                                                                                    25734888.782 5 134008311.05105     -3459.225 5        35.286                                                                    25734910.498 6 108892815.20806     -2810.876 6        37.062
C14        48.000                                                                                                                                                                                                    26537079.897 3                     -3049.625 3        23.562
C41        50.000                                                                                                                                                                                                                                                                    25566772.688 3                     -1042.631 3        22.324
C07        53.000                                                                                                                                    40329830.440 4                     -1766.867 4        25.880    40329847.251 5                     -1365.898 5        30.143
I06        58.000    38613598.584 6 151528009.87706      -734.155 6        38.868
I02        60.000    37147078.087 6 145773113.06106      -777.564 6        41.347
> 2025 01 01 12 45  5.0000000  0 38
G19         1.000    22429421.086 5 117867444.40405     -3336.253 5        35.714                                    22429417.996 1  91844769.31101     -2599.685 1         7.625
G06         2.000    23368498.169 5 122802279.54715       538.245 5        32.048                                                                                                    23368517.650 4                       419.510 4        28.730
G25         3.000    21819732.707 7 114663510.16407      1822.911 7        43.740                                    21819741.241 5  89348133.80705      1420.447 5        34.438    21819738.703 6  89348290.83706      1420.295 6        38.099
G17         5.000    25461691.128 4                     -4264.653 4        24.150
G12         7.000    20354457.130 8 106963397.09308      -413.391 8        48.099                                    20354459.224 6  83348117.42906      -322.121 6        37.508    20354458.915 6  83348130.47006      -322.179 6        36.699
E30         9.000    23933596.944 7 125771936.01207      -168.616 7        45.490                                                                    23933605.295 8  93920625.85908      -125.952 8        49.698    23933603.207 7  96370733.25407      -129.243 7        47.334
G32        11.000    23413957.048 7 123041198.44707       791.695 7        47.994                                    23413967.301 6  95876304.09406       616.899 6        40.007    23413967.018 7  95876321.09707       616.865 7        42.273
E02        13.000    24577003.700 6 129153016.47806     -2534.178 6        40.698                                                                    24577009.551 6  96445515.60306     -1892.498 6        40.057    24577011.327 7  98961492.02707     -1941.793 7        44.087
E27        15.000    27075400.740 4 142282085.28604      1499.800 4        28.720                                                                    27075398.986 6 106249706.66106      1120.394 6        39.147    27075395.476 5 109021473.92005      1149.807 5        30.438
G24        16.000    20983984.899 8 110271581.45708     -2935.455 8        49.895                                    20983989.916 8  85925946.30208     -2287.366 8        48.842    20983990.171 7  85925903.30507     -2287.290 7        45.204
E08        17.000    26571409.768 6 139633683.55506     -3908.422 6        38.072                                                                    26571419.926 6 104271913.58406     -2918.706 6        37.747    26571420.374 6 106991972.30006     -2994.870 6        41.409
E07        18.000    24701245.756 5 129805993.36605     -1851.532 5        33.090                                                                    24701254.096 5  96933063.46105     -1382.537 5        35.710    24701254.315 7  99461721.86307     -1418.619 7        43.644
E36        19.000    26666045.574 4                       721.933 4        24.241                                                                    26666030.264 5 104643284.36505       538.860 5        30.392
R22        22.000    21662663.632 6 115636900.87106     -2527.823 6        36.416                                                                    21662676.380 5  89939876.05705     -1966.226 5        31.487
S36        23.000    38374858.392 5 201661150.35405      -839.833 5        34.690
S23        24.000    38313779.829 5 201340253.26105      -844.124 5        34.476
R04        25.000    21362730.855 7 114396369.82407     -1895.641 7        44.957                                                                    21362733.088 7  88975012.31107     -1474.416 7        42.356
E29        26.000    26653464.598 7 140064943.46307       943.255 7        45.710                                                                    26653479.423 7 104594064.36207       704.396 7        43.323    26653476.855 7 107322516.40907       722.749 7        43.266
R13        29.000    19856478.249 7 106032475.71207     -1859.784 7        46.489
R12        31.000    22662472.873 4 121058908.86504     -3906.693 4        28.626
C10        32.000                                                                                                                                    39363125.371 5 204974103.48405     -1520.167 5        30.898    39363121.162 6 158498954.92806     -1175.795 6        36.639    39363119.049 5 166558191.06605     -1235.517 5        34.548
R03        33.000    22622789.179 3                     -4771.776 3        23.200                                                                    22622842.417 5                     -3711.744 5        30.370
C24        34.000                                                                                                                                    21498875.795 8 111950487.07308      -487.739 8        53.122                                                                    21498875.988 7  90968830.15307      -396.473 7        47.713
R14        35.000    21083279.789 5 112385855.45605      1653.014 5        35.905                                                                    21083292.643 7  87411266.40207      1285.617 7        42.595
R23        36.000    20756451.720 4 111033050.54704      1205.703 4        29.251
C26        37.000                                                                                                                                                                                                                                                                    23539813.099 6  99604650.70706     -2426.219 6        40.987
S21        38.000    38602814.010 5 202859145.29905      -839.580 5        34.167
C44        39.000                                                                                                                                    22958136.752 7 119549137.77707      1345.335 7        45.437                                                                    22958140.394 6  97143478.26106      1093.005 6        37.558
C35        40.000                                                                                                                                    23249019.648 8 121063729.28408     -1426.127 8        48.500                                                                    23249022.746 7  98374354.19407     -1158.825 7        43.774
R05        42.000                                                                                                                                    23024700.176 6  95728992.18606      1251.529 6        36.178
C12        43.000                                                                                                                                    24598806.040 5 128092461.47205      2388.714 5        31.192    24598815.175 6  99049278.23006      1847.454 6        38.399    24598814.675 6 104085688.30106      1941.097 6        40.072
C40        44.000                                                                                                                                    40853270.288 4                     -2039.119 4        24.857
C33        46.000                                                                                                                                    25738210.597 5 134025609.95305     -3460.301 5        34.800                                                                    25738232.818 6 108906871.94306     -2812.024 6        36.979
C14        48.000                                                                                                                                                                                                    26540862.648 3                     -3050.545 3        21.167
C41        50.000                                                                                                                                                                                                                                                                    25568004.615 3                     -1043.924 3        21.095
C07        53.000                                                                                                                                    40331533.766 4                     -1765.544 4        25.263    40331544.276 5                     -1365.879 5        30.136
I06        58.000    38614533.607 6 151531680.89606      -734.283 6        38.844
I02        60.000    37148068.709 6 145777001.18806      -777.773 6        41.249
> 2025 01 01 12 45 10.0000000  0 37
G19         1.000    22432597.092 6 117884130.80306     -3338.098 6        36.665                                    22432593.081 1  91857771.66801     -2601.120 1         6.250
G06         2.000    23367987.621 5 122799596.02005       535.097 5        31.343                                                                                                    23368007.586 5                       417.148 5        30.460
G25         3.000    21817998.371 7 114654399.41807      1821.749 7        44.209                                    21818007.531 5  89341034.54205      1419.538 5        34.548    21818004.957 6  89341191.56206      1419.613 6        37.633
G17         5.000    25465749.268 4                     -4264.965 4        24.105
G12         7.000    20354852.204 8 106965470.23608      -415.490 8        49.199                                    20354853.415 6  83349732.86106      -323.759 6        37.225    20354853.640 6  83349745.92906      -323.969 6        37.414
E30         9.000    23933758.170 7 125772782.84707      -169.680 7        45.041                                                                    23933766.405 8  93921258.23908      -126.679 8        49.847    23933764.366 7  96371382.12807      -130.017 7        47.314
G32        11.000    23413205.532 8 123037247.65908       788.914 8        48.330                                    23413216.144 6  95873225.57806       614.740 6        40.462    23413215.097 7  95873242.57807       614.803 7        42.603
E02        13.000    24579415.529 6 129165690.00706     -2534.880 6        40.698                                                                    24579421.540 6  96454979.59106     -1892.884 6        39.898    24579423.079 7  98971202.90207     -1942.200 7        44.402
E27        15.000    27073972.316 4 142274585.39904      1499.845 4        29.374                                                                    27073971.627 6 106244106.15506      1120.259 6        39.021    27073967.577 4 109015727.29304      1149.162 4        29.829
G24        16.000    20986779.332 8 110286265.67308     -2937.709 8        49.903                                    20986784.309 8  85937388.54708     -2289.123 8        48.957    20986784.734 7  85937345.55307     -2289.116 7        45.570
E08        17.000    26575128.742 6 139653228.47806     -3909.016 6        37.928                                                                    26575139.027 6 104286508.76606     -2919.161 6        37.868    26575139.618 6 107006948.22806     -2995.231 6        41.342
E07        18.000    24703007.549 5 129815256.61505     -1853.573 5        32.042                                                                    24703016.506 5  96939980.77805     -1384.091 5        34.062    24703017.392 7  99468819.63807     -1420.199 7        43.177
E36        19.000    26665358.402 4                       719.637 4        24.722                                                                    26665345.443 5 104640593.92505       537.241 5        31.343
R22        22.000    21665031.333 6 115649550.77106     -2531.714 6        39.922
S36        23.000    38375658.531 5 201665351.16105      -840.010 5        34.962
S23        24.000    38314586.245 5 201344474.87705      -843.803 5        34.481
R04        25.000    21364502.765 7 114405859.49107     -1899.960 7        46.173                                                                    21364503.965 6  88982393.14806     -1477.680 6        41.023
E29        26.000    26652568.053 7 140060232.56907       941.525 7        45.427                                                                    26652582.881 7 104590546.54407       703.024 7        43.638    26652580.164 7 107318906.83107       721.339 7        43.198
R13        29.000    19858219.551 7 106041780.59307     -1861.697 7        45.493
R12        31.000                                                                                                                                    22666139.445 4                     -3039.428 4        28.995
C10        32.000                                                                                                                                    39364588.325 5 204981707.21605     -1520.725 5        31.404    39364581.762 6 158504834.58806     -1175.744 6        37.066    39364579.302 5 166564369.70005     -1235.718 5        34.500
R03        33.000    22627246.407 4                     -4773.636 4        28.882                                                                    22627291.959 5                     -3712.870 5        32.210
C24        34.000                                                                                                                                    21499345.063 8 111952930.59008      -489.246 8        52.939                                                                    21499345.136 7  90970815.69307      -397.650 7        47.231
R14        35.000    21081731.929 6 112377593.64606      1652.035 6        36.994                                                                    21081741.468 6  87404840.54606      1284.896 6        41.838
R23        36.000    20755333.577 6 111027033.13206      1201.719 6        36.749
C26        37.000                                                                                                                                    23542680.077 6 122592984.24316     -2986.912 6        40.255                                                                    23542680.385 6  99616784.75206     -2427.297 6        40.400
S21        38.000    38603615.799 5 202863342.32705      -839.215 5        34.067
C44        39.000                                                                                                                                    22956845.983 7 119542417.05207      1343.347 7        44.784                                                                    22956849.747 6  97138017.13606      1091.425 6        38.544
C35        40.000                                                                                                                                    23250390.835 8 121070867.28608     -1428.765 8        49.161                                                                    23250393.584 7  98380154.41307     -1161.012 7        44.301
R05        42.000    23023181.891 5 123072043.86415      1605.869 5        34.148                                                                    23023204.531 5  95722741.90005      1248.980 5        35.924
C12        43.000                                                                                                                                    24596512.580 4 128080519.87004      2388.415 4        29.403    24596521.414 6  99040044.24306      1846.449 6        37.490    24596521.480 6 104075984.77106      1940.323 6        40.374
C40        44.000                                                                                                                                    40855228.782 4                     -2040.400 4        24.662
C33        46.000                                                                                                                                    25741534.141 5 134042915.92005     -3461.645 5        34.114                                                                    25741556.439 6 108920934.41406     -2813.056 6        36.299
C41        50.000                                                                                                                                                                                                                                                                    25569242.929 3                     -1046.812 3        21.571
C07        53.000                                                                                                                                    40333229.977 4                     -1765.814 4        25.624    40333240.599 5                     -1366.090 5        30.694
I06        58.000    38615469.282 6 151535352.40206      -733.989 6        38.880
I02        60.000    37149060.028 6 145780890.60506      -777.763 6        41.409
> 2025 01 01 12 45 15.0000000  0 37
G19         1.000    22435774.231 6 117900828.47706     -3340.549 6        37.221                                    22435770.169 1  91870782.81701     -2603.027 1         7.500
G06         2.000    23367484.456 4 122796926.97504       532.563 4        29.583                                                                                                    23367497.043 5                       415.008 5        30.272
G25         3.000    21816265.927 7 114645295.69007      1820.304 7        44.542                                    21816274.938 5  89333940.75505      1418.414 5        34.538    21816272.254 6  89334097.77306      1418.430 6        37.285
G17         5.000    25469808.464 3                     -4265.730 3        23.333
G12         7.000    20355248.603 8 106967554.68308      -417.765 8        49.024                                    20355249.994 6  83351357.10906      -325.534 6        36.639    20355249.700 6  83351370.15506      -325.475 6        36.892
E30         9.000    23933920.661 7 125773635.47507      -170.891 7        44.426                                                                    23933928.631 8  93921894.94308      -127.560 8        49.953    23933926.669 7  96372035.44307      -130.958 7        47.377
G32        11.000    23412456.689 8 123033311.06008       786.192 8        48.089                                    23412467.666 6  95870158.12106       612.615 6        40.579    23412465.506 7  95870175.13907       612.579 7        42.804
E02        13.000    24581827.772 6 129178367.03006     -2535.458 6        40.794                                                                    24581834.028 6  96464446.21206     -1893.424 6        40.040    24581835.516 7  98980916.48007     -1942.834 7        44.615
E27        15.000    27072543.166 4 142267087.87704      1499.797 4        29.943                                                                    27072544.473 6 106238507.43106      1119.711 6        38.733    27072540.386 4 109009982.50004      1148.648 4        29.185
G24        16.000    20989575.845 8 110300962.10208     -2940.226 8        49.009                                    20989580.911 8  85948840.30808     -2291.083 8        48.896    20989581.350 7  85948797.30207     -2291.016 7        45.856
E08        17.000    26578847.399 6 139672776.85206     -3909.773 6        37.936                                                                    26578859.223 6 104301106.51606     -2919.683 6        37.868    26578859.300 6 107021926.79506     -2995.759 6        41.080
E07        18.000    24704771.930 5 129824531.26605     -1855.601 5        31.472                                                                    24704781.154 5  96946906.66505     -1385.898 5        32.844    24704782.510 7  99475926.20507     -1421.918 7        42.927
E36        19.000    26664673.702 3                       718.144 3        23.886                                                                    26664662.467 5 104637911.11205       536.074 5        31.404
R22        22.000    21667409.544 7 115662221.50807     -2535.971 7        43.680
S36        23.000    38376459.300 5 201669551.76705      -839.904 5        35.238
S23        24.000    38315384.180 5 201348696.36205      -843.852 5        34.386
R04        25.000    21366280.821 7 114415371.26707     -1904.334 7        45.652                                                                    21366279.740 6  88989791.17906     -1480.918 6        39.976
E29        26.000    26651672.999 7 140055530.94907       939.665 7        45.245                                                                    26651688.373 7 104587035.63307       701.621 7        43.541    26651685.177 7 107315304.31407       720.008 7        43.259
R13        29.000    19859964.178 7 106051095.73007     -1863.789 7        45.031
R12        31.000    22669819.147 4 121097986.16014     -3908.250 4        26.623                                                                    22669804.275 4                     -3040.098 4        27.617
C10        32.000                                                                                                                                    39366049.029 5 204989311.42005     -1520.594 5        30.883    39366041.960 6 158510714.65506     -1175.773 6        37.149    39366039.859 5 166570548.80505     -1235.806 5        34.443
R03        33.000    22631711.412 5                     -4775.159 5        31.140                                                                    22631752.550 5  94227419.65915     -3713.959 5        34.681
C24        34.000                                                                                                                                    21499815.980 8 111955382.02108      -490.790 8        52.802                                                                    21499815.903 7  90972807.70307      -398.926 7        46.926
R14        35.000    21080182.155 6 112369337.50306      1650.861 6        38.712                                                                    21080193.446 6  87398419.13306      1284.041 6        41.633
R23        36.000    20754213.218 6 111021036.25306      1197.522 6        40.336
C26        37.000                                                                                                                                    23545547.556 6 122607922.42506     -2987.916 6        40.896                                                                    23545548.648 6  99628923.26906     -2428.089 6        39.775
S21        38.000    38604409.552 5 202867539.13305      -839.144 5        34.267
C44        39.000                                                                                                                                    22955556.705 7 119535706.97807      1341.236 7        44.247                                                                    22955561.127 6  97132564.70406      1089.859 6        39.381
C35        40.000                                                                                                                                    23251764.292 8 121078019.29208     -1431.582 8        49.798                                                                    23251767.100 7  98385966.04507     -1163.350 7        44.661
R05        42.000                                                                                                                                    23021708.959 5  95716505.61605      1246.155 5        35.848
C12        43.000                                                                                                                                    24594219.100 4 128068583.38604      2387.062 4        26.563    24594229.717 6  99030814.22006      1845.572 6        36.945    24594229.163 6 104066285.42106      1939.491 6        40.937
C40        44.000                                                                                                                                    40857188.569 4                     -2039.768 4        24.286
C33        46.000                                                                                                                                    25744859.371 5 134060228.07805     -3462.936 5        33.934                                                                    25744881.347 5 108935001.91005     -2813.904 5        34.762
C41        50.000                                                                                                                                                                                                                                                                    25570480.508 3                     -1051.705 3        21.167
C07        53.000                                                                                                                                    40334926.506 4                     -1766.143 4        25.549    40334937.956 5                     -1365.873 5        30.838
I06        58.000    38616405.335 6 151539023.78506      -734.145 6        39.078
I02        60.000    37150050.889 6 145784780.92606      -777.881 6        41.321
> 2025 01 01 12 45 20.0000000  0 38
G19         1.000    22438954.348 6 117917537.60406     -3342.852 6        37.667                                    22438949.412 1  91883802.79901     -2604.846 1         6.375
G06         2.000    23366983.425 5 122794272.73605       529.698 5        30.445                                    23366983.606 1  95683889.07511       412.688 1        10.296    23366985.695 4                       412.752 4        27.245
G25         3.000    21814534.525 7 114636199.37907      1818.552 7        44.828                                    21814543.552 5  89326852.74005      1417.050 5        34.557    21814540.822 6  89327009.76406      1416.825 6        36.941
G17         5.000    25473868.823 3                     -4262.223 3        21.000
G12         7.000    20355646.754 8 106969650.81508      -420.397 8        48.062                                    20355648.890 6  83352990.46506      -327.584 6        36.329    20355647.986 6  83353003.53006      -327.684 6        37.180
E30         9.000    23934084.490 7 125774494.26007      -172.428 7        43.793                                                                    23934092.078 8  93922536.23808      -128.756 8        50.193    23934090.116 7  96372693.47107      -132.101 7        47.496
G32        11.000    23411710.214 7 123029389.07307       782.994 7        47.578                                    23411721.956 6  95867102.04706       610.122 6        40.570    23411719.115 7  95867119.07207       610.060 7        42.309
E02        13.000    24584240.702 6 129191047.98506     -2536.651 6        40.994                                                                    24584247.163 6  96473915.72006     -1894.226 6        40.133    24584248.563 7  98990633.02207     -1943.646 7        44.632
E27        15.000    27071115.968 4 142259593.19204      1499.204 4        29.829                                                                    27071117.703 6 106232910.79806      1119.049 6        38.030    27071113.046 4 109004239.85904      1148.201 4        28.682
G24        16.000    20992374.734 8 110315671.12008     -2943.083 8        48.699                                    20992379.847 8  85960301.87608     -2293.311 8        48.915    20992380.271 7  85960258.86707     -2293.241 7        45.377
E08        17.000    26582568.023 6 139692329.07106     -3910.875 6        38.000                                                                    26582580.007 6 104315707.11506     -2920.402 6        37.909    26582579.915 6 107036908.30806     -2996.631 6        41.142
E07        18.000    24706541.052 5 129833817.85905     -1858.209 5        32.365                                                                    24706547.448 5  96953841.42505     -1387.490 5        31.683    24706549.682 7  99483041.88107     -1424.022 7        42.299
E36        19.000    26663988.918 4                       715.570 4        24.256                                                                    26663981.634 5 104635236.36405       534.175 5        31.162
R22        22.000    21669790.042 7 115674913.40607     -2540.419 7        45.028
S36        23.000    38377256.684 5 201673752.67205      -840.173 5        35.010
S23        24.000    38316191.732 5 201352918.06905      -844.258 5        34.629
R04        25.000    21368061.803 7 114424905.32707     -1909.101 7        42.690                                                                    21368058.701 6  88997206.51106     -1484.899 6        36.125
E29        26.000    26650779.916 7 140050839.01307       937.550 7        44.918                                                                    26650795.539 7 104583531.93707       700.140 7        43.791    26650792.159 7 107311709.23207       718.270 7        43.046
R13        29.000    19861711.045 7 106060421.31907     -1866.169 7        45.052
R12        31.000    22673465.420 3 121117531.16903     -3909.600 3        22.648                                                                    22673466.784 4                     -3040.494 4        26.108
C10        32.000                                                                                                                                    39367510.004 5 204996916.53105     -1520.981 5        30.468    39367502.391 6 158516595.44206     -1176.341 6        37.274    39367500.129 5 166576728.58605     -1236.355 5        34.486
R03        33.000    22636173.058 5                     -4776.822 5        30.408                                                                    22636213.592 5  94245994.22515     -3715.604 5        35.186
C24        34.000                                                                                                                                    21500288.300 8 111957841.75308      -492.748 8        52.411                                                                    21500288.295 7  90974806.41207      -400.564 7        46.524
R14        35.000    21078633.162 6 112361087.48706      1649.517 6        38.532                                                                    21078645.254 6  87392002.51906      1282.941 6        40.691
R23        36.000    20753094.781 7 111015060.47607      1192.965 7        42.102
C26        37.000                                                                                                                                    23548416.497 6 122622866.48206     -2989.388 6        40.639                                                                    23548418.213 6  99641066.50106     -2429.129 6        39.252
S21        38.000    38605211.510 5 202871736.17705      -839.508 5        34.319
C44        39.000                                                                                                                                    22954269.416 7 119529007.91007      1338.731 7        43.092                                                                    22954274.601 6  97127121.14706      1087.729 6        40.203
C35        40.000                                                                                                                                    23253140.594 8 121085185.67808     -1434.760 8        50.128                                                                    23253143.146 7  98391789.30307     -1165.920 7        44.974
R05        42.000    23020170.320 4                      1598.461 4        25.368
C12        43.000                                                                                                                                    24591925.363 4 128056652.36404      2385.533 4        26.766    24591939.501 6  99021588.42506      1844.513 6        36.775    24591937.837 6 104056590.50106      1938.447 6        41.044
C40        44.000                                                                                                                                    40859144.488 4                     -2040.585 4        24.286
C33        46.000                                                                                                                                    25748185.885 5 134077546.73605     -3464.410 5        34.329                                                                    25748207.545 5 108949074.71605     -2815.199 5        32.832
C14        48.000                                                                                                                                                                                                    26552185.324 5                     -3049.146 5        31.321
C41        50.000                                                                                                                                    25571720.197 5                     -1293.406 5        35.495                                                                    25571720.847 3                     -1048.666 3        21.119
C07        53.000                                                                                                                                    40336627.337 4                     -1766.109 4        24.782    40336635.786 5                     -1366.472 5        30.558
I06        58.000    38617340.354 6 151542695.26206      -734.186 6        39.171
I02        60.000    37151042.410 6 145788671.93806      -778.320 6        41.299
> 2025 01 01 12 45 25.0000000  0 37
G19         1.000    22442136.368 6 117934258.20306     -3345.034 6        38.477                                    22442130.994 1  91896831.83401     -2606.564 1         6.125
G06         2.000    23366482.031 4 122791633.23904       526.684 4        29.374                                    23366481.466 1  95681832.25701       410.399 1        11.185    23366480.196 3                       410.139 3        23.886
G25         3.000    21812805.014 7 114627110.34907      1817.218 7        44.760                                    21812813.285 5  89319770.40105      1416.006 5        34.338    21812811.588 6  89319927.41806      1416.020 6        36.181
G17         5.000    25477928.694 3                     -4265.804 3        21.238
G12         7.000    20356047.462 7 106971758.48307      -422.517 7        47.401                                    20356049.981 5  83354632.81705      -329.239 5        35.810    20356049.392 6  83354645.86906      -329.085 6        36.412
E30         9.000    23934249.239 7 125775359.07507      -173.404 7        43.154                                                                    23934256.628 8  93923182.05108      -129.506 8        50.270    23934254.643 7  96373356.12607      -132.833 7        47.417
G32        11.000    23410965.987 7 123025481.59507       780.219 7        46.683                                    23410978.902 6  95864057.28106       607.954 6        40.474    23410975.140 6  95864074.30606       607.998 6        41.602
E02        13.000    24586654.613 6 129203732.70306     -2537.251 6        41.201                                                                    24586661.026 6  96483388.07406     -1894.588 6        40.012    24586662.257 7  99000352.46907     -1944.029 7        44.438
E27        15.000    27069687.490 4 142252101.11804      1498.168 4        29.829                                                                    27069691.752 6 106227316.12206      1118.810 6        37.240    27069687.311 4 108998499.23704      1147.891 4        29.564
G24        16.000    20995176.536 8 110330392.60508     -2945.457 8        48.575                                    20995181.144 8  85971773.16108     -2295.164 8        49.025    20995181.804 7  85971730.15907     -2295.111 7        44.947
E08        17.000    26586289.236 6 139711885.00806     -3911.515 6        37.493                                                                    26586301.539 6 104330310.51806     -2920.866 6        37.992    26586300.870 6 107051892.66306     -2996.966 6        40.751
E07        18.000    24708311.479 5 129843116.20005     -1860.710 5        35.519                                                                    24708316.534 5  96960784.94705     -1389.495 5        30.068    24708319.005 6  99490166.55906     -1425.789 6        41.311
E36        19.000    26663317.611 3                       712.471 3        21.762                                                                    26663303.247 5 104632569.51105       532.300 5        30.332
R22        22.000    21672170.650 7 115687626.30807     -2544.500 7        45.505
S36        23.000    38378051.323 5 201677953.57005      -840.063 5        35.038
S23        24.000    38316992.215 5 201357140.07705      -844.248 5        34.395
R04        25.000    21369840.107 6 114434461.76806     -1913.208 6        41.509                                                                    21369842.356 5  89004639.30505     -1488.014 5        34.390
E29        26.000    26649888.927 7 140046156.63407       935.716 7        44.393                                                                    26649904.349 7 104580035.35707       698.810 7        43.600    26649901.097 7 107308121.44307       717.000 7        42.925
R13        29.000    19863459.475 7 106069757.35407     -1868.132 7        44.628
C10        32.000                                                                                                                                    39368972.090 5 205004522.53005     -1521.005 5        30.619    39368962.923 6 158522476.89706     -1176.188 6        37.750    39368960.844 5 166582909.10505     -1236.233 5        33.946
R03        33.000    22640635.939 5                     -4778.726 5        30.166                                                                    22640676.172 5  94264575.11605     -3716.766 5        34.495
C24        34.000                                                                                                                                    21500761.988 8 111960309.66108      -494.225 8        52.333                                                                    21500762.258 7  90976811.78507      -401.524 7        46.132
R14        35.000    21077086.271 6 112352843.58706      1648.278 6        39.688                                                                    21077097.322 6  87385590.61606      1282.055 6        39.453
R23        36.000    20751981.253 7 111009105.63307      1188.951 7        43.549
C26        37.000                                                                                                                                    23551286.701 6 122637816.25206     -2990.458 6        40.875                                                                    23551288.973 6  99653214.43106     -2429.822 6        38.550
S21        38.000    38606012.798 5 202875933.62805      -839.330 5        34.157
C44        39.000                                                                                                                                    22952984.607 7 119522319.74807      1336.724 7        42.988                                                                    22952989.983 6  97121686.49906      1086.230 6        40.448
C35        40.000                                                                                                                                    23254519.178 8 121092366.33208     -1437.355 8        50.249                                                                    23254522.049 7  98397624.17007     -1167.860 7        44.980
R05        42.000                                                                                                                                    23018700.997 5  95704075.84615      1240.419 5        33.078
C12        43.000                                                                                                                                    24589635.574 5 128044726.76705      2384.639 5        30.528    24589651.355 6  99012366.82806      1843.995 6        37.508    24589647.487 6 104046899.97706      1937.827 6        40.622
C40        44.000                                                                                                                                    40861105.009 3                     -2040.489 3        23.657
C33        46.000                                                                                                                                    25751514.519 5 134094871.82305     -3465.407 5        34.833                                                                    25751535.438 4 108963152.75304     -2815.987 4        29.877
C14        48.000                                                                                                                                                                                                    26555968.451 5                     -3049.321 5        32.180
C41        50.000                                                                                                                                    25572957.902 5 133165123.16115     -1296.141 5        34.086                                                                    25572971.672 3                     -1052.910 3        21.714
C07        53.000                                                                                                                                    40338330.958 4                     -1767.502 4        25.338    40338333.290 5                     -1365.982 5        30.913
I06        58.000    38618276.391 6 151546366.78706      -734.262 6        39.231
I02        60.000    37152034.518 6 145792563.73206      -778.289 6        41.194
> 2025 01 01 12 45 30.0000000  0 38
G19         1.000    22445321.106 6 117950990.34406     -3347.427 6        39.465                                    22445314.771 1  91909869.86101     -2608.375 1         8.286
G06         2.000    23365983.523 5 122789008.54505       523.537 5        30.679                                    23365982.325 1  95679787.09301       408.008 1         8.762    23365982.026 3                       407.945 3        20.857
G25         3.000    21811076.913 7 114618028.82507      1815.659 7        44.376                                    21811084.220 5  89312693.91305      1414.792 5        34.205    21811084.058 6  89312850.91406      1414.835 6        36.030
G17         5.000    25481994.078 3                     -4262.856 3        22.609
G12         7.000    20356451.183 7 106973877.95807      -424.942 7        46.791                                    20356453.147 5  83356284.37305      -331.127 5        35.433    20356451.417 6  83356297.41806      -331.006 6        36.522
E30         9.000    23934415.118 7 125776230.08407      -174.715 7        42.783                                                                    23934422.274 8  93923832.48208      -130.471 8        50.293    23934420.402 7  96374023.52907      -133.898 7        47.717
G32        11.000    23410225.509 7 123021588.78207       777.210 7        46.555                                    23410238.478 6  95861023.94906       605.613 6        40.327    23410233.583 6  95861040.97406       605.612 6        40.953
E02        13.000    24589068.903 6 129216421.34506     -2537.965 6        41.509                                                                    24589075.738 6  96492863.34306     -1895.126 6        40.124    24589076.530 7  99010074.92607     -1944.676 7        44.200
E27        15.000    27068258.288 4 142244611.82104      1497.947 4        27.353                                                                    27068265.899 6 106221723.56706      1118.552 6        36.117    27068263.085 5 108992760.75805      1147.651 5        30.332
G24        16.000    20997980.524 8 110345126.71608     -2947.943 8        48.612                                    20997984.865 8  85983254.28608     -2297.099 8        49.363    20997985.823 7  85983211.28507     -2297.164 7        44.646
E08        17.000    26590012.043 6 139731444.78906     -3912.298 6        36.745                                                                    26590023.545 6 104344916.79606     -2921.515 6        37.917    26590022.889 6 107066879.97606     -2997.633 6        40.777
E07        18.000    24710083.526 6 129852426.43006     -1863.147 6        37.380                                                                    24710088.156 4  96967737.41104     -1390.782 4        28.588    24710090.641 6  99497300.34906     -1427.477 6        40.348
E36        19.000    26662631.517 3                       711.341 3        21.619                                                                    26662625.660 4 104629910.62504       531.557 4        28.313
R22        22.000    21674555.100 7 115700360.36907     -2548.813 7        45.013
S36        23.000    38378851.077 5 201682154.71705      -840.137 5        35.162
S23        24.000    38317796.495 5 201361362.44505      -844.391 5        34.743
R04        25.000    21371623.618 6 114444040.57806     -1917.871 6        41.661                                                                    21371631.080 6  89012089.52406     -1491.608 6        36.450
E29        26.000    26648999.864 7 140041484.05207       933.585 7        43.873                                                                    26649015.325 7 104576546.13207       697.236 7        43.289    26649011.851 7 107304541.18907       715.344 7        42.643
R13        29.000    19865209.683 7 106079103.89807     -1870.231 7        44.737
R12        31.000                                                                                                                                    22680801.372 4                     -3041.869 4        28.891
C10        32.000                                                                                                                                    39370432.154 5 205012129.45805     -1521.158 5        30.891    39370424.178 6 158528359.06806     -1176.422 6        37.607    39370421.727 5 166589090.30305     -1235.861 5        34.124
R03        33.000    22645103.135 5                     -4780.568 5        33.437                                                                    22645138.448 5  94283162.66705     -3718.136 5        32.988
