     3.04           OBSERVATION DATA    M                   RINEX VERSION / TYPE
ssrcrin-15.6.1x                         20250101 103000 UTC PGM / RUN BY / DATE 
(00000000023479385599111004) Septentrio proprietary         COMMENT             
ract                                                        MARKER NAME         
01                                                          MARKER NUMBER       
geodetic                                                    MARKER TYPE         
NFB                 CLIMERS@TUW                             OBSERVER / AGENCY   
3296359             SEPT ASTERX SB3 PROB4.14.4              REC # / TYPE / VERS 
Unknown             Unknown                                 ANT # / TYPE        
  4127448.0157  1206914.7777  4695544.1680                  APPROX POSITION XYZ 
        0.0000        0.0000        0.0000                  ANTENNA: DELTA H/E/N
G   23 X1  C1C L1C D1C S1C C1W S1W C2W L2W D2W S2W C2L L2L  SYS / # / OBS TYPES 
       D2L S2L C5Q L5Q D5Q S5Q C1L L1L D1L S1L              SYS / # / OBS TYPES 
E   21 X1  C1C L1C D1C S1C C6C L6C D6C S6C C5Q L5Q D5Q S5Q  SYS / # / OBS TYPES 
       C7Q L7Q D7Q S7Q C8Q L8Q D8Q S8Q                      SYS / # / OBS TYPES 
S    9 X1  C1C L1C D1C S1C C5I L5I D5I S5I                  SYS / # / OBS TYPES 
R   17 X1  C1C L1C D1C S1C C2P L2P D2P S2P C2C L2C D2C S2C  SYS / # / OBS TYPES 
       C3Q L3Q D3Q S3Q                                      SYS / # / OBS TYPES 
C   25 X1  C1P L1P D1P S1P C5P L5P D5P S5P C2I L2I D2I S2I  SYS / # / OBS TYPES 
       C7I L7I D7I S7I C6I L6I D6I S6I C7D L7D D7D S7D      SYS / # / OBS TYPES 
J   17 X1  C1C L1C D1C S1C C2L L2L D2L S2L C5Q L5Q D5Q S5Q  SYS / # / OBS TYPES 
       C1L L1L D1L S1L                                      SYS / # / OBS TYPES 
I    5 X1  C5A L5A D5A S5A                                  SYS / # / OBS TYPES 
SEPTENTRIO RECEIVERS OUTPUT ALIGNED CARRIER PHASES.         COMMENT             
NO FURTHER PHASE SHIFT APPLIED IN THE RINEX ENCODER.        COMMENT             
G L1C                                                       SYS / PHASE SHIFT   
G L2W                                                       SYS / PHASE SHIFT   
G L2L  0.00000                                              SYS / PHASE SHIFT   
G L5Q  0.00000                                              SYS / PHASE SHIFT   
G L1L  0.00000                                              SYS / PHASE SHIFT   
E L1C  0.00000                                              SYS / PHASE SHIFT   
E L6C  0.00000                                              SYS / PHASE SHIFT   
E L5Q  0.00000                                              SYS / PHASE SHIFT   
E L7Q  0.00000                                              SYS / PHASE SHIFT   
E L8Q  0.00000                                              SYS / PHASE SHIFT   
S L1C                                                       SYS / PHASE SHIFT   
S L5I                                                       SYS / PHASE SHIFT   
R L1C                                                       SYS / PHASE SHIFT   
R L2P  0.00000                                              SYS / PHASE SHIFT   
R L2C                                                       SYS / PHASE SHIFT   
R L3Q  0.00000                                              SYS / PHASE SHIFT   
C L1P  0.00000                                              SYS / PHASE SHIFT   
C L5P  0.00000                                              SYS / PHASE SHIFT   
C L2I                                                       SYS / PHASE SHIFT   
C L7I                                                       SYS / PHASE SHIFT   
C L6I                                                       SYS / PHASE SHIFT   
C L7D                                                       SYS / PHASE SHIFT   
J L1C                                                       SYS / PHASE SHIFT   
J L2L  0.00000                                              SYS / PHASE SHIFT   
J L5Q  0.00000                                              SYS / PHASE SHIFT   
J L1L  0.00000                                              SYS / PHASE SHIFT   
I L5A                                                       SYS / PHASE SHIFT   
  2025     1     1    10    30    0.0000000     GPS         TIME OF FIRST OBS   
 C1C    0.000 C2C    0.000 C2P    0.000                     GLONASS COD/PHS/BIS 
DBHZ                                                        SIGNAL STRENGTH UNIT
    18                                                      LEAP SECONDS        
 24 R01  1 R02 -4 R03  5 R04  6 R05  1 R06 -4 R07  5 R08  6 GLONASS SLOT / FRQ #
    R09 -2 R10 -7 R11  0 R12 -1 R13 -2 R14 -7 R15  0 R16 -1 GLONASS SLOT / FRQ #
    R17  4 R18 -3 R19  3 R20  2 R21  4 R22 -3 R23  3 R24  2 GLONASS SLOT / FRQ #
                                                            END OF HEADER       
> 2025 01 01 10 30  0.0000000  0 33
G13         2.000    21548311.500 6 113237310.72506     -3755.611 6        40.858                                    21548320.425 2  88236760.86402     -2926.447 2        17.736
G14         4.000    22771385.683 7 119664404.21507     -3797.563 7        42.800                                    22771387.619 3  93244959.93803     -2959.132 3        20.667    22771390.536 5  93244980.89405     -2959.235 5        35.962
G17         5.000    22064008.419 6 115947199.97506      -878.452 6        41.318                                    22064015.156 4  90348476.25004      -684.501 4        26.263    22064022.817 5  90348451.28705      -684.699 5        35.138
G15         6.000    20654433.242 6 108539789.09306     -2539.479 6        40.818                                    20654431.649 6  84576769.10206     -1978.811 6        37.841    20654433.239 7  84576445.10007     -1978.870 7        42.516
G23        10.000    23278050.819 5                     -1807.159 5        32.862
E30        11.000    26397463.012 5 138719573.22205      1760.064 5        32.048                                                                    26397482.422 5 103589352.64105      1314.482 5        31.238    26397471.814 6 106291655.52106      1348.761 6        36.295
G10        12.000    24751963.595 6 130072475.56206       639.327 6        38.958                                    24751962.439 3 101355207.97603       498.184 3        19.582    24751966.204 4 101355168.97604       498.023 4        29.090
E02        13.000    23251383.911 8 122186887.99408      -416.428 8        49.983                                                                    23251388.179 7  91243549.34207      -310.987 7        47.714    23251387.523 8  93623820.72408      -319.131 8        49.511
E25        14.000    25113151.686 5 131970518.12905     -2951.678 5        34.624                                                                    25113157.375 6  98549466.16106     -2204.203 6        37.403    25113158.416 7 101120244.37807     -2261.566 7        42.095
G24        16.000    20977691.308 7 110238647.24207      1197.992 7        44.474                                    20977679.805 2  85900247.61202       933.474 2        15.762
E08        17.000    23587041.013 7 123950734.55907     -1103.231 7        46.991                                                                    23587044.740 8  92560627.42208      -823.854 8        50.978    23587043.711 8  94975290.22908      -845.373 8        49.982
E07        18.000    25864983.538 6 135921404.04106      1464.043 6        38.691                                                                    25864991.712 7 101499792.63907      1093.291 7        45.815    25864990.138 7 104147613.69407      1121.800 7        44.575
S23        24.000    38215550.529 5 200824090.57105      -831.864 5        35.876
R20        26.000                                                                                                                                    23631042.752 4                     -2058.450 4        27.293
E03        27.000    25540716.467 6 134217454.14006     -3482.095 6        40.946                                                                    25540728.294 7 100227292.15307     -2600.163 7        43.103    25540722.069 5 102841792.59605     -2667.969 5        33.677
R11        28.000    22655912.911 5 121066248.26505     -4265.875 5        32.012                                                                    22655913.328 5  94162716.72005     -3318.378 5        34.281
R13        29.000    20798055.788 5 111060483.45005      1511.795 5        35.067
R12        31.000    19436253.790 7 103824998.55607     -1490.119 7        44.886                                                                    19436258.414 6  80752782.82606     -1158.908 6        37.909
C10        32.000                                                                                                                                    38565000.905 6 200818078.77606      -912.350 6        37.936    38565006.295 7 155285318.99107      -705.489 7        47.082    38565001.448 6 163181148.27506      -741.439 6        39.598
R03        33.000    20841489.423 8 111566160.44108      1479.871 8        49.180                                                                    20841491.368 6  86773703.38106      1150.984 6        38.655
C24        34.000                                                                                                                                    23655951.869 6 123182983.22506      1538.818 6        40.555                                                                    23655956.858 7 100096107.20607      1250.335 7        43.179
C26        37.000                                                                                                                                    21715368.314 8 113077712.11508      -768.112 8        48.808                                                                    21715370.816 7  91884932.11007      -624.180 7        46.556
C29        39.000                                                                                                                                    24714709.066 5                      -136.827 5        31.502                                                                    24714728.613 4                      -110.981 4        29.223
C42        41.000                                                                                                                                    23209835.770 7 120860168.12507     -2573.907 7        47.460                                                                    23209845.177 6  98208438.73506     -2091.467 6        40.439
R02        43.000    19907821.659 7 106231927.17107     -2839.259 7        47.657                                                                    19907825.469 6  82624824.19206     -2208.355 6        39.327
C40        44.000                                                                                                                                    39153025.478 5 203880054.56505     -1490.491 5        34.071                                                                    39153033.427 5 165669299.11205     -1211.275 5        30.249
C33        46.000                                                                                                                                    24389888.297 7 127004673.02907       592.553 7        46.695                                                                    24389904.757 7 103201620.18807       481.591 7        44.752
C21        47.000                                                                                                                                    25685004.683 6 133748476.90006     -4315.742 6        37.350
C14        48.000                                                                                                                                    23272814.367 7 121187645.40707      -968.842 7        42.142    23272822.153 7  93710153.19907      -749.154 7        42.379    23272812.823 5  98474892.34105      -787.206 5        32.629
C45        49.000                                                                                                                                    24045522.028 7 125211197.33907     -3276.246 7        45.901                                                                    24045522.202 6 101744500.27206     -2662.249 6        40.203
C07        53.000                                                                                                                                    39041095.986 4                     -1287.143 4        24.541    39041125.237 6 157202525.97906      -995.603 6        36.004
I02        56.000    37045393.725 7 145374102.36007      -453.448 7        42.023
I06        57.000    38295907.056 6 150281379.59706      -724.283 6        39.778
> 2025 01 01 10 30  5.0000000  0 36
G19         1.000    22217364.956 4                      1545.524 4        29.346
G13         2.000    21551885.974 6 113256094.14506     -3757.828 6        40.379                                    21551894.727 2  88251397.27902     -2928.192 2        16.000
G14         4.000    22775000.198 7 119683395.87007     -3798.925 7        42.299                                    22775002.268 3  93259758.58703     -2960.190 3        20.333    22775004.565 5  93259779.54705     -2960.408 5        35.952
G17         5.000    22064846.009 6 115951600.89406      -881.748 6        40.834                                    22064853.527 4  90351905.53004      -687.066 4        24.872    22064868.405 5  90351880.55905      -687.246 5        33.437
G15         6.000    20656851.751 7 108552495.24607     -2542.951 7        42.265                                    20656849.526 6  84586669.99506     -1981.513 6        38.402    20656851.455 7  84586345.98107     -1981.507 7        42.593
G23        10.000    23279769.652 5 122336018.80515     -1809.803 5        32.126
E30        11.000    26395789.897 4 138710775.78604      1759.512 4        29.261                                                                    26395813.188 5 103582783.10905      1313.771 5        30.951    26395797.639 6 106284914.73906      1347.599 6        36.405
G10        12.000    24751358.074 6 130069286.45906       636.271 6        38.673                                    24751355.269 3 101352722.93603       495.811 3        18.627    24751359.187 4 101352683.91604       495.944 4        28.806
E02        13.000    23251781.526 8 122188975.78108      -418.541 8        49.625                                                                    23251785.383 7  91245108.40107      -312.555 7        47.900    23251784.820 8  93625420.45508      -320.754 8        49.702
E25        14.000    25115959.375 5 131985278.99305     -2952.653 5        35.271                                                                    25115965.761 6  98560488.83706     -2204.908 6        36.968    25115966.663 7 101131554.63207     -2262.523 7        42.392
G24        16.000    20976552.246 7 110232662.64807      1195.824 7        42.226                                    20976542.184 2  85895584.27902       931.795 2        17.019
E08        17.000    23588091.823 7 123956256.71407     -1105.643 7        47.248                                                                    23588095.649 8  92564751.09808      -825.639 8        50.980    23588094.511 8  94979521.48008      -847.157 8        50.201
E07        18.000    25863590.594 6 135914087.52406      1462.781 6        38.676                                                                    25863599.154 7 101494329.00507      1092.186 7        45.559    25863597.443 7 104142007.52407      1120.648 7        44.826
S23        24.000    38216341.004 5 200828250.80305      -832.134 5        35.600
R20        26.000                                                                                                                                    23633511.392 4                     -2061.559 4        27.976
E03        27.000    25544030.126 6 134234867.92506     -3483.425 6        39.619                                                                    25544042.341 7 100240295.94007     -2601.340 7        43.465    25544033.257 5 102855135.57605     -2668.900 5        33.515
R11        28.000                                                                                                                                    22659907.478 5  94179309.09605     -3318.475 5        32.737
R13        29.000    20796642.572 6 111052930.28806      1509.551 6        37.255
R21        30.000    22568942.891 5                       626.603 5        32.096                                                                    22568944.007 4                       486.818 4        25.654
R12        31.000    19437649.621 7 103832455.82507     -1492.738 7        44.847                                                                    19437655.113 6  80758582.93806     -1161.122 6        38.033
C10        32.000                                                                                                                                    38565877.353 6 200822642.73906      -913.383 6        37.607    38565882.698 7 155288848.12007      -706.167 7        46.996    38565877.949 6 163184856.85306      -742.188 6        39.730
R03        33.000    20840108.963 8 111558771.29708      1475.839 8        49.532                                                                    20840111.076 6  86767956.30506      1147.834 6        38.841
C24        34.000                                                                                                                                    23654473.648 6 123175292.78206      1537.470 6        40.100                                                                    23654479.627 7 100089858.08707      1249.319 7        42.739
C26        37.000                                                                                                                                    21716107.058 8 113081557.23808      -769.911 8        48.898                                                                    21716109.190 7  91888056.57907      -625.588 7        46.632
R01        38.000    22966477.500 4 122768971.60714     -5392.834 4        27.808
C29        39.000                                                                                                                                    24714841.386 5                      -139.387 5        30.921                                                                    24714862.154 4                      -113.289 4        29.820
C42        41.000                                                                                                                                    23212307.880 7 120873044.74107     -2576.657 7        47.735                                                                    23212318.546 6  98218902.02306     -2093.700 6        41.390
R02        43.000    19910482.687 7 106246134.66307     -2843.652 7        47.212                                                                    19910489.624 6  82635874.44506     -2211.680 6        37.981
C40        44.000                                                                                                                                    39154456.268 5 203887508.03805     -1491.264 5        33.832                                                                    39154466.170 4 165675355.65304     -1211.976 4        29.422
C33        46.000                                                                                                                                    24389320.690 7 127001717.49707       589.760 7        46.752                                                                    24389337.013 7 103199218.59307       479.128 7        44.421
C21        47.000                                                                                                                                    25689151.205 6 133770057.22706     -4316.402 6        37.062                                                                    25689169.233 5 108699147.66015     -3507.389 5        30.483
C14        48.000                                                                                                                                    23273746.069 7 121192497.74707      -971.967 7        42.286    23273750.871 6  93713905.37206      -751.666 6        41.416    23273741.438 4  98478835.30804      -789.760 4        29.687
C45        49.000                                                                                                                                    24048668.527 7 125227580.81307     -3277.146 7        45.648                                                                    24048668.835 6 101757813.16606     -2662.879 6        40.927
C07        53.000                                                                                                                                    39042339.187 4                     -1287.978 4        25.729    39042361.064 6 157207504.58706      -996.057 6        36.042
I02        56.000    37045971.433 6 145376370.77806      -453.936 6        41.936
I06        57.000    38296829.336 6 150285001.76806      -724.490 6        39.646
> 2025 01 01 10 30 10.0000000  0 35
G13         2.000    21555461.830 6 113274887.58806     -3759.705 6        40.477                                    21555471.149 2  88266041.50402     -2929.625 2        14.286
G14         4.000    22778614.677 7 119702392.69807     -3799.927 7        42.070                                    22778617.794 3  93274561.23603     -2960.975 3        20.238    22778619.450 5  93274582.23005     -2960.841 5        35.995
G17         5.000    22065688.461 6 115956017.77606      -885.069 6        41.240                                    22065694.076 3  90355347.22703      -689.671 3        22.800    22065711.963 5  90355322.21105      -689.837 5        31.064
G15         6.000    20659271.842 7 108565217.34507     -2546.099 7        42.817                                    20659270.615 6  84596583.30706     -1983.972 6        39.453    20659272.628 7  84596259.29607     -1983.923 7        42.984
G12         7.000    23565720.296 5 123838708.24915      2701.010 5        32.605
G23        10.000    23281496.480 6 122345076.30806     -1813.014 6        36.783                                    23281497.195 1  95333833.92811     -1412.669 1         8.000    23281511.600 5  95334048.91515     -1412.565 5        33.671
E30        11.000    26394113.752 4 138701983.03404      1757.938 4        25.233                                                                    26394144.512 5 103576217.15305      1312.838 5        30.898    26394124.570 6 106278177.52206      1347.259 6        36.318
G10        12.000    24750756.189 6 130066111.71106       633.632 6        38.832                                    24750750.871 2 101350249.08502       493.734 2        17.623    24750752.516 4 101350210.04904       493.487 4        27.353
E02        13.000    23252181.050 8 122191072.68308      -420.279 8        49.738                                                                    23252184.398 8  91246674.27708      -313.883 8        48.114    23252183.802 8  93627027.16808      -322.044 8        49.766
E25        14.000    25118768.867 5 132000044.68905     -2953.532 5        35.914                                                                    25118775.596 6  98571515.10906     -2205.645 6        36.605    25118775.880 7 101142868.56807     -2263.180 7        42.641
G24        16.000    20975415.706 6 110226687.55306      1193.970 6        40.646                                    20975406.866 2  85890928.33902       930.376 2        17.698    20975411.789 4                       930.201 4        27.748
E08        17.000    23589144.547 7 123961789.59807     -1107.678 7        47.744                                                                    23589148.552 8  92568882.79308      -827.113 8        51.089    23589147.404 8  94983760.96308      -848.774 8        50.249
E07        18.000    25862198.936 6 135906776.74706      1461.518 6        39.063                                                                    25862207.826 7 101488869.65107      1091.465 7        45.252    25862206.151 7 104136405.76007      1119.790 7        44.974
S23        24.000    38217131.936 5 200832411.02705      -832.153 5        35.595
E03        27.000    25547344.764 6 134252287.53806     -3484.629 6        38.790                                                                    25547357.224 7 100253304.07107     -2602.122 7        43.670    25547348.659 5 102868483.03205     -2669.832 5        34.024
R11        28.000    22663922.646 5 121108916.37005     -4267.117 5        35.624                                                                    22663900.559 5  94195902.82105     -3319.446 5        31.042
R13        29.000    20795229.677 6 111045386.80706      1507.682 6        37.505
R21        30.000                                                                                                                                    22568346.759 3                       483.712 3        22.133
R12        31.000    19439048.528 7 103839925.08407     -1495.043 7        45.527                                                                    19439052.500 6  80764392.33506     -1162.568 6        38.051
C10        32.000                                                                                                                                    38566754.958 6 200827209.60406      -913.678 6        37.350    38566759.787 7 155292379.51907      -706.537 7        47.115    38566754.849 6 163188567.77806      -742.463 6        40.019
R03        33.000    20838732.015 8 111551401.02808      1472.077 8        49.837                                                                    20838735.328 6  86762223.88806      1144.899 6        39.676
C24        34.000                                                                                                                                    23652998.155 6 123167606.86606      1536.804 6        40.820                                                                    23653003.569 7 100083612.63907      1248.835 7        42.571
C26        37.000                                                                                                                                    21716847.466 8 113085410.28208      -771.467 8        49.178                                                                    21716849.004 7  91891187.46507      -626.781 7        46.607
R01        38.000    22971523.422 5 122795939.10105     -5393.499 5        30.966
C29        39.000                                                                                                                                    24714976.219 5                      -142.215 5        30.211                                                                    24714998.386 4                      -115.652 4        29.886
C42        41.000                                                                                                                                    23214782.997 8 120885933.67408     -2579.035 8        48.480                                                                    23214794.349 7  98229375.30807     -2095.678 7        42.373
R02        43.000    19913148.784 7 106260362.93507     -2847.740 7        47.726                                                                    19913156.946 6  82646940.89706     -2214.858 6        36.696
C40        44.000                                                                                                                                    39155889.595 5 203894964.93005     -1491.798 5        33.725                                                                    39155900.090 5 165681414.97505     -1212.011 5        30.023
C33        46.000                                                                                                                                    24388755.885 7 126998775.10907       587.115 7        47.237                                                                    24388772.070 7 103196827.63907       477.128 7        44.274
C21        47.000                                                                                                                                    25693297.772 6 133791639.49006     -4316.766 6        36.344                                                                    25693313.340 5 108716684.98905     -3507.673 5        30.423
C14        48.000                                                                                                                                    23274681.430 7 121197364.82207      -974.955 7        42.889    23274682.667 6  93717668.90406      -753.794 6        40.698    23274671.297 4  98482790.19004      -792.376 4        26.383
C45        49.000                                                                                                                                    24051815.188 7 125243967.39007     -3277.677 7        45.403                                                                    24051815.959 6 101771128.57506     -2663.366 6        41.757
C07        53.000                                                                                                                                    39043582.906 4                     -1288.564 4        26.228    39043597.615 6 157212485.33106      -996.366 6        36.382
I02        56.000    37046550.514 7 145378640.52607      -453.888 7        42.015
I06        57.000    38297752.622 6 150288623.97306      -724.531 6        39.814
> 2025 01 01 10 30 15.0000000  0 35
G13         2.000    21559040.105 6 113293690.98206     -3761.828 6        39.081                                    21559049.180 2  88280693.52602     -2931.253 2        12.485
G14         4.000    22782230.559 6 119721394.66106     -3800.930 6        41.695                                    22782234.389 3  93289367.91703     -2961.779 3        19.642    22782234.945 6  93289388.88406     -2961.656 6        36.053
G17         5.000    22066532.666 6 115960450.54306      -888.217 6        41.752                                    22066537.142 3  90358801.26103      -692.094 3        21.119    22066552.591 4  90358776.18304      -691.765 4        29.223
G15         6.000    20661695.496 7 108577955.30607     -2549.327 7        44.132                                    20661694.834 6  84606508.97806     -1986.487 6        40.501    20661696.910 7  84606184.97007     -1986.490 7        43.321
G12         7.000                                                                                                                                                                    23563150.266 5  96487161.59715      2104.226 5        33.192
G23        10.000    23283222.816 6 122354149.10106     -1816.187 6        40.765                                    23283225.898 1  95340903.61801     -1415.163 1         8.381    23283242.272 5  95341118.57605     -1415.135 5        33.084
E30        11.000    26392435.619 4 138693195.11404      1757.492 4        25.474                                                                    26392467.856 5 103569654.71305      1311.936 5        30.800    26392452.343 5 106271443.88305      1346.270 5        35.681
G10        12.000    24750155.500 6 130062951.21306       630.694 6        36.779                                    24750149.178 2 101347786.29102       491.458 2        16.566    24750152.031 4 101347747.31104       491.706 4        25.098
E02        13.000    23252581.692 8 122193178.62708      -422.265 8        49.914                                                                    23252585.008 8  91248246.88908      -315.259 8        48.209    23252584.500 8  93628640.80908      -323.508 8        49.832
E25        14.000    25121579.184 6 132014815.09906     -2954.661 6        36.174                                                                    25121586.150 6  98582544.90306     -2206.407 6        36.703    25121586.323 7 101154186.12607     -2263.933 7        42.633
G24        16.000    20974280.968 6 110220721.86806      1192.133 6        38.883                                    20974273.918 3  85886279.73603       928.956 3        18.746
E08        17.000    23590199.516 8 123967333.15508     -1109.852 8        48.053                                                                    23590203.524 8  92573022.45708      -828.815 8        51.116    23590202.250 8  94988008.61808      -850.424 8        50.162
E07        18.000    25860808.509 6 135899471.61706      1460.385 6        39.225                                                                    25860817.651 7 101483414.53207      1090.554 7        45.053    25860815.955 7 104130808.32407      1119.000 7        44.883
S23        24.000    38217925.747 5 200836571.13305      -832.239 5        35.857
E03        27.000    25550661.075 6 134269712.89006     -3485.800 6        37.792                                                                    25550672.996 7 100266316.48407     -2602.998 7        43.340    25550665.870 5 102881834.90105     -2670.726 5        34.852
R11        28.000    22667920.170 5 121130252.75205     -4267.603 5        35.833                                                                    22667899.522 5  94212497.77405     -3319.057 5        31.675
R13        29.000    20793817.174 6 111037853.02406      1505.737 6        38.012
R21        30.000                                                                                                                                    22567760.270 3                       481.328 3        23.295
R12        31.000    19440450.013 7 103847406.24907     -1497.453 7        46.067                                                                    19440452.976 6  80770211.02906     -1164.831 6        36.975
C10        32.000                                                                                                                                    38567631.402 6 200831779.35606      -914.328 6        36.866    38567637.329 7 155295913.14607      -706.984 7        46.980    38567632.535 6 163192281.10806      -743.142 6        40.007
R03        33.000    20837358.092 8 111544049.53508      1468.358 8        49.672                                                                    20837363.388 6  86756506.07706      1141.967 6        41.745
C24        34.000                                                                                                                                    23651525.373 6 123159925.43106      1535.700 6        41.414                                                                    23651528.316 7 100077370.89207      1247.847 7        42.256
C26        37.000                                                                                                                                    21717588.762 8 113089271.16508      -773.088 8        49.475                                                                    21717590.273 7  91894324.77407      -628.184 7        46.557
R01        38.000    22976572.515 5 122822910.70105     -5394.590 5        32.449
C29        39.000                                                                                                                                    24715115.429 5                      -144.755 5        30.249                                                                    24715138.773 5                      -117.856 5        30.589
C42        41.000                                                                                                                                    23217260.791 8 120898834.87308     -2581.639 8        48.946                                                                    23217272.281 7  98239858.58507     -2097.835 7        43.253
R02        43.000    19915819.608 7 106274611.79907     -2851.938 7        47.633                                                                    19915827.889 5  82658023.31905     -2218.197 5        35.467
C40        44.000                                                                                                                                    39157323.290 5 203902425.13605     -1492.595 5        34.324                                                                    39157336.072 4 165687477.05004     -1212.942 4        28.986
C33        46.000                                                                                                                                    24388193.397 7 126995845.80207       584.391 7        47.423                                                                    24388209.791 7 103194447.36007       474.924 7        44.090
C21        47.000                                                                                                                                    25697442.997 5 133813223.60405     -4317.125 5        35.690                                                                    25697458.315 5 108734223.88205     -3508.379 5        30.672
C14        48.000                                                                                                                                    23275620.195 7 121202246.51007      -977.908 7        43.536    23275620.380 6  93721443.74506      -756.120 6        40.131    23275605.182 4  98486757.04104      -795.135 4        25.714
C45        49.000                                                                                                                                    24054962.341 7 125260356.98607     -3278.396 7        45.037                                                                    24054963.648 7 101784446.45907     -2663.922 7        42.478
C07        53.000                                                                                                                                    39044817.825 4                     -1289.291 4        28.095    39044834.153 6 157217468.08706      -996.909 6        36.378
I02        56.000    37047128.704 7 145380911.26907      -454.286 7        42.191
I06        57.000    38298675.145 6 150292246.16106      -724.497 6        39.715
> 2025 01 01 10 30 20.0000000  0 35
G13         2.000    21562620.478 6 113312504.42206     -3763.762 6        38.730                                    21562629.157 1  88295353.44901     -2932.786 1        11.185
G14         4.000    22785847.154 6 119740401.88806     -3801.991 6        40.827                                    22785852.008 3  93304178.70303     -2962.586 3        18.269    22785851.767 6  93304199.67806     -2962.499 6        36.344
G17         5.000    22067379.471 7 115964899.34107      -891.318 7        42.406                                    22067384.184 3  90362267.78903      -694.523 3        22.133    22067395.753 5  90362242.76505      -694.322 5        30.226
G15         6.000    20664123.154 7 108590709.36007     -2552.390 7        45.238                                    20664122.249 6  84616447.18906     -1988.873 6        41.728    20664123.738 7  84616123.16907     -1988.829 7        43.865
G12         7.000    23560565.245 5 123811706.40005      2699.072 5        34.186                                    23560585.316 2  96476667.54712      2103.169 2        14.381    23560582.641 5  96476643.62505      2103.242 5        31.509
G23        10.000    23284951.978 6 122363237.35906     -1819.213 6        41.866                                    23284956.532 1  95347985.34401     -1417.571 1        10.074    23284971.098 5  95348200.30805     -1417.836 5        31.698
E30        11.000    26390765.942 4 138684411.97204      1756.085 4        27.222                                                                    26390793.028 5 103563095.79805      1311.610 5        30.536    26390780.439 5 106264713.91305      1345.548 5        34.438
G10        12.000    24749552.612 5 130059805.07405       627.716 5        34.352                                    24749550.312 2 101345334.78902       489.138 2        16.189    24749555.512 4 101345295.76904       489.607 4        24.556
E02        13.000    23252984.183 8 122195293.75908      -423.919 8        49.751                                                                    23252987.471 8  91249826.37708      -316.563 8        48.219    23252986.986 8  93630261.49008      -324.782 8        49.741
E25        14.000    25124391.237 6 132029590.39206     -2955.464 6        36.011                                                                    25124398.081 6  98593578.34206     -2207.011 6        36.696    25124398.060 7 101165507.41607     -2264.601 7        42.555
G24        16.000    20973146.086 6 110214765.74406      1190.289 6        39.225                                    20973143.943 3  85881638.59403       927.505 3        20.643    20973161.548 5                       927.513 5        32.365
E08        17.000    23591256.373 7 123972887.52707     -1111.915 7        47.944                                                                    23591260.603 8  92577170.18608      -830.299 8        51.250    23591259.157 8  94992264.55108      -851.982 8        50.023
E07        18.000    25859419.319 6 135892172.33106      1459.206 6        38.964                                                                    25859428.650 7 101477963.78607      1089.707 7        44.865    25859426.858 7 104125215.37207      1118.241 7        44.567
S23        24.000    38218716.473 5 200840731.23005      -831.987 5        35.405
R20        26.000                                                                                                                                    23640915.321 5                     -2070.734 5        33.054
E03        27.000    25553978.722 6 134287144.14306     -3486.941 6        37.524                                                                    25553989.779 7 100279333.30107     -2603.777 7        42.758    25553984.475 5 102895191.27605     -2671.680 5        35.495
R13        29.000    20792408.249 6 111030328.98106      1504.020 6        39.081
R21        30.000    22567164.732 5                       614.535 5        35.024
R12        31.000    19441852.979 7 103854899.39407     -1499.863 7        45.958                                                                    19441856.575 5  80776039.00305     -1166.391 5        35.633
C10        32.000                                                                                                                                    38568509.417 6 200836352.12106      -914.872 6        36.650    38568515.554 7 155299449.09307      -707.404 7        47.019    38568510.692 6 163195996.83706      -743.506 6        40.153
R03        33.000    20835988.283 8 111536716.58208      1464.690 8        49.374                                                                    20835993.240 7  86750802.66707      1139.136 7        42.336
C24        34.000                                                                                                                                    23650053.274 7 123152248.63807      1534.965 7        42.275                                                                    23650054.063 6 100071132.89006      1247.201 6        41.847
C26        37.000                                                                                                                                    21718331.308 8 113093140.06808      -774.561 8        49.764                                                                    21718333.099 7  91897468.56807      -629.442 7        46.343
R01        38.000    22981622.431 5 122849886.52705     -5395.502 5        33.946
C29        39.000                                                                                                                                    24715259.568 5                      -147.438 5        30.015                                                                    24715279.687 5                      -119.846 5        31.517
C42        41.000                                                                                                                                    23219740.629 8 120911748.47408     -2583.996 8        49.047                                                                    23219752.373 7  98250351.92607     -2099.728 7        44.108
R02        43.000    19918492.506 7 106288881.59407     -2855.948 7        46.085                                                                    19918503.876 5  82669122.12305     -2221.641 5        32.210
C40        44.000                                                                                                                                    39158755.973 5 203909888.77405     -1492.824 5        34.238                                                                    39158776.712 4 165693541.94304     -1213.522 4        29.185
C33        46.000                                                                                                                                    24387633.361 7 126992929.75407       581.855 7        47.558                                                                    24387650.074 7 103192077.82307       472.840 7        44.026
C21        47.000                                                                                                                                    25701589.994 5 133834809.70905     -4317.035 5        34.633                                                                    25701605.730 5 108751764.32805     -3508.275 5        30.189
C14        48.000                                                                                                                                    23276561.718 7 121207142.99607      -980.787 7        43.769    23276562.521 6  93725230.00806      -758.385 6        40.868    23276548.321 4  98490735.76904      -797.344 4        24.586
C45        49.000                                                                                                                                    24058110.173 7 125276749.74407     -3278.941 7        45.001                                                                    24058111.767 7 101797766.89807     -2664.494 7        42.961
C07        53.000                                                                                                                                    39046054.282 4                     -1289.418 4        28.427    39046069.667 6 157222453.00206      -997.179 6        36.439
I02        56.000    37047707.983 7 145383183.06707      -454.548 7        42.373
I06        57.000    38299598.673 6 150295868.43006      -724.389 6        39.904
> 2025 01 01 10 30 25.0000000  0 36
G19         1.000    22211418.020 4                      1535.905 4        28.995
G13         2.000    21566203.964 6 113331327.77706     -3765.635 6        38.186                                    21566211.065 1  88310020.97601     -2934.270 1         9.238
G14         4.000    22789465.273 6 119759414.25006     -3802.890 6        39.504                                    22789470.221 2  93318993.47902     -2963.281 2        15.905    22789469.640 6  93319014.46306     -2963.208 6        36.522
G17         5.000    22068229.145 7 115969364.06607      -894.484 7        44.144                                    22068235.286 4  90365746.75604      -697.005 4        25.188    22068242.789 5  90365721.80805      -696.656 5        32.443
G15         6.000    20666553.128 7 108603479.28207     -2555.520 7        46.256                                    20666552.737 7  84626397.76407     -1991.313 7        42.658    20666553.942 7  84626073.76107     -1991.331 7        44.287
G12         7.000                                                                                                                                                                    23558019.620 4  96466129.77304      2102.428 4        28.720
G23        10.000    23286683.048 7 122372340.94907     -1822.191 7        42.104                                    23286689.482 2  95355078.98602     -1419.874 2        12.727    23286700.359 4  95355293.88504     -1420.183 4        29.801
E30        11.000    26389096.953 5 138675633.48005      1754.914 5        30.649                                                                    26389122.910 4 103556540.36904      1310.145 4        29.441    26389108.581 5 106257987.55205      1344.930 5        32.563
G10        12.000    24748951.748 5 130056673.22705       624.780 5        34.262                                    24748954.423 2 101342894.40002       486.844 2        16.340
E02        13.000    23253388.332 8 122197417.97008      -425.708 8        49.730                                                                    23253391.584 8  91251412.64008      -317.901 8        48.330    23253391.167 8  93631889.13508      -326.143 8        49.854
E25        14.000    25127203.690 6 132044370.44506     -2956.513 6        36.457                                                                    25127210.826 6  98604615.33606     -2207.728 6        37.263    25127210.787 7 101176832.36807     -2265.369 7        42.593
G24        16.000    20972014.825 6 110208819.04506      1188.478 6        40.353                                    20972016.048 3  85877004.78003       926.092 3        22.400    20972031.113 5                       925.889 5        33.617
E08        17.000    23592315.333 7 123978452.61707     -1114.090 7        47.872                                                                    23592319.698 8  92581325.93208      -831.922 8        51.381    23592317.980 8  94996528.71208      -853.686 8        50.006
E07        18.000    25858031.240 6 135884878.77906      1458.146 6        39.051                                                                    25858040.702 7 101472517.31307      1088.828 7        44.637    25858038.986 7 104119626.82207      1117.256 7        44.301
S23        24.000    38219509.390 5 200844891.31505      -832.073 5        35.362
R20        26.000                                                                                                                                    23643418.312 5  98335963.77915     -2073.911 5        34.900
E03        27.000    25557297.278 6 134304581.15906     -3487.906 6        37.641                                                                    25557307.621 6 100292354.45206     -2604.600 6        41.483    25557303.845 6 102908552.10006     -2672.434 6        36.518
R13        29.000    20791001.637 6 111022814.67106      1501.901 6        38.279
R21        30.000    22566598.683 6 120758379.06616       610.347 6        37.323
R12        31.000    19443258.174 7 103862404.45607     -1502.159 7        46.112                                                                    19443262.633 6  80781876.30206     -1168.385 6        37.142
C10        32.000                                                                                                                                    38569388.313 6 200840927.81706      -915.646 6        36.416    38569394.329 7 155302987.31807      -707.927 7        46.956    38569389.439 6 163199714.97406      -744.159 6        40.241
R03        33.000    20834622.769 8 111529402.75408      1460.963 8        49.722                                                                    20834626.245 7  86745114.13707      1136.325 7        42.453
C24        34.000                                                                                                                                    23648580.046 7 123144576.39507      1533.939 7        42.650                                                                    23648580.805 7 100064898.56607      1246.307 7        42.063
C26        37.000                                                                                                                                    21719075.525 8 113097016.85108      -776.126 8        49.762                                                                    21719077.515 7  91900618.78607      -630.992 7        46.243
R01        38.000    22986670.414 5 122876866.52505     -5396.411 5        34.048
C29        39.000                                                                                                                                    24715400.294 4                      -150.139 4        29.848                                                                    24715422.627 5                      -122.087 5        31.351
C42        41.000                                                                                                                                    23222222.330 8 120924674.35708     -2586.433 8        48.849                                                                    23222234.628 7  98260855.25307     -2101.903 7        44.587
R02        43.000    19921169.900 7 106303172.08807     -2860.222 7        46.192                                                                    19921189.725 4  82680237.12404     -2224.569 4        26.874
C40        44.000                                                                                                                                    39160191.713 5 203917355.79605     -1493.476 5        34.681                                                                    39160216.118 4 165699609.56704     -1214.419 4        28.834
C33        46.000                                                                                                                                    24387075.709 7 126990026.82907       579.268 7        47.824                                                                    24387092.961 7 103189718.97707       470.491 7        44.187
C21        47.000                                                                                                                                    25705737.938 5 133856397.73805     -4317.784 5        32.814                                                                    25705752.327 5 108769306.33205     -3508.638 5        30.158
C14        48.000                                                                                                                                    23277504.254 7 121212054.13807      -983.651 7        43.615    23277508.417 7  93729027.61907      -760.670 7        42.760    23277500.457 4  98494726.56904      -799.040 4        28.645
C45        49.000                                                                                                                                    24061258.962 7 125293145.52407     -3279.472 7        44.916                                                                    24061260.468 7 101811089.80507     -2665.047 7        43.693
C07        53.000                                                                                                                                    39047291.066 4                     -1290.232 4        29.289    39047305.994 6 157227439.98906      -997.663 6        36.151
I02        56.000    37048286.904 7 145385456.01807      -454.846 7        42.373
I06        57.000    38300522.074 6 150299490.69906      -724.607 6        39.688
> 2025 01 01 10 30 30.0000000  0 36
G13         2.000    21569791.559 6 113350161.36406     -3767.953 6        37.501                                    21569794.995 1  88324696.52201     -2936.073 1         8.476
G14         4.000    22793084.121 6 119778432.00906     -3804.440 6        37.376                                    22793089.315 2  93333812.47402     -2964.492 2        14.714    22793087.860 6  93333833.42906     -2964.381 6        36.246
G17         5.000    22069082.294 7 115973845.01507      -898.080 7        45.546                                    22069089.804 4  90369238.39804      -699.805 4        28.256    22069092.384 5  90369213.54005      -699.867 5        31.932
G15         6.000    20668985.858 7 108616265.35807     -2559.010 7        47.054                                    20668986.248 7  84636360.92607     -1994.028 7        43.213    20668986.814 7  84636036.91907     -1994.106 7        44.163
G12         7.000    23555454.325 6 123784726.34606      2696.664 6        36.015                                    23555450.865 2  96455644.18402      2101.313 2        12.303    23555452.809 4  96455620.23004      2101.801 4        24.421
G23        10.000    23288417.717 6 122381460.17906     -1825.607 6        41.807                                    23288424.892 2  95362184.86002     -1422.511 2        13.273    23288430.049 4  95362399.74304     -1422.248 4        29.972
E30        11.000    26387428.730 5 138666859.94605      1754.405 5        33.024                                                                    26387452.415 4 103549988.62304      1309.769 4        27.689    26387435.252 5 106251264.97005      1344.083 5        30.415
G10        12.000    24748360.628 5 130053555.98405       621.436 5        33.269                                    24748361.634 2 101340465.35602       484.247 2        16.302    24748375.763 5 101340426.26605       484.311 5        31.706
E02        13.000    23253794.080 8 122199551.53408      -427.922 8        49.707                                                                    23253797.532 8  91253005.88308      -319.485 8        48.253    23253797.131 8  93633523.93908      -327.857 8        49.996
E25        14.000    25130017.271 6 132059155.51106     -2958.007 6        36.862                                                                    25130024.775 6  98615656.08406     -2208.482 6        38.012    25130024.790 7 101188161.15107     -2266.281 7        43.062
G24        16.000    20970884.679 6 110202882.11506      1186.057 6        40.832                                    20970889.548 3  85872378.58603       924.191 3        22.857    20970899.473 5  85872334.59915       924.425 5        34.229
E08        17.000    23593376.629 8 123984028.69508     -1116.594 8        48.215                                                                    23593380.858 8  92585489.87908      -833.826 8        51.537    23593379.099 8  95000801.28008      -855.562 8        50.001
E07        18.000    25856644.706 6 135877591.25706      1456.608 6        39.201                                                                    25856654.149 7 101467075.32007      1087.858 7        44.457    25856652.205 7 104114042.87207      1116.092 7        44.191
S23        24.000    38220298.180 5 200849051.43905      -832.136 5        35.490
R20        26.000                                                                                                                                    23645914.933 5  98346340.31905     -2077.051 5        34.590
E03        27.000    25560616.933 6 134322024.24106     -3489.396 6        38.429                                                                    25560626.364 6 100305380.12406     -2605.716 6        39.970    25560623.739 6 102921917.57006     -2673.685 6        36.866
R11        28.000    22679860.227 5 121194271.92305     -4268.768 5        32.102                                                                    22679909.283 5  94262290.57905     -3320.427 5        35.452
R13        29.000    20789594.637 5 111015310.38605      1499.724 5        34.843
R21        30.000    22566036.711 6 120755337.59206       605.944 6        36.541
R12        31.000    19444666.880 7 103869921.67207     -1504.874 7        46.666                                                                    19444669.859 6  80787723.01806     -1170.568 6        38.300
