     3.04           OBSERVATION DATA    M                   RINEX VERSION / TYPE
ssrcrin-15.6.1x                         20250101 213000 UTC PGM / RUN BY / DATE 
(00000000023479385599111004) Septentrio proprietary         COMMENT             
ract                                                        MARKER NAME         
01                                                          MARKER NUMBER       
geodetic                                                    MARKER TYPE         
NFB                 CLIMERS@TUW                             OBSERVER / AGENCY   
3296359             SEPT ASTERX SB3 PROB4.14.4              REC # / TYPE / VERS 
Unknown             Unknown                                 ANT # / TYPE        
  4127447.5563  1206914.4561  4695543.3331                  APPROX POSITION XYZ 
        0.0000        0.0000        0.0000                  ANTENNA: DELTA H/E/N
G   23 X1  C1C L1C D1C S1C C1W S1W C2W L2W D2W S2W C2L L2L  SYS / # / OBS TYPES 
       D2L S2L C5Q L5Q D5Q S5Q C1L L1L D1L S1L              SYS / # / OBS TYPES 
E   21 X1  C1C L1C D1C S1C C6C L6C D6C S6C C5Q L5Q D5Q S5Q  SYS / # / OBS TYPES 
       C7Q L7Q D7Q S7Q C8Q L8Q D8Q S8Q                      SYS / # / OBS TYPES 
S    9 X1  C1C L1C D1C S1C C5I L5I D5I S5I                  SYS / # / OBS TYPES 
R   17 X1  C1C L1C D1C S1C C2P L2P D2P S2P C2C L2C D2C S2C  SYS / # / OBS TYPES 
       C3Q L3Q D3Q S3Q                                      SYS / # / OBS TYPES 
C   25 X1  C1P L1P D1P S1P C5P L5P D5P S5P C2I L2I D2I S2I  SYS / # / OBS TYPES 
       C7I L7I D7I S7I C6I L6I D6I S6I C7D L7D D7D S7D      SYS / # / OBS TYPES 
J   17 X1  C1C L1C D1C S1C C2L L2L D2L S2L C5Q L5Q D5Q S5Q  SYS / # / OBS TYPES 
       C1L L1L D1L S1L                                      SYS / # / OBS TYPES 
I    5 X1  C5A L5A D5A S5A                                  SYS / # / OBS TYPES 
SEPTENTRIO RECEIVERS OUTPUT ALIGNED CARRIER PHASES.         COMMENT             
NO FURTHER PHASE SHIFT APPLIED IN THE RINEX ENCODER.        COMMENT             
G L1C                                                       SYS / PHASE SHIFT   
G L2W                                                       SYS / PHASE SHIFT   
G L2L  0.00000                                              SYS / PHASE SHIFT   
G L5Q  0.00000                                              SYS / PHASE SHIFT   
G L1L  0.00000                                              SYS / PHASE SHIFT   
E L1C  0.00000                                              SYS / PHASE SHIFT   
E L6C  0.00000                                              SYS / PHASE SHIFT   
E L5Q  0.00000                                              SYS / PHASE SHIFT   
E L7Q  0.00000                                              SYS / PHASE SHIFT   
E L8Q  0.00000                                              SYS / PHASE SHIFT   
S L1C                                                       SYS / PHASE SHIFT   
S L5I                                                       SYS / PHASE SHIFT   
R L1C                                                       SYS / PHASE SHIFT   
R L2P  0.00000                                              SYS / PHASE SHIFT   
R L2C                                                       SYS / PHASE SHIFT   
R L3Q  0.00000                                              SYS / PHASE SHIFT   
C L1P  0.00000                                              SYS / PHASE SHIFT   
C L5P  0.00000                                              SYS / PHASE SHIFT   
C L2I                                                       SYS / PHASE SHIFT   
C L7I                                                       SYS / PHASE SHIFT   
C L6I                                                       SYS / PHASE SHIFT   
C L7D                                                       SYS / PHASE SHIFT   
J L1C                                                       SYS / PHASE SHIFT   
J L2L  0.00000                                              SYS / PHASE SHIFT   
J L5Q  0.00000                                              SYS / PHASE SHIFT   
J L1L  0.00000                                              SYS / PHASE SHIFT   
I L5A                                                       SYS / PHASE SHIFT   
  2025     1     1    21    30    0.0000000     GPS         TIME OF FIRST OBS   
 C1C    0.000 C2C    0.000 C2P    0.000                     GLONASS COD/PHS/BIS 
DBHZ                                                        SIGNAL STRENGTH UNIT
    18                                                      LEAP SECONDS        
 24 R01  1 R02 -4 R03  5 R04  6 R05  1 R06 -4 R07  5 R08  6 GLONASS SLOT / FRQ #
    R09 -2 R10 -7 R11  0 R12 -1 R13 -2 R14 -7 R15  0 R16 -1 GLONASS SLOT / FRQ #
    R17  4 R18 -3 R19  3 R20  2 R21  4 R22 -3 R23  3 R24  2 GLONASS SLOT / FRQ #
                                                            END OF HEADER       
> 2025 01 01 21 30  0.0000000  0 35
G10         2.000    21095510.651 8 110857628.13108     -1957.670 8        53.011                                    21095506.843 8  86382567.66808     -1525.458 8        50.678    21095507.232 7  86382588.67007     -1525.488 7        44.533
G32         3.000    23367938.271 7 122799342.82907      1788.650 7        43.162                                    23367936.418 5  95687795.88605      1393.740 5        33.251    23367938.824 6  95687836.88306      1393.743 6        36.295
G23         4.000    23364862.578 4 122783141.61704     -4030.888 4        27.042
E07         5.000    26587210.053 5                      1835.271 5        33.557                                                                    26587212.809 5                      1370.356 5        31.351    26587221.561 5                      1406.436 5        32.760
G08         6.000    20463996.239 8 107539552.77408      -460.075 8        48.459                                    20463992.929 7  83796620.62707      -358.501 7        42.362    20463994.432 6  83796648.64206      -358.518 6        40.830
G27         7.000    20933674.357 6 110007235.07806     -2859.700 6        39.489                                    20933671.078 4  85719859.21704     -2228.340 4        27.940    20933672.952 5  85719918.18805     -2228.131 5        30.189
G02         9.000    23519828.887 6 123597736.43706      1676.243 6        41.106                                    23519817.610 2  96309734.01402      1306.190 2        17.736
E08        12.000    26169171.109 6 137519902.21906      -321.382 6        39.087                                                                    26169168.750 6 102693475.22206      -240.121 6        41.046    26169166.695 6 105372409.17206      -246.438 6        36.287
E13        16.000    25129805.529 7 132058061.55307     -2655.321 7        47.127                                                                    25129809.011 6  98614807.59506     -1982.961 6        41.871    25129805.152 6 101187321.10606     -2034.513 6        40.331
E31        17.000    26257364.494 7 137983369.03407        16.267 7        45.369                                                                    26257365.587 7 103039662.00207        12.205 7        45.976    26257362.724 7 105727545.66407        12.526 7        43.645
G16        18.000    25107171.288 3                     -4604.283 3        18.925
E26        19.000    23608907.420 7 124065631.89007      -467.680 7        46.123                                                                    23608905.021 7  92646487.14307      -349.278 7        43.719    23608904.821 8  95063284.83208      -358.371 8        48.375
E21        22.000    27728335.870 3                     -4034.051 3        22.838                                                                    27728345.967 4 108811966.87004     -3012.226 4        28.559    27728345.160 4 111650599.34204     -3091.524 4        28.768
S36        23.000    38385832.380 6 201718781.17906      -854.367 6        36.556
S23        24.000    38341018.861 6 201483380.11606      -853.811 6        40.377
R20        26.000    20056857.205 5 107253061.04305       607.618 5        34.676                                                                    20056857.941 6  83419223.08706       472.270 6        37.788
R05        27.000    21139369.677 6 113002052.37606      2732.468 6        41.268                                                                    21139362.160 5  87890428.63705      2125.107 5        35.348
E33        28.000    26228530.449 6 137831851.84806      1268.458 6        41.959                                                                    26228525.209 5 102926373.96005       947.140 5        30.475    26228524.991 6 105611415.34506       972.105 6        38.631
R19        29.000    21244499.801 5                     -3224.721 5        30.619                                                                    21244493.935 6  88389571.16606     -2507.844 6        36.510
R04        31.000    20144002.329 7 107870207.18507     -1053.731 7        45.604                                                                    20144000.698 6  83899063.32206      -819.369 6        39.562
R03        32.000    22831578.460 5 122219179.54705     -4390.797 5        35.267                                                                    22831569.292 5                     -3415.261 5        31.238
C05        33.000                                                                                                                                                                                                    39361060.273 5 158490667.81805      -616.608 5        35.086
R10        35.000    23050250.675 5 122870708.59805     -4239.909 5        31.140
C33        37.000                                                                                                                                                                                                                                                                    22795423.391 7  96454971.72107      -741.051 7        43.291
C30        38.000                                                                                                                                    26317852.729 6 137044122.77406      2145.098 6        36.250                                                                    26317855.196 5 111359408.68505      1742.984 5        35.033
C28        40.000                                                                                                                                    21821602.080 7 113631057.27007     -1687.375 7        47.021                                                                    21821598.103 7  92334320.96507     -1371.298 7        43.003
R11        41.000    22423821.415 6 119826102.19306     -1116.936 6        40.274                                                                    22423821.332 6  93198067.91006      -868.772 6        39.787
I01        44.000   369704389.325 6 147658650.91606     -2250.248 6        40.462
C13        45.000                                                                                                                                    39538303.520 5 205886350.08105     -1881.736 5        34.062    39538294.496 4                     -1455.688 4        24.647    39538303.390 4                     -1528.890 4        25.744
C14        47.000                                                                                                                                    23782066.777 6 123839452.66106     -2527.762 6        40.524    23782063.083 8  95760806.77008     -1954.571 8        48.764    23782062.082 7 100629712.55807     -2054.079 7        47.927
C41        49.000                                                                                                                                    23753502.418 6 123690456.10606      1921.044 6        37.077                                                                    23753462.449 6 100508684.88506      1560.798 6        41.199
C27        52.000                                                                                                                                    22327342.479 7 116264539.86707       793.344 7        43.295                                                                    22327340.890 7  94474276.66607       644.566 7        42.567
C42        54.000                                                                                                                                    25723948.467 5 133951392.68405     -3643.227 5        35.452                                                                    25723936.098 4                     -2960.929 4        29.090
C36        56.000                                                                                                                                    26267301.797 5 136780757.44505     -1039.526 5        34.690                                                                    26267309.213 6 111145612.84906      -844.821 6        39.829
I06        58.000    38702801.013 6 151878266.76906      -543.049 6        38.420
> 2025 01 01 21 30  5.0000000  0 36
G10         2.000    21097374.745 8 110867423.87608     -1960.467 8        52.882                                    21097371.076 8  86390200.71508     -1527.634 8        50.864    21097371.248 7  86390221.71507     -1527.587 7        44.536
G32         3.000    23366238.108 7 122790405.46007      1786.568 7        42.093                                    23366235.386 5  95680831.71905      1392.125 5        32.569    23366238.099 6  95680872.72406      1391.949 6        36.272
G23         4.000    23368699.366 4 122803302.23704     -4032.468 4        24.752
E07         5.000    26585464.135 5 139707558.20815      1834.321 5        34.033                                                                    26585466.793 5                      1369.671 5        31.404    26585467.026 5                      1405.418 5        33.928
G08         6.000    20464435.409 8 107541861.91008      -463.369 8        48.069                                    20464432.351 7  83798419.95207      -361.070 7        42.017    20464433.487 6  83798447.96006      -361.075 6        40.508
G27         7.000    20936397.392 6 110021540.78006     -2862.398 6        41.235                                    20936393.451 4  85731006.50804     -2230.438 4        29.270    20936396.639 5  85731065.46305     -2230.412 5        31.011
G21         8.000    21676472.858 6                       853.597 6        36.064
G02         9.000    23518234.509 7 123589357.96807      1675.304 7        42.226                                    23518223.172 3  96303205.34703      1305.454 3        18.478
E08        12.000    26169478.331 6 137521516.61206      -324.124 6        38.874                                                                    26169475.602 6 102694680.78206      -241.990 6        40.779    26169473.416 5 105373646.17105      -248.310 5        35.995
E13        16.000    25132332.335 7 132071340.65507     -2656.228 7        47.117                                                                    25132336.194 7  98624723.79207     -1983.558 7        42.123    25132331.542 6 101197496.01006     -2035.267 6        40.026
E31        17.000    26257350.688 7 137983294.66507        13.569 7        45.192                                                                    26257351.489 7 103039606.46707        10.177 7        46.115    26257348.611 7 105727488.68107        10.475 7        43.663
E26        19.000    23609352.848 7 124067974.09607      -469.061 7        46.516                                                                    23609350.782 7  92648236.18907      -350.173 7        44.030    23609350.498 8  95065079.51008      -359.403 8        48.221
E21        22.000    27732175.706 4                     -4034.896 4        24.632                                                                    27732185.366 4 108827031.08604     -3013.161 4        28.455    27732183.479 4 111666056.49104     -3091.729 4        28.417
S36        23.000    38386645.656 6 201723055.31406      -854.947 6        36.612
S23        24.000    38341831.922 6 201487650.42106      -854.241 6        40.555
R20        26.000    20056290.411 5 107250029.26205       605.292 5        34.243                                                                    20056292.320 6  83416865.03406       470.902 6        37.391
R05        27.000    21136816.340 6 112988397.71106      2729.504 6        39.997                                                                    21136803.234 5  87879808.37705      2122.653 5        33.359
E33        28.000    26227323.290 6 137825511.55006      1267.884 6        41.271                                                                    26227318.105 5 102921639.32705       947.070 5        30.219    26227318.461 6 105606557.20606       971.290 6        38.120
R19        29.000    21247511.948 5                     -3226.244 5        31.140                                                                    21247506.889 5  88402115.14615     -2509.408 5        35.510
R21        30.000    23666676.164 4                      2572.681 4        26.790                                                                    23666704.253 3                      2003.250 3        22.457
R04        31.000    20144989.462 7 107875488.18307     -1058.615 7        47.230                                                                    20144987.909 6  83903170.79106      -823.411 6        40.968
R03        32.000    22835676.574 5 122241140.86915     -4393.438 5        32.347                                                                    22835675.842 5                     -3417.240 5        32.114
C05        33.000                                                                                                                                                                                                    39361826.669 5 158493751.87805      -616.807 5        35.329
R10        35.000    23054229.238 4 122891916.63104     -4242.529 4        29.896
C33        37.000                                                                                                                                                                                                                                                                    22796300.850 7  96458683.03807      -743.431 7        43.354
C30        38.000                                                                                                                                    26315789.017 6 137033397.91706      2145.042 6        36.284                                                                    26315797.861 5 111350693.85005      1743.051 5        35.238
C28        40.000                                                                                                                                    21823223.306 7 113639499.58907     -1689.379 7        47.395                                                                    21823219.324 7  92341181.03207     -1372.705 7        42.542
R11        41.000    22424867.393 6 119831699.03806     -1121.613 6        36.665                                                                    22424869.927 6  93202421.08106      -872.336 6        40.451
I01        44.000   369707256.927 6 147669903.90906     -2250.907 6        40.222
C13        45.000                                                                                                                                    39540112.456 5 205895758.58405     -1881.735 5        33.742    39540099.793 4                     -1456.385 4        24.015    39540107.292 4                     -1529.119 4        24.932
C14        47.000                                                                                                                                    23784496.004 6 123852097.91306     -2530.497 6        39.730    23784491.754 8  95770584.89208     -1956.651 8        48.764    23784490.520 8 100639987.86508     -2056.012 8        48.081
C41        49.000                                                                                                                                                                                                                                                                    23751618.777 6 100500884.49406      1559.476 6        41.414
C27        52.000                                                                                                                                    22326581.857 7 116260576.99407       791.843 7        42.591                                                                    22326579.567 6  94471056.52006       643.325 6        41.495
C42        54.000                                                                                                                                                                                                                                                                    25727436.605 5                     -2961.758 5        30.528
C36        56.000                                                                                                                                    26268302.198 5 136785962.43105     -1042.237 5        34.776                                                                    26268309.020 6 111149842.33206      -846.979 6        39.333
I06        58.000    38703493.014 6 151880983.06106      -543.250 6        38.432
> 2025 01 01 21 30 10.0000000  0 36
G10         2.000    21099240.955 8 110877232.29908     -1963.044 8        52.122                                    21099237.732 8  86397843.64208     -1529.646 8        51.086    21099237.759 7  86397864.64307     -1529.666 7        45.013
G32         3.000    23364539.096 6 122781476.82706      1784.757 6        40.276                                    23364536.048 5  95673874.35905      1390.710 5        31.517    23364539.057 6  95673915.34306      1390.928 6        36.624
G23         4.000    23372531.846 3                     -4037.003 3        20.857                                                                                                    23372534.786 5  95706562.41315     -3143.027 5        32.701
E07         5.000    26583718.387 5 139698389.40405      1833.300 5        34.195                                                                    26583722.238 5                      1368.842 5        31.592    26583720.877 5 107041633.32115      1404.494 5        34.976
G08         6.000    20464877.497 7 107544185.72207      -466.276 7        47.766                                    20464874.634 6  83800230.71206      -363.333 6        41.700    20464875.484 6  83800258.70806      -363.372 6        40.007
G27         7.000    20939122.321 6 110035859.33406     -2865.089 6        41.189                                    20939118.100 4  85742163.82204     -2232.534 4        29.839    20939122.150 5  85742222.76705     -2232.534 5        31.389
G21         8.000    21675659.416 6 113906365.90116       852.125 6        36.836
G02         9.000    23516640.279 6 123580983.09806      1674.486 6        41.273                                    23516629.419 3  96296679.47403      1304.793 3        18.149
E03        11.000    28286455.799 3                     -2670.472 3        23.619
E08        12.000    26169786.728 6 137523143.23806      -326.792 6        38.309                                                                    26169784.826 6 102695895.49106      -243.935 6        40.439    26169782.542 6 105374892.53706      -250.070 6        36.072
E13        16.000    25134859.807 7 132084622.78407     -2656.794 7        46.922                                                                    25134864.159 7  98634642.24307     -1984.016 7        42.222    25134858.591 6 101207673.21606     -2035.492 6        39.928
E31        17.000    26257338.766 7 137983232.10907        11.214 7        44.995                                                                    26257339.478 7 103039559.75507         8.459 7        45.833    26257336.975 7 105727440.77407         8.581 7        43.911
E26        19.000    23609799.253 7 124070321.55307      -470.150 7        46.672                                                                    23609797.520 7  92649989.16407      -351.047 7        43.839    23609797.158 8  95066878.20108      -360.167 8        48.226
E21        22.000    27736014.616 4                     -4034.817 4        25.504                                                                    27736025.524 4 108842095.65504     -3012.645 4        29.033    27736021.720 4 111681514.08004     -3091.828 4        27.557
S36        23.000    38387460.381 6 201727329.40506      -855.013 6        36.386
S23        24.000    38342644.474 6 201491920.77706      -854.054 6        40.555
R20        26.000    20055725.374 5 107247006.69105       603.619 5        34.571                                                                    20055727.945 6  83414514.15006       469.327 6        37.535
R05        27.000    21134269.320 6 112974756.93206      2726.643 6        37.788                                                                    21134248.647 5  87869198.88605      2120.657 5        30.740
E33        28.000    26226117.264 6 137819173.76706      1267.233 6        41.106                                                                    26226112.148 4 102916906.62104       946.327 4        28.597    26226112.329 6 105601700.97506       970.772 6        37.535
R19        29.000    21250527.539 5                     -3227.979 5        30.611                                                                    21250522.205 5  88414665.40615     -2510.840 5        33.904
R21        30.000    23664273.329 5                      2572.561 5        30.702                                                                    23664290.377 3                      1997.843 3        20.524
R04        31.000    20145980.167 8 107880792.76108     -1063.345 8        48.343                                                                    20145978.593 6  83907296.56706      -827.100 6        41.745
R03        32.000                                                                                                                                    22839777.250 4                     -3419.230 4        29.431
C05        33.000                                                                                                                                                                                                    39362592.251 5 158496836.00805      -616.940 5        35.014
C33        37.000                                                                                                                                    22797151.355 3                      -917.610 3        23.562                                                                    22797181.207 7  96462406.28907      -745.732 7        43.638
C30        38.000                                                                                                                                    26313728.773 6 137022673.21306      2145.047 6        37.743                                                                    26313739.697 5 111341979.18505      1743.088 5        35.357
C28        40.000                                                                                                                                    21824845.882 7 113647950.82507     -1691.139 7        47.491                                                                    21824842.045 7  92348048.36407     -1374.077 7        42.226
R11        41.000    22425917.686 5 119837317.98105     -1126.091 5        35.948                                                                    22425920.130 6  93206791.32806      -875.762 6        40.813
I01        44.000   369710124.445 6 147681158.50506     -2251.151 6        40.367
C13        45.000                                                                                                                                    39541920.917 5 205905166.80805     -1881.599 5        33.772    39541906.378 3                     -1453.562 3        21.929    39541912.379 3                     -1529.862 3        23.829
C14        47.000                                                                                                                                    23786925.364 6 123864755.41906     -2532.746 6        38.805    23786923.026 8  95780372.47808     -1958.496 8        48.559    23786921.322 8 100650273.16508     -2058.020 8        48.124
C41        49.000                                                                                                                                                                                                                                                                    23749777.042 6 100493091.23706      1557.971 6        41.819
C27        52.000                                                                                                                                    22325823.037 6 116256620.95206       790.422 6        41.969                                                                    22325819.476 6  94467841.92306       642.396 6        40.310
C42        54.000                                                                                                                                    25730925.614 5 133987843.25005     -3646.629 5        35.314                                                                    25730937.836 5                     -2963.287 5        31.042
C36        56.000                                                                                                                                    26269305.027 6 136791180.42406     -1044.840 6        36.272                                                                    26269311.012 6 111154082.44906      -849.159 6        39.267
I06        58.000    38704185.455 6 151883699.28606      -543.263 6        38.670
> 2025 01 01 21 30 15.0000000  0 37
G10         2.000    21101109.580 8 110887053.43808     -1965.220 8        51.782                                    21101106.790 8  86405496.47208     -1531.340 8        50.997    21101106.816 7  86405517.48407     -1531.397 7        45.613
G32         3.000    23362841.970 6 122772556.98206      1783.353 6        39.102                                    23362838.308 5  95666923.84605      1389.627 5        30.189    23362842.014 6  95666964.85206      1389.640 6        36.684
G23         4.000                                                                                                                                                                    23376372.150 5  95722280.39005     -3143.786 5        32.808
E07         5.000    26581974.337 5 139689225.65805      1832.774 5        33.257                                                                    26581978.954 5                      1368.333 5        31.004    26581977.294 6 107034611.78106      1404.203 6        36.060
G08         6.000    20465322.163 7 107546524.24307      -468.917 7        46.904                                    20465319.749 6  83802052.93406      -365.390 6        40.970    20465320.511 6  83802080.93106      -365.427 6        39.718
G27         7.000    20941849.385 6 110050190.72606     -2867.245 6        40.131                                    20941845.110 4  85753331.14004     -2234.210 4        29.829    20941848.632 5  85753390.06905     -2234.285 5        31.947
G21         8.000    21674848.414 5 113902109.18105       850.679 5        35.295
G02         9.000    23515045.661 6 123572611.78506      1674.138 6        40.410                                    23515036.475 2  96290156.38702      1304.495 2        17.887
E03        11.000    28288997.988 3                     -2673.522 3        22.781
E08        12.000    26170098.293 6 137524782.13106      -328.741 6        37.966                                                                    26170096.791 6 102697119.34506      -245.697 6        40.064    26170094.408 6 105376148.33606      -251.993 6        36.998
E13        16.000    25137388.004 7 132097907.97907     -2657.130 7        46.862                                                                    25137392.496 7  98644562.98307     -1984.153 7        42.453    25137386.817 6 101217852.81106     -2035.957 6        40.079
E31        17.000    26257329.371 7 137983181.44007         9.210 7        44.945                                                                    26257329.748 7 103039521.92707         6.872 7        45.926    26257327.603 7 105727401.95807         6.966 7        44.244
E26        19.000    23610246.977 7 124072674.30007      -470.890 7        46.563                                                                    23610245.095 7  92651746.08307      -351.691 7        43.960    23610244.869 8  95068680.95108      -360.753 8        48.283
E21        22.000    27739855.933 4                     -4034.403 4        26.850                                                                    27739865.271 4 108857160.71504     -3012.580 4        29.137    27739860.121 4 111696972.15404     -3091.544 4        27.198
S36        23.000    38388270.912 5 201731604.11105      -854.831 5        35.967
S23        24.000    38343457.594 6 201496190.98706      -853.825 6        40.248
R20        26.000    20055164.044 6 107243993.27406       602.319 6        36.450                                                                    20055165.113 6  83412170.38506       468.133 6        38.655
R05        27.000    21131727.588 6 112961129.95206      2724.230 6        39.228                                                                    21131699.183 4  87858600.31404      2118.539 4        28.663
E33        28.000    26224912.205 6 137812838.50106      1266.976 6        40.818                                                                    26224906.439 4 102912175.75004       945.988 4        28.161    26224906.678 6 105596846.65106       970.854 6        36.938
R19        29.000    21253542.553 4                     -3229.495 4        28.910                                                                    21253541.022 5  88427222.16115     -2511.908 5        30.974
R21        30.000    23661866.921 6 126619431.97516      2572.876 6        36.737
R04        31.000    20146975.254 8 107886120.92008     -1067.739 8        48.578                                                                    20146974.316 6  83911440.68006      -830.524 6        41.695
R03        32.000    22843868.167 5 122285101.29315     -4398.000 5        34.167                                                                    22843876.659 4                     -3420.747 4        26.659
C05        33.000                                                                                                                                                                                                    39363358.325 5 158499920.28805      -616.488 5        34.886
R10        35.000    23062179.217 3                     -4244.717 3        21.976
C33        37.000                                                                                                                                    22798048.188 3                      -922.471 3        23.657                                                                    22798064.320 7  96466141.43107      -747.985 7        43.490
C30        38.000                                                                                                                                    26311670.280 6 137011948.70806      2145.026 6        38.324                                                                    26311680.590 5 111333264.60605      1743.138 5        35.200
C28        40.000                                                                                                                                    21826470.577 7 113656411.00707     -1692.726 7        47.480                                                                    21826466.545 6  92354922.93406     -1375.551 6        41.883
R11        41.000    22426975.975 6 119842958.98506     -1130.048 6        38.192                                                                    22426976.407 6  93211178.76906      -879.039 6        41.075
I01        44.000   369712992.881 6 147692414.78906     -2251.193 6        40.379
C13        45.000                                                                                                                                    39543725.038 5 205914574.79505     -1881.291 5        33.946    39543717.363 3                     -1455.114 3        23.124    39543719.791 3                     -1528.650 3        23.295
C14        47.000                                                                                                                                    23789356.868 6 123877425.14206     -2534.709 6        37.633    23789356.447 8  95790169.53308     -1960.184 8        48.415    23789354.224 8 100660568.37608     -2059.802 8        48.029
C41        49.000                                                                                                                                    23747935.579 6 123661683.72506      1915.819 6        41.888                                                                    23747937.059 7 100485305.10607      1556.639 7        42.157
C27        52.000                                                                                                                                    22325065.618 6 116252671.76606       789.439 6        41.542                                                                    22325060.648 6  94464632.88606       641.621 6        38.604
C42        54.000                                                                                                                                    25734429.862 5 134006079.35605     -3647.939 5        34.757                                                                    25734439.971 5                     -2964.170 5        31.872
C36        56.000                                                                                                                                    26270310.295 6 136796411.46506     -1047.479 6        36.839                                                                    26270315.147 6 111158333.12206      -851.051 6        38.730
I06        58.000    38704877.687 6 151886415.50806      -543.102 6        38.414
> 2025 01 01 21 30 20.0000000  0 35
G10         2.000    21102981.324 8 110896887.45008     -1968.118 8        51.519                                    21102978.289 8  86413159.33808     -1533.600 8        50.992    21102978.398 7  86413180.35007     -1533.658 7        45.967
G32         3.000    23361145.939 6 122763646.08406      1781.289 6        38.622                                    23361142.378 4  95659980.30404      1388.017 4        29.441    23361145.297 6  95660021.28506      1388.029 6        36.643
G23         4.000    23380224.906 3                     -4038.431 3        22.133                                                                                                    23380213.368 5  95738002.64505     -3145.036 5        32.527
E07         5.000    26580230.682 5 139680067.25405      1830.786 5        32.449                                                                    26580235.902 5                      1367.286 5        30.536    26580234.922 6 107027594.29506      1402.921 6        36.650
G08         6.000    20465770.043 7 107548877.62407      -472.128 7        45.761                                    20465767.734 6  83803886.73606      -367.890 6        40.195    20465768.380 6  83803914.71606      -367.732 6        39.700
G27         7.000    20944578.048 6 110064535.13406     -2870.165 6        39.958                                    20944574.391 4  85764508.59004     -2236.477 4        29.280    20944575.964 5  85764567.53205     -2236.723 5        31.781
G21         8.000    21674038.334 5 113897859.81005       849.272 5        34.200
G02         9.000    23513453.436 6 123564244.25806      1673.160 6        39.769                                    23513444.358 2  96283636.21802      1303.756 2        16.151
E08        12.000    26170412.256 6 137526433.45606      -331.237 6        37.474                                                                    26170411.347 6 102698352.47206      -247.514 6        39.805    26170408.471 6 105377413.62806      -254.123 6        37.490
E13        16.000    25139916.916 7 132111196.36907     -2658.027 7        47.188                                                                    25139921.272 7  98654486.13207     -1984.847 7        42.209    25139915.819 6 101228034.83006     -2036.607 6        40.257
E31        17.000    26257321.684 7 137983142.77507         6.525 7        45.187                                                                    26257322.437 7 103039493.05507         4.858 7        45.621    26257320.573 7 105727372.34007         5.013 7        44.430
E26        19.000    23610695.462 7 124075032.47507      -472.151 7        46.559                                                                    23610693.616 7  92653507.05707      -352.569 7        43.856    23610693.534 8  95070487.86708      -361.830 8        48.217
E21        22.000    27743697.249 4                     -4035.103 4        28.427                                                                    27743704.182 5 108872226.26605     -3013.019 5        30.128    27743699.430 4 111712430.75404     -3092.444 4        26.647
S36        23.000    38389087.131 6 201735878.81006      -854.966 6        36.008
S23        24.000    38344266.341 6 201500461.39406      -854.138 6        40.024
R20        26.000    20054601.344 5 107240989.12105       599.837 5        35.410                                                                    20054602.957 6  83409833.80706       466.594 6        40.198
R05        27.000    21129182.315 6 112947517.16806      2721.103 6        39.568                                                                    21129154.683 4  87848012.62204      2116.942 4        27.748
E33        28.000    26223706.754 6 137806505.86306      1266.184 6        41.066                                                                    26223700.620 4 102907446.88504       945.339 4        28.019    26223701.824 5 105591994.36405       970.519 5        35.971
R19        29.000    21256558.559 4                     -3231.173 4        27.377                                                                    21256560.718 5  88439785.52505     -2513.226 5        30.302
R21        30.000    23659462.753 6 126606569.20706      2572.497 6        38.550
R04        31.000    20147975.534 8 107891472.77308     -1072.726 8        49.217                                                                    20147973.613 7  83915603.21807      -834.247 7        42.106
R03        32.000    22847979.916 5 122307100.18315     -4401.290 5        35.533
C05        33.000                                                                                                                                                                                                    39364124.314 5 158503004.79405      -616.811 5        34.981
C33        37.000                                                                                                                                    22798955.132 4                      -922.603 4        24.165                                                                    22798949.854 7  96469888.64307      -750.726 7        42.973
C30        38.000                                                                                                                                    26309611.008 6 137001224.56206      2144.838 6        39.628                                                                    26309621.841 5 111324550.36205      1742.666 5        35.190
C28        40.000                                                                                                                                    21828097.055 7 113664880.26407     -1694.786 7        47.730                                                                    21828092.893 6  92361804.90506     -1377.213 6        41.852
R11        41.000    22428037.305 6 119848622.19706     -1134.883 6        38.565                                                                    22428036.641 6  93215583.47906      -882.683 6        41.061
I01        44.000   369715861.676 6 147703672.82506     -2251.730 6        40.300
C13        45.000                                                                                                                                    39545530.141 5 205923982.74705     -1881.796 5        33.293    39545522.306 3                     -1455.993 3        23.886    39545526.165 3                     -1528.591 3        22.724
C14        47.000                                                                                                                                    23791792.297 6 123890107.30406     -2537.630 6        36.949    23791792.263 8  95799976.18408     -1962.288 8        48.213    23791789.574 7 100670873.68207     -2062.084 7        47.608
C41        49.000                                                                                                                                    23746097.688 7 123652110.70407      1913.684 7        42.745                                                                    23746098.714 7 100477526.23107      1555.065 7        42.133
C27        52.000                                                                                                                                    22324308.098 6 116248729.58706       787.798 6        40.887                                                                    22324303.154 6  94461429.54406       640.043 6        36.707
C42        54.000                                                                                                                                    25737936.947 5 134024322.86305     -3649.292 5        33.563                                                                    25737943.908 5                     -2965.561 5        32.257
C36        56.000                                                                                                                                    26271317.492 5 136801655.75005     -1050.034 5        35.857                                                                    26271321.812 6 111162594.56606      -853.426 6        38.583
I06        58.000    38705569.816 6 151889131.79506      -543.371 6        38.417
> 2025 01 01 21 30 25.0000000  0 37
G10         2.000    21104855.253 8 110906733.98708     -1970.582 8        51.467                                    21104852.158 8  86420831.96408     -1535.520 8        51.071    21104851.584 7  86420852.97007     -1535.500 7        45.786
G32         3.000    23359451.483 6 122754743.82606      1779.548 6        37.709                                    23359448.066 4  95653043.49404      1386.659 4        29.175    23359451.209 6  95653084.49306      1386.360 6        36.325
G23         4.000                                                                                                                                                                    23384058.784 5  95753729.03505     -3146.058 5        32.275
E07         5.000    26578489.175 5 139670913.77205      1830.331 5        30.966                                                                    26578493.525 4                      1366.804 4        29.299    26578493.690 6 107020580.62106      1402.181 6        37.104
G08         6.000    20466220.892 7 107551245.55807      -475.241 7        44.176                                    20466218.393 6  83805731.87306      -370.316 6        39.267    20466219.022 6  83805759.84706      -370.190 6        39.730
G27         7.000    20947310.709 6 110078892.19406     -2872.846 6        40.210                                    20947306.133 4  85775695.91904     -2238.582 4        29.033    20947308.067 5  85775754.89005     -2238.808 5        33.515
G21         8.000    21673232.030 5 113893617.58505       847.590 5        35.276
G02         9.000    23511862.004 6 123555880.20606      1672.492 6        38.063                                    23511852.782 2  96277118.77202      1303.225 2        14.429
E08        12.000    26170729.545 6 137528096.89506      -334.008 6        38.384                                                                    26170727.886 6 102699594.65306      -249.430 6        39.685    26170724.924 6 105378688.20106      -255.898 6        38.354
E13        16.000    25142446.359 7 132124487.64807     -2658.662 7        47.384                                                                    25142450.096 7  98664411.43207     -1985.327 7        42.021    25142445.517 6 101238219.06606     -2037.120 6        40.548
E31        17.000    26257316.944 7 137983115.79307         4.192 7        45.568                                                                    26257316.946 7 103039472.90907         3.120 7        45.416    26257315.758 7 105727351.67507         3.191 7        44.587
G16        18.000    25129178.155 3                     -4600.845 3        22.743
E26        19.000    23611145.355 7 124077395.76207      -473.234 7        46.220                                                                    23611143.238 7  92655271.85407      -353.362 7        44.147    23611143.178 8  95072298.70008      -362.642 8        48.254
E21        22.000    27747536.986 4                     -4035.224 4        29.081                                                                    27747543.751 5 108887292.18105     -3013.028 5        30.091    27747537.434 4 111727889.67004     -3091.936 4        24.737
S36        23.000    38389895.251 6 201740154.63206      -855.209 6        36.147
S23        24.000    38345081.508 6 201504731.78106      -854.129 6        39.742
R20        26.000    20054040.124 5 107237994.01005       597.813 5        33.707                                                                    20054043.480 6  83407504.31206       465.105 6        40.782
R05        27.000    21126637.853 6 112933918.16506      2718.298 6        36.495                                                                    21126611.186 4  87837435.64204      2114.720 4        29.583
E33        28.000    26222501.258 6 137800175.59506      1265.578 6        41.037                                                                    26222496.096 4 102902719.64004       945.623 4        27.521    26222497.364 5 105587143.90605       969.923 5        35.262
R19        29.000    21259580.138 4                     -3233.528 4        26.036                                                                    21259581.484 4  88452355.08604     -2514.534 4        28.777
R21        30.000    23657056.632 6 126593706.58506      2572.654 6        37.694                                                                    23657023.168 4                      2004.062 4        24.992
R04        31.000    20148978.890 8 107896847.98308     -1077.370 8        49.077                                                                    20148977.792 7  83919783.94607      -837.978 7        42.700
R03        32.000    22852097.196 5 122329111.48605     -4403.238 5        35.514                                                                    22852084.609 4                     -3425.164 4        24.872
C05        33.000                                                                                                                                                                                                    39364890.025 5 158506089.32705      -617.053 5        35.438
C33        37.000                                                                                                                                    22799843.397 3                      -926.155 3        23.086                                                                    22799838.168 7  96473647.63207      -753.124 7        42.114
C30        38.000                                                                                                                                    26307552.493 6 136990500.48006      2144.853 6        40.296                                                                    26307562.912 5 111315836.12605      1742.817 5        34.010
C28        40.000                                                                                                                                    21829725.363 8 113673358.29508     -1696.553 8        48.055                                                                    21829720.814 6  92368693.97106     -1378.655 6        41.640
R11        41.000    22429102.091 6 119854307.37706     -1139.395 6        40.634                                                                    22429099.791 6  93220005.27506      -886.150 6        40.777
I01        44.000   369718730.980 6 147714932.39206     -2252.112 6        40.253
C13        45.000                                                                                                                                    39547337.428 5 205933390.21205     -1881.609 5        32.509                                                                    39547332.075 4                     -1530.062 4        24.451
C08        46.000                                                                                                                                                                                                    40212409.860 4                     -1589.881 4        25.053
C14        47.000                                                                                                                                    23794232.028 6 123902801.56406     -2540.315 6        38.309    23794229.997 8  95809792.17708     -1964.122 8        48.272    23794227.281 7 100681188.79507     -2064.128 7        46.966
C41        49.000                                                                                                                                    23744263.107 7 123642546.34907      1911.883 7        42.861                                                                    23744262.219 7 100469754.36807      1553.542 7        42.341
C27        52.000                                                                                                                                    22323550.920 6 116244794.10706       786.292 6        41.302                                                                    22323546.657 5  94458231.63505       638.939 5        34.252
C42        54.000                                                                                                                                    25741442.867 5 134042573.47705     -3650.756 5        34.448                                                                    25741448.828 5                     -2966.716 5        32.982
C36        56.000                                                                                                                                    26272327.029 5 136806912.98005     -1052.765 5        35.081                                                                    26272331.251 6 111166866.45706      -855.652 6        37.962
I06        58.000    38706261.909 6 151891847.91006      -543.147 6        38.748
> 2025 01 01 21 30 30.0000000  0 37
G10         2.000    21106731.616 8 110916593.38008     -1973.035 8        51.494                                    21106728.460 8  86428514.60508     -1537.427 8        50.853    21106727.582 7  86428535.61607     -1537.530 7        45.419
G32         3.000    23357758.887 6 122745850.51906      1777.818 6        37.161                                    23357755.544 4  95646113.64704      1385.309 4        28.559    23357758.247 5  95646154.64905      1385.285 5        35.424
G23         4.000    23387884.505 4                     -4038.678 4        25.594                                                                                                    23387905.694 5  95769459.64905     -3146.778 5        31.562
E07         5.000    26576748.356 5 139661765.62405      1828.894 5        30.128                                                                    26576751.381 4                      1365.435 4        25.444    26576752.966 6 107013570.95606      1401.769 6        37.459
G08         6.000    20466674.371 7 107553628.35907      -478.015 7        43.719                                    20466671.748 6  83807588.59106      -372.473 6        38.156    20466672.106 6  83807616.58306      -372.506 6        38.991
G27         7.000    20950045.741 6 110093262.22006     -2875.279 6        41.430                                    20950040.597 4  85786893.34204     -2240.478 4        29.299    20950043.233 5  85786952.31605     -2240.482 5        35.052
G21         8.000    21672429.403 5 113889382.77405       846.194 5        35.643
G02         9.000    23510269.655 5 123547519.88005      1671.752 5        35.438                                    23510261.806 2  96270604.25802      1302.665 2        14.905
E08        12.000    26171048.784 6 137529772.74006      -336.322 6        39.589                                                                    26171046.910 6 102700846.10606      -251.230 6        40.005    26171044.452 6 105379972.28706      -257.748 6        39.162
E13        16.000    25144976.143 7 132137782.11207     -2659.103 7        47.317                                                                    25144979.388 6  98674339.11906     -1985.724 6        41.526    25144975.995 6 101248405.74606     -2037.489 6        41.182
E31        17.000    26257314.735 7 137983100.83107         1.933 7        45.762                                                                    26257314.147 7 103039461.74207         1.331 7        45.136    26257313.222 7 105727340.22407         1.385 7        44.778
E26        19.000    23611596.627 7 124079764.47507      -474.251 7        45.518                                                                    23611593.875 7  92657040.71407      -354.260 7        44.194    23611593.777 8  95074113.67708      -363.316 8        48.265
E21        22.000    27751378.056 4                     -4035.188 4        29.100                                                                    27751383.642 5 108902358.62405     -3013.458 5        30.279    27751377.625 4 111743349.16204     -3092.720 4        24.857
S36        23.000    38390709.198 6 201744431.34506      -855.751 6        36.503
S23        24.000    38345891.959 6 201509002.47106      -854.050 6        39.907
R20        26.000    20053484.388 5 107235008.34505       596.175 5        33.467                                                                    20053484.508 6  83405182.11006       463.759 6        40.698
R05        27.000    21124097.034 5 112920333.05105      2715.681 5        32.958                                                                    21124071.684 5  87826869.62805      2112.160 5        31.864
E33        28.000    26221296.481 6 137793847.94506      1265.370 6        40.474                                                                    26221291.563 4 102897994.49404       945.116 4        28.313    26221293.554 5 105582295.45005       969.615 5        35.357
