     3.04           OBSERVATION DATA    M                   RINEX VERSION / TYPE
ssrcrin-15.6.1x                         20250101 090000 UTC PGM / RUN BY / DATE 
(00000000023479385599111004) Septentrio proprietary         COMMENT             
ract                                                        MARKER NAME         
01                                                          MARKER NUMBER       
geodetic                                                    MARKER TYPE         
NFB                 CLIMERS@TUW                             OBSERVER / AGENCY   
3296359             SEPT ASTERX SB3 PROB4.14.4              REC # / TYPE / VERS 
Unknown             Unknown                                 ANT # / TYPE        
  4127445.8521  1206916.0406  4695540.9146                  APPROX POSITION XYZ 
        0.0000        0.0000        0.0000                  ANTENNA: DELTA H/E/N
G   23 X1  C1C L1C D1C S1C C1W S1W C2W L2W D2W S2W C2L L2L  SYS / # / OBS TYPES 
       D2L S2L C5Q L5Q D5Q S5Q C1L L1L D1L S1L              SYS / # / OBS TYPES 
E   21 X1  C1C L1C D1C S1C C6C L6C D6C S6C C5Q L5Q D5Q S5Q  SYS / # / OBS TYPES 
       C7Q L7Q D7Q S7Q C8Q L8Q D8Q S8Q                      SYS / # / OBS TYPES 
S    9 X1  C1C L1C D1C S1C C5I L5I D5I S5I                  SYS / # / OBS TYPES 
R   17 X1  C1C L1C D1C S1C C2P L2P D2P S2P C2C L2C D2C S2C  SYS / # / OBS TYPES 
       C3Q L3Q D3Q S3Q                                      SYS / # / OBS TYPES 
C   25 X1  C1P L1P D1P S1P C5P L5P D5P S5P C2I L2I D2I S2I  SYS / # / OBS TYPES 
       C7I L7I D7I S7I C6I L6I D6I S6I C7D L7D D7D S7D      SYS / # / OBS TYPES 
J   17 X1  C1C L1C D1C S1C C2L L2L D2L S2L C5Q L5Q D5Q S5Q  SYS / # / OBS TYPES 
       C1L L1L D1L S1L                                      SYS / # / OBS TYPES 
I    5 X1  C5A L5A D5A S5A                                  SYS / # / OBS TYPES 
SEPTENTRIO RECEIVERS OUTPUT ALIGNED CARRIER PHASES.         COMMENT             
NO FURTHER PHASE SHIFT APPLIED IN THE RINEX ENCODER.        COMMENT             
G L1C                                                       SYS / PHASE SHIFT   
G L2W                                                       SYS / PHASE SHIFT   
G L2L  0.00000                                              SYS / PHASE SHIFT   
G L5Q  0.00000                                              SYS / PHASE SHIFT   
G L1L  0.00000                                              SYS / PHASE SHIFT   
E L1C  0.00000                                              SYS / PHASE SHIFT   
E L6C  0.00000                                              SYS / PHASE SHIFT   
E L5Q  0.00000                                              SYS / PHASE SHIFT   
E L7Q  0.00000                                              SYS / PHASE SHIFT   
E L8Q  0.00000                                              SYS / PHASE SHIFT   
S L1C                                                       SYS / PHASE SHIFT   
S L5I                                                       SYS / PHASE SHIFT   
R L1C                                                       SYS / PHASE SHIFT   
R L2P  0.00000                                              SYS / PHASE SHIFT   
R L2C                                                       SYS / PHASE SHIFT   
R L3Q  0.00000                                              SYS / PHASE SHIFT   
C L1P  0.00000                                              SYS / PHASE SHIFT   
C L5P  0.00000                                              SYS / PHASE SHIFT   
C L2I                                                       SYS / PHASE SHIFT   
C L7I                                                       SYS / PHASE SHIFT   
C L6I                                                       SYS / PHASE SHIFT   
C L7D                                                       SYS / PHASE SHIFT   
J L1C                                                       SYS / PHASE SHIFT   
J L2L  0.00000                                              SYS / PHASE SHIFT   
J L5Q  0.00000                                              SYS / PHASE SHIFT   
J L1L  0.00000                                              SYS / PHASE SHIFT   
I L5A                                                       SYS / PHASE SHIFT   
  2025     1     1     9     0    0.0000000     GPS         TIME OF FIRST OBS   
 C1C    0.000 C2C    0.000 C2P    0.000                     GLONASS COD/PHS/BIS 
DBHZ                                                        SIGNAL STRENGTH UNIT
    18                                                      LEAP SECONDS        
 24 R01  1 R02 -4 R03  5 R04  6 R05  1 R06 -4 R07  5 R08  6 GLONASS SLOT / FRQ #
    R09 -2 R10 -7 R11  0 R12 -1 R13 -2 R14 -7 R15  0 R16 -1 GLONASS SLOT / FRQ #
    R17  4 R18 -3 R19  3 R20  2 R21  4 R22 -3 R23  3 R24  2 GLONASS SLOT / FRQ #
                                                            END OF HEADER       
> 2025 01 01 09 00  0.0000000  0 33
G13         2.000    19959612.373 8 104888605.22308      -959.083 8        48.609                                    19959609.472 5  81731252.24305      -747.341 5        34.057
G30         3.000    22507936.350 7 118280046.58107     -3296.623 7        43.941                                    22507940.010 5  92166261.78705     -2568.795 5        33.329    22507939.861 5  92166193.74705     -2568.650 5        34.529
G14         4.000    20727334.422 6 108922857.08106     -1588.053 6        41.142                                    20727333.092 3  84874951.58303     -1237.444 3        21.952    20727335.244 6  84874956.57906     -1237.504 6        38.739
G15         6.000    20838104.822 6 109505027.50406      1060.334 6        40.872                                    20838191.555 1  85328915.67701       826.374 1         6.500    20838105.922 6  85328656.81106       826.260 6        36.408
G05         7.000                                                                                                                                                                    22961343.627 5  94022864.75605     -3088.998 5        34.505
G23        10.000    24130025.259 7 126804148.63207      1595.644 7        44.254                                    24130022.652 3  98808422.08203      1243.363 3        20.262    24130025.129 6  98808409.10706      1243.323 6        38.327
G20        11.000    24982656.815 3                     -4419.615 3        19.881
E02        13.000    24755895.219 5 130093114.59705      1532.401 5        33.790                                                                    24755899.303 7  97147544.27207      1144.347 7        43.323    24755887.569 4  99681833.43304      1174.342 4        29.062
E25        14.000    23769871.971 6 124911503.01406     -1194.988 6        41.356                                                                    23769876.306 6  93278193.29706      -892.231 6        40.520    23769872.744 5  95711458.56805      -915.635 5        34.105
E24        15.000    27236520.078 5 143128886.17505     -3445.162 5        35.890                                                                    27236532.198 5 106881906.87405     -2572.810 5        32.641    27236553.219 4 109670240.45104     -2637.988 4        25.098
G24        16.000    23922114.832 5 125711657.19705      2551.972 5        30.211                                    23922126.410 1  97957118.36201      1988.461 1         7.125    23922137.974 4                      1988.441 4        28.436
E08        17.000    24424790.798 7 128353129.04807       803.163 7        44.293                                                                    24424791.027 5  95848138.45505       599.922 5        33.120    24424852.528 4                       615.003 4        28.948
E07        18.000    28653188.991 4                      1981.524 4        26.132                                                                    28653168.087 5 112441100.73305      1479.614 5        32.479    28653165.931 5 115374416.98605      1517.956 5        34.333
E26        20.000    28471722.847 4 149619862.88704     -1763.224 4        28.028                                                                                                                                    28471714.901 3                     -1350.221 3        22.686
E05        21.000                                                                                                                                    25652626.444 4 100666407.22804     -2637.352 4        28.957    25652631.184 3                     -2706.406 3        20.762
S23        24.000    38267146.399 6 201095130.59806      -822.362 6        37.970
E03        27.000                                                                                                                                    23668016.880 6  92878305.37906     -1365.043 6        37.285    23668018.108 7  95301238.54807     -1400.691 7        44.752
R11        28.000    19789128.241 6 105747136.35106     -2764.190 6        40.300                                                                    19789131.507 6  82247720.19306     -2149.934 6        41.802
R10        30.000    23764947.703 3                     -4836.016 3        22.419
R12        31.000    20326492.996 8 108580584.62508      1546.011 8        48.167                                                                    20326497.807 7  84451751.55707      1202.398 7        43.409
R03        33.000    24595494.571 6 131661495.61906      3491.836 6        37.149
R08        35.000    23387799.812 4                     -5189.192 4        25.880
C26        37.000                                                                                                                                    22754465.777 6 118488480.06006      1042.063 6        36.563                                                                    22754470.464 7  96281701.61907       846.825 7        46.903
R01        38.000    19552845.746 8 104521101.63608     -2560.055 8        48.613                                                                    19552849.645 6  81294212.73606     -1991.215 6        39.508
C42        41.000                                                                                                                                    22991330.718 4 119721792.65104       421.176 4        29.280                                                                    22991331.777 6  97283813.24206       342.396 6        37.773
R02        43.000    20320219.253 8 108432589.14208      1664.888 8        51.670                                                                    20320222.820 7  84336459.89207      1294.832 7        46.487
C40        44.000                                                                                                                                    38972337.158 7 202939219.05207      -540.253 7        42.770                                                                    38972339.268 5 164904706.35505      -439.159 5        32.754
C33        46.000                                                                                                                                    27047299.766 5 140842353.58905      2422.822 5        34.229                                                                    27047295.566 4                      1968.670 4        28.863
C21        47.000                                                                                                                                    22751864.799 7 118474853.95407     -2715.058 7        47.805                                                                    22751862.148 7  96270504.53807     -2206.385 7        43.716
C14        48.000                                                                                                                                    24695075.417 7 128593716.40507      1730.452 7        46.318    24695077.188 7  99436805.77707      1338.046 7        46.536    24695071.917 7 104492916.06907      1406.049 7        46.784
C45        49.000                                                                                                                                    22081507.112 7 114984117.26007     -2053.897 7        42.783                                                                    22081502.605 7  93434005.58107     -1669.018 7        44.534
C22        50.000                                                                                                                                    25861934.468 4                     -4354.618 4        24.226                                                                    25861929.891 3                     -3536.372 3        23.067
I06        56.000    38218119.905 5 149976143.16205      -696.366 5        30.370
> 2025 01 01 09 00  5.0000000  0 33
G17         1.000    23649685.415 4                      1870.953 4        27.341
G13         2.000    19960526.017 8 104893407.59008      -961.789 8        48.464                                    19960523.490 5  81734994.34605      -749.443 5        34.405
G30         3.000    22511072.639 7 118296532.04107     -3297.608 7        44.814                                    22511077.037 5  92179107.58005     -2569.557 5        33.814    22511077.770 5  92179039.55005     -2569.526 5        34.676
G14         4.000    20728847.250 7 108930805.12607     -1591.029 7        43.196                                    20728845.627 3  84881144.86003     -1239.765 3        22.248    20728847.560 6  84881149.83906     -1239.724 6        38.715
G15         6.000    20837093.065 6 109499732.87006      1057.490 6        40.136                                    20837183.795 1  85324789.88701       824.064 1         4.429    20837098.573 6  85324531.08306       823.999 6        36.839
G05         7.000    22965107.969 5 120682515.10015     -3965.367 5        35.719                                    22965117.908 3  94038272.80413     -3089.890 3        22.362    22965116.504 5  94038311.79905     -3089.872 5        35.033
G23        10.000    24128507.797 7 126796177.27707      1593.032 7        44.101                                    24128505.641 3  98802210.62703      1241.314 3        20.333    24128507.775 6  98802197.64406      1241.444 6        37.289
E02        13.000    24754440.286 6 130085456.66406      1530.824 6        36.881                                                                    24754441.586 7  97141825.70607      1143.053 7        43.752    24754426.911 4  99675965.75104      1172.954 4        27.066
E25        14.000    23771009.958 6 124917482.95206     -1197.062 6        41.623                                                                    23771014.453 6  93282658.83706      -894.003 6        40.174    23771010.641 5  95716040.58405      -917.280 5        33.826
E24        15.000    27239798.522 6 143146113.38406     -3445.880 6        36.344                                                                    27239809.565 5 106894771.26805     -2572.998 5        32.509    27239832.754 4 109683440.56504     -2640.278 4        25.429
G24        16.000    23919688.869 5 125698900.31905      2551.203 5        32.162                                    23919699.692 1  97947177.96501      1987.910 1         7.750    23919712.110 4                      1987.453 4        26.515
E08        17.000    24424026.773 7 128349116.67107       801.853 7        44.221                                                                    24424028.686 5  95845142.20705       598.909 5        34.529    24424083.660 4                       614.149 4        29.564
E07        18.000                                                                                                                                    28651284.668 5 112433703.84905      1479.339 5        31.985    28651279.370 5 115366827.08605      1518.002 5        34.176
E26        20.000    28473404.212 4 149628682.48204     -1765.261 4        26.084                                                                    28473418.109 5 111735754.32415     -1317.639 5        32.826    28473396.097 3                     -1353.366 3        22.686
E05        21.000    25655985.139 4                     -3532.564 4        29.431                                                                    25655986.561 4 100679594.74404     -2637.753 4        26.431    25655986.971 3                     -2706.423 3        23.638
S23        24.000    38267926.809 6 201099241.96006      -822.347 6        38.120
E03        27.000                                                                                                                                    23669757.323 6  92885133.67906     -1366.509 6        37.221    23669757.939 7  95308244.98407     -1401.946 7        44.492
R11        28.000    19791716.596 6 105760964.10906     -2766.889 6        40.648                                                                    19791719.113 7  82258475.12807     -2151.986 7        42.578
R10        30.000    23769496.716 3                     -4835.790 3        21.310
R12        31.000    20325047.475 8 108572861.76808      1543.209 8        48.732                                                                    20325053.104 7  84445744.89607      1200.171 7        45.079
R03        33.000    24592230.016 6 131644036.61006      3491.676 6        38.291
R08        35.000    23392648.660 4                     -5190.046 4        26.778
C26        37.000                                                                                                                                    22753466.669 6 118483273.13406      1040.656 6        37.157                                                                    22753470.345 7  96277470.58207       845.368 7        46.851
R01        38.000    19555242.125 8 104533911.82008     -2564.004 8        48.240                                                                    19555246.192 6  81304176.18006     -1994.105 6        39.709
C42        41.000                                                                                                                                    22990927.735 4 119719691.92804       418.826 4        27.880                                                                    22990928.886 6  97282106.31606       340.307 6        38.291
R02        43.000    20318661.022 8 108424272.86308      1661.675 8        52.048                                                                    20318664.774 7  84329991.66207      1292.422 7        46.222
C40        44.000                                                                                                                                    38972856.755 7 202941922.60907      -541.316 7        42.747                                                                    38972858.296 5 164906903.25005      -440.197 5        32.485
C33        46.000                                                                                                                                    27044968.789 5 140830241.00705      2422.309 5        34.729                                                                    27044968.051 4                      1968.188 4        29.972
C21        47.000                                                                                                                                    22754472.988 7 118488435.73307     -2717.502 7        47.876                                                                    22754470.493 7  96281540.86607     -2208.425 7        43.486
C14        48.000                                                                                                                                    24693414.087 7 128585068.60307      1728.702 7        45.974    24693416.985 7  99430118.73607      1336.752 7        46.839    24693411.065 7 104485889.03307      1404.554 7        46.611
C45        49.000                                                                                                                                    22083479.590 7 114994390.97607     -2055.604 7        43.266                                                                    22083475.599 7  93442353.84407     -1670.562 7        44.415
C22        50.000                                                                                                                                    25866113.848 4                     -4353.728 4        25.353                                                                    25866109.588 3                     -3535.972 3        22.552
I06        56.000    38219008.523 5 149979626.18705      -697.189 5        30.392
> 2025 01 01 09 00 10.0000000  0 32
G17         1.000    23647907.037 4                      1869.548 4        28.692
G13         2.000    19961442.470 8 104898223.27708      -964.239 8        48.266                                    19961440.172 5  81738746.82605      -751.349 5        34.981
G30         3.000    22514210.262 7 118313022.13307     -3298.270 7        45.627                                    22514215.002 5  92191956.98605     -2570.070 5        34.338    22514215.095 5  92191888.95605     -2570.137 5        35.067
G14         4.000    20730362.226 7 108938767.36307     -1593.590 7        43.877                                    20730361.069 3  84887349.18403     -1241.758 3        23.505    20730362.682 6  84887354.15806     -1241.830 6        39.138
G15         6.000    20836087.188 6 109494451.75606      1055.073 6        39.399                                    20836178.789 1  85320674.47001       822.126 1         6.000    20836095.347 6  85320415.87906       822.163 6        37.784
G05         7.000    22968887.217 6 120702346.88306     -3967.197 6        36.253                                    22968891.072 4  94053726.13804     -3091.319 4        24.947    22968891.281 5  94053765.12205     -3091.213 5        35.486
G23        10.000    24126993.022 7 126788217.98307      1590.796 7        43.312                                    24126990.561 3  98796008.55203      1239.559 3        19.701    24126992.439 5  98795995.56205      1239.514 5        34.705
E02        13.000    24752987.041 6 130077805.98606      1529.592 6        38.324                                                                    24752985.172 7  97136112.49807      1142.336 7        43.664    24752969.275 4  99670103.51404      1172.032 4        27.210
E25        14.000    23772149.333 6 124923473.39206     -1198.998 6        41.318                                                                    23772154.234 6  93287132.19506      -895.304 6        39.799    23772150.556 5  95720630.65805      -918.791 5        33.617
E24        15.000    27243077.503 6 143163344.71706     -3446.709 6        36.068                                                                    27243088.346 5 106907638.73405     -2573.756 5        32.120    27243110.867 4 109696643.75704     -2640.614 4        25.474
G24        16.000    23917265.463 5 125686146.36505      2551.085 5        32.563                                    23917273.224 1  97937239.87801      1988.090 1         6.750    23917291.388 3                      1987.964 3        22.400
E08        17.000    24423264.353 7 128345109.99307       800.930 7        44.107                                                                    24423267.670 6  95842150.22306       598.121 6        36.170    24423320.407 5                       613.546 5        30.075
E07        18.000                                                                                                                                    28649398.800 5 112426306.31805      1479.753 5        31.932    28649392.408 5 115359236.57405      1518.388 5        34.348
E26        20.000    28475085.339 3                     -1767.552 3        21.119                                                                    28475092.759 5 111742348.55605     -1319.646 5        32.383    28475083.213 3                     -1353.988 3        23.238
E05        21.000    25659353.867 5                     -3532.620 5        30.279                                                                    25659346.457 4 100692784.60904     -2638.849 4        25.624    25659347.892 3                     -2706.942 3        23.524
S23        24.000    38268703.601 6 201103352.90206      -821.895 6        37.459
E03        27.000                                                                                                                                    23671499.050 6  92891967.95006     -1367.523 6        37.025    23671499.409 7  95315257.54007     -1403.003 7        43.896
R11        28.000    19794306.133 6 105774804.82306     -2769.128 6        41.175                                                                    19794309.652 7  82269240.11807     -2153.801 7        43.697
R12        31.000    20323604.647 8 108565152.52608      1540.747 8        48.871                                                                    20323610.188 7  84439748.82207      1198.382 7        45.777
R03        33.000    24588959.349 6 131626577.59406      3492.207 6        37.724
R08        35.000    23397497.956 4                     -5191.585 4        25.880
C26        37.000                                                                                                                                    22752469.014 6 118478073.99406      1039.263 6        37.444                                                                    22752471.920 7  96273245.85407       844.356 7        46.728
R01        38.000    19557642.078 8 104546741.32708     -2567.637 8        48.028                                                                    19557645.728 6  81314154.68506     -1997.227 6        39.201
C42        41.000                                                                                                                                    22990526.055 5 119717603.46605       416.830 5        30.747                                                                    22990528.259 6  97280409.36406       338.481 6        38.736
R02        43.000    20317106.194 8 108415971.91508      1658.916 8        53.036                                                                    20317109.461 7  84323535.36807      1290.256 7        46.002
C40        44.000                                                                                                                                    38973377.021 7 202944630.79607      -541.931 7        43.073                                                                    38973377.668 5 164909103.89005      -440.581 5        32.275
C33        46.000                                                                                                                                    27042633.517 5 140818131.23405      2421.824 5        35.167                                                                    27042642.793 4                      1967.568 4        29.716
C21        47.000                                                                                                                                    22757083.582 7 118502029.04307     -2719.625 7        47.983                                                                    22757081.270 7  96292586.52907     -2210.032 7        43.647
C14        48.000                                                                                                                                    24691754.180 7 128576428.74207      1727.382 7        45.687    24691757.888 7  99423437.84107      1335.753 7        47.276    24691751.785 7 104478868.42807      1403.634 7        46.396
C45        49.000                                                                                                                                    22085454.009 7 115004672.85007     -2056.910 7        44.316                                                                    22085450.094 7  93450708.69607     -1671.561 7        44.456
C22        50.000                                                                                                                                    25870297.699 4                     -4353.905 4        25.248                                                                    25870290.801 3                     -3536.817 3        23.886
I06        56.000    38219895.738 5 149983108.98105      -696.565 5        30.491
> 2025 01 01 09 00 15.0000000  0 33
G17         1.000    23646131.986 4                      1867.622 4        27.066
G13         2.000    19962361.275 8 104903052.16708      -967.277 8        48.141                                    19962359.413 5  81742509.59805      -753.720 5        35.410
G30         3.000    22517348.733 7 118329516.78607     -3299.516 7        45.615                                    22517354.001 5  92204809.93305     -2571.045 5        34.724    22517353.831 6  92204741.88906     -2570.940 6        36.163
G14         4.000    20731879.307 7 108946743.66507     -1596.839 7        44.737                                    20731879.368 4  84893564.46804     -1244.281 4        24.195    20731880.317 6  84893569.44206     -1244.069 6        39.132
G15         6.000    20835086.705 6 109489184.09506      1052.039 6        40.605                                    20835176.528 1  85316569.51801       819.752 1         5.286    20835096.151 6  85316311.14906       819.736 6        39.033
G05         7.000    22972662.632 6 120722186.57506     -3968.939 6        36.817                                    22972665.833 4  94069185.61804     -3092.679 4        26.240    22972665.488 5  94069224.58305     -3092.693 5        35.967
G23        10.000    24125479.538 7 126780270.69507      1588.061 7        42.800                                    24125477.753 3  98789815.83703      1237.465 3        18.955    24125480.640 5  98789802.85405      1237.133 5        31.721
E02        13.000    24751530.361 6 130070162.31506      1527.816 6        39.489                                                                    24751530.301 7  97130404.59407      1140.912 7        43.831    24751516.835 4  99664246.65904      1171.595 4        28.711
E25        14.000    23773291.124 7 124929474.18907     -1201.261 7        42.072                                                                    23773295.890 6  93291613.29806      -897.086 6        39.255    23773292.826 5  95725228.65205      -920.565 5        33.527
E24        15.000    27246356.825 5 143180580.01505     -3447.494 5        35.633                                                                    27246366.925 5 106920509.24205     -2574.515 5        31.215    27246390.836 4 109709850.05204     -2641.420 4        24.000
G24        16.000    23914838.772 5 125673395.22605      2549.915 5        31.457                                    23914847.020 1  97927303.85801      1986.959 1         3.800    23914864.442 3                      1986.895 3        22.781
E08        17.000    24422503.107 7 128341108.92107       799.499 7        44.235                                                                    24422507.535 6  95839162.39906       596.955 6        37.588    24422565.598 5                       612.774 5        30.626
E07        18.000    28647486.698 4                      1980.563 4        25.714                                                                    28647514.173 5 112418908.08105      1479.326 5        32.108    28647505.066 5 115351645.36505      1518.153 5        34.495
E26        20.000                                                                                                                                    28476770.813 5 111748950.80505     -1321.124 5        31.555    28476776.662 4                     -1355.629 4        26.216
E05        21.000    25662716.541 4                     -3533.234 4        29.829                                                                                                                                    25662710.423 4                     -2708.036 4        26.060
S23        24.000    38269487.553 6 201107463.38506      -822.364 6        37.448
R19        25.000                                                                                                                                    24019781.367 5                     -1499.364 5        30.158
E03        27.000                                                                                                                                    23673242.375 6  92898808.09506     -1368.617 6        37.134    23673242.319 7  95322276.12907     -1404.479 7        43.554
R11        28.000    19796899.826 6 105788658.39706     -2772.131 6        40.250                                                                    19796902.546 7  82280015.09607     -2156.156 7        44.831
R12        31.000    20322164.254 8 108557456.71508      1537.693 8        48.739                                                                    20322169.231 7  84433763.20007      1195.993 7        46.439
R08        35.000    23402345.459 4                     -5191.854 4        24.932
C26        37.000                                                                                                                                    22751472.719 6 118472882.52206      1037.435 6        37.981                                                                    22751474.963 7  96269027.36607       842.973 7        46.750
R01        38.000    19560045.526 7 104559590.25807     -2571.880 7        47.460                                                                    19560049.793 6  81324148.27806     -2000.243 6        39.045
C42        41.000                                                                                                                                    22990128.310 5 119715527.31505       413.854 5        35.195                                                                    22990129.729 6  97278722.33106       336.340 6        39.327
C36        42.000                                                                                                                                    25466694.571 3                     -3765.345 3        21.595
R02        43.000    20315553.596 8 108407685.87008      1655.524 8        53.431                                                                    20315557.307 7  84317090.64507      1287.581 7        47.032
C40        44.000                                                                                                                                    38973897.898 7 202947343.51607      -543.176 7        42.770                                                                    38973898.657 5 164911308.17905      -441.211 5        32.359
C33        46.000                                                                                                                                    27040302.009 5 140806024.21205      2420.786 5        35.386                                                                    27040317.205 5                      1967.450 5        30.294
C21        47.000                                                                                                                                    22759696.250 7 118515633.76007     -2722.252 7        47.561                                                                    22759694.154 7  96303641.47307     -2211.977 7        44.062
C14        48.000                                                                                                                                    24690095.783 7 128567796.70907      1725.430 7        45.440    24690100.341 7  99416763.00207      1334.235 7        47.926    24690094.072 7 104471854.19907      1402.146 7        46.311
C45        49.000                                                                                                                                    22087430.478 7 115014962.75707     -2058.933 7        44.501                                                                    22087426.082 7  93459070.08207     -1673.017 7        44.625
C22        50.000                                                                                                                                    25874480.012 4                     -4354.459 4        26.695                                                                    25874472.792 4                     -3538.511 4        25.188
I06        56.000    38220781.431 5 149986591.56205      -696.682 5        30.521
> 2025 01 01 09 00 20.0000000  0 34
G17         1.000    23644360.262 4                      1867.028 4        25.970
G13         2.000    19963282.541 8 104907894.02308      -969.777 8        48.317                                    19963281.081 5  81746282.46405      -755.665 5        35.824
G30         3.000    22520488.538 7 118346015.73707     -3300.345 7        45.397                                    22520493.831 5  92217666.23105     -2571.686 5        35.238    22520493.839 6  92217598.17306     -2571.430 6        36.302
G14         4.000    20733399.537 7 108954733.79907     -1599.564 7        44.883                                    20733400.163 4  84899790.54204     -1246.406 4        24.211    20733400.941 6  84899795.52006     -1246.400 6        38.375
G15         6.000    20834087.567 6 109483929.65506      1049.431 6        41.464                                    20834176.950 1  85312474.96001       817.744 1         8.190    20834098.684 6  85312216.73306       817.732 6        38.916
G05         7.000    22976437.489 6 120742033.91206     -3970.220 6        36.469                                    22976442.207 4  94084651.02704     -3093.673 4        26.084    22976441.365 5  94084690.01505     -3093.961 5        35.990
G23        10.000    24123969.644 7 126772335.23707      1585.739 7        42.724                                    24123967.230 3  98783632.35603      1235.634 3        18.358    24123969.712 4  98783619.37304      1235.439 4        28.066
E02        13.000    24750074.089 6 130062525.52006      1526.448 6        40.331                                                                    24750076.753 7  97124701.82907      1139.909 7        43.909    24750070.451 5  99658395.16705      1169.734 5        30.694
E25        14.000    23774434.423 7 124935485.15707     -1203.390 7        42.434                                                                    23774439.801 6  93296101.98506      -898.623 6        39.108    23774436.709 5  95729834.43205      -922.103 5        33.742
E24        15.000    27249636.749 5 143197819.15205     -3448.306 5        35.024                                                                    27249645.629 5 106933382.53705     -2574.878 5        30.626
G24        16.000    23912409.532 4 125660646.82504      2549.543 4        27.473                                                                                                    23912434.602 4                      1986.573 4        24.752
E08        17.000    24421743.074 7 128337113.24707       798.417 7        43.706                                                                    24421747.963 6  95836178.61006       596.369 6        39.099    24421807.067 4                       611.813 4        29.972
E07        18.000    28645610.584 4                      1981.268 4        27.210                                                                    28645629.795 5 112411508.99105      1479.825 5        31.698    28645617.020 5 115344053.26605      1518.255 5        34.362
E26        20.000    28478460.488 4                     -1771.224 4        26.527                                                                    28478451.092 4 111755560.91704     -1322.904 4        29.706    28478457.428 4                     -1356.637 4        27.006
E05        21.000    25666070.875 4                     -3534.187 4        29.583                                                                    25666067.595 3                     -2639.981 3        21.333    25666072.658 4                     -2707.995 4        26.707
S23        24.000    38270276.522 6 201111573.00106      -821.978 6        37.611
R19        25.000                                                                                                                                    24021585.282 5                     -1502.489 5        32.850
E03        27.000                                                                                                                                    23674987.352 6  92905653.94806     -1369.879 6        37.656    23674986.871 7  95329300.57107     -1405.537 7        43.179
R11        28.000    19799491.498 5 105802524.50005     -2774.704 5        34.510                                                                    19799498.098 7  82290799.90707     -2158.169 7        45.549
R10        30.000    23783082.466 3                     -4831.499 3        20.071
R12        31.000    20320726.531 8 108549774.17108      1535.032 8        48.863                                                                    20320731.287 7  84427787.90407      1193.870 7        46.616
R08        35.000    23407183.902 4                     -5192.797 4        27.952
C26        37.000                                                                                                                                    22750477.524 6 118467698.51206      1035.897 6        37.380                                                                    22750479.471 7  96264814.91207       841.903 7        46.558
R01        38.000    19562452.976 8 104572458.17608     -2575.715 8        48.078                                                                    19562457.012 6  81334156.65506     -2003.160 6        38.862
C42        41.000                                                                                                                                    22989730.044 6 119713463.12806       411.503 6        37.233                                                                    22989733.638 6  97277044.99106       334.459 6        39.838
C36        42.000                                                                                                                                    25470310.321 4                     -3764.665 4        24.000
R02        43.000    20314003.271 8 108399414.72708      1652.551 8        53.132                                                                    20314007.711 8  84310657.53008      1285.392 8        48.096
C40        44.000                                                                                                                                    38974419.156 7 202950060.52007      -544.009 7        42.916                                                                    38974419.802 5 164913515.97805      -442.045 5        32.084
C33        46.000                                                                                                                                    27037979.724 5 140793919.75305      2420.334 5        35.814                                                                    27037992.149 5                      1966.866 5        30.506
C21        47.000                                                                                                                                    22762311.115 7 118529249.66407     -2724.415 7        46.854                                                                    22762309.135 7  96314705.49207     -2213.796 7        44.346
C14        48.000                                                                                                                                    24688439.631 7 128559172.30207      1723.986 7        45.102    24688443.953 8  99410094.06408      1333.141 8        48.269    24688437.835 7 104464846.16207      1400.966 7        46.110
C45        49.000                                                                                                                                    22089408.290 7 115025260.47507     -2060.532 7        43.937                                                                    22089403.781 7  93467437.79107     -1674.219 7        44.904
C22        50.000                                                                                                                                    25878661.852 4                     -4354.414 4        26.742                                                                    25878655.557 4                     -3538.604 4        25.714
I06        56.000    38221670.484 4 149990073.72504      -696.099 4        29.924
> 2025 01 01 09 00 25.0000000  0 34
G13         2.000    19964206.837 8 104912749.92408      -972.341 8        48.457                                    19964205.330 6  81750066.28106      -757.672 6        36.155
G30         3.000    22523629.524 7 118362520.05107     -3301.084 7        45.415                                    22523634.788 5  92230526.70605     -2572.269 5        35.462    22523634.727 6  92230458.65106     -2572.123 6        36.374
G14         4.000    20734922.994 7 108962738.84907     -1602.266 7        44.101                                    20734923.519 4  84906028.23104     -1248.508 4        24.165    20734923.229 6  84906033.21206     -1248.407 6        37.198
G15         6.000    20833090.651 7 109478689.50007      1046.953 7        43.297                                    20833179.895 1  85308391.58301       815.839 1        10.000    20833101.076 6  85308133.47706       815.837 6        38.372
G05         7.000    22980215.838 6 120761890.03806     -3971.929 6        37.660                                    22980220.286 4  94100123.29804     -3095.005 4        25.128    22980220.313 5  94100162.28005     -3094.877 5        35.429
G23        10.000    24122462.784 6 126764412.68106      1583.460 6        41.254                                    24122459.242 2  98777458.93202      1233.858 2        17.019    24122462.547 4  98777446.02104      1233.529 4        28.076
E02        13.000    24748621.451 6 130054896.68906      1525.238 6        40.777                                                                    24748625.294 7  97119004.99307      1138.959 7        44.265    24748626.146 5  99652549.75405      1168.882 5        33.299
E25        14.000    23775580.848 7 124941507.33707     -1205.351 7        42.326                                                                    23775585.778 6  93300599.03506      -899.944 6        39.045    23775582.917 5  95734448.82205      -923.613 5        34.138
E24        15.000    27252917.348 5 143215063.12405     -3448.958 5        34.590                                                                    27252926.062 5 106946259.46905     -2575.614 5        32.084
G24        16.000                                                                                                                                                                    23910006.672 4                      1985.854 4        28.616
E08        17.000    24420983.958 7 128333124.01607       797.469 7        43.498                                                                    24420988.839 6  95833199.64306       595.531 6        40.334    24421041.284 4                       610.575 4        26.395
E07        18.000    28643723.751 4                      1981.982 4        26.467                                                                    28643744.552 5 112404109.85805      1479.985 5        32.174    28643729.072 5 115336461.10705      1519.018 5        34.429
E26        20.000    28480143.804 4                     -1773.666 4        26.479                                                                    28480129.727 4 111762179.65404     -1324.329 4        28.057    28480144.826 4                     -1359.175 4        27.521
E05        21.000    25669426.559 4                     -3534.713 4        26.671                                                                                                                                    25669435.815 4                     -2708.918 4        29.668
S23        24.000    38271057.562 6 201115683.18206      -821.777 6        37.425
R19        25.000                                                                                                                                    24023401.235 5                     -1505.725 5        31.004
E03        27.000                                                                                                                                    23676733.966 6  92912506.31906     -1370.780 6        37.853    23676732.604 7  95336331.69407     -1406.606 7        42.263
R11        28.000    19802089.623 6 105816404.36106     -2777.100 6        36.412                                                                    19802095.271 7  82301595.32207     -2159.924 7        45.759
R10        30.000    23787618.181 3                     -4838.292 3        22.305
R12        31.000    20319290.738 8 108542105.96808      1532.452 8        48.311                                                                    20319295.558 7  84421823.75407      1191.939 7        46.893
R03        33.000    24579139.569 6 131574200.17106      3491.871 6        36.771
R08        35.000    23412031.271 4                     -5193.817 4        29.280
C26        37.000                                                                                                                                    22749483.519 6 118462522.99406      1034.461 6        38.889                                                                    22749485.762 7  96260609.39407       840.526 7        46.490
R01        38.000    19564864.684 8 104585346.32108     -2579.311 8        48.285                                                                    19564868.785 6  81344180.74306     -2006.188 6        38.871
C42        41.000                                                                                                                                    22989332.944 6 119711411.98306       408.968 6        36.650                                                                    22989340.113 6  97275378.25906       332.470 6        40.136
C36        42.000                                                                                                                                    25473927.023 4                     -3764.940 4        26.096
R02        43.000    20312456.200 8 108391159.60108      1649.674 8        52.970                                                                    20312460.218 8  84304236.87308      1283.120 8        48.521
C40        44.000                                                                                                                                    38974942.346 7 202952782.89207      -544.745 7        43.372                                                                    38974942.154 5 164915728.14905      -442.971 5        31.894
C33        46.000                                                                                                                                    27035657.884 5 140781818.92305      2419.893 5        34.938                                                                    27035667.590 5                      1966.468 5        31.140
C21        47.000                                                                                                                                    22764928.900 7 118542877.79907     -2726.632 7        47.011                                                                    22764926.609 7  96325779.45807     -2215.715 7        45.097
C14        48.000                                                                                                                                    24686785.709 7 128550556.61707      1722.423 7        45.673    24686788.957 8  99403431.85608      1332.004 8        48.528    24686783.184 7 104457845.20807      1399.590 7        45.713
C45        49.000                                                                                                                                    22091386.726 7 115035567.06007     -2061.921 7        42.531                                                                    22091383.262 7  93475812.73007     -1675.696 7        45.127
C22        50.000                                                                                                                                    25882844.531 4                     -4354.909 4        28.910                                                                    25882837.222 4                     -3538.310 4        26.419
I06        56.000    38222557.420 5 149993556.36005      -696.540 5        30.634
> 2025 01 01 09 00 30.0000000  0 34
G13         2.000    19965133.518 8 104917619.95508      -975.349 8        48.096                                    19965132.262 6  81753861.09906      -760.018 6        36.352
G30         3.000    22526771.522 7 118379029.84007     -3302.475 7        45.326                                    22526776.792 5  92243391.44505     -2573.349 5        35.643    22526776.132 6  92243323.39606     -2573.268 6        36.737
G14         4.000    20736449.318 7 108970758.86107     -1605.360 7        43.769                                    20736449.622 3  84912277.59803     -1250.932 3        23.657    20736450.332 6  84912282.56506     -1251.002 6        36.548
G15         6.000    20832097.152 7 109473463.71607      1043.894 7        42.948                                    20832185.236 1  85304319.41901       813.378 1        10.296    20832106.688 6  85304061.42106       813.505 6        37.467
G05         7.000    22983996.048 6 120781754.93506     -3973.690 6        36.526                                    22983999.960 3  94115602.39603     -3096.376 3        23.657    22983999.469 5  94115641.40405     -3096.551 5        35.190
G23        10.000    24120958.379 6 126756503.08906      1580.670 6        39.655                                    24120953.665 2  98771295.58102      1231.688 2        17.358    24120961.414 5  98771282.55605      1231.585 5        32.263
E02        13.000    24747170.573 6 130047275.90306      1523.436 6        41.669                                                                    24747175.476 7  97113314.15007      1137.713 7        44.367    24747177.988 5  99646710.52605      1167.118 5        35.967
E25        14.000    23776729.107 6 124947540.78806     -1207.616 6        41.890                                                                    23776733.889 6  93305104.52306      -901.924 6        38.691    23776731.581 5  95739071.81505      -925.447 5        34.895
E24        15.000    27256198.484 5 143232311.99905     -3450.283 5        34.519                                                                    27256208.744 5 106959140.05105     -2576.348 5        33.305
G24        16.000    23907548.305 4                      2547.500 4        25.263                                                                                                    23907580.795 5                      1985.277 5        30.302
E08        17.000    24420226.228 7 128329141.34007       796.008 7        43.799                                                                    24420231.024 6  95830225.54706       594.531 6        41.514    24420272.044 4                       610.097 4        24.226
E07        18.000    28641830.131 4                      1981.301 4        26.132                                                                    28641857.820 5 112396710.74005      1479.970 5        31.698    28641842.279 5 115328869.00905      1518.531 5        35.109
E26        20.000                                                                                                                                    28481816.296 4 111768806.97504     -1326.286 4        28.000    28481835.189 4                     -1361.494 4        26.659
E05        21.000    25672786.179 4                     -3535.217 4        25.398                                                                                                                                    25672801.261 5                     -2709.083 5        30.264
S23        24.000    38271838.938 6 201119793.86306      -822.043 6        38.495
R19        25.000                                                                                                                                    24025220.590 4                     -1509.299 4        27.269
E03        27.000    23678473.461 5 124431215.73815     -1837.823 5        35.924                                                                    23678481.673 6  92919365.27606     -1372.422 6        38.300    23678480.074 6  95343369.56306     -1408.114 6        41.280
R11        28.000    19804690.744 6 105830297.95306     -2779.841 6        37.543                                                                    19804695.054 7  82312401.43807     -2162.198 7        45.317
R10        30.000    23792162.905 3                     -4837.712 3        23.067
R12        31.000    20317856.646 8 108534452.11308      1529.440 8        48.474                                                                    20317862.663 7  84415870.76607      1189.592 7        46.730
R03        33.000    24575883.970 6 131556742.51806      3491.846 6        37.524
R08        35.000    23416881.747 4                     -5195.014 4        29.678
C26        37.000                                                                                                                                    22748492.311 6 118457356.07106      1032.806 6        41.321                                                                    22748493.426 7  96256410.86207       839.042 7        46.304
R01        38.000    19567279.271 8 104598254.64608     -2583.535 8        48.812                                                                    19567283.866 6  81354220.53706     -2009.316 6        38.709
C42        41.000                                                                                                                                    22988937.379 6 119709373.94506       406.521 6        36.011                                                                    22988948.856 6  97273722.17806       330.289 6        40.799
C36        42.000                                                                                                                                    25477543.957 4                     -3765.490 4        28.114
R02        43.000    20310912.226 8 108382920.42308      1646.343 8        53.107                                                                    20310916.021 8  84297828.62008      1280.468 8        48.456
C40        44.000                                                                                                                                    38975466.697 7 202955510.67407      -545.956 7        43.446                                                                    38975466.176 5 164917944.68005      -443.714 5        31.645
C33        46.000                                                                                                                                    27033333.745 5 140769721.68705      2419.091 5        34.990                                                                    27033343.710 5                      1965.953 5        30.581
