     3.04           OBSERVATION DATA    M                   RINEX VERSION / TYPE
ssrcrin-15.6.1x                         20250101 233000 UTC PGM / RUN BY / DATE 
(00000000023479385599111004) Septentrio proprietary         COMMENT             
ract                                                        MARKER NAME         
01                                                          MARKER NUMBER       
geodetic                                                    MARKER TYPE         
NFB                 CLIMERS@TUW                             OBSERVER / AGENCY   
3296359             SEPT ASTERX SB3 PROB4.14.4              REC # / TYPE / VERS 
Unknown             Unknown                                 ANT # / TYPE        
  4127445.9624  1206915.7250  4695542.5497                  APPROX POSITION XYZ 
        0.0000        0.0000        0.0000                  ANTENNA: DELTA H/E/N
G   23 X1  C1C L1C D1C S1C C1W S1W C2W L2W D2W S2W C2L L2L  SYS / # / OBS TYPES 
       D2L S2L C5Q L5Q D5Q S5Q C1L L1L D1L S1L              SYS / # / OBS TYPES 
E   21 X1  C1C L1C D1C S1C C6C L6C D6C S6C C5Q L5Q D5Q S5Q  SYS / # / OBS TYPES 
       C7Q L7Q D7Q S7Q C8Q L8Q D8Q S8Q                      SYS / # / OBS TYPES 
S    9 X1  C1C L1C D1C S1C C5I L5I D5I S5I                  SYS / # / OBS TYPES 
R   17 X1  C1C L1C D1C S1C C2P L2P D2P S2P C2C L2C D2C S2C  SYS / # / OBS TYPES 
       C3Q L3Q D3Q S3Q                                      SYS / # / OBS TYPES 
C   25 X1  C1P L1P D1P S1P C5P L5P D5P S5P C2I L2I D2I S2I  SYS / # / OBS TYPES 
       C7I L7I D7I S7I C6I L6I D6I S6I C7D L7D D7D S7D      SYS / # / OBS TYPES 
J   17 X1  C1C L1C D1C S1C C2L L2L D2L S2L C5Q L5Q D5Q S5Q  SYS / # / OBS TYPES 
       C1L L1L D1L S1L                                      SYS / # / OBS TYPES 
I    5 X1  C5A L5A D5A S5A                                  SYS / # / OBS TYPES 
SEPTENTRIO RECEIVERS OUTPUT ALIGNED CARRIER PHASES.         COMMENT             
NO FURTHER PHASE SHIFT APPLIED IN THE RINEX ENCODER.        COMMENT             
G L1C                                                       SYS / PHASE SHIFT   
G L2W                                                       SYS / PHASE SHIFT   
G L2L  0.00000                                              SYS / PHASE SHIFT   
G L5Q  0.00000                                              SYS / PHASE SHIFT   
G L1L  0.00000                                              SYS / PHASE SHIFT   
E L1C  0.00000                                              SYS / PHASE SHIFT   
E L6C  0.00000                                              SYS / PHASE SHIFT   
E L5Q  0.00000                                              SYS / PHASE SHIFT   
E L7Q  0.00000                                              SYS / PHASE SHIFT   
E L8Q  0.00000                                              SYS / PHASE SHIFT   
S L1C                                                       SYS / PHASE SHIFT   
S L5I                                                       SYS / PHASE SHIFT   
R L1C                                                       SYS / PHASE SHIFT   
R L2P  0.00000                                              SYS / PHASE SHIFT   
R L2C                                                       SYS / PHASE SHIFT   
R L3Q  0.00000                                              SYS / PHASE SHIFT   
C L1P  0.00000                                              SYS / PHASE SHIFT   
C L5P  0.00000                                              SYS / PHASE SHIFT   
C L2I                                                       SYS / PHASE SHIFT   
C L7I                                                       SYS / PHASE SHIFT   
C L6I                                                       SYS / PHASE SHIFT   
C L7D                                                       SYS / PHASE SHIFT   
J L1C                                                       SYS / PHASE SHIFT   
J L2L  0.00000                                              SYS / PHASE SHIFT   
J L5Q  0.00000                                              SYS / PHASE SHIFT   
J L1L  0.00000                                              SYS / PHASE SHIFT   
I L5A                                                       SYS / PHASE SHIFT   
  2025     1     1    23    30    0.0000000     GPS         TIME OF FIRST OBS   
 C1C    0.000 C2C    0.000 C2P    0.000                     GLONASS COD/PHS/BIS 
DBHZ                                                        SIGNAL STRENGTH UNIT
    18                                                      LEAP SECONDS        
 24 R01  1 R02 -4 R03  5 R04  6 R05  1 R06 -4 R07  5 R08  6 GLONASS SLOT / FRQ #
    R09 -2 R10 -7 R11  0 R12 -1 R13 -2 R14 -7 R15  0 R16 -1 GLONASS SLOT / FRQ #
    R17  4 R18 -3 R19  3 R20  2 R21  4 R22 -3 R23  3 R24  2 GLONASS SLOT / FRQ #
                                                            END OF HEADER       
> 2025 01 01 23 30  0.0000000  0 35
G03         1.000    21938354.294 7 115287087.64507      1844.500 7        42.999                                    21938348.852 5  89833977.07605      1437.268 5        31.547    21938352.085 6  89833881.06706      1437.370 6        36.798
G32         3.000    22295955.769 7 117166228.59807     -2257.283 7        46.507                                    22295954.138 7  91298319.14607     -1758.923 7        43.484    22295953.345 7  91298211.14407     -1758.969 7        43.414
G14         4.000    24296102.652 5                     -2163.366 5        33.473
E07         5.000    24585245.427 7 129196384.50207     -1022.348 7        43.168                                                                    24585244.995 6  96477922.02906      -763.587 6        39.853    24585242.686 6  98994597.38806      -783.368 6        36.299
G08         6.000    22683559.589 5 119202763.99905     -4144.058 5        33.240                                                                                                    22683514.588 5  92885214.63105     -3229.260 5        34.457
G21         8.000    20867823.890 6 109661147.39006     -1522.795 6        41.790                                    20867818.317 4  85450219.64504     -1186.596 4        29.706
G02         9.000    20998032.767 6 110345627.51706       -12.762 6        39.871                                    20998025.054 3  85983438.30603        -9.951 3        23.600
G17        11.000    24166131.111 5                      2037.638 5        33.078                                                                                                    24166042.401 3                      1588.201 3        22.590
E08        12.000    27697380.917 4                     -3358.529 4        25.263                                                                    27697381.768 4                     -2508.486 4        24.797    27697393.333 4                     -2573.663 4        24.301
E12        13.000    28274563.515 4                      1700.090 4        29.545                                                                    28274554.931 4 110955407.19304      1270.006 4        28.673
E29        14.000    25256464.535 6 132723698.93506      1697.560 6        40.248                                                                    25256461.676 6  99111760.50906      1267.867 6        38.856    25256452.380 4 101697354.49604      1301.366 4        28.777
E24        15.000    27905960.972 6 146646823.48106      -988.665 6        36.408                                                                    27905992.250 5 109508985.05405      -738.377 5        31.479    27905964.176 5 112365774.12305      -757.770 5        32.257
E31        17.000                                                                                                                                    27331969.410 5                     -2295.502 5        31.540    27331968.306 4 110054572.48804     -2356.052 4        28.000
E26        19.000    24092693.348 7 126607982.18607     -2031.706 7        43.649                                                                    24092692.000 7  94544970.76707     -1517.092 7        45.719    24092689.544 6  97011295.06506     -1556.782 6        39.030
R06        21.000    20426201.110 5                      1994.466 5        32.898
S36        23.000    38355739.661 5 201560695.03005      -853.810 5        35.052
S23        24.000    38308519.045 7 201312554.29407      -851.109 7        42.195
R12        25.000                                                                                                                                    24113482.492 4                     -2441.225 4        29.782
R20        26.000    20343961.114 5 108788287.31705     -3093.795 5        33.299                                                                    20343960.939 7  84613116.79407     -2406.079 7        43.378
R05        27.000    20025899.196 7 107049892.24707     -3023.949 7        46.115                                                                    20025897.571 7  83261031.20907     -2351.884 7        43.664
E33        28.000    23864803.314 8 125410368.50808       306.692 8        48.796                                                                    23864799.999 7  93650646.50407       229.031 7        46.256    23864800.109 7  96093661.37307       235.053 7        46.393
R21        30.000    19706724.532 7 105454910.54907       829.138 7        42.322                                                                    19706722.466 7  82020318.74407       644.811 7        44.200
R04        31.000    23850652.432 4                     -5135.617 4        26.515
R13        32.000    23918095.553 5                      -663.693 5        31.592
R22        35.000    23558236.042 6 125755481.31206      3068.068 6        38.991                                                                    23558238.352 4  97809824.33004      2386.567 4        28.161
C32        36.000                                                                                                                                    23411881.486 5 121911763.16705      1616.849 5        35.662                                                                    23411877.620 7  99063327.96207      1313.646 7        43.469
C33        37.000                                                                                                                                    25238163.565 4                     -3812.673 4        28.891
C30        38.000                                                                                                                                    22699100.558 7 118200171.18207       878.139 7        44.488                                                                    22699100.764 6  96047347.51706       713.642 6        36.707
C28        40.000                                                                                                                                    24632597.597 4 128268439.26304     -3931.819 4        28.654                                                                    24632599.262 6 104228598.18506     -3194.488 6        36.076
C39        42.000                                                                                                                                    39653438.125 3                       270.840 3        23.790
I01        44.000   373025948.675 5 160693188.95005     -2656.375 5        34.543
C41        49.000                                                                                                                                    22189066.277 6 115544361.66006     -1541.641 6        38.700                                                                    22189068.997 8  93889252.05708     -1252.767 8        48.162
C06        50.000                                                                                                                                    39788113.373 4                       721.494 4        25.429
C27        52.000                                                                                                                                    21847298.471 7 113764593.50607     -2088.162 7        47.664                                                                    21847295.803 8  92443064.41008     -1696.831 8        48.330
I09        60.000    37327122.806 6 146479642.84406      -491.106 6        41.869
> 2025 01 01 23 30  5.0000000  0 33
G03         1.000    21936600.050 7 115277870.82607      1842.654 7        43.566                                    21936595.564 5  89826795.17005      1435.829 5        31.404    21936598.698 6  89826699.15206      1435.825 6        36.291
G32         3.000    22298105.184 7 117177523.71907     -2260.362 7        46.597                                    22298103.097 7  91307120.54607     -1761.321 7        43.060    22298102.276 7  91307012.55107     -1761.378 7        42.591
G14         4.000    24298170.482 6 127687708.18216     -2165.848 6        36.877                                                                                                    24298207.649 4                     -1687.519 4        24.782
E07         5.000    24586219.098 7 129201503.32207     -1024.910 7        42.808                                                                    24586218.672 6  96481744.50806      -765.250 6        38.973    24586217.039 6  98998519.60606      -785.534 6        36.488
G08         6.000    22687504.276 5 119223490.54405     -4145.802 5        32.916                                                                                                    22687457.057 5  92901365.07505     -3230.594 5        33.222
G21         8.000    20869273.945 6 109668767.50106     -1524.785 6        41.590                                    20869268.657 5  85456157.40105     -1188.151 5        30.219
G02         9.000    20998047.042 6 110345696.88206       -14.669 6        39.096                                    20998038.219 3  85983492.37503       -11.432 3        23.048
G17        11.000    24164189.148 6 126983691.46116      2036.094 6        36.699                                                                                                    24164104.176 3                      1584.785 3        22.457
E08        12.000                                                                                                                                    27700575.665 4                     -2509.039 4        24.436    27700594.952 3                     -2575.693 3        21.643
E12        13.000    28272945.981 4                      1699.820 4        27.832                                                                    28272936.630 4 110949060.04104      1269.090 4        28.142
E29        14.000    25254849.681 6 132715215.58006      1695.990 6        38.372                                                                    25254846.960 6  99105425.53306      1266.388 6        37.902    25254839.783 5 101690854.26105      1299.428 5        31.509
E24        15.000    27906902.377 6 146651774.47706      -991.525 6        36.110                                                                    27906934.968 4 109512682.25704      -740.228 4        28.057    27906909.938 5 112369567.81505      -759.457 5        31.796
E31        17.000                                                                                                                                    27334897.907 5                     -2296.744 5        32.874    27334893.019 4 110066352.99304     -2356.043 4        26.479
E26        19.000    24094627.042 7 126618144.85507     -2033.170 7        43.820                                                                    24094625.900 7  94552559.78507     -1518.205 7        45.863    24094623.358 6  97019082.04806     -1557.848 6        39.126
R06        21.000    20424336.211 5                      1991.201 5        33.563
S36        23.000    38356551.109 5 201564964.35805      -853.858 5        35.857
S23        24.000    38309327.322 6 201316811.41206      -851.402 6        41.645
R20        26.000    20346854.351 5 108803763.60605     -3096.581 5        33.060                                                                    20346854.407 7  84625153.89707     -2408.526 7        43.287
R05        27.000    20028729.884 7 107065022.23507     -3027.669 7        45.696                                                                    20028728.205 7  83272798.97607     -2354.724 7        44.638
E33        28.000    23864512.055 8 125408839.09108       305.410 8        48.856                                                                    23864509.026 7  93649504.40607       228.074 7        46.141    23864509.138 7  96092489.49307       233.985 7        46.842
R21        30.000    19705952.958 7 105450773.71707       826.025 7        42.265                                                                    19705949.745 7  82017101.19307       642.455 7        44.269
R13        32.000    23918718.321 4                      -667.623 4        26.120
R22        35.000    23555365.929 6 125740142.31306      3067.827 6        39.033                                                                    23555366.511 4  97797894.05304      2385.839 4        28.910
C32        36.000                                                                                                                                    23410330.298 6 121903685.09606      1614.884 6        38.372                                                                    23410325.667 7  99056763.84407      1312.218 7        43.867
C33        37.000                                                                                                                                    25241827.152 4 131440824.53114     -3813.131 4        26.575
C30        38.000                                                                                                                                    22698258.873 7 118195786.99407       875.899 7        43.769                                                                    22698258.698 6  96043784.99906       711.639 6        36.733
C28        40.000                                                                                                                                                                                                                                                                    24636375.481 6 104244573.52606     -3195.261 6        36.412
C39        42.000                                                                                                                                    39653177.863 3                       273.545 3        20.643
I01        44.000   373029334.076 5 160706472.24605     -2656.621 5        35.157
C41        49.000                                                                                                                                    22190549.483 6 115552076.99406     -1544.162 6        40.675                                                                    22190550.896 8  93895521.38508     -1254.770 8        48.553
C06        50.000                                                                                                                                    39787413.940 3                       720.964 3        23.867
C27        52.000                                                                                                                                    21849305.093 7 113775041.96307     -2090.733 7        47.848                                                                    21849302.235 8  92451554.60808     -1698.904 8        48.254
I09        60.000    37327748.649 6 146482099.55406      -491.509 6        40.446
> 2025 01 01 23 30 10.0000000  0 31
G03         1.000    21934847.394 7 115268661.80807      1841.008 7        43.278                                    21934843.556 5  89819619.34005      1434.543 5        30.732    21934844.766 5  89819523.31105      1434.367 5        34.976
G32         3.000    22300256.979 8 117188832.83908     -2263.189 8        48.083                                    22300254.645 7  91315932.85807     -1763.527 7        42.597    22300254.299 6  91315824.84806     -1763.514 6        41.530
G14         4.000    24300236.246 6 127698544.58006     -2168.533 6        36.076                                                                                                    24300265.024 4                     -1690.683 4        25.654
E07         5.000    24587195.082 7 129206634.02807     -1027.199 7        43.253                                                                    24587195.204 6  96485575.87206      -767.071 6        38.168    24587194.562 6  99002450.92206      -787.038 6        38.168
G08         6.000                                                                                                                                                                    22691402.705 5  92917520.79205     -3231.925 5        31.072
G21         8.000    20870726.153 7 109676396.51607     -1526.671 7        42.404                                    20870720.655 5  85462102.09405     -1189.623 5        30.392
G02         9.000    20998060.056 6 110345775.06706       -16.534 6        38.309                                    20998053.109 3  85983553.29903       -12.881 3        22.762
G17        11.000    24162243.831 6 126973514.91106      2034.676 6        37.183                                                                                                    24162171.738 3                      1585.747 3        20.810
E08        12.000    27703765.996 4                     -3361.575 4        25.353                                                                    27703771.359 3                     -2510.153 3        22.476
E12        13.000    28271329.056 4                      1700.191 4        27.114                                                                    28271320.058 4 110942712.55204      1269.508 4        27.593
E29        14.000    25253231.779 6 132706739.04706      1694.911 6        36.359                                                                    25253233.809 6  99099095.64306      1265.337 6        36.034    25253225.723 5 101684359.32205      1298.227 5        31.381
E24        15.000    27907847.731 6 146656737.24606      -993.746 6        36.098                                                                    27907883.486 4 109516388.37704      -742.698 4        24.361    27907856.668 5 112373370.54205      -761.135 5        32.647
E31        17.000                                                                                                                                    27337825.483 5                     -2297.587 5        33.461    27337819.716 4 110078138.42604     -2357.543 4        26.563
E26        19.000    24096561.502 7 126628313.26707     -2034.229 7        43.141                                                                    24096560.852 7  94560153.08007     -1519.099 7        45.622    24096558.583 6  97026873.43206     -1558.749 6        39.393
R06        21.000    20422470.672 5 108978220.53315      1988.398 5        31.841
S36        23.000    38357366.576 5 201569233.18505      -853.751 5        35.952
S23        24.000    38310136.427 6 201321068.38006      -851.328 6        41.874
R12        25.000    24119430.248 5                     -3144.567 5        31.849
R20        26.000    20349751.800 5 108819253.80605     -3099.353 5        33.910                                                                    20349750.677 7  84637201.82107     -2410.613 7        43.564
R05        27.000    20031563.645 7 107080169.04907     -3030.980 7        46.111                                                                    20031561.798 7  83284579.83007     -2357.394 7        45.640
E33        28.000    23864222.148 8 125407314.50108       304.436 8        48.724                                                                    23864219.098 7  93648365.90907       227.382 7        46.094    23864219.094 7  96091321.30207       233.307 7        47.019
R21        30.000    19705182.383 7 105446651.17407       823.093 7        44.427                                                                    19705179.936 7  82013894.76107       640.248 7        44.634
R22        35.000    23552495.351 6 125724803.67206      3067.763 6        39.661                                                                    23552494.515 5  97785964.06505      2385.644 5        32.377
C32        36.000                                                                                                                                    23408780.045 6 121895615.55406      1613.214 6        36.968                                                                    23408775.899 7  99050206.68607      1310.739 7        44.152
C30        38.000                                                                                                                                    22697419.837 7 118191412.37107       874.015 7        43.507                                                                    22697418.698 6  96040230.32006       710.077 6        37.040
C28        40.000                                                                                                                                    24640153.598 4                     -3933.239 4        26.060                                                                    24640153.286 6 104260552.85606     -3196.130 6        38.126
I01        44.000   373032719.923 5 160719756.56805     -2656.961 5        35.567
C41        49.000                                                                                                                                    22192031.135 6 115559803.77906     -1546.412 6        41.459                                                                    22192034.859 8  93901800.09508     -1256.618 8        48.824
C06        50.000                                                                                                                                    39786722.596 3                       715.726 3        21.214
C27        52.000                                                                                                                                    21851313.956 7 113785501.81507     -2093.070 7        47.772                                                                    21851311.021 7  92460054.12607     -1700.779 7        47.992
I09        60.000    37328374.760 6 146484557.29206      -491.786 6        40.255
> 2025 01 01 23 30 15.0000000  0 31
G03         1.000    21933095.798 7 115259460.99607      1838.990 7        44.391                                    21933092.580 4  89812449.90104      1432.983 4        29.213    21933092.343 5  89812353.81605      1433.244 5        34.443
G10         2.000                                                                                                                                                                    24307546.266 3                     -3052.620 3        20.048
G32         3.000    22302411.869 8 117200156.35508     -2266.401 8        48.088                                    22302408.885 6  91324756.38706     -1766.021 6        41.919    22302409.520 6  91324648.36706     -1766.007 6        41.125
G14         4.000    24302301.126 5 127709393.82605     -2171.422 5        35.995
E07         5.000    24588173.782 7 129211777.05507     -1030.099 7        43.424                                                                    24588174.056 6  96489416.45406      -769.287 6        37.826    24588173.991 6  99006391.69606      -789.360 6        38.676
G21         8.000    20872179.893 7 109684034.85507     -1528.804 7        43.452                                    20872174.362 5  85468054.05905     -1191.273 5        30.792
G02         9.000    20998075.584 5 110345862.42005       -18.485 5        32.605                                    20998069.779 3  85983621.35803       -14.403 3        22.800
G17        11.000                                                                                                                                                                    24160234.850 3                      1583.949 3        23.124
E12        13.000    28269714.943 4                      1699.979 4        24.632                                                                    28269702.627 4 110936365.07304      1268.945 4        26.156
E29        14.000    25251617.001 5 132698269.82205      1692.924 5        33.042                                                                    25251622.460 5  99092771.23205      1264.042 5        35.919    25251614.690 5 101677869.87105      1297.015 5        34.062
E24        15.000    27908793.579 5 146661712.20305      -996.405 5        34.500                                                                    27908830.718 4 109520103.56504      -744.160 4        25.233    27908805.534 5 112377182.58205      -763.176 5        32.401
E31        17.000    27340780.216 5 143676841.65815     -3078.519 5        33.072                                                                    27340753.434 5 107290990.07315     -2298.972 5        33.443    27340749.373 4 110089929.02704     -2358.741 4        26.886
E26        19.000    24098497.436 7 126638487.85307     -2035.837 7        42.700                                                                    24098497.054 7  94567750.99107     -1520.221 7        45.771    24098494.170 6  97034669.53506     -1559.887 6        40.265
R06        21.000    20420606.594 5 108968287.78805      1984.742 5        33.036
S36        23.000    38358172.577 5 201573502.16305      -854.130 5        35.848
S23        24.000    38310948.084 6 201325325.55006      -851.721 6        40.710
R12        25.000    24122362.703 5                     -3148.000 5        35.152
R20        26.000    20352653.996 5 108834758.30305     -3102.375 5        31.668                                                                    20352651.198 7  84649260.90307     -2413.146 7        44.734
R05        27.000    20034400.330 8 107095332.93908     -3034.761 8        48.218                                                                    20034399.151 7  83296373.96007     -2360.356 7        46.356
E33        28.000    23863933.016 8 125405795.17308       303.090 8        48.989                                                                    23863929.890 7  93647231.35307       226.357 7        46.253    23863930.092 7  96090157.15507       232.221 7        47.698
R21        30.000    19704413.591 7 105442543.17507       819.852 7        44.078                                                                    19704412.428 7  82010699.66107       637.688 7        45.350
R22        35.000    23549621.735 6 125709465.89106      3067.230 6        41.035                                                                    23549618.655 5  97774034.60605      2385.697 5        32.617
C32        36.000                                                                                                                                    23407229.068 5 121887554.91205      1611.330 5        34.933                                                                    23407227.713 7  99043656.71307      1309.319 7        43.807
C30        38.000                                                                                                                                    22696581.946 7 118187047.72607       871.797 7        43.814                                                                    22696580.388 6  96036683.65506       708.548 6        37.282
C28        40.000                                                                                                                                    24643932.861 5                     -3934.504 5        32.473                                                                    24643931.179 6 104276536.44106     -3197.242 6        39.150
C39        42.000                                                                                                                                    39652633.944 4                       268.878 4        24.481
I01        44.000   373036106.246 5 160733042.15805     -2657.186 5        35.048
C41        49.000                                                                                                                                    22193515.521 7 115567542.47707     -1549.232 7        43.242                                                                    22193521.157 8  93908088.41808     -1258.706 8        49.590
C06        50.000                                                                                                                                                                                                    39786037.129 4                       556.530 4        26.599
C27        52.000                                                                                                                                    21853324.722 7 113795973.44907     -2095.709 7        47.999                                                                    21853322.018 7  92468563.20607     -1702.838 7        47.916
I09        60.000    37329000.943 6 146487016.33206      -492.059 6        39.802
> 2025 01 01 23 30 20.0000000  0 34
G03         1.000    21931347.128 7 115250267.78307      1838.081 7        44.268                                    21931342.450 4  89805286.35404      1432.273 4        28.910    21931343.117 5  89805190.34605      1432.131 5        35.376
G32         3.000    22304568.838 7 117211493.66407     -2268.816 7        47.769                                    22304565.826 6  91333590.65506     -1767.911 6        41.309    22304566.950 6  91333482.62506     -1767.871 6        40.372
G14         4.000    24304370.668 6 127720255.35306     -2173.368 6        36.181
E07         5.000    24589154.957 7 129216931.83607     -1032.162 7        43.323                                                                    24589156.124 6  96493265.77706      -770.819 6        37.856    24589154.942 6  99010341.43106      -790.759 6        39.598
G08         6.000    22699301.539 5 119285710.89405     -4150.335 5        34.800                                                                                                    22699292.661 3                     -3232.966 3        21.571
G21         8.000    20873635.184 7 109691681.94407     -1530.250 7        43.446                                    20873629.696 5  85474012.84705     -1192.403 5        31.245
G02         9.000    20998095.924 6 110345958.32506       -19.908 6        37.474                                    20998088.261 3  85983696.07603       -15.523 3        23.390
E08        12.000                                                                                                                                    27710158.965 4                     -2512.485 4        24.541
E12        13.000    28268103.008 3                      1699.184 3        23.219                                                                    28268089.193 4 110930017.26604      1269.019 4        27.629
E29        14.000    25250007.188 4 132689807.26104      1692.384 4        29.147                                                                    25250011.037 5  99086451.80705      1263.135 5        32.892    25250005.105 5 101671385.58505      1296.436 5        34.752
E24        15.000    27909739.817 5 146666698.81405      -998.453 5        34.757                                                                    27909783.974 3 109523827.27703      -745.304 3        23.467    27909752.955 5 112381003.48205      -764.899 5        31.094
E31        17.000    27343707.780 5 143692235.44105     -3079.233 5        30.340                                                                    27343683.363 5 107302485.47705     -2299.559 5        33.299    27343678.054 4 110101724.31304     -2359.646 4        26.515
E26        19.000    24100435.232 7 126648668.01507     -2036.569 7        42.296                                                                    24100434.394 7  94575353.06907     -1520.847 7        45.074    24100431.118 6  97042469.91906     -1560.386 6        39.868
R06        21.000    20418748.242 5 108958370.15205      1981.745 5        33.671
S36        23.000    38358994.220 5 201577770.51405      -853.596 5        33.443
S23        24.000    38311754.434 6 201329582.42606      -851.189 6        40.422
R12        25.000    24125302.974 5 128873117.07115     -3150.697 5        34.633
R20        26.000                                                                                                                                    20355552.907 7  84661330.70607     -2415.026 7        44.888
R05        27.000    20037240.930 8 107110513.56508     -3037.750 8        49.366                                                                    20037238.847 7  83308181.09207     -2362.677 7        46.856
E33        28.000    23863644.410 8 125404280.49108       302.514 8        48.651                                                                    23863641.725 7  93646100.25007       225.851 7        46.398    23863641.990 8  96088996.55508       231.800 8        48.244
R21        30.000    19703648.161 7 105438449.14707       817.541 7        43.964                                                                    19703646.636 7  82007515.37907       635.820 7        44.679
R04        31.000    23869819.023 3                     -5136.966 3        19.791
R13        32.000    23920583.600 4                      -679.525 4        24.000
R22        35.000    23546746.411 6 125694128.32606      3067.566 6        40.367                                                                    23546744.623 6  97762105.51306      2385.912 6        36.185
C32        36.000                                                                                                                                    23405679.651 5 121879502.67605      1609.980 5        35.657                                                                    23405681.901 7  99037113.48107      1307.945 7        44.564
C33        37.000                                                                                                                                    25252817.159 4                     -3815.918 4        29.318
C30        38.000                                                                                                                                    22695745.892 7 118182692.45707       870.209 7        42.370                                                                    22695744.962 6  96033144.62606       706.914 6        38.628
C28        40.000                                                                                                                                    24647715.158 6                     -3935.274 6        36.820                                                                    24647709.656 6 104292523.78206     -3198.014 6        39.979
C39        42.000                                                                                                                                    39652375.489 5                       268.813 5        30.408
I01        44.000   373039491.020 5 160746328.61005     -2657.467 5        34.943
C41        49.000                                                                                                                                    22195003.723 7 115575292.45807     -1551.096 7        45.102                                                                    22195009.422 8  93914385.88008     -1260.443 8        48.931
C06        50.000                                                                                                                                    39785341.736 3                       718.749 3        21.357    39785352.806 3                       549.258 3        19.343
C27        52.000                                                                                                                                    21855337.482 7 113806456.32807     -2097.665 7        47.551                                                                    21855335.277 7  92477081.36107     -1704.594 7        47.186
I09        60.000    37329628.666 6 146489476.24706      -492.068 6        40.808
> 2025 01 01 23 30 25.0000000  0 32
G03         1.000    21929599.267 7 115241083.19107      1835.964 7        44.442                                    21929594.466 4  89798129.50804      1430.620 4        28.749    21929594.190 5  89798033.50505      1430.476 5        33.443
G32         3.000    22306729.488 7 117222845.72907     -2271.948 7        46.662                                    22306725.548 6  91342436.41306     -1770.347 6        41.435    22306727.020 6  91342328.40706     -1770.365 6        40.791
G14         4.000    24306444.481 5 127731130.20705     -2176.314 5        34.986
E07         5.000    24590137.925 7 129222099.25107     -1034.890 7        42.292                                                                    24590139.219 6  96497124.57206      -772.818 6        38.216    24590138.283 6  99014300.90506      -793.092 6        39.231
G08         6.000    22703259.510 5 119306465.32405     -4151.719 5        33.683
G21         8.000    20875091.846 7 109699338.75607     -1532.393 7        43.930                                    20875086.913 5  85479979.21005     -1194.074 5        31.260
G02         9.000    20998116.883 6 110346063.92306       -22.179 6        40.243                                    20998108.517 4  85983778.35804       -17.276 4        24.301
G17        11.000    24156392.744 5 126943029.14805      2029.816 5        35.910                                    24156406.998 1  98916445.92511      1581.557 1         8.952    24156362.005 3                      1583.018 3        22.152
E08        12.000    27713390.278 3                     -3365.197 3        23.752                                                                    27713358.867 3                     -2513.932 3        22.190
E12        13.000    28266489.826 4                      1700.423 4        25.850                                                                    28266477.142 4 110923669.67704      1269.300 4        27.066
E29        14.000    25248396.951 4 132681352.32604      1690.204 4        26.287                                                                    25248400.631 5  99080138.06705      1261.884 5        31.192    25248396.986 6 101664907.17806      1294.930 6        36.749
E24        15.000    27910690.662 5 146671697.93605     -1000.949 5        32.204                                                                                                                                    27910703.781 4 112384834.05904      -767.268 4        29.564
E31        17.000    27346636.327 4 143707636.42404     -3081.038 4        28.227                                                                    27346613.646 5 107313986.17805     -2300.723 5        34.876    27346610.376 4 110113525.00504     -2360.929 4        28.427
E26        19.000    24102374.215 7 126658854.70207     -2038.146 7        43.283                                                                    24102372.720 7  94582960.01507     -1521.988 7        45.710    24102369.781 6  97050275.29306     -1561.736 6        41.139
R06        21.000    20416894.200 5 108948468.85505      1978.544 5        35.048
S36        23.000    38359793.491 5 201582040.05205      -854.067 5        32.713
S23        24.000    38312564.209 6 201333840.11606      -851.663 6        41.275
R20        26.000                                                                                                                                    20358457.726 7  84673411.87907     -2417.583 7        44.740
R05        27.000    20040084.185 8 107125711.61008     -3041.549 8        49.704                                                                    20040082.380 7  83320001.79207     -2365.647 7        47.507
E33        28.000    23863356.789 8 125402771.45208       301.105 8        48.343                                                                    23863354.555 7  93644973.38007       224.818 7        46.365    23863354.657 8  96087840.28108       230.690 8        48.720
R21        30.000    19702885.936 7 105434370.14807       814.126 7        44.728                                                                    19702884.264 7  82004342.84707       633.113 7        44.220
R04        31.000    23874600.716 4                     -5136.488 4        24.195
R22        35.000    23543874.122 6 125678791.99506      3066.975 6        40.000                                                                    23543871.804 6  97750177.30406      2385.503 6        36.862
C32        36.000                                                                                                                                    23404134.743 6 121871459.62106      1607.536 6        36.669                                                                    23404137.194 7  99030577.85907      1306.369 7        43.979
C33        37.000                                                                                                                                    25256482.750 4                     -3816.951 4        29.156
C30        38.000                                                                                                                                    22694912.152 7 118178347.58907       867.849 7        43.719                                                                    22694910.350 6  96029614.05806       705.288 6        37.958
C28        40.000                                                                                                                                    24651493.415 6 128366784.20716     -3936.716 6        36.707                                                                    24651488.976 6 104308515.68606     -3198.688 6        40.231
C39        42.000                                                                                                                                    39652115.057 4                       267.725 4        28.445
I01        44.000   373042877.098 5 160759616.65605     -2657.980 5        35.090
C41        49.000                                                                                                                                    22196494.085 7 115583054.64707     -1553.833 7        43.718                                                                    22196499.881 8  93920693.34108     -1262.493 8        49.267
C27        52.000                                                                                                                                    21857351.788 7 113816951.36907     -2100.393 7        46.349                                                                    21857350.482 7  92485609.46207     -1706.588 7        47.161
I09        60.000    37330256.044 6 146491937.75806      -492.537 6        41.061
> 2025 01 01 23 30 30.0000000  0 32
G03         1.000    21927852.602 7 115231906.70807      1834.516 7        42.284                                    21927848.020 4  89790979.01604      1429.486 4        29.014    21927848.688 5  89790883.03205      1429.233 5        33.665
G32         3.000    22308892.622 7 117234212.05007     -2274.732 7        46.885                                    22308888.159 6  91351293.27806     -1772.516 6        41.776    22308889.931 6  91351185.26906     -1772.428 6        40.687
G14         4.000    24308517.945 5 127742017.70505     -2178.746 5        30.234                                                                                                    24308499.128 4                     -1697.781 4        28.464
E07         5.000    24591123.474 6 129227278.87406     -1037.051 6        41.216                                                                    24591125.234 6  96500992.47206      -774.583 6        38.856    24591123.486 6  99018269.69006      -794.713 6        39.423
G08         6.000    22707219.213 4 119327226.83604     -4152.844 4        27.473
G21         8.000    20876550.501 7 109707004.81907     -1534.128 7        42.988                                    20876545.780 5  85485952.76905     -1195.422 5        30.921
G02         9.000    20998138.508 6 110346178.54206       -23.883 6        39.595                                    20998130.509 4  85983867.66304       -18.598 4        24.842
E08        12.000                                                                                                                                    27716561.045 3                     -2514.726 3        20.286    27716576.013 3                     -2580.253 3        22.057
E12        13.000    28264868.272 4                      1699.854 4        25.955                                                                    28264856.589 4 110917321.98204      1269.633 4        26.587
E29        14.000    25246786.181 3                      1689.172 3        22.210                                                                    25246792.365 5  99073829.66605      1261.164 5        31.125    25246790.266 6 101658434.27306      1293.735 6        36.968
E24        15.000    27911645.371 5 146676709.19805     -1003.328 5        30.023                                                                    27911652.631 5 109531318.01415      -749.237 5        35.019    27911661.683 4 112388673.88004      -768.484 4        29.185
E31        17.000                                                                                                                                    27349546.945 5 107325491.77205     -2301.600 5        35.619    27349541.765 4 110125330.72904     -2361.653 4        28.919
E26        19.000    24104313.665 7 126669047.45507     -2039.140 7        43.403                                                                    24104312.147 7  94590571.47007     -1522.716 7        45.735    24104309.396 7  97058085.30507     -1562.378 7        42.349
R06        21.000    20415040.436 5 108938583.34605      1975.517 5        35.971
S36        23.000    38360604.657 5 201586309.49805      -853.882 5        34.929
S23        24.000    38313376.291 6 201338097.94906      -851.637 6        41.161
R12        25.000                                                                                                                                    24131239.600 4                     -2455.399 4        28.967
R20        26.000    20361356.735 3                     -3111.747 3        22.152                                                                    20361364.951 7                     -2419.542 7        44.236
R05        27.000    20042930.626 8 107140926.67808     -3044.672 8        49.396                                                                    20042928.941 8  83331835.75308     -2368.068 8        48.212
E33        28.000    23863070.776 7 125401267.56407       300.279 7        47.455                                                                    23863068.285 7  93643850.34807       224.187 7        46.402    23863068.518 8  96086687.95108       230.055 8        48.892
R21        30.000    19702126.445 7 105430305.64007       811.437 7        45.333                                                                    19702124.935 7  82001181.55907       631.143 7        44.724
R22        35.000    23541001.972 6 125663456.38006      3067.071 6        40.422                                                                    23540999.535 6  97738249.64606      2385.626 6        38.979
C32        36.000                                                                                                                                    23402592.049 5 121863425.30405      1606.123 5        34.886                                                                    23402594.390 7  99024049.34807      1305.110 7        44.251
C33        37.000                                                                                                                                    25260148.984 5                     -3817.613 5        31.162
C30        38.000                                                                                                                                    22694079.722 7 118174012.56507       866.010 7        44.095                                                                    22694077.349 6  96026091.51106       703.852 6        36.960
C28        40.000                                                                                                                                    24655272.521 6 128386469.66006     -3937.545 6        37.803                                                                    24655268.841 6 104324511.75206     -3199.632 6        40.827
C39        42.000                                                                                                                                    39651861.051 4                       266.698 4        28.341
I01        44.000   373046263.455 5 160772905.85705     -2657.892 5        33.683
C41        49.000                                                                                                                                    22197986.242 7 115590828.60507     -1555.999 7        43.814                                                                    22197992.650 8  93927010.32108     -1264.318 8        49.053
C06        50.000                                                                                                                                    39783970.115 3                       716.643 3        21.048
C27        52.000                                                                                                                                    21859368.982 7 113827458.06007     -2102.530 7        46.752                                                                    21859368.549 7  92494147.02207     -1708.493 7        47.273
I09        60.000    37330883.164 6 146494400.52406      -492.896 6        40.586
> 2025 01 01 23 30 35.0000000  0 35
G03         1.000    21926107.964 7 115222738.53007      1832.790 7        42.121                                    21926103.193 4  89783834.99404      1428.146 4        28.986    21926103.880 5  89783738.98205      1428.195 5        33.240
G10         2.000    24322467.964 4                     -3918.550 4        25.128
G32         3.000    22311058.513 8 117245592.85708     -2277.740 8        48.237                                    22311053.699 7  91360161.42907     -1774.858 7        42.470    22311055.781 6  91360053.43806     -1774.837 6        41.228
G14         4.000    24310577.965 4 127752918.32304     -2181.677 4        28.844                                                                                                    24310576.282 4                     -1700.084 4        25.985
E07         5.000    24592110.995 6 129232470.91206     -1039.630 6        39.943                                                                    24592113.582 6  96504869.63306      -776.626 6        39.204    24592111.211 6  99022247.99306      -796.712 6        40.153
G08         6.000                                                                                                                                                                    22711167.421 3                     -3237.906 3        21.333
G21         8.000    20878011.162 7 109714680.27407     -1536.214 7        42.569                                    20878006.319 5  85491933.65305     -1197.051 5        30.687
G02         9.000    20998160.812 6 110346302.45106       -25.887 6        39.631                                    20998154.280 4  85983964.21304       -20.165 4        26.228
G17        11.000    24152551.181 5 126922742.52005      2026.993 5        33.275                                    24152547.156 1  98900638.17901      1579.511 1        10.074    24152526.555 5                      1579.525 5        31.306
E08        12.000                                                                                                                                    27719763.245 3                     -2514.842 3        20.238    27719776.804 4                     -2580.242 4        25.038
E12        13.000    28263246.469 4                      1699.930 4        25.579                                                                    28263239.356 4 110910974.39704      1269.594 4        26.467
E29        14.000    25245183.002 4                      1686.515 4        27.210                                                                    25245186.615 5  99067526.81605      1260.008 5        31.343    25245184.773 6 101651967.02406      1292.666 6        38.874
E24        15.000    27912600.359 5 146681732.74305     -1005.966 5        30.694                                                                    27912606.728 5 109535069.35405      -751.340 5        35.376    27912620.019 5 112392523.14805      -770.915 5        30.400
E31        17.000                                                                                                                                    27352480.541 5 107337002.43405     -2302.493 5        35.643    27352474.832 4 110137141.67504     -2362.373 4        29.972
E26        19.000    24106253.894 7 126679246.47607     -2040.577 7        42.116                                                                    24106252.721 7  94598187.62207     -1523.869 7        45.419    24106250.585 7  97065900.14307     -1563.489 7        42.855
R06        21.000    20413190.355 6 108928713.71506      1972.081 6        36.272
S36        23.000    38361429.886 5 201590579.36605      -853.913 5        35.238
S23        24.000    38314188.012 6 201342356.21406      -851.788 6        40.594
R12        25.000    24134094.009 6 128920448.37116     -3160.269 6        37.032                                                                    24134190.281 4                     -2457.932 4        26.527
R20        26.000    20364269.572 4                     -3114.399 4        27.497                                                                    20364275.014 7  84697607.56817     -2421.937 7        43.143
R05        27.000    20045779.297 8 107156159.03808     -3048.257 8        49.025                                                                    20045778.795 8  83343683.17308     -2370.925 8        49.207
E33        28.000    23862785.978 7 125399769.07307       299.045 7        46.336                                                                    23862783.255 7  93642731.32807       223.314 7        46.548    23862783.313 8  96085539.74308       229.158 8        49.151
R21        30.000    19701369.612 7 105426256.05107       808.324 7        46.249                                                                    19701368.139 7  81998031.86607       628.781 7        44.628
R22        35.000    23538127.662 6 125648121.80206      3066.763 6        38.607                                                                    23538127.836 6  97726322.76706      2385.021 6        39.892
C32        36.000                                                                                                                                    23401052.783 6 121855400.08206      1603.780 6        37.183                                                                    23401053.080 7  99017528.18707      1303.336 7        44.647
