     3.04           OBSERVATION DATA    M                   RINEX VERSION / TYPE
ssrcrin-15.6.1x                         20250101 221500 UTC PGM / RUN BY / DATE 
(00000000023479385599111004) Septentrio proprietary         COMMENT             
ract                                                        MARKER NAME         
01                                                          MARKER NUMBER       
geodetic                                                    MARKER TYPE         
NFB                 CLIMERS@TUW                             OBSERVER / AGENCY   
3296359             SEPT ASTERX SB3 PROB4.14.4              REC # / TYPE / VERS 
Unknown             Unknown                                 ANT # / TYPE        
  4127447.3878  1206915.1331  4695542.6556                  APPROX POSITION XYZ 
        0.0000        0.0000        0.0000                  ANTENNA: DELTA H/E/N
G   23 X1  C1C L1C D1C S1C C1W S1W C2W L2W D2W S2W C2L L2L  SYS / # / OBS TYPES 
       D2L S2L C5Q L5Q D5Q S5Q C1L L1L D1L S1L              SYS / # / OBS TYPES 
E   21 X1  C1C L1C D1C S1C C6C L6C D6C S6C C5Q L5Q D5Q S5Q  SYS / # / OBS TYPES 
       C7Q L7Q D7Q S7Q C8Q L8Q D8Q S8Q                      SYS / # / OBS TYPES 
S    9 X1  C1C L1C D1C S1C C5I L5I D5I S5I                  SYS / # / OBS TYPES 
R   17 X1  C1C L1C D1C S1C C2P L2P D2P S2P C2C L2C D2C S2C  SYS / # / OBS TYPES 
       C3Q L3Q D3Q S3Q                                      SYS / # / OBS TYPES 
C   25 X1  C1P L1P D1P S1P C5P L5P D5P S5P C2I L2I D2I S2I  SYS / # / OBS TYPES 
       C7I L7I D7I S7I C6I L6I D6I S6I C7D L7D D7D S7D      SYS / # / OBS TYPES 
J   17 X1  C1C L1C D1C S1C C2L L2L D2L S2L C5Q L5Q D5Q S5Q  SYS / # / OBS TYPES 
       C1L L1L D1L S1L                                      SYS / # / OBS TYPES 
I    5 X1  C5A L5A D5A S5A                                  SYS / # / OBS TYPES 
SEPTENTRIO RECEIVERS OUTPUT ALIGNED CARRIER PHASES.         COMMENT             
NO FURTHER PHASE SHIFT APPLIED IN THE RINEX ENCODER.        COMMENT             
G L1C                                                       SYS / PHASE SHIFT   
G L2W                                                       SYS / PHASE SHIFT   
G L2L  0.00000                                              SYS / PHASE SHIFT   
G L5Q  0.00000                                              SYS / PHASE SHIFT   
G L1L  0.00000                                              SYS / PHASE SHIFT   
E L1C  0.00000                                              SYS / PHASE SHIFT   
E L6C  0.00000                                              SYS / PHASE SHIFT   
E L5Q  0.00000                                              SYS / PHASE SHIFT   
E L7Q  0.00000                                              SYS / PHASE SHIFT   
E L8Q  0.00000                                              SYS / PHASE SHIFT   
S L1C                                                       SYS / PHASE SHIFT   
S L5I                                                       SYS / PHASE SHIFT   
R L1C                                                       SYS / PHASE SHIFT   
R L2P  0.00000                                              SYS / PHASE SHIFT   
R L2C                                                       SYS / PHASE SHIFT   
R L3Q  0.00000                                              SYS / PHASE SHIFT   
C L1P  0.00000                                              SYS / PHASE SHIFT   
C L5P  0.00000                                              SYS / PHASE SHIFT   
C L2I                                                       SYS / PHASE SHIFT   
C L7I                                                       SYS / PHASE SHIFT   
C L6I                                                       SYS / PHASE SHIFT   
C L7D                                                       SYS / PHASE SHIFT   
J L1C                                                       SYS / PHASE SHIFT   
J L2L  0.00000                                              SYS / PHASE SHIFT   
J L5Q  0.00000                                              SYS / PHASE SHIFT   
J L1L  0.00000                                              SYS / PHASE SHIFT   
I L5A                                                       SYS / PHASE SHIFT   
  2025     1     1    22    15    0.0000000     GPS         TIME OF FIRST OBS   
 C1C    0.000 C2C    0.000 C2P    0.000                     GLONASS COD/PHS/BIS 
DBHZ                                                        SIGNAL STRENGTH UNIT
    18                                                      LEAP SECONDS        
 24 R01  1 R02 -4 R03  5 R04  6 R05  1 R06 -4 R07  5 R08  6 GLONASS SLOT / FRQ #
    R09 -2 R10 -7 R11  0 R12 -1 R13 -2 R14 -7 R15  0 R16 -1 GLONASS SLOT / FRQ #
    R17  4 R18 -3 R19  3 R20  2 R21  4 R22 -3 R23  3 R24  2 GLONASS SLOT / FRQ #
                                                            END OF HEADER       
> 2025 01 01 22 15  0.0000000  0 33
G14         1.000    24160487.883 6 126964302.91406       502.533 6        37.062                                    24160482.326 1  98933129.77901       391.622 1         8.762    24160482.411 5  98933136.80405       391.582 5        32.778
G10         2.000    21812584.155 7 114626068.12407     -3086.751 7        44.480                                    21812592.202 4  89318940.99504     -2405.265 4        27.102    21812588.803 5  89318901.98405     -2405.181 5        34.519
G32         3.000    22148557.708 4 116391683.40604       519.813 4        28.360                                    22148541.211 4  90694602.90304       405.059 4        29.194    22148542.219 6  90694597.87806       405.083 6        40.317
E07         5.000                                                                                                                                    25227172.459 4  98996717.30304       778.819 4        26.108    25227126.995 6 101579173.99506       798.942 6        40.360
G08         6.000    20516206.837 7 107813924.75207     -2079.901 7        44.932                                    20516204.353 7  84010417.49507     -1620.703 7        42.353    20516204.945 7  84010445.51207     -1620.757 7        42.618
G27         7.000    22123153.939 6 116257949.98806     -4028.439 6        36.533                                    22123154.384 4  90590618.76404     -3139.029 4        25.910    22123153.921 5  90590613.75005     -3138.996 5        34.390
G21         8.000    20844954.856 6 109540986.83106        35.416 6        40.825                                    20844948.352 2  85356569.78502        27.611 2        14.571
G02         9.000    22167881.537 7 116493037.57607      1225.026 7        43.329                                    22167877.460 4  90773676.68904       954.566 4        29.877
E08        12.000    26077143.822 5 137036431.02005     -1650.853 5        35.900                                                                    26077143.836 6 102332354.13206     -1232.892 6        39.042    26077144.249 5 105001868.34405     -1264.868 5        35.324
E24        15.000    28558105.049 5 150074021.08105      1024.117 5        30.060                                                                    28558136.002 5 112068261.35305       764.885 5        30.883    28558139.483 4                       784.550 4        27.569
E13        16.000    25970953.007 4 136478238.24404     -2945.494 4        26.886                                                                    25970951.383 5 101915609.83105     -2199.830 5        31.525    25970951.863 5 104574256.13205     -2256.919 5        32.826
E31        17.000    25985527.774 5 136554861.82105     -1299.370 5        30.875                                                                    25985515.840 6 101972775.27306      -970.215 6        38.126    25985515.322 6 104632922.49306      -995.753 6        40.262
E26        19.000    23392510.970 8 122928465.12408     -1025.491 8        48.832                                                                    23392508.250 7  91797304.69407      -765.828 7        44.971    23392508.702 7  94191949.70907      -785.731 7        44.831
S36        23.000    38224649.842 6 200871782.68306      -852.451 6        36.227
S23        24.000    38179173.995 6 200632833.81006      -850.644 6        41.282
R12        25.000                                                                                                                                    23479725.669 5                       283.839 5        30.460
R20        26.000    19428915.913 6 103895165.13706      -558.443 6        37.456                                                                    19428915.846 7  80807526.60807      -434.144 7        45.687
R05        27.000    19617826.083 7 104868488.12707       775.845 7        45.434                                                                    19617820.790 5  81564396.50805       603.751 5        33.970
E33        28.000    25046748.712 7 131621526.28007       989.091 7        44.033                                                                    25046756.717 6  98288804.58706       738.633 6        36.658    25046740.164 5 100852941.45005       758.035 5        34.171
R21        30.000    21799723.056 5 116654968.13605      2395.639 5        34.114                                                                    21799725.371 6  90731473.33906      1863.260 6        38.778
R04        31.000    20681201.667 7 110746870.53707     -3353.827 7        42.146                                                                    20681206.336 5  86136429.27605     -2608.594 5        30.506
C32        36.000                                                                                                                                    25941763.013 5 135085539.20105      2660.436 5        31.826                                                                    25941758.830 5 109768086.98805      2162.043 5        33.695
C33        37.000                                                                                                                                    23059632.165 7 120077560.81507     -2372.306 7        47.216                                                                    23059642.360 7  97572885.15507     -1927.664 7        44.752
C30        38.000                                                                                                                                    24631019.450 6 128260187.34006      1997.509 6        40.698                                                                    24631021.476 6 104221931.96006      1623.003 6        37.841
C28        40.000                                                                                                                                    22345046.008 7 116356479.20407     -2641.352 7        43.509                                                                    22345040.773 6  94549182.17806     -2146.273 6        38.601
R11        41.000    22950396.065 5                     -3230.699 5        31.766
I01        44.000   370710660.191 7 151607491.36107     -2416.400 7        43.249
C13        45.000                                                                                                                                    39898196.703 4                     -1810.111 4        28.739    39898183.834 4 160653520.44504     -1399.121 4        28.142
C14        47.000                                                                                                                                    24789741.618 5 129086775.52305     -3581.961 5        33.431    24789736.514 6  99818210.81306     -2769.817 6        39.459    24789760.623 5 104893464.67905     -2911.075 5        30.936
C41        49.000                                                                                                                                    22440781.078 7 116855096.72107       761.245 7        46.104                                                                    22440784.168 6  94954344.38106       618.291 6        36.336
C27        52.000                                                                                                                                    21531825.007 7 112121846.81807       -90.477 7        47.194                                                                    21531824.835 7  91108197.84707       -73.489 7        43.691
C36        56.000                                                                                                                                                                                                                                                                    26549595.951 4 112339966.12704     -1875.729 4        28.427
I06        58.000    38473103.247 6 150976886.79806      -533.196 6        37.108
> 2025 01 01 22 15  5.0000000  0 33
G14         1.000    24160011.020 5 126961797.69705       499.532 5        34.771                                    24160005.625 1  98931177.71401       389.234 1         9.619    24160006.215 5  98931184.69405       389.106 5        32.317
G10         2.000    21815522.706 7 114641505.87807     -3088.465 7        45.156                                    21815527.719 4  89330970.42904     -2406.590 4        29.318    21815523.339 5  89330931.47305     -2406.628 5        33.928
G32         3.000                                                                                                                                                                    22148048.801 6  90692577.99806       402.682 6        39.940
E07         5.000    25226172.425 3                      1038.497 3        20.119                                                                                                                                    25226136.844 6 101575183.04406       797.439 6        40.384
G08         6.000    20518187.844 7 107824331.82607     -2082.980 7        45.786                                    20518185.219 7  84018526.91107     -1623.113 7        42.819    20518185.472 7  84018554.93207     -1623.186 7        42.066
G27         7.000    22126987.357 6 116278096.15606     -4030.176 6        38.949                                    22126988.165 4  90606317.06104     -3140.393 4        26.623    22126987.501 5  90606312.07605     -3140.455 5        34.857
G21         8.000    20844922.983 7 109540813.56007        33.803 7        42.184                                    20844915.736 2  85356434.83202        26.286 2        14.190
G02         9.000    22166717.672 7 116486915.06407      1223.934 7        42.453                                    22166711.860 4  90768905.90004       953.708 4        29.422
E08        12.000    26078717.552 5 137044692.05705     -1653.621 5        35.071                                                                    26078714.727 6 102338523.06906     -1234.758 6        38.174    26078717.156 5 105008198.20505     -1267.054 5        34.233
E24        15.000                                                                                                                                    28557164.954 5 112064440.24105       763.331 5        30.370    28557171.748 4                       783.457 4        27.293
E13        16.000                                                                                                                                    25973755.498 5 101926608.94305     -2200.428 5        31.208    25973752.361 5 104585542.15005     -2257.746 5        31.713
E31        17.000    25986768.781 5 136561365.11005     -1302.113 5        30.762                                                                    25986753.317 6 101977631.59006      -972.288 6        37.138    25986752.775 6 104637905.47206      -997.626 6        40.191
E26        19.000    23393487.014 8 122933595.24708     -1026.651 8        48.899                                                                    23393484.217 7  91801135.62207      -766.642 7        44.214    23393485.151 7  94195880.57707      -786.644 7        45.249
S36        23.000    38225457.829 6 200876044.26006      -852.246 6        36.348
S23        24.000    38179975.073 6 200637087.11306      -850.860 6        41.194
R12        25.000                                                                                                                                    23479395.981 5                       280.511 5        33.922
R20        26.000    19429437.982 6 103897962.53306      -560.862 6        37.849                                                                    19429438.919 7  80809702.37807      -436.267 7        44.674
R05        27.000    19617104.989 7 104864619.77307       771.531 7        45.679                                                                    19617098.355 6  81561387.79706       600.096 6        36.775
E33        28.000    25045807.730 7 131616582.06107       988.500 7        43.632                                                                    25045814.634 6  98285112.49506       738.165 6        38.604    25045800.005 5 100849153.04305       757.355 5        34.938
R21        30.000    21797488.210 6 116642991.75106      2394.692 6        36.234                                                                    21797486.376 6  90722158.37206      1862.458 6        39.336
R04        31.000    20684334.576 7 110763648.85807     -3357.613 7        43.382                                                                    20684340.284 5  86149479.11905     -2611.732 5        30.302
C32        36.000                                                                                                                                    25939209.482 5 135072238.84005      2659.540 5        31.517                                                                    25939204.716 5 109757279.35905      2161.435 5        33.150
C33        37.000                                                                                                                                    23061911.836 7 120089428.25007     -2374.767 7        47.837                                                                    23061922.047 7  97582528.41607     -1929.641 7        44.295
C30        38.000                                                                                                                                    24629101.798 6 128250201.24506      1996.787 6        40.195                                                                    24629103.486 6 104213817.44206      1622.624 6        37.437
C28        40.000                                                                                                                                    22347582.832 7 116369689.94107     -2642.997 7        43.710                                                                    22347577.790 6  94559916.98206     -2147.571 6        38.015
R11        41.000    22953425.777 5 122656145.39415     -3234.139 5        32.856                                                                    22953489.151 4                     -2515.425 4        26.623
I01        44.000   370713739.739 7 151619573.69407     -2416.679 7        43.289
C13        45.000                                                                                                                                    39899933.432 4                     -1810.257 4        29.166    39899923.286 4 160660518.33504     -1399.664 4        26.683
C14        47.000                                                                                                                                    24793178.839 5 129104689.19205     -3583.272 5        32.707    24793181.711 6  99832062.78006     -2770.998 6        40.465    24793197.959 5 104908021.03005     -2911.850 5        32.377
C41        49.000                                                                                                                                    22440050.947 7 116851296.73407       758.716 7        46.079                                                                    22440055.375 6  94951256.57706       616.503 6        36.843
C27        52.000                                                                                                                                    21531912.832 7 112122303.77907       -92.463 7        47.096                                                                    21531912.628 7  91108569.17507       -75.066 7        43.092
C36        56.000                                                                                                                                                                                                                                                                    26551813.129 4 112349350.36304     -1878.231 4        27.725
I06        58.000    38473782.623 6 150979553.21306      -533.163 6        37.550
> 2025 01 01 22 15 10.0000000  0 33
G14         1.000    24159537.040 5 126959307.19205       496.859 5        30.747                                    24159531.650 1  98929237.10701       387.218 1         8.000    24159532.132 5  98929244.09005       387.137 5        32.713
G10         2.000    21818461.280 7 114656951.92307     -3089.963 7        43.354                                    21818464.730 4  89343006.30904     -2407.764 4        28.976    21818461.417 5  89342967.37205     -2407.828 5        32.150
G32         3.000                                                                                                                                                                    22147558.048 6  90690569.41806       400.669 6        39.826
E07         5.000    25225151.965 3                      1038.289 3        22.686                                                                    25225214.341 3                       775.850 3        23.333    25225147.233 6 101571199.48406       796.061 6        40.372
G08         6.000    20520171.177 7 107834753.76207     -2085.823 7        47.156                                    20520168.889 7  84026647.90207     -1625.316 7        43.501    20520169.545 7  84026675.91407     -1625.383 7        42.766
G27         7.000    22130823.389 7 116298251.05107     -4032.035 7        42.313                                    22130823.503 4  90622022.16804     -3141.846 4        27.497    22130821.558 5  90622017.17805     -3141.828 5        34.862
G21         8.000    20844890.597 6 109540648.46506        32.160 6        40.231                                    20844884.493 2  85356306.18002        25.059 2        12.727
G02         9.000    22165554.162 7 116480797.70007      1222.945 7        42.616                                    22165547.132 4  90764139.11904       952.950 4        28.436
E08        12.000    26080292.524 6 137052965.19606     -1655.748 6        36.665                                                                    26080288.237 6 102344701.06906     -1236.664 6        36.862    26080297.522 6 105014537.37706     -1268.847 6        36.329
E24        15.000    28556186.603 4 150063796.44104      1020.448 4        29.251                                                                    28556193.304 4 112060626.00104       762.392 4        29.204    28556198.625 4                       781.575 4        27.425
E13        16.000                                                                                                                                    25976559.103 5 101937610.01205     -2200.110 5        31.796    25976556.303 5 104596830.26605     -2257.676 5        31.177
E31        17.000    25988010.541 5 136567880.68205     -1304.201 5        33.958                                                                    25987993.105 6 101982497.08006      -974.112 6        36.548    25987991.791 6 104642897.86306      -999.372 6        40.574
E26        19.000    23394464.397 8 122938730.75108     -1027.610 8        48.963                                                                    23394461.432 7  91804970.57707      -767.455 7        43.651    23394462.425 7  94199815.56707      -787.355 7        45.934
S36        23.000    38226262.126 5 200880305.91105      -852.354 5        35.867
S23        24.000    38180785.398 6 200641340.60306      -850.688 6        41.871
R12        25.000                                                                                                                                    23479055.968 5  97549607.63915       277.648 5        35.405
R20        26.000    19429963.698 6 103900772.52906      -563.372 6        37.883                                                                    19429964.501 7  80811887.92007      -438.071 7        44.372
R05        27.000    19616384.883 7 104860773.02407       767.172 7        47.216                                                                    19616379.431 6  81558395.92306       596.809 6        36.646
E33        28.000    25044866.483 7 131611640.87607       987.914 7        42.372                                                                    25044871.954 6  98281422.60106       737.742 6        38.312    25044859.921 5 100845366.91905       757.089 5        33.958
R21        30.000    21795250.709 6 116631019.08306      2394.191 6        39.042                                                                    21795248.555 6  90712846.30006      1862.108 6        39.480
R04        31.000    20687473.081 7 110780445.32607     -3361.090 7        44.453
C32        36.000                                                                                                                                    25936652.783 5 135058941.02005      2659.291 5        30.513                                                                    25936651.698 5 109746473.80505      2161.139 5        33.725
C33        37.000                                                                                                                                    23064193.140 8 120101307.73908     -2377.120 8        48.984                                                                    23064203.219 7  97592181.51007     -1931.417 7        44.471
C30        38.000                                                                                                                                    24627185.396 6 128240218.13806      1996.317 6        40.429                                                                    24627186.076 6 104205705.41306      1622.323 6        36.586
C28        40.000                                                                                                                                    22350119.695 7 116382909.48807     -2644.852 7        42.199                                                                    22350116.574 6  94570658.93306     -2148.931 6        37.766
R11        41.000    22956445.108 5                     -3237.239 5        34.590
I01        44.000   370716819.026 7 151631657.74407     -2416.981 7        44.009
C13        45.000                                                                                                                                    39901664.607 5                     -1809.615 5        30.611    39901661.523 4 160667515.55304     -1399.180 4        28.787
C14        47.000                                                                                                                                    24796621.568 5 129122610.19605     -3584.971 5        31.653    24796629.292 6  99845920.44506     -2772.050 6        41.495    24796637.343 5 104922583.32305     -2913.163 5        31.147
C41        49.000                                                                                                                                    22439323.335 7 116847509.32707       756.223 7        46.984                                                                    22439328.480 6  94948179.00206       614.609 6        37.860
C27        52.000                                                                                                                                    21532002.190 7 112122770.51607       -94.386 7        47.513                                                                    21532002.266 7  91108948.43407       -76.524 7        42.940
C36        56.000                                                                                                                                                                                                                                                                    26554032.189 4 112358742.70004     -1879.677 4        27.533
I06        58.000    38474462.708 6 150982219.68606      -533.378 6        38.126
> 2025 01 01 22 15 15.0000000  0 33
G14         1.000    24159067.314 5 126956831.19505       493.655 5        30.657                                    24159060.404 1  98927307.68601       384.593 1         7.500    24159060.243 5  98927314.64905       384.903 5        31.366
G10         2.000    21821400.924 7 114672405.99207     -3091.444 7        43.136                                    21821403.762 4  89355048.45904     -2408.926 4        28.758    21821403.523 4  89355009.50704     -2408.838 4        29.934
G32         3.000    22147116.142 5                       511.330 5        30.015                                                                                                    22147070.394 6  90688571.97006       398.604 6        40.160
E07         5.000    25224167.180 3                      1036.833 3        23.371                                                                    25224222.638 3                       774.671 3        22.933    25224159.495 6 101567223.15006       794.668 6        40.050
G08         6.000    20522156.575 8 107845190.32008     -2088.572 8        48.401                                    20522155.354 7  84034780.29007     -1627.458 7        44.450    20522155.839 7  84034808.29407     -1627.441 7        43.850
G27         7.000    22134660.983 7 116318414.34107     -4033.296 7        42.303                                    22134660.003 4  90637733.82104     -3142.816 4        28.161    22134658.038 5  90637728.80805     -3142.868 5        34.857
G21         8.000    20844859.709 6 109540491.29306        30.867 6        40.184                                    20844854.681 2  85356183.75302        24.024 2        12.061
G02         9.000    22164390.781 6 116474685.24206      1222.245 6        41.390                                    22164383.191 4  90759376.16604       952.396 4        27.449
E08        12.000    26081868.852 6 137061250.17706     -1657.890 6        38.075                                                                    26081864.937 6 102350887.88906     -1238.024 6        36.643    26081878.328 5 105020885.65105     -1270.280 5        32.192
E24        15.000    28555213.924 4 150058697.82604      1018.980 4        27.485                                                                    28555224.285 4 112056818.48404       761.307 4        28.493    28555224.348 4                       780.390 4        26.120
E13        16.000                                                                                                                                    25979361.669 5 101948612.96205     -2200.470 5        30.966    25979361.353 5 104608120.17605     -2257.838 5        31.947
E31        17.000    25989251.993 5 136574408.23305     -1306.581 5        34.462                                                                    25989234.866 6 101987371.53106      -975.704 6        36.008    25989234.348 6 104647899.47506     -1001.121 6        40.620
E26        19.000    23395442.804 8 122943871.39908     -1028.410 8        48.972                                                                    23395439.813 7  91808809.36107      -768.010 7        43.300    23395440.848 7  94203754.50407      -788.023 7        46.243
S36        23.000    38227082.356 5 200884567.93505      -852.583 5        35.771
S23        24.000    38181598.442 6 200645593.98706      -850.424 6        41.545
R12        25.000    23478742.156 4                       352.966 4        28.227                                                                    23478725.126 5  97548227.50905       274.667 5        34.852
R20        26.000    19430492.436 6 103903594.88406      -565.563 6        37.444                                                                    19430492.063 7  80814083.08807      -439.837 7        44.057
R05        27.000    19615670.547 8 104856947.76708       763.076 8        48.367                                                                    19615665.619 6  81555420.72906       593.616 6        37.187
E33        28.000    25043926.702 6 131606702.47106       987.702 6        40.188                                                                    25043932.052 6  98277734.81006       737.426 6        38.483    25043920.642 5 100841582.98605       756.548 5        33.719
R21        30.000    21793013.559 6 116619050.07406      2393.622 6        41.647                                                                    21793012.325 6  90703537.04706      1861.897 6        39.727
R04        31.000    20690613.478 7 110797259.51507     -3364.394 7        44.846
C32        36.000                                                                                                                                    25934096.185 5 135045645.42405      2658.928 5        30.687                                                                    25934098.817 5 109735670.11305      2160.744 5        34.100
C33        37.000                                                                                                                                    23066475.931 8 120113199.07608     -2379.253 8        49.785                                                                    23066487.125 7  97601844.20007     -1933.385 7        44.882
C30        38.000                                                                                                                                    24625270.588 6 128230237.89606      1995.931 6        41.952                                                                    24625268.725 6 104197595.65406      1621.723 6        36.310
C28        40.000                                                                                                                                    22352658.494 6 116396137.55506     -2646.169 6        40.007                                                                    22352657.067 6  94581407.79406     -2150.353 6        37.180
R11        41.000    22959477.641 6 122688517.23716     -3240.200 6        36.548                                                                    22959495.524 5                     -2520.797 5        34.305
I01        44.000   370719898.584 7 151643743.07107     -2416.999 7        43.742
C13        45.000                                                                                                                                    39903397.186 4                     -1809.565 4        28.152    39903399.997 4 160674512.01704     -1398.985 4        29.905
C14        47.000                                                                                                                                    24800065.538 5 129140538.27205     -3586.156 5        34.681    24800076.682 7  99859783.55807     -2773.062 7        42.318    24800079.427 5 104937151.37405     -2913.794 5        32.467
C41        49.000                                                                                                                                    22438598.192 7 116843734.23507       754.009 7        46.893                                                                    22438603.508 6  94945111.45406       612.735 6        38.730
C27        52.000                                                                                                                                    21532093.792 8 112123246.77008       -96.002 8        48.190                                                                    21532093.583 7  91109335.44707       -78.115 7        42.508
C36        56.000                                                                                                                                                                                                                                                                    26556253.298 4 112368143.01904     -1880.544 4        28.872
I06        58.000    38475141.586 6 150984886.01306      -533.245 6        38.042
> 2025 01 01 22 15 20.0000000  0 33
G14         1.000    24158598.317 5 126954370.20205       490.694 5        31.155                                    24158592.136 1  98925390.08501       382.359 1         5.429    24158589.429 4  98925396.95604       382.339 4        28.682
G10         2.000    21824344.603 6 114687868.72106     -3093.414 6        41.619                                    21824344.958 4  89367097.37604     -2410.480 4        27.102    21824344.035 4  89367058.48004     -2410.293 4        28.910
G32         3.000                                                                                                                                                                    22146585.426 6  90686586.16606       395.878 6        39.769
E07         5.000    25223178.741 4                      1034.927 4        27.269                                                                    25223238.403 3                       770.782 3        18.060    25223173.813 6 101563254.51906       792.914 6        40.160
G08         6.000    20524145.420 8 107855642.11208     -2091.862 8        49.354                                    20524144.676 7  84042924.54207     -1630.025 7        44.649    20524144.312 7  84042952.55507     -1630.087 7        43.467
G27         7.000    22138499.979 7 116338586.65007     -4035.440 7        42.347                                    22138498.207 4  90653452.48504     -3144.499 4        27.581    22138497.100 5  90653447.47905     -3144.382 5        34.657
G21         8.000    20844831.440 6 109540342.70606        28.770 6        39.853                                    20844826.389 2  85356067.95002        22.425 2        12.121
G02         9.000    22163228.893 6 116468578.33106      1220.808 6        41.180                                    22163220.431 4  90754617.52404       951.274 4        26.766
E08        12.000    26083448.116 6 137069547.63806     -1660.735 6        39.270                                                                    26083444.060 5 102357084.07105     -1240.364 5        35.790
E24        15.000                                                                                                                                    28554260.952 4 112053018.15004       759.647 4        26.695    28554253.675 4                       779.654 4        25.113
E13        16.000                                                                                                                                    25982165.818 5 101959618.17605     -2201.159 5        31.260    25982170.290 5 104619412.45705     -2258.395 5        31.238
E31        17.000    25990501.026 5 136580948.42705     -1309.624 5        34.176                                                                    25990479.187 5 101992255.41305      -977.719 5        35.495    25990479.242 6 104652910.75906     -1003.395 6        41.218
E26        19.000    23396422.360 8 122949017.82208     -1029.994 8        49.522                                                                    23396419.402 7  91812652.47007      -769.096 7        43.482    23396420.184 7  94207697.86307      -789.206 7        46.673
S36        23.000    38227892.659 6 200888831.03906      -852.520 6        37.539
S23        24.000    38182405.619 6 200649847.95706      -850.930 6        41.723
R12        25.000                                                                                                                                    23478400.535 5  97546863.46015       271.387 5        34.038
R20        26.000    19431023.128 6 103906430.43006      -568.505 6        37.879                                                                    19431022.617 7  80816288.49607      -442.204 7        43.888
R05        27.000    19614959.850 8 104853144.68808       758.316 8        48.770                                                                    19614954.502 6  81552462.78106       589.855 6        39.204
E33        28.000    25042986.813 6 131601767.47806       986.439 6        39.922                                                                    25042992.888 6  98274049.57206       736.766 6        38.592    25042981.531 5 100837801.60405       756.033 5        34.124
R21        30.000    21790776.547 6 116607085.22206      2392.408 6        40.875                                                                    21790776.801 6  90694231.06106      1860.864 6        40.636
R04        31.000    20693755.929 7 110814092.06707     -3368.432 7        44.280                                                                    20693789.679 5  86188713.06105     -2619.801 5        34.038
C32        36.000                                                                                                                                    25931546.014 5 135032352.73805      2657.904 5        33.066                                                                    25931546.656 5 109724868.79205      2159.846 5        34.333
C33        37.000                                                                                                                                    23068761.384 8 120125102.83908     -2382.110 8        50.121                                                                    23068773.164 7  97611516.99007     -1935.708 7        45.794
C30        38.000                                                                                                                                    24623356.717 6 128220261.05006      1995.013 6        41.938                                                                    24623353.620 5 104189488.68005      1620.883 5        35.533
C28        40.000                                                                                                                                    22355200.995 6 116409374.76806     -2648.424 6        37.694                                                                    22355199.896 6  94592164.07506     -2151.979 6        38.087
R11        41.000    22962510.249 6 122704727.45306     -3243.917 6        36.703                                                                    22962521.088 6  95437064.09016     -2523.038 6        37.267
I01        44.000   370722978.606 7 151655830.24907     -2417.745 7        43.939
C13        45.000                                                                                                                                    39905132.207 4                     -1808.513 4        25.459    39905136.316 5 160681508.26805     -1399.209 5        31.026
C14        47.000                                                                                                                                    24803512.518 5 129158474.05705     -3588.131 5        34.719    24803521.540 7  99873652.63307     -2774.553 7        42.753    24803524.608 5 104951725.62505     -2915.651 5        30.641
C41        49.000                                                                                                                                    22437876.413 7 116839972.06807       751.037 7        47.188                                                                    22437881.805 6  94942054.39806       610.160 6        39.643
C27        52.000                                                                                                                                    21532187.903 8 112123733.17908       -98.379 8        49.021                                                                    21532186.514 7  91109730.69407       -79.993 7        42.311
C36        56.000                                                                                                                                                                                                                                                                    26558476.180 4 112377551.97504     -1883.432 4        28.427
I06        58.000    38475821.676 6 150987552.66806      -533.341 6        37.951
> 2025 01 01 22 15 25.0000000  0 32
G14         1.000    24158131.654 4 126951923.50204       487.547 4        29.820                                    24158126.376 1  98923483.49901       379.941 1         5.286    24158126.923 4  98923490.50704       380.489 4        26.874
G10         2.000    21827287.968 6 114703339.31306     -3094.885 6        41.621                                    21827287.737 4  89379152.40504     -2411.603 4        25.910    21827288.843 4  89379113.47804     -2411.767 4        28.692
G32         3.000    22146102.488 5 116378562.03815       504.972 5        34.176                                    22146088.687 4  90684526.37314       393.482 4        26.623    22146102.557 6  90684611.34706       393.849 6        38.520
E07         5.000    25222198.597 5 132543544.07915      1033.271 5        34.357                                                                                                                                    25222190.245 6 101559292.98706       791.586 6        40.913
G08         6.000    20526137.178 8 107866108.36708     -2094.739 8        50.274                                    20526136.614 7  84051080.07407     -1632.266 7        44.301    20526135.246 7  84051108.06707     -1632.274 7        42.836
G27         7.000    22142339.694 7 116358767.19507     -4036.868 7        42.243                                    22142337.640 4  90669177.55904     -3145.607 4        26.647    22142335.847 5  90669172.57305     -3145.894 5        32.407
G21         8.000    20844803.970 6 109540201.86206        27.224 6        40.262                                    20844799.577 2  85355958.20802        21.234 2        12.121
G02         9.000    22162067.136 6 116462476.16206      1219.859 6        41.282                                    22162058.797 4  90749862.58604       950.530 4        26.599
E08        12.000    26085029.032 6 137077856.79706     -1663.135 6        40.284                                                                    26085024.920 5 102363288.97305     -1242.002 5        35.643
E24        15.000                                                                                                                                    28553295.541 4 112049224.61504       758.034 4        28.578    28553281.003 4                       777.290 4        25.233
E13        16.000                                                                                                                                    25984969.505 5 101970625.08005     -2201.779 5        30.083    25984975.277 5 104630706.44205     -2258.990 5        31.970
E31        17.000    25991755.445 5 136587500.45705     -1311.703 5        31.985                                                                    25991725.617 5 101997148.17205      -979.792 5        34.324    25991727.194 6 104657931.13906     -1005.023 6        41.864
E26        19.000    23397402.661 8 122954169.23308     -1030.838 8        49.915                                                                    23397399.809 7  91816499.29307      -769.818 7        43.094    23397400.536 7  94211645.04607      -789.871 7        47.260
S36        23.000    38228708.609 6 200893093.81306      -852.495 6        37.278
S23        24.000    38183221.091 6 200654101.72006      -850.809 6        41.616
R20        26.000    19431555.396 6 103909278.34106      -571.080 6        37.331                                                                    19431555.799 7  80818503.51607      -443.971 7        43.668
R05        27.000    19614252.690 8 104849362.88008       754.153 8        48.280                                                                    19614246.149 6  81549521.40706       586.540 6        40.040
E33        28.000    25042046.952 6 131596835.04606       986.137 6        40.098                                                                    25042052.832 6  98270366.24206       736.576 6        38.532    25042042.981 5 100834022.22705       755.950 5        32.814
R21        30.000    21788541.169 6 116595123.81106      2391.845 6        41.118                                                                    21788540.652 6  90684927.76506      1860.300 6        39.862
R04        31.000    20696901.422 7 110830942.15907     -3371.786 7        45.040
C32        36.000                                                                                                                                    25928993.479 5 135019062.20005      2657.806 5        35.181                                                                    25928994.997 5 109714069.20905      2159.743 5        34.857
C33        37.000                                                                                                                                    23071048.811 8 120137018.26208     -2384.290 8        49.709                                                                    23071061.562 7  97621199.23007     -1937.414 7        46.007
C30        38.000                                                                                                                                    24621441.924 7 128210286.88507      1994.444 7        43.045                                                                    24621439.293 6 104181383.84106      1620.802 6        36.450
C28        40.000                                                                                                                                    22357743.678 6 116422620.33806     -2650.208 6        37.822                                                                    22357744.001 6  94602927.16906     -2153.423 6        38.336
R11        41.000    22965541.635 5 122720953.13505     -3246.802 5        34.324                                                                    22965554.680 6  95449684.08406     -2525.302 6        38.571
I01        44.000   370726059.505 7 151667918.72807     -2417.991 7        44.131
C13        45.000                                                                                                                                    39906868.408 4                     -1809.160 4        26.862    39906876.931 5 160688503.60605     -1398.971 5        30.951
C14        47.000                                                                                                                                    24806958.556 5 129176416.70605     -3589.363 5        35.005    24806965.702 7  99887527.01307     -2775.557 7        42.502    24806972.025 4 104966305.48004     -2916.691 4        28.720
C41        49.000                                                                                                                                    22437156.898 7 116836222.06407       748.686 7        47.454                                                                    22437161.243 6  94939007.21106       608.387 6        40.191
C27        52.000                                                                                                                                    21532283.727 8 112124228.96308      -100.148 8        49.103                                                                    21532281.237 6  91110133.54106       -81.396 6        41.502
C36        56.000                                                                                                                                    26560678.226 5                     -2318.719 5        30.460                                                                    26560699.171 4 112386968.75004     -1884.765 4        27.365
I06        58.000    38476500.686 6 150990219.10006      -533.433 6        38.318
> 2025 01 01 22 15 30.0000000  0 33
G14         1.000    24157670.965 5 126949491.38205       485.557 5        31.577                                    24157663.393 1  98921588.36601       378.492 1         3.400    24157658.206 3                       378.184 3        22.267
G10         2.000    21830232.759 7 114718818.07807     -3096.602 7        42.377                                    21830231.572 4  89391213.82804     -2412.933 4        24.962    21830239.630 5  89391174.98005     -2413.107 5        30.996
G32         3.000    22145625.357 5 116376042.01905       502.721 5        35.652                                    22145612.951 4  90682562.74104       391.714 4        27.725    22145623.937 6  90682647.79106       391.704 6        38.135
E07         5.000    25221215.793 6 132538383.55506      1031.164 6        36.378                                                                    25221206.073 5  98973426.47115       770.010 5        35.943    25221208.479 6 101555338.79706       790.247 6        41.249
G08         6.000    20528131.256 8 107876589.35908     -2097.565 8        50.038                                    20528131.150 7  84059247.08207     -1634.466 7        43.577    20528128.710 6  84059275.06906     -1634.557 6        41.130
G27         7.000    22146180.733 6 116378956.29306     -4038.566 6        41.750                                    22146178.236 4  90684909.28904     -3146.924 4        26.132    22146174.483 4  90684904.29404     -3147.006 4        29.393
G21         8.000    20844779.022 6 109540069.09106        25.800 6        40.591                                    20844774.370 1  85355854.71001        20.096 1        11.333
G02         9.000    22160906.323 6 116456379.02906      1218.914 6        41.454                                    22160898.250 4  90745111.57804       949.805 4        26.192
E08        12.000    26086611.955 6 137086177.93006     -1665.328 6        40.217                                                                    26086609.008 5 102369502.77705     -1243.347 5        34.948    26086658.049 4 105039986.24704     -1276.221 4        26.216
E24        15.000    28552287.719 3                      1012.873 3        22.419                                                                    28552327.916 4 112045437.94804       756.624 4        27.365    28552312.060 4                       775.956 4        24.556
E13        16.000                                                                                                                                    25987774.764 4 101981633.86304     -2201.966 4        29.678    25987778.509 5 104642002.40305     -2259.538 5        33.323
E31        17.000    25993006.684 4 136594064.70104     -1313.865 4        28.806                                                                    25992973.938 5 102002049.96605      -981.118 5        33.659    25992976.483 7 104662960.81707     -1006.770 7        42.038
E26        19.000    23398383.926 8 122959325.92508     -1031.779 8        49.941                                                                    23398381.106 7  91820350.06707      -770.464 7        42.914    23398381.800 7  94215596.27007      -790.595 7        47.525
S36        23.000    38229516.993 6 200897356.06206      -852.381 6        37.766
S23        24.000    38184025.858 6 200658355.44306      -850.713 6        41.661
R12        25.000                                                                                                                                    23477780.235 5  97544181.70205       264.936 5        31.298
R20        26.000    19432089.844 6 103912138.78706      -573.335 6        36.563                                                                    19432089.971 7  80820728.32407      -445.842 7        43.727
R05        27.000    19613549.208 7 104845602.56907       749.939 7        46.845                                                                    19613543.658 6  81546596.72306       583.328 6        41.750
E33        28.000    25041109.916 6 131591905.52906       985.703 6        39.291                                                                    25041112.931 6  98266685.09706       735.994 6        38.826    25041105.930 5 100830245.10405       755.453 5        33.964
R21        30.000    21786306.640 6 116583166.11706      2391.274 6        41.416                                                                    21786304.879 6  90675627.32806      1859.724 6        38.679
R04        31.000    20700051.010 7 110847810.09007     -3375.275 7        45.129
C32        36.000                                                                                                                                    25926441.444 6 135005774.18406      2657.582 6        36.457                                                                    25926443.409 5 109703271.66405      2159.318 5        35.624
C33        37.000                                                                                                                                    23073339.241 8 120148945.63508     -2386.614 8        48.859                                                                    23073352.132 7  97630891.19907     -1939.439 7        46.317
C30        38.000                                                                                                                                    24619528.132 7 128200315.65007      1994.110 7        44.861                                                                    24619525.009 6 104173281.44806      1620.302 6        36.767
C28        40.000                                                                                                                                    22360289.262 6 116435874.55506     -2651.634 6        37.403                                                                    22360289.583 6  94613697.30406     -2154.839 6        38.300
R11        41.000    22968580.101 4 122737194.86904     -3250.150 4        29.573                                                                    22968589.386 6  95462316.47506     -2527.765 6        38.817
I01        44.000   370729139.896 7 151680008.71807     -2418.004 7        44.197
C13        45.000                                                                                                                                    39908608.223 4                     -1809.151 4        25.910    39908612.835 4 160695498.29704     -1398.306 4        28.834
C14        47.000                                                                                                                                    24810403.973 6 129194366.55206     -3590.602 6        37.009    24810411.816 6  99901406.95206     -2776.348 6        40.856    24810416.074 4 104980891.19104     -2917.893 4        28.749
C41        49.000                                                                                                                                    22436438.723 7 116832484.54307       746.309 7        47.335                                                                    22436443.731 6  94935970.19206       606.319 6        40.486
C27        52.000                                                                                                                                    21532380.783 8 112124734.42508      -101.958 8        49.397                                                                    21532377.634 6  91110544.28006       -82.781 6        40.205
