     3.04           OBSERVATION DATA    M                   RINEX VERSION / TYPE
ssrcrin-15.6.1x                         20250101 224500 UTC PGM / RUN BY / DATE 
(00000000023479385599111004) Septentrio proprietary         COMMENT             
ract                                                        MARKER NAME         
01                                                          MARKER NUMBER       
geodetic                                                    MARKER TYPE         
NFB                 CLIMERS@TUW                             OBSERVER / AGENCY   
3296359             SEPT ASTERX SB3 PROB4.14.4              REC # / TYPE / VERS 
Unknown             Unknown                                 ANT # / TYPE        
  4127446.4733  1206914.9051  4695541.3930                  APPROX POSITION XYZ 
        0.0000        0.0000        0.0000                  ANTENNA: DELTA H/E/N
G   23 X1  C1C L1C D1C S1C C1W S1W C2W L2W D2W S2W C2L L2L  SYS / # / OBS TYPES 
       D2L S2L C5Q L5Q D5Q S5Q C1L L1L D1L S1L              SYS / # / OBS TYPES 
E   21 X1  C1C L1C D1C S1C C6C L6C D6C S6C C5Q L5Q D5Q S5Q  SYS / # / OBS TYPES 
       C7Q L7Q D7Q S7Q C8Q L8Q D8Q S8Q                      SYS / # / OBS TYPES 
S    9 X1  C1C L1C D1C S1C C5I L5I D5I S5I                  SYS / # / OBS TYPES 
R   17 X1  C1C L1C D1C S1C C2P L2P D2P S2P C2C L2C D2C S2C  SYS / # / OBS TYPES 
       C3Q L3Q D3Q S3Q                                      SYS / # / OBS TYPES 
C   25 X1  C1P L1P D1P S1P C5P L5P D5P S5P C2I L2I D2I S2I  SYS / # / OBS TYPES 
       C7I L7I D7I S7I C6I L6I D6I S6I C7D L7D D7D S7D      SYS / # / OBS TYPES 
J   17 X1  C1C L1C D1C S1C C2L L2L D2L S2L C5Q L5Q D5Q S5Q  SYS / # / OBS TYPES 
       C1L L1L D1L S1L                                      SYS / # / OBS TYPES 
I    5 X1  C5A L5A D5A S5A                                  SYS / # / OBS TYPES 
SEPTENTRIO RECEIVERS OUTPUT ALIGNED CARRIER PHASES.         COMMENT             
NO FURTHER PHASE SHIFT APPLIED IN THE RINEX ENCODER.        COMMENT             
G L1C                                                       SYS / PHASE SHIFT   
G L2W                                                       SYS / PHASE SHIFT   
G L2L  0.00000                                              SYS / PHASE SHIFT   
G L5Q  0.00000                                              SYS / PHASE SHIFT   
G L1L  0.00000                                              SYS / PHASE SHIFT   
E L1C  0.00000                                              SYS / PHASE SHIFT   
E L6C  0.00000                                              SYS / PHASE SHIFT   
E L5Q  0.00000                                              SYS / PHASE SHIFT   
E L7Q  0.00000                                              SYS / PHASE SHIFT   
E L8Q  0.00000                                              SYS / PHASE SHIFT   
S L1C                                                       SYS / PHASE SHIFT   
S L5I                                                       SYS / PHASE SHIFT   
R L1C                                                       SYS / PHASE SHIFT   
R L2P  0.00000                                              SYS / PHASE SHIFT   
R L2C                                                       SYS / PHASE SHIFT   
R L3Q  0.00000                                              SYS / PHASE SHIFT   
C L1P  0.00000                                              SYS / PHASE SHIFT   
C L5P  0.00000                                              SYS / PHASE SHIFT   
C L2I                                                       SYS / PHASE SHIFT   
C L7I                                                       SYS / PHASE SHIFT   
C L6I                                                       SYS / PHASE SHIFT   
C L7D                                                       SYS / PHASE SHIFT   
J L1C                                                       SYS / PHASE SHIFT   
J L2L  0.00000                                              SYS / PHASE SHIFT   
J L5Q  0.00000                                              SYS / PHASE SHIFT   
J L1L  0.00000                                              SYS / PHASE SHIFT   
I L5A                                                       SYS / PHASE SHIFT   
  2025     1     1    22    45    0.0000000     GPS         TIME OF FIRST OBS   
 C1C    0.000 C2C    0.000 C2P    0.000                     GLONASS COD/PHS/BIS 
DBHZ                                                        SIGNAL STRENGTH UNIT
    18                                                      LEAP SECONDS        
 24 R01  1 R02 -4 R03  5 R04  6 R05  1 R06 -4 R07  5 R08  6 GLONASS SLOT / FRQ #
    R09 -2 R10 -7 R11  0 R12 -1 R13 -2 R14 -7 R15  0 R16 -1 GLONASS SLOT / FRQ #
    R17  4 R18 -3 R19  3 R20  2 R21  4 R22 -3 R23  3 R24  2 GLONASS SLOT / FRQ #
                                                            END OF HEADER       
> 2025 01 01 22 45  0.0000000  0 36
G03         1.000                                                                                                                                                                    23384045.980 5  95753758.47305      2000.169 5        31.660
G10         2.000    22658070.862 6 119069025.57206     -3563.870 6        41.399                                    22658068.649 6  92781059.43606     -2777.043 6        37.146    22658068.268 6  92781031.46006     -2777.158 6        41.156
G32         3.000    21856841.422 7 114858413.01407      -586.029 7        46.589                                    21856840.092 4  89500076.91004      -456.639 4        28.152
G14         4.000    23874346.810 5 125460508.26905      -593.974 5        33.671                                    23874341.742 2  97761415.09502      -462.823 2        15.476    23874342.276 6  97761435.10806      -462.609 6        38.417
E07         5.000    24696862.399 6 129782851.59806       279.373 6        39.793                                                                                                                                    24696877.673 4  99444022.62804       214.179 4        28.512
G08         6.000    21103351.331 8 110899391.95908     -3072.290 8        52.187                                    21103349.162 8  86414676.30308     -2393.990 8        48.376    21103349.424 7  86414704.30107     -2393.983 7        43.810
G27         7.000    23293981.391 5 122410678.30805     -4514.289 5        32.754                                    23293978.294 4  95384960.38504     -3517.635 4        25.549    23293979.331 6  95384960.39006     -3517.350 6        38.589
G21         8.000    20634344.231 6 108434196.26906      -562.462 6        39.318                                    20634337.159 4  84494153.65804      -438.282 4        24.391
G02         9.000    21515756.056 7 113066116.17707       815.471 7        43.907                                    21515745.682 4  88103438.73204       635.432 4        25.684
G17        11.000    25660012.030 4                      2511.975 4        26.000
E08        12.000    26484545.399 6 139177275.78106     -2457.166 6        36.136                                                                    26484551.700 5 103931004.21205     -1834.767 5        31.932    26484549.771 5 106642314.59705     -1882.727 5        34.933
E29        14.000    26585918.574 6 139710001.96306      2233.502 6        39.673                                                                    26585917.338 7 104328848.06707      1667.903 7        42.887    26585917.590 6 107050484.84006      1711.495 6        38.919
E24        15.000    28029468.062 4 147295892.10204       287.675 4        28.474                                                                    28029464.642 5 109993642.41605       215.070 5        33.820    28029462.222 5 112863107.29205       220.435 5        35.848
E13        16.000    26710731.747 4                     -3122.227 4        24.556                                                                    26710723.278 5 104818611.38305     -2331.383 5        31.608
E31        17.000    26275862.387 6 138080578.72506     -2128.550 6        38.619                                                                    26275868.197 6 103112141.97706     -1589.639 6        36.870    26275852.848 3                     -1630.127 3        20.310
E26        19.000    23509732.242 7 123544465.15507     -1412.185 7        47.585                                                                    23509730.932 6  92257304.61706     -1054.478 6        36.745    23509729.637 6  94663949.70806     -1082.129 6        40.908
R06        21.000    22102475.273 5 117943033.14105      3314.635 5        30.672
S36        23.000    38216954.636 5 200831354.99505      -853.073 5        35.252
S23        24.000    38170860.176 6 200589144.87106      -851.064 6        41.840
R12        25.000                                                                                                                                    23307661.711 4  96837592.52204      -880.355 4        28.720
R20        26.000    19476729.979 4                     -1527.280 4        26.515                                                                    19476734.499 6                     -1188.035 6        38.508
R05        27.000    19325923.264 7 103308181.29007      -833.612 7        46.400                                                                    19325923.058 7  80350766.39207      -648.373 7        42.701
E33        28.000    24445927.287 6 128464245.94306       761.316 6        40.367                                                                    24445923.997 6  95931102.05606       568.512 6        40.563    24445924.771 7  98433614.09107       583.363 7        44.451
R21        30.000    20752585.047 7 111051516.22707      2002.756 7        47.619                                                                    20752583.112 7  86373233.76507      1557.677 7        44.632
R04        31.000                                                                                                                                    21700317.748 4                     -3434.158 4        29.185
C32        36.000                                                                                                                                    24764432.914 5 128954904.95505      2382.540 5        34.214                                                                    24764427.185 6 104786382.36706      1936.225 6        36.000
C33        37.000                                                                                                                                    23716388.275 6 123497538.19306     -3124.769 6        38.492                                                                    23716395.185 7 100351814.34107     -2539.043 7        43.949
C30        38.000                                                                                                                                    23687057.758 7 123344709.54107      1699.090 7        46.620                                                                    23687055.545 6 100227705.02006      1380.640 6        40.779
C28        40.000                                                                                                                                                                                                                                                                    23062558.480 5  97585241.18005     -2627.010 5        32.515
R11        41.000    23905285.078 5 127742601.40205     -4134.444 5        33.737                                                                    23905256.082 4                     -3216.465 4        25.278
I01        44.000   371543378.011 7 154875255.12307     -2520.068 7        42.216
C14        47.000                                                                                                                                    25803350.443 5                     -3975.177 5        30.815    25803341.904 5                     -3073.887 5        31.917
C41        49.000                                                                                                                                                                                                                                                                    22037372.891 7  93247374.98507      -139.004 7        46.063
C27        52.000                                                                                                                                    21389940.893 8 111383020.23008      -840.659 8        49.469                                                                    21389939.275 8  90507840.93008      -683.111 8        48.857
I06        58.000    38417308.319 5 150757944.31005      -530.945 5        35.048
I09        60.000    37333455.551 6 146504490.83806      -360.014 6        39.405
> 2025 01 01 22 45  5.0000000  0 35
G03         1.000    23381605.043 5                      2565.349 5        32.467                                                                                                    23381601.415 5  95743761.57505      1998.738 5        32.371
G10         2.000    22661462.673 7 119086847.39307     -3565.148 7        42.440                                    22661459.927 6  92794946.56206     -2778.030 6        37.558    22661459.381 6  92794918.57806     -2778.111 6        40.894
G32         3.000    21857400.377 7 114861350.59807      -589.417 7        46.643                                    21857397.990 4  89502365.93204      -459.284 4        29.592
G14         4.000    23874914.907 5 125463484.82105      -597.412 5        35.976                                    23874908.332 2  97763734.48202      -465.508 2        16.604    23874909.115 6  97763754.51606      -465.448 6        38.610
E07         5.000    24696597.034 6 129781459.64506       276.957 6        39.574                                                                    24696605.184 5  96914806.87915       206.594 5        31.494
G08         6.000    21106275.442 8 110914759.07708     -3074.980 8        51.745                                    21106273.523 8  86426650.67608     -2396.087 8        48.239    21106273.573 7  86426678.66507     -2396.004 7        43.464
G27         7.000    23298273.478 5 122433250.87105     -4515.543 5        32.461                                    23298273.829 4  95402549.36004     -3518.621 4        26.072    23298275.016 6  95402549.39806     -3518.552 6        38.901
G21         8.000    20634881.264 6 108437012.50906      -564.270 6        39.393                                    20634873.061 4  84496348.14704      -439.692 4        24.752
G02         9.000    21514981.066 7 113062040.93807       814.122 7        44.618                                    21514970.643 4  88100263.23904       634.386 4        26.347
G17        11.000    25657617.454 3                      2511.813 3        23.962
E08        12.000    26486882.929 5 139189566.19105     -2459.648 5        32.281                                                                    26486889.568 5 103940182.03805     -1836.505 5        32.832    26486886.860 5 106651731.91105     -1884.763 5        34.329
E29        14.000    26583793.280 6 139698835.06506      2232.692 6        39.925                                                                    26583792.353 7 104320509.16207      1667.280 7        43.003    26583792.523 6 107041928.39406      1710.805 6        38.862
E24        15.000    28029194.979 4 147294457.76804       285.502 4        29.280                                                                    28029191.218 5 109992571.31905       212.980 5        34.210    28029189.732 6 112862008.21706       218.936 6        36.147
E13        16.000                                                                                                                                    26713695.798 4 104830269.54004     -2332.270 4        28.531
E31        17.000    26277888.018 6 138091226.13706     -2130.888 6        38.940                                                                    26277895.703 6 103120092.95606     -1591.263 6        37.229    26277882.437 3                     -1632.496 3        23.752
E26        19.000    23511076.302 7 123551528.32507     -1413.531 7        47.761                                                                    23511077.028 6  92262579.01406     -1055.469 6        36.510    23511074.245 6  94669361.73506     -1083.110 6        41.425
R06        21.000    22099370.813 5 117926461.35905      3313.018 5        33.305
S36        23.000    38217763.883 5 200835619.28805      -852.880 5        35.462
S23        24.000    38171664.174 6 200593399.44206      -851.139 6        41.380
R20        26.000    19478162.575 4                     -1530.381 4        29.261                                                                    19478163.860 6  81012353.09716     -1190.234 6        38.183
R05        27.000    19326705.347 7 103312359.91407      -838.297 7        46.004                                                                    19326705.302 7  80354016.45407      -651.995 7        42.745
E33        28.000    24445203.296 6 128460440.60606       760.370 6        39.087                                                                    24445199.631 6  95928260.42106       567.889 6        40.045    24445200.425 7  98430698.31707       582.656 7        43.782
R21        30.000    20750715.016 8 111041505.72008      2001.050 8        48.719                                                                    20750712.911 7  86365447.82607      1556.354 7        45.512
R04        31.000                                                                                                                                    21704443.880 5                     -3436.125 5        33.623
C32        36.000                                                                                                                                    24762148.832 5 128942993.25905      2381.491 5        34.048                                                                    24762139.959 5 104776703.26905      1935.268 5        35.152
C33        37.000                                                                                                                                    23719390.515 6 123513165.12706     -3126.529 6        40.455                                                                    23719396.362 7 100364512.51307     -2540.534 7        43.983
C30        38.000                                                                                                                                    23685426.316 7 123336216.17307      1697.776 7        46.391                                                                    23685424.236 6 100220803.46706      1379.645 6        40.689
C28        40.000                                                                                                                                    23065684.171 5 120108984.48715     -3234.904 5        35.329                                                                    23065661.778 5  97598379.01805     -2628.317 5        32.323
R11        41.000    23909159.365 5 127763277.42215     -4136.492 5        33.251                                                                    23909123.195 3                     -3216.916 3        21.119
I01        44.000   371546588.457 7 154887855.70907     -2520.536 7        42.119
C14        47.000                                                                                                                                    25807171.136 4                     -3975.952 4        28.218    25807161.747 5                     -3074.706 5        35.238
C41        49.000                                                                                                                                    22037530.673 4 114755283.92514      -174.159 4        26.371                                                                    22037538.312 7  93248074.94207      -141.207 7        46.366
C27        52.000                                                                                                                                    21390749.095 8 111387228.86608      -843.213 8        48.932                                                                    21390747.571 8  90511260.77408      -685.046 8        48.931
I06        58.000    38417984.279 5 150760597.65505      -530.675 5        33.461
I09        60.000    37333913.892 6 146506290.55406      -360.373 6        38.982
> 2025 01 01 22 45 10.0000000  0 36
G03         1.000    23379162.174 5 122858334.51115      2563.993 5        35.533                                                                                                    23379165.901 5  95733769.21205      1998.110 5        30.792
G10         2.000    22664854.370 7 119104675.02307     -3566.174 7        43.998                                    22664852.140 6  92808838.21906     -2778.831 6        37.826    22664851.686 6  92808810.20806     -2778.688 6        40.937
G32         3.000    21857962.818 7 114864304.82707      -592.518 7        46.724                                    21857959.393 4  89504667.93704      -461.696 4        29.735    21858006.078 4  89504717.97814      -461.738 4        29.327
G14         4.000    23875483.791 6 125466477.54206      -600.280 6        36.166                                    23875478.124 2  97766066.47602      -467.747 2        17.849    23875478.647 6  97766086.49006      -467.713 6        37.887
E07         5.000    24696334.212 6 129780079.86706       274.675 6        40.415                                                                    24696339.292 5  96913776.63405       205.026 5        32.311
G08         6.000    21109202.015 8 110930139.42808     -3077.463 8        51.305                                    21109200.213 7  86438635.35907     -2398.021 7        47.547    21109199.745 7  86438663.36807     -2398.144 7        42.609
G27         7.000    23302572.140 5 122455828.96105     -4515.902 5        32.018                                    23302570.566 4  95420142.68804     -3518.885 4        27.090    23302571.250 6  95420142.70906     -3519.075 6        39.246
G21         8.000    20635418.990 6 108439837.99806      -566.050 6        39.751                                    20635410.563 4  84498549.83604      -441.076 4        24.737
G02         9.000    21514206.693 7 113057972.71907       812.972 7        45.625                                    21514196.820 4  88097093.19304       633.483 4        27.557
G17        11.000    25655227.474 4                      2511.296 4        28.294
E08        12.000    26489219.277 4 139201867.55004     -2461.527 4        29.194                                                                    26489229.562 5 103949368.14605     -1837.926 5        32.737    26489226.154 5 106661157.66805     -1886.166 5        30.830
E29        14.000    26581668.648 6 139687671.59706      2232.444 6        39.477                                                                    26581667.874 7 104312172.82407      1667.039 7        43.181    26581668.373 6 107033374.57506      1710.533 6        38.808
E24        15.000    28028924.702 4 147293035.23304       283.362 4        29.554                                                                    28028921.215 5 109991509.01105       211.410 5        34.519    28028918.967 5 112860918.20605       216.867 5        34.619
E13        16.000                                                                                                                                    26716668.771 4 104841929.88204     -2332.453 4        25.218
E31        17.000    26279916.550 6 138101884.89206     -2132.974 6        39.282                                                                    26279924.332 6 103128052.42106     -1592.713 6        39.225
E26        19.000    23512421.401 7 123558597.68007     -1414.536 7        47.319                                                                    23512420.241 6  92267858.14906     -1056.046 6        36.503    23512418.887 6  94674778.50506     -1083.813 6        40.403
R06        21.000    22096265.382 5 117909898.59205      3311.715 5        33.198
S36        23.000    38218571.995 6 200839884.10906      -852.879 6        36.049
S23        24.000    38172472.106 6 200597654.80106      -851.256 6        40.093
R12        25.000    23309778.609 5 124516746.22515     -1140.259 5        35.867                                                                    23309811.374 5  96846428.02305      -886.990 5        33.198
R20        26.000    19479595.882 4                     -1533.240 4        29.554                                                                    19479595.286 6  81018309.73006     -1192.277 6        37.161
R05        27.000    19327491.691 7 103316561.64507      -842.741 7        46.679                                                                    19327490.183 6  80357284.44606      -655.463 6        40.870
E33        28.000    24444480.765 6 128456639.47006       759.753 6        39.961                                                                    24444476.176 6  95925421.89206       567.381 6        39.823    24444477.051 7  98427785.74907       582.151 7        43.945
R21        30.000    20748844.863 8 111031503.34908      1999.630 8        49.226                                                                    20748843.885 7  86357668.21407      1555.171 7        45.521
R04        31.000    21708570.471 5                     -4420.185 5        34.010                                                                    21708569.369 5  90415426.05415     -3438.047 5        35.529
C32        36.000                                                                                                                                    24759861.737 5 128931087.65805      2380.510 5        35.138                                                                    24759854.033 5 104767028.98705      1934.538 5        34.076
C33        37.000                                                                                                                                    23722393.415 7 123528801.53207     -3128.181 7        42.097                                                                    23722398.606 7 100377218.43107     -2541.995 7        43.606
C30        38.000                                                                                                                                    23683796.075 7 123327728.94007      1696.765 7        45.735                                                                    23683794.221 6 100213906.89606      1378.767 6        40.532
C28        40.000                                                                                                                                    23068794.482 5 120125160.99505     -3236.248 5        30.709                                                                    23068770.380 5  97611523.63805     -2629.371 5        32.988
R11        41.000    23913031.173 5 127783963.30305     -4138.218 5        32.156
I01        44.000   371549799.714 7 154900458.15307     -2520.642 7        42.023
C14        47.000                                                                                                                                    25810985.912 4                     -3976.516 4        26.311    25810978.888 5 103930117.25015     -3075.224 5        33.042
C41        49.000                                                                                                                                    22037696.999 3 114756159.32603      -176.994 3        22.933                                                                    22037706.181 7  93248786.21207      -143.489 7        46.562
C27        52.000                                                                                                                                    21391559.839 8 111391449.27208      -845.250 8        48.494                                                                    21391558.138 8  90514690.20808      -686.861 8        48.985
I06        58.000    38418659.712 5 150763251.52105      -530.566 5        33.485
I09        60.000    37334371.820 6 146508092.02906      -360.389 6        38.435
> 2025 01 01 22 45 15.0000000  0 35
G03         1.000                                                                                                                                                                    23376729.886 5  95723780.54305      1997.691 5        30.332
G10         2.000    22668247.204 7 119122507.42207     -3566.876 7        45.076                                    22668245.351 6  92822733.59606     -2779.380 6        38.024    22668244.881 6  92822705.57506     -2779.322 6        40.255
G32         3.000    21858528.000 7 114867274.66907      -595.541 7        47.206                                    21858523.618 4  89506982.09404      -464.050 4        29.943    21858570.891 4  89507032.06104      -463.935 4        28.190
G14         4.000    23876056.466 6 125469485.44206      -603.169 6        38.084                                    23876050.752 3  97768410.29403      -469.996 3        18.627    23876051.225 6  97768430.31706      -469.976 6        38.766
E07         5.000    24696072.962 6 129778711.24306       272.566 6        41.473                                                                    24696076.283 5  96912754.59905       203.730 5        33.114    24696106.948 5  99440850.56405       208.431 5        30.166
G08         6.000    21112131.036 8 110945531.94908     -3079.730 8        50.791                                    21112129.135 7  86450629.52707     -2399.786 7        47.040    21112129.313 7  86450657.53107     -2399.810 7        42.711
G27         7.000    23306870.273 5 122478411.58405     -4516.744 5        33.772                                    23306868.113 4  95437739.54004     -3519.535 4        28.000    23306868.537 6  95437739.53506     -3519.629 6        39.369
G21         8.000    20635958.373 6 108442671.69906      -567.566 6        41.189                                    20635949.676 4  84500757.91604      -442.264 4        25.188
G02         9.000    21513433.138 7 113053910.61607       811.783 7        47.524                                    21513423.886 4  88093927.91404       632.557 4        27.940
G17        11.000    25652839.552 4                      2510.177 4        24.226
E08        12.000    26491563.418 4                     -2463.346 4        26.323                                                                    26491569.833 5 103958561.60705     -1839.397 5        31.555    26491566.760 4 106670590.88104     -1887.100 4        28.379
E29        14.000    26579544.542 6 139676510.55606      2232.117 6        39.111                                                                    26579544.034 7 104303838.29907      1666.739 7        43.374    26579544.328 6 107024822.63406      1710.213 6        39.517
E24        15.000    28028653.094 4 147291623.49804       281.490 4        27.353                                                                    28028652.442 5 109990454.78805       210.064 5        34.967    28028650.805 5 112859836.47405       215.661 5        35.514
E13        16.000                                                                                                                                    26719643.257 4 104853591.88904     -2332.884 4        26.958
E31        17.000    26281946.666 6 138112553.93006     -2134.835 6        38.535                                                                    26281954.890 6 103136019.59506     -1594.209 6        38.513    26281984.176 4                     -1635.799 4        25.353
E26        19.000    23513767.941 7 123565672.19207     -1415.416 7        47.451                                                                    23513763.879 6  92273141.10806     -1056.980 6        36.427    23513764.724 6  94680199.22506     -1084.498 6        39.904
R06        21.000    22093161.346 5 117893343.83805      3310.064 5        33.108
S36        23.000    38219389.703 6 200844148.50606      -853.246 6        36.314
S23        24.000    38173278.246 6 200601909.80006      -850.870 6        39.075
R12        25.000    23310854.956 6 124522457.47406     -1144.372 6        39.970
R20        26.000    19481034.269 5                     -1535.808 5        31.728                                                                    19481028.090 5  81024277.15615     -1194.552 5        34.300
R05        27.000    19328282.876 7 103320785.49707      -847.006 7        46.736                                                                    19328280.895 6  80360569.66106      -658.738 6        39.138
E33        28.000    24443757.313 6 128452841.49106       759.163 6        39.378                                                                    24443753.978 6  95922585.73206       567.117 6        38.751    24443754.462 7  98424875.58807       581.762 7        44.161
R21        30.000    20746976.091 8 111021508.06208      1998.357 8        49.697                                                                    20746976.309 7  86349894.11807      1554.211 7        46.061
R04        31.000    21712704.589 6 116270508.83716     -4422.477 6        39.315                                                                    21712698.209 5  90432619.91305     -3439.268 5        35.305
C32        36.000                                                                                                                                    24757574.390 5 128919186.99005      2379.590 5        34.638                                                                    24757567.321 5 104757358.72505      1933.677 5        33.054
C33        37.000                                                                                                                                    23725398.591 6 123544446.44806     -3129.861 6        41.328                                                                    23725403.098 7 100389931.24407     -2543.241 7        43.024
C30        38.000                                                                                                                                    23682167.617 7 123319246.83207      1695.913 7        44.691                                                                    23682164.864 6 100207014.50506      1378.166 6        39.697
C28        40.000                                                                                                                                    23071908.111 5 120141344.55405     -3237.531 5        33.683                                                                    23071877.374 5  97624674.22605     -2630.936 5        31.917
I01        44.000   371553012.444 7 154913061.76307     -2520.855 7        42.138
C14        47.000                                                                                                                                    25814798.463 3                     -3976.674 3        23.410    25814799.716 5 103945494.69405     -3075.859 5        34.410
C41        49.000                                                                                                                                    22037863.513 4                      -179.061 4        27.245                                                                    22037877.044 7  93249507.91507      -145.314 7        46.441
C27        52.000                                                                                                                                    21392372.141 8 111395680.42508      -847.303 8        49.269                                                                    21392370.640 8  90518128.36908      -688.490 8        49.002
I06        58.000    38419335.112 5 150765905.16105      -530.729 5        32.078
I09        60.000    37334831.592 6 146509894.50506      -360.655 6        38.529
> 2025 01 01 22 45 20.0000000  0 35
G03         1.000                                                                                                                                                                    23374284.588 5  95713795.97905      1996.624 5        31.215
G10         2.000    22671641.573 7 119140344.86807     -3568.206 7        44.709                                    22671639.433 6  92836632.89606     -2780.421 6        37.743    22671639.195 6  92836604.88106     -2780.391 6        40.179
G32         3.000    21859096.087 7 114870260.40607      -598.835 7        45.437                                    21859090.906 4  89509308.66504      -466.625 4        29.820
G14         4.000    23876632.349 6 125472508.77606      -606.506 6        37.716                                    23876626.437 3  97770766.14303      -472.587 3        18.239    23876626.733 6  97770786.19106      -472.441 6        38.709
E07         5.000    24695815.084 7 129777354.02707       270.146 7        42.201                                                                    24695818.182 5  96911741.13305       201.664 5        32.766    24695850.101 4  99439810.65004       207.086 4        29.251
G08         6.000    21115062.683 8 110960936.92008     -3082.374 8        50.610                                    21115060.498 7  86462633.39307     -2401.846 7        46.617    21115060.777 7  86462661.39707     -2401.820 7        42.681
G27         7.000    23311168.282 5 122500998.91705     -4518.216 5        33.898                                    23311166.559 4  95455340.06304     -3520.709 4        28.000    23311166.994 6  95455340.09606     -3520.636 6        39.372
G21         8.000    20636499.497 7 108445513.89707      -569.298 7        42.343                                    20636490.308 4  84502972.62104      -443.604 4        25.278
G02         9.000    21512661.778 8 113049854.90708       810.342 8        48.338                                    21512652.370 4  88090767.62204       631.438 4        28.521
G17        11.000    25650442.181 4                      2510.491 4        27.437
E08        12.000    26493911.602 4                     -2465.369 4        28.692                                                                    26493915.494 5 103967762.53405     -1841.201 5        32.748    26493905.742 4 106680031.92304     -1888.880 4        29.336
E29        14.000    26577421.513 6 139665352.23606      2231.353 6        39.348                                                                    26577420.707 7 104295505.79607      1666.253 7        43.365    26577420.279 6 107016272.76406      1709.743 6        38.964
E24        15.000    28028384.279 4 147290222.75504       279.883 4        26.623                                                                    28028384.573 5 109989408.83305       208.228 5        34.438    28028384.267 6 112858763.26706       213.672 6        36.280
E13        16.000    26722605.443 3                     -3123.146 3        21.452                                                                    26722610.673 4 104865255.55904     -2333.059 4        26.719
E31        17.000    26283979.086 6 138123233.60906     -2137.212 6        38.510                                                                    26283985.828 6 103143994.64206     -1595.884 6        38.081
E26        19.000    23515115.212 7 123572752.12607     -1416.673 7        47.415                                                                    23515111.374 6  92278428.05806     -1057.799 6        36.454    23515112.055 6  94685624.11506     -1085.469 6        39.886
R06        21.000    22090062.045 5 117876797.49605      3308.226 5        34.319
S36        23.000    38220208.833 6 200848413.15406      -852.938 6        37.826
S23        24.000    38174085.200 6 200606164.66506      -851.015 6        39.165
R12        25.000    23311927.516 6 124528189.47006     -1148.699 6        39.748                                                                    23311926.123 4  96855328.47404      -893.750 4        26.910
R20        26.000    19482473.157 5                     -1538.845 5        33.078                                                                    19482465.112 5                     -1197.031 5        32.138
R05        27.000    19329076.821 7 103325031.82607      -851.634 7        47.904                                                                    19329075.707 6  80363872.36706      -662.394 6        39.189
E33        28.000    24443034.190 6 128449046.91806       758.434 6        38.183                                                                    24443031.778 6  95919752.14006       566.334 6        38.658    24443032.478 7  98421968.05407       581.092 7        43.862
R21        30.000    20745109.470 8 111011520.19508      1996.832 8        49.310                                                                    20745109.710 7  86342125.76607      1552.984 7        46.109
R04        31.000    21716841.193 6 116292626.49906     -4424.916 6        36.809                                                                    21716828.102 5  90449822.49005     -3441.196 5        34.914
C32        36.000                                                                                                                                    24755288.829 5 128907291.48305      2378.381 5        33.623                                                                    24755281.036 5 104747692.63005      1932.916 5        31.389
C33        37.000                                                                                                                                    23728400.524 7 123560100.15307     -3131.704 7        42.011                                                                    23728408.515 7 100402651.09107     -2544.757 7        43.064
C30        38.000                                                                                                                                    23680540.195 7 123310770.13507      1694.668 7        44.795                                                                    23680536.886 6 100200126.46506      1377.070 6        39.754
C28        40.000                                                                                                                                    23075021.879 4                     -3239.200 4        27.952                                                                    23074987.063 5  97637830.93605     -2631.957 5        32.557
I01        44.000   371556224.158 7 154925666.65107     -2521.158 7        42.588
C14        47.000                                                                                                                                    25818617.962 4                     -3978.388 4        26.659    25818622.291 5 103960874.88205     -3076.619 5        34.514
C41        49.000                                                                                                                                    22038043.192 5                      -181.647 5        31.351                                                                    22038050.264 7  93250240.26307      -147.575 7        46.745
C27        52.000                                                                                                                                    21393187.160 8 111399922.59808      -849.668 8        50.397                                                                    21393185.388 8  90521575.46208      -690.370 8        48.821
I06        58.000    38420010.702 5 150768558.61905      -530.958 5        32.216
I09        60.000    37335289.864 6 146511698.17506      -360.933 6        38.309
> 2025 01 01 22 45 25.0000000  0 35
G03         1.000    23371810.920 6 122819894.11706      2561.083 6        36.427                                    23371821.512 2  95703707.54612      1995.661 2        12.121
G10         2.000    22675037.095 7 119158187.43607     -3569.061 7        44.086                                    22675034.454 6  92850536.18906     -2781.089 6        37.569    22675034.232 6  92850508.18006     -2781.028 6        39.985
G32         3.000    21859667.282 7 114873262.15107      -601.964 7        45.485                                    21859661.753 5  89511647.69805      -469.067 5        30.294
G14         4.000    23877208.700 6 125475547.63706      -609.314 6        36.624                                    23877204.824 2  97773134.10202      -474.793 2        17.132    23877204.337 6  97773154.14206      -474.738 6        37.750
E07         5.000    24695558.842 7 129776008.32807       268.041 7        42.269                                                                    24695561.279 5  96910736.26505       200.039 5        34.257    24695591.228 5  99438779.57105       204.974 5        30.928
G08         6.000    21117996.624 8 110976354.40808     -3084.745 8        50.267                                    21117994.267 7  86474647.01607     -2403.698 7        45.949    21117994.969 7  86474675.02007     -2403.728 7        42.366
G27         7.000    23315468.031 5 122523591.13605     -4519.019 5        33.413                                    23315465.756 4  95472944.40604     -3521.324 4        27.545    23315465.910 6  95472944.40906     -3521.310 6        38.724
G21         8.000    20637041.592 7 108448364.68507      -571.013 7        42.171                                    20637032.801 4  84505194.03204      -444.947 4        25.113
G02         9.000    21511890.777 8 113045805.68808       809.147 8        48.691                                    21511881.928 4  88087612.38804       630.508 4        28.758
E08        12.000    26496260.142 5                     -2467.588 5        31.389                                                                    26496264.139 5 103976971.05105     -1842.521 5        34.386    26496249.317 4 106689480.79204     -1891.223 4        27.006
E29        14.000    26575298.751 6 139654196.72106      2230.819 6        38.769                                                                    26575298.037 7 104287175.38907      1665.827 7        43.498    26575297.068 6 107007725.04106      1709.445 6        39.150
E24        15.000    28028123.039 4 147288833.28704       277.163 4        25.744                                                                    28028120.184 5 109988371.21005       206.915 5        33.731    28028119.731 6 112857698.58606       212.059 6        36.261
E13        16.000    26725580.530 4                     -3125.284 4        27.617
E31        17.000    26286014.580 6 138133923.91306     -2139.146 6        39.216                                                                    26286019.992 6 103151977.67706     -1597.457 6        38.348
E26        19.000    23516463.559 7 123579837.56807     -1417.643 7        47.089                                                                    23516460.309 6  92283719.14406     -1058.551 6        36.907    23516460.442 6  94691053.19606     -1086.266 6        38.964
R06        21.000    22086962.001 5 117860259.55605      3306.664 5        33.485
S36        23.000    38221015.446 6 200852678.46706      -853.208 6        36.938
S23        24.000    38174902.102 6 200610419.47106      -850.959 6        40.429
R12        25.000    23313001.632 6 124533942.20506     -1152.738 6        39.189
R20        26.000    19483912.711 5                     -1541.840 5        30.015                                                                    19483907.554 5  81036245.15515     -1198.841 5        33.868
R05        27.000    19329875.059 7 103329300.40807      -855.960 7        47.956                                                                    19329874.323 6  80367192.35506      -665.737 6        38.159
E33        28.000    24442312.965 6 128445255.83606       757.798 6        40.274                                                                    24442310.171 6  95916921.12506       566.112 6        38.925    24442310.805 7  98419063.20607       580.690 7        43.949
R21        30.000    20743244.160 8 111001539.81808      1995.271 8        48.886                                                                    20743244.585 7  86334363.26607      1551.880 7        45.986
R04        31.000    21720975.385 6 116314755.43606     -4427.168 6        37.474                                                                    21720960.823 5  90467033.85805     -3443.197 5        32.090
C32        36.000                                                                                                                                    24753004.504 4 128895401.32504      2377.048 4        26.084                                                                    24752999.018 5 104738030.93905      1931.525 5        31.547
C33        37.000                                                                                                                                    23731406.648 6 123575762.70706     -3133.400 6        41.528                                                                    23731416.150 7 100415378.18207     -2546.306 7        42.518
C30        38.000                                                                                                                                    23678913.503 7 123302298.94307      1693.642 7        44.387                                                                    23678910.063 6 100193242.93306      1376.102 6        39.841
C28        40.000                                                                                                                                                                                                                                                                    23078099.403 5  97650993.93505     -2633.332 5        34.500
R11        41.000    23924613.403 4                     -4143.371 4        28.294                                                                    23924643.548 3                     -3221.869 3        20.548
I01        44.000   371559436.122 7 154938272.91907     -2521.364 7        42.512
C14        47.000                                                                                                                                    25822442.786 4                     -3979.049 4        29.355    25822441.282 5 103976258.05705     -3077.275 5        33.132
C41        49.000                                                                                                                                    22038237.448 5                      -184.242 5        34.157                                                                    22038225.748 7  93250983.40907      -149.779 7        46.392
C27        52.000                                                                                                                                    21394004.030 8 111404175.89108      -851.748 8        50.329                                                                    21394002.211 8  90525031.63208      -692.257 8        48.734
I06        58.000    38420688.405 5 150771212.12205      -531.097 5        33.000
I09        60.000    37335749.274 5 146513503.10805      -361.021 5        34.910
> 2025 01 01 22 45 30.0000000  0 36
G03         1.000    23369373.255 5 122807090.79905      2560.108 5        34.005                                    23369382.742 2  95693730.90002      1994.950 2        12.061
G10         2.000    22678433.142 7 119176034.74307     -3570.066 7        43.238                                    22678430.508 6  92864443.17906     -2781.871 6        37.660    22678431.099 6  92864415.20006     -2781.992 6        39.850
G32         3.000    21860241.155 7 114876279.47307      -605.182 7        44.600                                    21860235.404 5  89513998.87105      -471.574 5        30.181    21860225.106 5  89514048.92005      -471.750 5        32.880
G14         4.000    23877790.363 6 125478601.71206      -612.237 6        37.142                                    23877785.996 2  97775513.88502      -477.065 2        15.810    23877784.748 5  97775533.93805      -477.180 5        35.010
E07         5.000    24695305.219 7 129774673.84307       265.698 7        42.279                                                                    24695306.096 5  96909739.72605       198.635 5        33.114
G08         6.000    21120932.705 8 110991784.05708     -3087.255 8        50.022                                    21120930.312 7  86486670.12107     -2405.658 7        45.694    21120931.058 7  86486698.12007     -2405.558 7        42.643
G27         7.000    23319767.789 5 122546187.84805     -4520.153 5        34.295                                    23319765.950 4  95490552.22604     -3522.198 4        26.814    23319765.366 6  95490552.21606     -3521.987 6        38.568
G21         8.000    20637585.027 7 108451223.70807      -572.697 7        42.245                                    20637576.823 4  84507421.83204      -446.250 4        25.759
G02         9.000    21511121.443 8 113041762.59808       807.884 8        48.844                                    21511112.661 4  88084461.92304       629.521 4        29.450
G17        11.000    25645634.207 4                      2509.977 4        25.609
E08        12.000    26498605.093 5                     -2469.538 5        33.269                                                                    26498614.489 5 103986186.99705     -1843.893 5        35.100    26498599.590 5 106698937.19005     -1892.100 5        30.023
E29        14.000    26573176.065 6 139643043.66406      2230.131 6        37.558                                                                    26573175.819 7 104278846.80807      1665.453 7        43.687    26573174.690 6 106999179.20206      1708.790 6        39.327
E24        15.000    28027860.729 3 147287454.62103       274.304 3        23.105                                                                    28027857.827 5 109987341.67105       205.052 5        34.033    28027856.954 6 112856642.18906       210.267 6        36.794
E13        16.000                                                                                                                                    26728539.097 4 104888587.94404     -2333.254 4        29.109
E31        17.000    26288050.116 6 138144624.51506     -2141.222 6        37.796                                                                    26288055.175 6 103159968.37006     -1599.012 6        37.357    26288046.436 4                     -1640.836 4        27.928
E26        19.000    23517813.329 7 123586928.16607     -1418.627 7        47.946                                                                    23517810.497 6  92289014.03506     -1059.424 6        37.860    23517810.055 6  94696486.26406     -1087.080 6        39.877
R06        21.000    22083863.267 5 117843729.68705      3305.042 5        33.413
S36        23.000    38221823.178 6 200856943.34506      -853.034 6        36.491
S23        24.000    38175715.880 6 200614673.69806      -850.946 6        40.894
R12        25.000    23314083.452 6 124539715.41816     -1156.882 6        40.644                                                                    23314102.210 4                      -900.238 4        24.602
R20        26.000    19485348.526 5                     -1544.542 5        31.525                                                                    19485349.412 5  81042245.48005     -1201.347 5        33.874
R05        27.000    19330678.506 8 103333591.30908      -860.524 8        48.393                                                                    19330676.800 6  80370529.71806      -669.273 6        38.760
E33        28.000    24441593.140 6 128441467.89506       757.153 6        41.642                                                                    24441589.946 6  95914092.51006       565.493 6        38.964    24441589.657 7  98416160.79007       580.146 7        43.380
R21        30.000    20741381.161 8 110991566.59508      1993.805 8        50.298                                                                    20741380.953 7  86326606.30907      1550.715 7        46.360
R04        31.000    21725111.787 6 116336895.53406     -4429.235 6        36.733                                                                    21725093.315 4  90484253.89804     -3444.717 4        29.526
C32        36.000                                                                                                                                                                                                                                                                    24750715.245 4 104728373.19104      1931.521 4        27.222
C33        37.000                                                                                                                                    23734415.638 7 123591433.66707     -3135.179 7        42.372                                                                    23734425.726 7 100428112.12207     -2547.482 7        43.064
C30        38.000                                                                                                                                    23677287.029 7 123293832.86407      1692.569 7        43.911                                                                    23677284.059 6 100186363.57306      1375.435 6        38.967
C28        40.000                                                                                                                                                                                                                                                                    23081212.075 5  97664162.85805     -2634.471 5        35.371
R11        41.000    23928494.083 4                     -4145.100 4        28.095                                                                    23928507.240 4                     -3223.681 4        28.095
I01        44.000   371562648.742 7 154950880.24607     -2521.735 7        42.083
C14        47.000                                                                                                                                    25826262.947 5                     -3979.846 5        30.694    25826260.423 5 103991643.75305     -3077.752 5        33.784
C41        49.000                                                                                                                                    22038415.634 6                      -186.806 6        38.216                                                                    22038403.714 7  93251736.99407      -151.789 7        46.504
C27        52.000                                                                                                                                    21394822.650 8 111408439.95408      -854.021 8        50.279                                                                    21394821.060 8  90528496.53808      -693.931 8        48.975
I06        58.000    38421364.404 5 150773865.30105      -530.627 5        32.551
I09        60.000    37336210.061 6 146515309.05506      -361.413 6        36.669
> 2025 01 01 22 45 35.0000000  0 36
G03         1.000    23366938.318 5 122794292.94005      2559.020 5        34.881                                    23366945.534 2  95683758.49302      1994.060 2        13.151    23366926.088 5  95683866.46505      1993.990 5        32.102
