     3.04           OBSERVATION DATA    M                   RINEX VERSION / TYPE
ssrcrin-15.6.1x                         20250101 100000 UTC PGM / RUN BY / DATE 
(00000000023479385599111004) Septentrio proprietary         COMMENT             
ract                                                        MARKER NAME         
01                                                          MARKER NUMBER       
geodetic                                                    MARKER TYPE         
NFB                 CLIMERS@TUW                             OBSERVER / AGENCY   
3296359             SEPT ASTERX SB3 PROB4.14.4              REC # / TYPE / VERS 
Unknown             Unknown                                 ANT # / TYPE        
  4127447.0801  1206914.8774  4695543.6376                  APPROX POSITION XYZ 
        0.0000        0.0000        0.0000                  ANTENNA: DELTA H/E/N
G   23 X1  C1C L1C D1C S1C C1W S1W C2W L2W D2W S2W C2L L2L  SYS / # / OBS TYPES 
       D2L S2L C5Q L5Q D5Q S5Q C1L L1L D1L S1L              SYS / # / OBS TYPES 
E   21 X1  C1C L1C D1C S1C C6C L6C D6C S6C C5Q L5Q D5Q S5Q  SYS / # / OBS TYPES 
       C7Q L7Q D7Q S7Q C8Q L8Q D8Q S8Q                      SYS / # / OBS TYPES 
S    9 X1  C1C L1C D1C S1C C5I L5I D5I S5I                  SYS / # / OBS TYPES 
R   17 X1  C1C L1C D1C S1C C2P L2P D2P S2P C2C L2C D2C S2C  SYS / # / OBS TYPES 
       C3Q L3Q D3Q S3Q                                      SYS / # / OBS TYPES 
C   25 X1  C1P L1P D1P S1P C5P L5P D5P S5P C2I L2I D2I S2I  SYS / # / OBS TYPES 
       C7I L7I D7I S7I C6I L6I D6I S6I C7D L7D D7D S7D      SYS / # / OBS TYPES 
J   17 X1  C1C L1C D1C S1C C2L L2L D2L S2L C5Q L5Q D5Q S5Q  SYS / # / OBS TYPES 
       C1L L1L D1L S1L                                      SYS / # / OBS TYPES 
I    5 X1  C5A L5A D5A S5A                                  SYS / # / OBS TYPES 
SEPTENTRIO RECEIVERS OUTPUT ALIGNED CARRIER PHASES.         COMMENT             
NO FURTHER PHASE SHIFT APPLIED IN THE RINEX ENCODER.        COMMENT             
G L1C                                                       SYS / PHASE SHIFT   
G L2W                                                       SYS / PHASE SHIFT   
G L2L  0.00000                                              SYS / PHASE SHIFT   
G L5Q  0.00000                                              SYS / PHASE SHIFT   
G L1L  0.00000                                              SYS / PHASE SHIFT   
E L1C  0.00000                                              SYS / PHASE SHIFT   
E L6C  0.00000                                              SYS / PHASE SHIFT   
E L5Q  0.00000                                              SYS / PHASE SHIFT   
E L7Q  0.00000                                              SYS / PHASE SHIFT   
E L8Q  0.00000                                              SYS / PHASE SHIFT   
S L1C                                                       SYS / PHASE SHIFT   
S L5I                                                       SYS / PHASE SHIFT   
R L1C                                                       SYS / PHASE SHIFT   
R L2P  0.00000                                              SYS / PHASE SHIFT   
R L2C                                                       SYS / PHASE SHIFT   
R L3Q  0.00000                                              SYS / PHASE SHIFT   
C L1P  0.00000                                              SYS / PHASE SHIFT   
C L5P  0.00000                                              SYS / PHASE SHIFT   
C L2I                                                       SYS / PHASE SHIFT   
C L7I                                                       SYS / PHASE SHIFT   
C L6I                                                       SYS / PHASE SHIFT   
C L7D                                                       SYS / PHASE SHIFT   
J L1C                                                       SYS / PHASE SHIFT   
J L2L  0.00000                                              SYS / PHASE SHIFT   
J L5Q  0.00000                                              SYS / PHASE SHIFT   
J L1L  0.00000                                              SYS / PHASE SHIFT   
I L5A                                                       SYS / PHASE SHIFT   
  2025     1     1    10     0    0.0000000     GPS         TIME OF FIRST OBS   
 C1C    0.000 C2C    0.000 C2P    0.000                     GLONASS COD/PHS/BIS 
DBHZ                                                        SIGNAL STRENGTH UNIT
    18                                                      LEAP SECONDS        
 24 R01  1 R02 -4 R03  5 R04  6 R05  1 R06 -4 R07  5 R08  6 GLONASS SLOT / FRQ #
    R09 -2 R10 -7 R11  0 R12 -1 R13 -2 R14 -7 R15  0 R16 -1 GLONASS SLOT / FRQ #
    R17  4 R18 -3 R19  3 R20  2 R21  4 R22 -3 R23  3 R24  2 GLONASS SLOT / FRQ #
                                                            END OF HEADER       
> 2025 01 01 10 00  0.0000000  0 35
G19         1.000    23174967.333 6 121785311.70606      2228.635 6        39.054                                    23174969.827 1  94897659.02601      1736.579 1         5.571
G13         2.000    20698286.798 7 108770219.05107     -2926.299 7        47.683                                    20698286.391 5  84756029.17805     -2280.227 5        34.033
G30         3.000    24372943.335 3                     -3845.349 3        21.167                                                                                                    24372945.874 3                     -2998.184 3        19.881
G14         4.000    21849331.489 6 114819009.80706     -3295.406 6        38.240                                    21849342.295 3  89469394.49303     -2567.828 3        19.433    21849339.340 6  89469386.49306     -2567.760 6        39.622
G17         5.000    22258331.159 5 116968192.61505       248.762 5        35.262                                    22258315.079 2  91144099.14902       193.825 2        17.245    22258322.511 4  91144067.12504       193.601 4        28.692
G15         6.000    20291476.482 7 106632448.50607     -1309.725 7        46.660                                    20291477.149 7  83090532.24207     -1020.567 7        46.727    20291476.860 7  83090208.24107     -1020.581 7        46.430
G05         7.000    25320030.484 4                     -4427.909 4        25.865                                                                                                    25320046.803 4                     -3450.869 4        25.338
G23        10.000    23158766.365 5 121700408.03205      -621.751 5        30.943                                    23158776.271 1  94831288.20501      -484.502 1         9.143    23158781.025 4  94831333.23904      -484.825 4        28.597
E30        11.000                                                                                                                                    27354338.543 5 107344379.63305      1539.148 5        34.038    27354363.939 5 110144588.07305      1578.980 5        30.309
E02        13.000    23524280.762 6 123620963.88006       264.139 6        38.336                                                                    23524283.437 7  92314450.61907       197.156 7        46.051    23524281.891 7  94722658.49607       202.274 7        47.291
E25        14.000    24471741.682 7 128599836.51307     -2516.117 7        43.888                                                                    24471751.135 8  96032460.07008     -1878.933 8        49.339    24471746.846 7  98537576.81307     -1927.881 7        42.070
G24        16.000    21796464.056 7 114541232.87707      1805.511 7        42.800                                    21796466.383 5  89252897.47705      1406.890 5        32.449    21796466.666 6  89252894.48606      1407.093 6        36.526
E08        17.000    23639352.404 6 124225639.23506      -353.220 6        41.883                                                                    23639355.781 7  92765914.78207      -263.749 7        45.859    23639355.057 8  95185932.70108      -270.661 8        48.669
E07        18.000    26727931.564 6 140456287.11906      1795.467 6        40.698                                                                    26727938.645 6 104886173.22806      1340.599 6        40.069    26727938.237 6 107622334.81106      1375.594 6        37.834
S23        24.000    38231196.110 6 200906283.65206      -826.223 6        36.352
R20        26.000                                                                                                                                    23290363.776 4  96867553.92004      -878.909 4        27.904
E03        27.000    24727799.305 7 129945406.77507     -2996.097 7        44.132                                                                    24727805.528 7  97037095.93007     -2237.372 7        43.494    24727803.611 7  99568520.31007     -2295.670 7        44.939
R11        28.000    21550820.841 6 115161027.77406     -4038.105 6        41.983                                                                    21550831.984 4  89569744.14504     -3140.706 4        28.938
R13        29.000    21722614.297 5 115997535.26105      2181.332 5        35.814
R12        31.000    19388931.275 7 103572203.93107      -545.461 7        42.838                                                                    19388934.421 6  80556166.92406      -424.185 6        39.640
C10        32.000                                                                                                                                    38589025.159 7 200943185.46707      -677.736 7        44.539    38589027.679 6 155382036.51806      -524.040 6        40.644    38589024.508 6 163282802.33506      -550.991 6        39.610
R03        33.000    21842541.550 8 116924856.87708      2615.746 8        51.009                                                                    21842548.138 6  90941574.84306      2034.377 6        40.725
C24        34.000                                                                                                                                    24542698.633 6 127800524.29306      1849.414 6        36.113                                                                    24542700.193 5 103848184.09405      1502.255 5        32.449
C26        37.000                                                                                                                                    21851513.974 7 113786529.95607      -172.847 7        47.358                                                                    21851514.614 7  92461008.77507      -140.769 7        44.950
R01        38.000    21523684.307 4 115056489.51504     -4850.773 4        28.919                                                                    21523701.791 5                     -3773.257 5        30.498
C42        41.000                                                                                                                                    22784249.379 7 118643533.90507     -1599.590 7        46.344                                                                    22784259.423 7  96407708.14407     -1300.097 7        42.806
R02        43.000    19515637.950 7 104139186.58407     -1239.272 7        46.891                                                                    19515641.083 7  80997161.97207      -963.816 7        45.275
C40        44.000                                                                                                                                    38984288.962 5 203001420.11005     -1211.243 5        31.555                                                                    38984293.769 6 164955329.41306      -984.708 6        36.026
C33        46.000                                                                                                                                    25048501.620 7 130434236.67207      1449.521 7        46.454                                                                    25048518.202 7 105988420.66007      1177.535 7        44.658
C21        47.000                                                                                                                                    24534303.480 4 127756458.28804     -4029.629 4        26.024                                                                    24534287.797 5                     -3274.991 5        32.647
C14        48.000                                                                                                                                    23420620.517 5 121957304.43505        80.810 5        35.281    23420602.706 7  94305216.38607        62.535 7        44.864    23420598.153 7  99100213.78207        65.384 7        44.409
C45        49.000                                                                                                                                    23258360.785 7 121112268.67607     -2993.985 7        46.258                                                                    23258359.511 7  98413791.22607     -2433.076 7        43.551
C07        53.000                                                                                                                                    38933254.546 5 202735688.63505     -1063.742 5        34.886    38933257.770 5 156768092.25005      -822.836 5        34.081    38933253.517 5 164739333.94005      -864.929 5        33.138
I02        56.000    37158042.493 6 145816155.39806      -361.397 6        36.870
I06        57.000    38265392.337 5 150161642.84905      -714.718 5        32.389
> 2025 01 01 10 00  5.0000000  0 36
G19         1.000    23172849.334 6 121774172.48106      2226.928 6        39.114                                    23172850.233 1  94888979.11101      1735.181 1         5.429
G13         2.000    20701072.660 8 108784857.65308     -2929.157 8        48.518                                    20701071.667 5  84767435.87405     -2282.456 5        34.376
G30         3.000    24376594.250 3                     -3845.194 3        21.571                                                                                                    24376614.746 3                     -2997.695 3        21.524
G14         4.000    21852473.101 6 114835491.38506     -3297.413 6        38.814                                    21852478.311 3  89482237.27003     -2569.400 3        21.500    21852475.551 6  89482229.25706     -2569.428 6        40.629
G17         5.000    22258100.204 5 116966957.30505       245.933 5        30.808                                    22258081.209 2  91143136.65402       191.682 2        13.758    22258089.687 4  91143104.66404       191.196 4        28.663
G15         6.000    20292724.513 7 106639006.83807     -1313.543 7        47.426                                    20292725.049 7  83095642.63907     -1023.545 7        47.219    20292724.666 7  83095318.64207     -1023.572 7        46.528
G05         7.000    25324245.015 4                     -4427.577 4        26.168                                                                                                    25324259.108 4                     -3450.973 4        25.248
G23        10.000    23159352.688 3                      -624.862 3        20.881
E30        11.000                                                                                                                                    27352376.940 5 107336685.57605      1538.098 5        33.168    27352402.101 4 110136693.24304      1578.365 4        29.422
G10        12.000    25435569.028 5                      1570.149 5        30.498
E02        13.000    23524030.907 6 123619649.57806       261.786 6        38.541                                                                    23524033.350 7  92313469.17107       195.484 7        45.768    23524031.930 7  94721651.44507       200.648 7        47.155
E25        14.000    24474136.805 7 128612421.53007     -2517.838 7        44.185                                                                    24474145.869 8  96041857.96308     -1880.258 8        49.209    24474141.718 7  98547219.86307     -1929.215 7        42.063
G24        16.000    21794747.632 7 114532209.23007      1803.803 7        43.539                                    21794748.413 5  89245866.07405      1405.561 5        32.431    21794749.122 6  89245863.09706      1405.512 6        37.198
E08        17.000    23639689.630 7 124227411.14507      -355.473 7        42.165                                                                    23639693.051 7  92767237.95407      -265.415 7        45.964    23639692.487 8  95187290.39108      -272.369 8        48.839
E07        18.000    26726223.807 7 140447312.56407      1794.390 7        42.182                                                                    26726230.915 6 104879471.42906      1340.091 6        39.940    26726230.251 6 107615458.18206      1375.139 6        37.675
S23        24.000    38231983.411 6 200910415.58506      -826.424 6        36.442
R20        26.000                                                                                                                                    23291423.235 4  96871957.71104      -882.477 4        26.982
E03        27.000    24730650.668 7 129960391.80007     -2997.887 7        44.179                                                                    24730657.287 7  97048286.03407     -2238.689 7        43.962    24730654.894 7  99580002.34207     -2297.108 7        44.569
R11        28.000    21554599.771 6 115181221.66006     -4039.357 6        41.454                                                                    21554612.699 4  89585450.46504     -3141.547 4        25.594
R13        29.000    21720573.954 5 115986633.87005      2179.034 5        35.333
R12        31.000    19389443.449 7 103574939.15307      -548.674 7        43.780                                                                    19389446.954 6  80558294.33006      -426.520 6        40.558
C10        32.000                                                                                                                                    38589676.411 7 200946576.42807      -678.684 7        44.563    38589678.719 6 155384658.64406      -524.704 6        40.763    38589675.738 6 163285557.76906      -551.274 6        39.577
R03        33.000    21840100.629 8 116911785.27908      2613.002 8        51.452                                                                    21840105.455 6  90931408.03006      2032.282 6        39.991
C24        34.000                                                                                                                                    24540924.440 5 127791280.46205      1848.295 5        35.281                                                                    24540924.311 5 103840672.70405      1501.991 5        33.018
C26        37.000                                                                                                                                    21851680.797 7 113787399.30207      -174.914 7        46.875                                                                    21851681.642 7  92461715.19307      -141.947 7        45.196
R01        38.000    21528223.541 5 115080750.15305     -4853.273 5        32.269                                                                    21528239.365 5                     -3774.481 5        30.030
C42        41.000                                                                                                                                    22785786.963 7 118651539.91507     -1602.757 7        47.433                                                                    22785796.952 7  96414213.69407     -1302.199 7        43.185
R02        43.000    19516800.758 7 104145395.04707     -1244.144 7        45.433                                                                    19516804.001 7  81001990.75807      -967.657 7        44.567
C40        44.000                                                                                                                                    38985453.029 5 203007479.34505     -1212.432 5        32.329                                                                    38985457.359 6 164960253.01606      -984.924 6        36.363
C33        46.000                                                                                                                                    25047111.186 7 130426995.02607      1447.140 7        46.177                                                                    25047127.413 7 105982536.23107      1176.075 7        44.764
C21        47.000                                                                                                                                    24538172.446 3                     -4027.141 3        19.224                                                                    24538162.525 5                     -3276.027 5        33.916
C14        48.000                                                                                                                                    23420551.801 5 121956908.10905        77.550 5        32.473    23420525.910 7  94304909.95607        60.154 7        44.263    23420522.285 7  99099891.76907        63.380 7        44.853
C45        49.000                                                                                                                                    23261235.677 7 121127241.48207     -2995.159 7        45.931                                                                    23261234.726 7  98425957.84107     -2433.598 7        43.549
C07        53.000                                                                                                                                    38934275.815 5 202741010.73205     -1064.977 5        34.948    38934281.709 5 156772207.63705      -823.675 5        34.348    38934275.216 5 164743658.56405      -865.164 5        33.138
I02        56.000    37158503.310 6 145817961.98506      -361.353 6        36.934
I06        57.000    38266302.778 5 150165217.86905      -715.112 5        32.760
> 2025 01 01 10 00 10.0000000  0 35
G19         1.000    23170731.082 6 121763039.93906      2225.683 6        39.117                                    23170732.052 1  94880304.47101      1734.252 1         7.500
G13         2.000    20703861.069 8 108799508.59108     -2931.546 8        49.477                                    20703859.289 5  84778852.18505     -2284.320 5        34.952
G30         3.000    24380255.784 3                     -3847.483 3        23.962                                                                                                    24380273.504 3                     -2996.933 3        19.612
G14         4.000    21855610.819 6 114851981.25606     -3299.012 6        39.036                                    21855616.380 3  89495086.48503     -2570.660 3        23.314    21855613.862 6  89495078.46906     -2570.604 6        41.387
G17         5.000                                                                                                                                                                    22257857.511 4  91142153.48404       189.523 4        28.152
G15         6.000    20293975.735 8 106645582.50208     -1316.981 8        48.577                                    20293976.084 7  83100766.54307     -1026.220 7        47.776    20293976.090 7  83100442.53007     -1026.085 7        46.188
G05         7.000    25328457.001 4                     -4426.759 4        25.805                                                                                                    25328471.175 4                     -3449.633 4        26.012
G23        10.000                                                                                                                                                                    23159968.960 3                      -489.889 3        21.762
E30        11.000                                                                                                                                    27350416.079 5 107328993.83005      1538.012 5        32.335    27350438.976 4 110128800.82404      1577.849 4        29.052
G10        12.000    25434076.481 5                      1568.140 5        30.128
E02        13.000    23523782.798 6 123618344.45106       259.992 6        39.384                                                                    23523784.924 7  92312494.57007       194.165 7        45.397    23523783.720 7  94720651.42007       199.247 7        47.115
E25        14.000    24476532.998 7 128625013.34307     -2519.186 7        44.057                                                                    24476541.872 8  96051260.92808     -1881.175 8        48.797    24476537.916 7  98556868.12407     -1930.186 7        42.290
G24        16.000    21793031.079 7 114523192.50307      1802.594 7        43.736                                    21793032.030 5  89238840.07205      1404.612 5        32.832    21793033.097 6  89238837.09406      1404.638 6        37.524
E08        17.000    23640029.162 7 124229192.52307      -357.226 7        42.565                                                                    23640032.186 7  92768568.20207      -266.816 7        45.964    23640031.641 8  95188655.34608      -273.793 8        49.080
E07        18.000    26724516.507 7 140438341.00507      1793.853 7        42.732                                                                    26724523.680 6 104872771.88906      1339.627 6        39.613    26724522.713 6 107608583.87806      1374.474 6        37.614
S23        24.000    38232766.732 6 200914547.21006      -826.242 6        36.378
E03        27.000    24733503.093 7 129975383.89707     -2999.259 7        43.780                                                                    24733510.314 7  97059481.42207     -2239.746 7        44.107    24733507.726 7  99591489.77007     -2298.115 7        44.319
R11        28.000    21558378.996 6 115201419.94616     -4040.104 6        40.367                                                                    21558382.723 3                     -3139.814 3        23.276
R13        29.000    21718534.381 6 115975740.83206      2177.800 6        36.465
R12        31.000    19389958.394 7 103577688.03107      -551.246 7        44.740                                                                    19389960.747 6  80560432.38206      -428.958 6        40.269
C10        32.000                                                                                                                                    38590327.835 7 200949970.49407      -679.199 7        44.439    38590330.790 6 155387283.14906      -525.186 6        40.980    38590327.481 6 163288315.71906      -551.711 6        39.616
R03        33.000    21837661.615 8 116898725.73908      2610.587 8        51.541                                                                    21837667.059 6  90921250.65206      2030.469 6        38.982
C24        34.000                                                                                                                                    24539151.169 5 127782040.21105      1847.644 5        35.024                                                                    24539149.347 5 103833164.22605      1501.383 5        33.473
C26        37.000                                                                                                                                    21851849.114 7 113788276.73507      -176.395 7        46.501                                                                    21851850.188 7  92462428.16907      -143.214 7        45.267
R01        38.000    21532768.802 5 115105020.99915     -4855.374 5        33.802                                                                    21532775.925 4                     -3776.230 4        28.588
C42        41.000                                                                                                                                    22787326.955 7 118659559.89407     -1605.472 7        47.882                                                                    22787336.891 7  96420730.58607     -1304.438 7        43.194
R02        43.000    19517967.768 7 104151626.00007     -1248.495 7        44.873                                                                    19517971.759 7  81006837.04407      -971.156 7        44.221
C40        44.000                                                                                                                                    38986617.555 5 203013542.42505     -1213.630 5        33.455                                                                    38986621.814 6 164965179.74106      -985.746 6        36.250
C33        46.000                                                                                                                                    25045722.495 7 130419763.38707      1445.279 7        45.716                                                                    25045738.558 7 105976659.92907      1174.484 7        44.743
C21        47.000                                                                                                                                                                                                                                                                    24542032.893 5 103845377.95515     -3276.633 5        34.048
C14        48.000                                                                                                                                    23420479.612 4 121956525.29704        74.851 4        27.976    23420451.801 7  94304614.09307        57.968 7        43.355    23420448.912 7  99099580.83107        61.047 7        44.960
C45        49.000                                                                                                                                    23264111.405 7 121142218.62107     -2995.950 7        45.302                                                                    23264111.023 7  98438127.96907     -2434.310 7        43.191
C07        53.000                                                                                                                                    38935298.725 5 202746335.82105     -1065.368 5        34.957    38935305.089 5 156776325.29605      -823.703 5        35.014    38935297.948 5 164747985.57405      -865.299 5        32.958
I02        56.000    37158963.706 6 145819769.55806      -361.563 6        36.586
I06        57.000    38267214.816 5 150168792.70905      -715.030 5        32.461
> 2025 01 01 10 00 15.0000000  0 34
G19         1.000    23168614.350 6 121751914.18706      2224.527 6        39.291                                    23168615.213 1  94871635.02901      1733.465 1         6.625
G13         2.000    20706651.595 8 108814171.96408     -2933.855 8        49.630                                    20706649.466 5  84790278.18805     -2286.123 5        35.429
G30         3.000    24383917.024 4                     -3847.001 4        25.203                                                                                                    24383933.835 3                     -3000.112 3        19.910
G14         4.000    21858751.945 6 114868479.52506     -3300.510 6        38.928                                    21858756.384 4  89507942.25704     -2571.822 4        24.241    21858753.704 7  89507934.25507     -2571.948 7        42.354
G17         5.000    22257616.390 5                       239.779 5        30.958                                                                                                    22257625.069 4  91141213.70804       186.723 4        27.940
G15         6.000    20295230.660 8 106652175.58508     -1320.359 8        48.662                                    20295230.352 8  83105904.01608     -1028.854 8        48.031    20295230.307 7  83105580.01507     -1028.786 7        45.675
G05         7.000    25332671.094 4                     -4425.834 4        24.767                                                                                                    25332680.344 4                     -3449.748 4        26.395
E30        11.000    27348459.944 5                      2059.143 5        32.934                                                                    27348456.138 5 107321304.48205      1537.354 5        31.864    27348476.938 4 110120910.81304      1577.319 4        28.777
G10        12.000    25432591.424 4                      1565.884 4        29.848
E02        13.000    23523536.510 6 123617048.59206       258.343 6        40.772                                                                    23523538.210 7  92311526.89207       192.847 7        45.150    23523537.213 7  94719658.49407       197.893 7        47.170
E25        14.000    24478930.148 7 128637612.04607     -2520.374 7        43.793                                                                    24478939.049 8  96060669.05208     -1882.146 8        48.376    24478935.447 7  98566521.67007     -1931.267 7        42.722
G24        16.000    21791315.541 7 114514182.82307      1801.217 7        42.646                                    21791317.238 5  89231819.56105      1403.541 5        33.299    21791319.420 6  89231816.57606      1403.485 6        37.520
E08        17.000    23640370.143 7 124230983.47507      -359.112 7        43.101                                                                    23640372.956 7  92769905.59607      -268.180 7        46.026    23640372.590 8  95190027.63208      -275.193 8        49.339
E07        18.000    26722809.594 7 140429372.59507      1793.394 7        43.427                                                                    26722817.207 6 104866074.70206      1339.371 6        39.697    26722815.545 6 107601711.97406      1374.041 6        37.546
S23        24.000    38233553.607 6 200918678.80806      -826.220 6        36.147
E03        27.000    24736356.508 7 129990383.16907     -3000.573 7        43.310                                                                    24736364.738 7  97070682.16407     -2240.639 7        44.400    24736362.104 7  99602982.71307     -2299.148 7        44.158
R11        28.000    21562159.079 6 115221622.68706     -4040.893 6        40.312                                                                    21562164.933 4                     -3143.291 4        24.090
R13        29.000    21716499.490 6 115964856.16606      2176.221 6        37.198
R12        31.000    19390476.561 7 103580450.65307      -553.839 7        45.961                                                                    19390478.287 6  80562581.06706      -430.803 6        41.170
C10        32.000                                                                                                                                    38590980.159 7 200953367.72307      -679.798 7        44.420    38590983.443 6 155389910.11306      -525.699 6        41.435    38590979.947 6 163291076.26706      -552.393 6        39.544
R03        33.000    21835223.325 8 116885678.40008      2608.276 8        51.098                                                                    21835227.852 6  90911102.72406      2028.665 6        37.985
C24        34.000                                                                                                                                                                                                                                                                    24537375.569 5 103825658.75905      1500.529 5        33.647
C26        37.000                                                                                                                                    21852019.416 7 113789162.35407      -177.975 7        46.471                                                                    21852020.419 7  92463147.81907      -144.726 7        45.452
R01        38.000    21537315.239 5 115129302.27505     -4857.283 5        34.414                                                                    21537315.807 4                     -3778.431 4        28.502
C42        41.000                                                                                                                                    22788869.326 7 118667593.93707     -1608.213 7        47.382                                                                    22788879.732 7  96427258.90107     -1306.863 7        43.198
R02        43.000    19519139.075 7 104157879.60707     -1253.032 7        43.022                                                                    19519143.918 7  81011700.94007      -974.563 7        44.184
C40        44.000                                                                                                                                    38987783.424 5 203019609.41205     -1213.923 5        34.229                                                                    38987786.743 6 164970109.67506      -986.392 6        36.510
C33        46.000                                                                                                                                    25044335.786 7 130412541.88707      1443.256 7        45.186                                                                    25044351.513 7 105970791.87907      1172.700 7        44.682
C21        47.000                                                                                                                                    24545876.072 4                     -4034.095 4        24.286                                                                    24545901.008 5 103861764.32805     -3277.937 5        34.062
C14        48.000                                                                                                                                                                                                    23420380.120 7  94304328.91907        55.946 7        42.559    23420378.160 7  99099281.12407        58.718 7        44.859
C45        49.000                                                                                                                                    23266988.438 7 121157200.17207     -2996.688 7        44.453                                                                    23266988.137 7  98450301.68907     -2435.185 7        42.891
C07        53.000                                                                                                                                    38936322.604 5 202751663.99605     -1066.144 5        34.995    38936328.545 5 156780445.35605      -824.214 5        35.790    38936320.943 5 164752315.17105      -866.198 5        33.551
I02        56.000    37159424.961 6 145821578.28206      -361.687 6        36.219
I06        57.000    38268126.300 5 150172367.53705      -714.947 5        32.695
> 2025 01 01 10 00 20.0000000  0 34
G19         1.000    23166499.406 6 121740795.20606      2222.904 6        39.907                                    23166499.469 1  94862970.85201      1732.078 1         7.625
G13         2.000    20709444.099 8 108828847.68708     -2936.437 8        49.284                                    20709442.182 5  84801713.81105     -2288.134 5        35.771
G30         3.000    24387578.822 4                     -3848.048 4        24.692
G14         4.000    21861893.642 6 114884986.12206     -3302.164 6        39.841                                    21861898.012 4  89520804.50604     -2573.110 4        25.398    21861895.662 7  89520796.49707     -2573.192 7        43.426
G17         5.000    22257385.278 5                       236.900 5        32.497                                                                                                    22257396.163 4  91140285.17504       184.714 4        28.550
G15         6.000    20296488.051 8 106658786.03208     -1323.920 8        48.074                                    20296487.920 8  83111055.01908     -1031.625 8        48.124    20296488.335 7  83110731.01207     -1031.613 7        45.682
G05         7.000    25336880.273 4                     -4427.230 4        24.180                                                                                                    25336895.667 4                     -3449.402 4        27.114
G23        10.000    23161232.415 5                      -635.514 5        30.038
E30        11.000    27346504.280 5 143706846.24815      2058.378 5        33.868                                                                    27346496.556 5 107313617.45605      1537.013 5        31.200    27346518.459 4 110113023.26804      1577.594 4        28.436
E02        13.000    23523291.827 6 123615761.94406       256.369 6        41.876                                                                    23523293.004 7  92310566.09007       191.461 7        44.783    23523292.501 7  94718672.62507       196.438 7        47.425
E25        14.000    24481328.697 7 128650217.59407     -2521.836 7        43.562                                                                    24481337.549 8  96070082.27208     -1883.235 8        48.093    24481334.322 7  98576180.45207     -1932.324 7        43.308
G24        16.000    21789601.359 6 114505180.17006      1799.739 6        40.439                                    21789604.021 5  89224804.51905      1402.389 5        33.527    21789606.580 6  89224801.53706      1402.429 6        38.520
E08        17.000    23640712.473 7 124232783.92607      -361.031 7        43.115                                                                    23640715.695 7  92771250.08107      -269.661 7        46.196    23640715.283 8  95191407.19708      -276.669 8        49.490
E07        18.000    26721103.156 7 140420407.26007      1792.710 7        43.850                                                                    26721111.485 6 104859379.82206      1338.660 6        39.670    26721109.175 6 107594842.44406      1373.512 6        37.301
S23        24.000    38234339.057 6 200922810.19006      -826.393 6        36.155
E03        27.000    24739211.734 7 130005389.55807     -3002.102 7        42.677                                                                    24739220.461 7  97081888.21507     -2241.807 7        45.029    24739217.874 7  99614481.10407     -2300.281 7        44.084
R11        28.000    21565941.599 6 115241829.81606     -4041.976 6        40.932                                                                    21565950.291 4                     -3142.700 4        24.256
R13        29.000    21714464.542 5 115953979.71105      2174.476 5        35.910
R12        31.000    19390995.816 7 103583226.95807      -556.689 7        44.852                                                                    19390998.497 6  80564740.43106      -432.934 6        41.781
C10        32.000                                                                                                                                    38591632.987 7 200956768.08007      -680.365 7        44.421    38591636.285 6 155392539.48706      -526.086 6        41.650    38591633.016 6 163293839.34206      -553.035 6        39.592
R03        33.000    21832787.468 8 116872643.34908      2605.682 8        50.991                                                                    21832790.688 6  90900964.34606      2026.503 6        37.728
C24        34.000                                                                                                                                                                                                                                                                    24535602.111 5 103818156.20505      1499.810 5        33.533
C26        37.000                                                                                                                                    21852190.972 7 113790056.10007      -179.700 7        45.980                                                                    21852192.122 7  92463874.05607      -145.997 7        45.561
R01        38.000    21541861.067 5                     -4859.392 5        34.500                                                                    21541862.137 4                     -3779.593 4        29.336
C42        41.000                                                                                                                                    22790414.148 7 118675641.98407     -1611.067 7        46.832                                                                    22790425.352 7  96433798.57807     -1309.124 7        43.189
R02        43.000    19520314.055 6 104164155.53806     -1257.612 6        40.667                                                                    19520320.132 7  81016582.21107      -978.058 7        44.281
C40        44.000                                                                                                                                    38988949.247 5 203025680.29405     -1214.762 5        34.833                                                                    38988952.573 6 164975042.77206      -987.034 6        36.386
C33        46.000                                                                                                                                    25042950.855 7 130405330.46607      1441.108 7        44.552                                                                    25042966.538 7 105964931.98907      1171.127 7        44.620
C21        47.000                                                                                                                                                                                                                                                                    24549771.124 5 103878155.14705     -3278.689 5        33.491
C14        48.000                                                                                                                                    23420314.591 5 121955801.35305        69.099 5        31.728    23420309.957 6  94304054.30306        53.793 6        41.685    23420309.780 7  99098992.53007        56.653 7        44.579
C45        49.000                                                                                                                                    23269866.547 7 121172186.09107     -2997.671 7        43.435                                                                    23269865.911 7  98462478.97207     -2436.093 7        42.614
C07        53.000                                                                                                                                    38937346.727 5 202756995.19905     -1066.695 5        34.805    38937351.616 6 156784567.73806      -824.676 6        36.117    38937344.601 5 164756647.17805      -866.358 5        33.012
I02        56.000    37159884.787 6 145823388.00206      -362.382 6        36.136
I06        57.000    38269036.821 5 150175942.22705      -714.974 5        32.491
> 2025 01 01 10 00 25.0000000  0 35
G19         1.000    23164384.892 6 121729683.63706      2221.641 6        39.123                                    23164385.348 1  94854312.46901      1731.331 1         6.375
G13         2.000    20712239.440 8 108843536.43508     -2938.935 8        48.669                                    20712237.487 6  84813159.58306     -2290.080 6        36.106
G30         3.000    24391234.610 4                     -3848.818 4        24.361
G14         4.000    21865036.881 6 114901501.72406     -3303.889 6        40.675                                    21865041.348 4  89533673.77704     -2574.441 4        25.895    21865039.391 7  89533665.75207     -2574.509 7        44.041
G17         5.000    22257155.379 5                       233.655 5        34.010                                                                                                    22257170.078 5  91139368.55905       182.212 5        31.336
G15         6.000    20297749.150 7 106665414.51907     -1327.397 7        47.993                                    20297748.980 8  83116220.07808     -1034.334 8        48.042    20297749.816 7  83115896.05907     -1034.341 7        46.082
G05         7.000    25341090.408 3                     -4424.437 3        23.086                                                                                                    25341107.944 4                     -3449.086 4        27.329
G23        10.000                                                                                                                                                                    23161805.796 5                      -498.065 5        33.737
E30        11.000    27344543.581 5 143696556.23305      2057.818 5        34.214                                                                    27344538.109 5 107305933.31705      1536.619 5        30.136    27344561.222 4 110105138.72004      1576.630 4        28.085
E02        13.000    23523048.130 7 123614485.17407       254.479 7        42.961                                                                    23523049.788 7  92309612.66707       189.980 7        44.542    23523049.766 7  94717694.32907       194.975 7        47.339
E25        14.000    24483728.981 7 128662830.65007     -2523.325 7        43.767                                                                    24483737.405 7  96079501.09707     -1884.197 7        47.580    24483734.558 7  98585844.98707     -1933.430 7        43.928
G24        16.000    21787889.294 6 114496185.14906      1798.532 6        36.612                                    21787892.575 5  89217795.42705      1401.453 5        33.275    21787895.159 6  89217792.44906      1401.258 6        38.895
E08        17.000    23641056.945 7 124234594.59507      -363.078 7        43.522                                                                    23641060.240 7  92772602.19907      -271.142 7        46.395    23641059.891 8  95192794.59408      -278.231 8        49.362
E07        18.000    26719398.084 7 140411445.67707      1792.097 7        44.381                                                                    26719406.360 6 104852687.73506      1338.224 6        40.007    26719403.041 6 107587975.78806      1373.119 6        37.108
S23        24.000    38235127.019 6 200926942.03406      -826.390 6        36.113
R20        26.000                                                                                                                                    23295687.843 4                      -896.022 4        28.142
E03        27.000    24742069.022 7 130020403.73707     -3003.653 7        42.030                                                                    24742077.775 7  97093100.08507     -2242.858 7        45.898    24742075.131 7  99625985.46407     -2301.352 7        43.917
R11        28.000    21569724.321 6 115262042.01806     -4042.926 6        40.906                                                                    21569733.324 3                     -3145.612 3        21.690
R13        29.000    21712425.920 6 115943112.30506      2172.461 6        36.212
R12        31.000    19391516.991 7 103586017.63607      -559.452 7        43.657                                                                    19391519.995 6  80566910.98406      -435.208 6        40.863
C10        32.000                                                                                                                                    38592286.476 7 200960172.18007      -681.125 7        44.334    38592290.258 7 155395171.75607      -526.671 7        42.002    38592286.699 6 163296605.48406      -553.570 6        39.532
R03        33.000    21830354.928 8 116859621.40508      2603.206 8        50.275                                                                    21830358.658 6  90890836.19406      2024.560 6        37.747
C24        34.000                                                                                                                                                                                                                                                                    24533830.119 5 103810657.15905      1499.478 5        34.005
C26        37.000                                                                                                                                    21852363.249 7 113790958.64707      -181.256 7        44.816                                                                    21852365.516 7  92464607.46607      -147.339 7        45.699
R01        38.000    21546402.438 5 115177896.22715     -4861.225 5        32.838                                                                    21546409.325 5                     -3781.291 5        30.868
C42        41.000                                                                                                                                    22791961.799 7 118683704.67407     -1613.892 7        46.550                                                                    22791973.877 7  96440350.19207     -1311.526 7        43.086
R02        43.000    19521497.159 6 104170454.76306     -1262.171 6        41.569                                                                    19521500.715 7  81021481.60007      -981.669 7        44.682
C40        44.000                                                                                                                                    38990116.712 5 203031755.74605     -1215.139 5        35.648                                                                    38990119.243 6 164979979.58506      -987.656 6        36.646
C33        46.000                                                                                                                                    25041567.878 7 130398129.76707      1439.139 7        44.230                                                                    25041583.678 7 105959080.85407      1169.396 7        44.646
C21        47.000                                                                                                                                                                                                                                                                    24553644.506 5 103894551.04405     -3279.779 5        33.245
C14        48.000                                                                                                                                                                                                    23420243.506 6  94303790.83006        51.640 6        41.251    23420244.142 7  99098715.67607        54.267 7        44.217
C45        49.000                                                                                                                                    23272746.193 7 121187177.04007     -2998.520 7        43.100                                                                    23272744.555 7  98474660.32607     -2436.623 7        42.193
C07        53.000                                                                                                                                    38938370.926 5 202762330.10605     -1067.247 5        35.186    38938376.436 6 156788693.01706      -825.191 6        36.499    38938369.590 5 164760982.24005      -867.423 5        33.210
I02        56.000    37160346.889 5 145825199.36805      -362.336 5        35.657
I06        57.000    38269947.019 5 150179517.35005      -714.781 5        32.581
> 2025 01 01 10 00 30.0000000  0 35
G19         1.000    23162272.625 6 121718579.66606      2220.146 6        38.529                                    23162272.493 1  94845659.95501      1729.949 1         7.375
G13         2.000    20715037.530 7 108858238.34307     -2941.663 7        47.810                                    20715035.426 6  84824615.62006     -2292.208 6        36.348
G30         3.000    24394898.796 4                     -3849.241 4        24.376
G14         4.000    21868180.837 6 114918026.42906     -3305.741 6        41.623                                    21868186.406 4  89546550.13204     -2575.892 4        26.671    21868184.124 7  89546542.11107     -2575.927 7        44.126
G17         5.000    22256935.960 5 116960979.34315       230.743 5        35.124                                                                                                    22256948.597 5  91138463.83005       179.394 5        33.533
G15         6.000    20299014.449 8 106672061.19208     -1331.108 8        48.328                                    20299013.649 8  83121399.30308     -1037.229 8        48.174    20299014.733 7  83121075.29707     -1037.245 7        46.380
G05         7.000    25345302.359 3                     -4426.455 3        23.410                                                                                                    25345321.322 4                     -3448.597 4        27.413
G23        10.000                                                                                                                                                                    23162414.549 5  94846220.98115      -500.603 5        32.287
E30        11.000    27342585.172 5 143686270.15905      2056.824 5        34.348                                                                    27342580.965 4 107298252.15604      1536.206 4        29.469    27342606.009 4 110097257.14904      1575.904 4        26.503
E02        13.000    23522806.865 7 123613218.42707       252.374 7        43.782                                                                    23522808.511 7  92308666.72807       188.460 7        44.200    23522808.895 7  94716723.70107       193.492 7        47.468
E25        14.000    24486131.079 7 128675451.32807     -2524.822 7        44.337                                                                    24486138.824 7  96088925.61907     -1885.471 7        46.814    24486136.471 7  98595515.37107     -1934.664 7        44.612
G24        16.000    21786178.210 5 114487197.96005      1796.859 5        34.167                                    21786182.756 5  89210792.44105      1400.146 5        32.970    21786185.356 6  89210789.46206      1400.043 6        39.381
E08        17.000    23641404.013 7 124236415.58907      -365.236 7        44.074                                                                    23641406.790 7  92773962.02607      -272.679 7        46.409    23641406.348 8  95194189.89608      -279.860 8        49.140
E07        18.000    26717693.250 7 140402488.00107      1791.131 7        44.754                                                                    26717702.081 6 104845998.58106      1337.440 6        40.248    26717697.951 6 107581112.11606      1372.402 6        36.386
S23        24.000    38235914.825 6 200931074.63506      -826.699 6        36.038
R20        26.000                                                                                                                                    23296775.767 5                      -899.461 5        30.800
E03        27.000    24744928.255 6 130035425.80706     -3005.160 6        41.704                                                                    24744936.727 7  97104317.86007     -2244.140 7        46.186    24744934.003 7  99637495.87107     -2302.574 7        43.926
R11        28.000    21573508.088 6 115282259.39006     -4043.830 6        40.851
R13        29.000    21710392.198 5 115932253.99005      2171.128 5        35.286
