     3.04           OBSERVATION DATA    M                   RINEX VERSION / TYPE
ssrcrin-15.6.1x                         20250101 201500 UTC PGM / RUN BY / DATE 
(00000000023479385599111004) Septentrio proprietary         COMMENT             
ract                                                        MARKER NAME         
01                                                          MARKER NUMBER       
geodetic                                                    MARKER TYPE         
NFB                 CLIMERS@TUW                             OBSERVER / AGENCY   
3296359             SEPT ASTERX SB3 PROB4.14.4              REC # / TYPE / VERS 
Unknown             Unknown                                 ANT # / TYPE        
  4127446.5946  1206915.4854  4695543.0089                  APPROX POSITION XYZ 
        0.0000        0.0000        0.0000                  ANTENNA: DELTA H/E/N
G   23 X1  C1C L1C D1C S1C C1W S1W C2W L2W D2W S2W C2L L2L  SYS / # / OBS TYPES 
       D2L S2L C5Q L5Q D5Q S5Q C1L L1L D1L S1L              SYS / # / OBS TYPES 
E   21 X1  C1C L1C D1C S1C C6C L6C D6C S6C C5Q L5Q D5Q S5Q  SYS / # / OBS TYPES 
       C7Q L7Q D7Q S7Q C8Q L8Q D8Q S8Q                      SYS / # / OBS TYPES 
S    9 X1  C1C L1C D1C S1C C5I L5I D5I S5I                  SYS / # / OBS TYPES 
R   17 X1  C1C L1C D1C S1C C2P L2P D2P S2P C2C L2C D2C S2C  SYS / # / OBS TYPES 
       C3Q L3Q D3Q S3Q                                      SYS / # / OBS TYPES 
C   25 X1  C1P L1P D1P S1P C5P L5P D5P S5P C2I L2I D2I S2I  SYS / # / OBS TYPES 
       C7I L7I D7I S7I C6I L6I D6I S6I C7D L7D D7D S7D      SYS / # / OBS TYPES 
J   17 X1  C1C L1C D1C S1C C2L L2L D2L S2L C5Q L5Q D5Q S5Q  SYS / # / OBS TYPES 
       C1L L1L D1L S1L                                      SYS / # / OBS TYPES 
I    5 X1  C5A L5A D5A S5A                                  SYS / # / OBS TYPES 
SEPTENTRIO RECEIVERS OUTPUT ALIGNED CARRIER PHASES.         COMMENT             
NO FURTHER PHASE SHIFT APPLIED IN THE RINEX ENCODER.        COMMENT             
G L1C                                                       SYS / PHASE SHIFT   
G L2W                                                       SYS / PHASE SHIFT   
G L2L  0.00000                                              SYS / PHASE SHIFT   
G L5Q  0.00000                                              SYS / PHASE SHIFT   
G L1L  0.00000                                              SYS / PHASE SHIFT   
E L1C  0.00000                                              SYS / PHASE SHIFT   
E L6C  0.00000                                              SYS / PHASE SHIFT   
E L5Q  0.00000                                              SYS / PHASE SHIFT   
E L7Q  0.00000                                              SYS / PHASE SHIFT   
E L8Q  0.00000                                              SYS / PHASE SHIFT   
S L1C                                                       SYS / PHASE SHIFT   
S L5I                                                       SYS / PHASE SHIFT   
R L1C                                                       SYS / PHASE SHIFT   
R L2P  0.00000                                              SYS / PHASE SHIFT   
R L2C                                                       SYS / PHASE SHIFT   
R L3Q  0.00000                                              SYS / PHASE SHIFT   
C L1P  0.00000                                              SYS / PHASE SHIFT   
C L5P  0.00000                                              SYS / PHASE SHIFT   
C L2I                                                       SYS / PHASE SHIFT   
C L7I                                                       SYS / PHASE SHIFT   
C L6I                                                       SYS / PHASE SHIFT   
C L7D                                                       SYS / PHASE SHIFT   
J L1C                                                       SYS / PHASE SHIFT   
J L2L  0.00000                                              SYS / PHASE SHIFT   
J L5Q  0.00000                                              SYS / PHASE SHIFT   
J L1L  0.00000                                              SYS / PHASE SHIFT   
I L5A                                                       SYS / PHASE SHIFT   
  2025     1     1    20    15    0.0000000     GPS         TIME OF FIRST OBS   
 C1C    0.000 C2C    0.000 C2P    0.000                     GLONASS COD/PHS/BIS 
DBHZ                                                        SIGNAL STRENGTH UNIT
    18                                                      LEAP SECONDS        
 24 R01  1 R02 -4 R03  5 R04  6 R05  1 R06 -4 R07  5 R08  6 GLONASS SLOT / FRQ #
    R09 -2 R10 -7 R11  0 R12 -1 R13 -2 R14 -7 R15  0 R16 -1 GLONASS SLOT / FRQ #
    R17  4 R18 -3 R19  3 R20  2 R21  4 R22 -3 R23  3 R24  2 GLONASS SLOT / FRQ #
                                                            END OF HEADER       
> 2025 01 01 20 15  0.0000000  0 36
G18         1.000    23555654.989 4                     -3826.206 4        27.904                                                                                                    23555678.289 5                     -2980.887 5        31.192
G10         2.000    21103477.945 7 110899769.05407       624.809 7        47.847                                    21103476.321 7  86415179.00807       486.869 7        47.360    21103475.781 7  86415210.99107       486.827 7        44.736
G07         3.000                                                                                                                                                                    25380594.756 5                     -1493.163 5        30.513
G23         4.000    21175023.092 7 111275469.89807     -2198.404 7        46.716                                    21175017.659 5  86708122.94405     -1713.048 5        30.445    21175017.161 6  86708201.94706     -1712.823 6        39.060
G15         5.000    23919765.681 5                     -2109.065 5        35.619
G08         6.000    21656911.035 5 113807967.28205      1640.191 5        33.461                                    21656960.601 1  88681630.07301      1278.269 1         5.429    21656915.743 6  88681492.34006      1278.071 6        36.548
G27         7.000    20141627.811 7 105845007.37507      -378.581 7        47.182                                    20141625.251 6  82476565.82906      -294.997 6        41.721    20141625.535 6  82476624.82506      -295.088 6        39.844
G21         8.000    23527300.807 5                      2010.497 5        30.740
E13        16.000    23729063.039 6 124697150.56706     -1952.644 6        38.177                                                                    23729062.307 7  93117999.43007     -1458.180 7        44.849    23729063.513 8  95547118.77808     -1496.215 8        48.515
E31        17.000    27659113.057 5 145349661.73905      1680.230 5        34.210                                                                    27659114.959 5 108540402.98505      1254.848 5        35.767    27659112.329 5 111371817.76605      1287.455 5        31.215
G16        18.000    21983856.719 7 115525921.68407     -3738.279 7        42.554                                    21983848.731 4  90020178.14604     -2912.953 4        24.105
E26        19.000    24221723.808 7 127286024.44607       513.716 7        47.805                                                                    24221722.093 7  95051309.37307       383.588 7        43.484    24221721.483 7  97530900.56807       393.674 7        45.264
E21        22.000    25112147.543 7 131965212.35207     -3253.970 7        42.250                                                                    25112164.911 6  98545465.31206     -2430.081 6        37.267    25112146.548 5 101116242.86705     -2493.094 5        34.100
S36        23.000    38254933.307 6 201030916.90106      -852.328 6        36.423
S23        24.000    38210438.784 6 200797190.95206      -852.123 6        40.987
G26        25.000    24225418.849 6 127305456.28706     -4475.683 6        37.096                                    24225424.889 2  99199141.10302     -3487.531 2        16.189    24225425.908 4                     -3487.434 4        28.455
R20        26.000                                                                                                                                    21736942.541 4  90406926.01904      1430.907 4        29.867
R02        27.000    23701212.863 4                     -4183.392 4        24.496                                                                    23701228.065 4                     -3253.758 4        29.972
R19        29.000    19787531.136 3                     -1627.407 3        20.167                                                                    19787458.604 6  82327453.62006     -1263.829 6        41.302
R18        30.000    21785790.152 5 116294279.75305     -3645.522 5        33.671                                                                    21785782.282 5  90450899.86105     -2835.876 5        31.864
R04        31.000    21520771.685 6 115242645.15206      2587.448 6        36.983                                                                    21520756.191 4  89633179.30304      2013.145 4        25.835
R03        32.000    21050088.281 6 112682764.51406      -941.268 6        41.161                                                                    21050088.885 7  87642144.28407      -732.088 7        42.389
R09        34.000    21561559.147 7 115137513.52307     -4061.116 7        43.154                                                                    21561558.440 7  89551394.67707     -3158.573 7        42.006
R10        35.000    21279527.078 5                      -989.612 5        31.487
C37        36.000                                                                                                                                    25286843.501 6 131675561.90406     -3472.097 6        39.504                                                                    25286847.150 4                     -2821.305 4        29.829
C33        37.000                                                                                                                                    23705241.785 6 123439429.20706      1500.296 6        38.021                                                                    23705248.680 6 100304683.03306      1219.276 6        37.013
C28        40.000                                                                                                                                    21620922.871 8 112586086.27308      -214.238 8        48.870                                                                    21620920.399 6  91485197.07106      -173.901 6        38.901
R11        41.000                                                                                                                                    23671880.912 4  98385160.62804      1862.610 4        26.611
C43        42.000                                                                                                                                    23744637.826 6 123644690.60806     -3151.763 6        38.727                                                                    23744613.478 4 100471274.82104     -2560.755 4        28.142
C13        45.000                                                                                                                                    38526519.140 7 200617713.97707     -1797.334 7        42.281    38526516.222 6 155130348.69706     -1389.897 6        40.222    38526514.271 6 163018354.33006     -1460.215 6        37.399
C08        46.000                                                                                                                                    39011606.824 5                     -2036.417 5        30.143    39011592.723 5 157083532.67705     -1574.539 5        31.630    39011587.754 4                     -1654.566 4        26.168
C14        47.000                                                                                                                                    23273832.507 6 121193003.70906        30.250 6        40.844    23273829.783 7  93714115.51207        23.410 7        46.796    23273828.879 6  98479193.01106        24.732 6        41.933
C42        48.000                                                                                                                                    23954991.781 7 124739960.56107     -1620.786 7        45.597                                                                    23954999.340 6 101361469.78106     -1316.867 6        40.300
C38        50.000                                                                                                                                    40484050.506 3                     -2112.531 3        23.029
C27        52.000                                                                                                                                    24026217.566 6 125110786.35106      1634.317 6        39.411                                                                    24026194.948 6 101662718.54106      1328.054 6        39.553
I06        58.000    38669700.523 5 151748369.32605      -562.576 5        33.521
> 2025 01 01 20 15  5.0000000  0 37
G18         1.000    23559294.161 4                     -3826.344 4        26.479                                                                                                    23559316.276 5                     -2981.519 5        32.485
G10         2.000    21102884.608 7 110896651.73707       622.048 7        47.562                                    21102882.789 7  86412749.92307       484.713 7        47.272    21102882.488 7  86412781.90907       484.754 7        44.471
G07         3.000                                                                                                                                                                    25382418.149 5                     -1494.993 5        30.626
G23         4.000    21177116.054 7 111286468.66807     -2201.265 7        47.621                                    21177110.258 5  86716693.40605     -1715.278 5        30.128    21177110.361 6  86716772.42906     -1715.255 6        38.760
G15         5.000    23921770.642 5 125709788.86015     -2112.455 5        35.314
G08         6.000    21655356.139 5 113799769.65405      1638.628 5        33.659                                    21655402.593 1  88675242.30301      1276.622 1         4.429    21655357.265 5  88675104.56405      1276.775 5        35.924
G27         7.000    20141989.456 7 105846906.16607      -381.171 7        47.070                                    20141986.921 6  82478045.39506      -297.018 6        41.557    20141987.551 6  82478104.39406      -296.977 6        40.079
G21         8.000    23525389.090 5                      2009.422 5        30.996
G30        10.000    25766730.484 3                      -687.233 3        22.686
E13        16.000    23730921.441 6 124706915.71006     -1953.661 6        38.628                                                                    23730920.804 7  93125291.57507     -1458.818 7        44.858    23730921.895 8  95554601.15408     -1496.893 8        48.681
E31        17.000    27657514.339 5 145341263.24205      1678.976 5        33.575                                                                    27657516.936 6 108534131.33906      1253.902 6        36.193    27657514.070 5 111365382.50305      1286.790 5        31.094
G16        18.000    21987414.401 7 115544617.92007     -3740.311 7        42.944                                    21987406.966 3  90034746.62203     -2914.530 3        23.829
E26        19.000    24221235.505 8 127283458.34708       512.606 8        48.220                                                                    24221233.687 7  95049393.13007       382.854 7        43.232    24221233.456 7  97528934.33407       392.793 7        45.676
E21        22.000    25115244.149 6 131981485.53406     -3255.591 6        41.244                                                                    25115262.438 6  98557617.34506     -2430.865 6        36.238    25115243.884 5 101128711.94205     -2494.373 5        35.252
S36        23.000    38255743.578 6 201035176.94906      -851.928 6        36.560
S23        24.000    38211247.281 6 200801451.71406      -852.246 6        40.660
G26        25.000    24229678.295 6 127327834.55906     -4475.800 6        37.221                                    24229682.929 2  99216578.68502     -3487.639 2        15.000    24229680.523 4                     -3487.896 4        27.880
R02        27.000    23705138.375 4                     -4185.723 4        26.263                                                                    23705143.244 4                     -3255.961 4        27.916
R19        29.000    19789040.313 3                     -1626.387 3        23.562                                                                    19788977.481 6  82333776.19206     -1265.248 6        40.555
R18        30.000    21789205.097 5 116312509.12005     -3646.293 5        34.638                                                                    21789206.839 5  90465078.16205     -2836.070 5        34.276
R04        31.000    21518358.197 5 115229713.77715      2585.128 5        32.988
R03        32.000    21050975.968 6 112687481.54206      -945.620 6        41.046                                                                    21050969.512 6  87645813.10506      -735.515 6        41.919
R09        34.000    21565363.649 7 115157825.26907     -4063.798 7        44.631                                                                    21565362.855 7  89567192.71707     -3160.732 7        42.250
R10        35.000    21280451.130 5                      -994.126 5        32.497
C37        36.000                                                                                                                                    25290180.963 6 131692924.82506     -3473.294 6        38.814                                                                    25290173.331 5                     -2822.384 5        31.336
C33        37.000                                                                                                                                    23703809.046 6 123431931.77006      1498.397 6        40.231                                                                    23703807.508 6 100298590.72906      1217.681 6        36.023
C28        40.000                                                                                                                                    21621128.890 8 112587160.73408      -215.688 8        48.971                                                                    21621126.430 6  91486070.16506      -175.277 6        37.947
R11        41.000    23669605.115 5                      2392.398 5        31.260                                                                    23669646.627 4  98375851.82914      1860.061 4        25.519
C43        42.000                                                                                                                                    23747665.885 6 123660451.20506     -3152.759 6        38.429                                                                    23747642.323 4 100484081.54704     -2561.607 4        29.327
C11        44.000                                                                                                                                    25671499.663 4                     -3520.569 4        24.992    25671467.103 3                     -2723.664 3        22.457
C13        45.000                                                                                                                                    38528245.927 7 200626701.27507     -1797.719 7        42.237    38528241.906 6 155137298.25006     -1390.115 6        40.286    38528240.253 6 163025657.25506     -1460.885 6        37.478
C08        46.000                                                                                                                                    39013565.708 5                     -2036.580 5        31.374    39013547.589 5 157091406.45905     -1574.690 5        31.683    39013542.815 4                     -1655.228 4        24.271
C14        47.000                                                                                                                                    23273803.628 6 121192858.71206        27.589 6        40.555    23273801.924 7  93714003.40607        21.277 7        47.531    23273800.884 7  98479075.20007        22.383 7        42.078
C42        48.000                                                                                                                                    23956548.560 7 124748070.89607     -1623.539 7        46.889                                                                    23956556.669 6 101368060.08306     -1319.275 6        39.072
C38        50.000                                                                                                                                    40486076.468 3                     -2113.533 3        22.114
C27        52.000                                                                                                                                    24024641.725 6 125102615.58406      1633.773 6        38.168                                                                    24024625.128 6 101656079.07706      1327.567 6        39.120
I06        58.000    38670417.060 5 151751182.17105      -562.563 5        33.251
> 2025 01 01 20 15 10.0000000  0 37
G18         1.000    23562936.986 3                     -3827.638 3        23.257                                                                                                    23562956.852 5                     -2981.890 5        31.675
G10         2.000    21102294.429 8 110893549.24808       619.316 8        48.061                                    21102292.074 7  86410332.40307       482.587 7        47.082    21102292.465 7  86410364.38507       482.561 7        44.674
G07         3.000    25384243.539 5                     -1920.982 5        33.377                                                                                                    25384245.929 5                     -1496.826 5        30.981
G23         4.000    21179212.008 7 111297482.70607     -2204.092 7        47.822                                    21179205.754 4  86725275.77704     -1717.476 4        29.640    21179207.653 6  86725354.79906     -1717.543 6        39.246
G15         5.000    23923777.014 5 125720359.39805     -2115.520 5        34.024
G08         6.000    21653798.423 5 113791580.70005      1636.725 5        31.789                                    21653843.106 1  88668861.07701      1275.374 1         6.250    21653798.787 5  88668723.51505      1275.685 5        34.967
G27         7.000    20142353.577 7 105848818.79307      -383.736 7        46.826                                    20142351.170 6  82479535.74806      -299.014 6        41.290    20142351.569 6  82479594.75706      -298.824 6        40.412
G21         8.000    23523475.862 4                      2008.194 4        29.318
G30        10.000    25767383.086 4                      -691.356 4        25.729
E13        16.000    23732781.095 6 124716686.57106     -1954.561 6        39.390                                                                    23732780.148 7  93132588.00507     -1459.545 7        44.798    23732781.141 8  95562087.92908     -1497.644 8        48.239
E31        17.000    27655917.749 5 145332871.37105      1677.822 5        33.275                                                                    27655920.438 6 108527864.71306      1253.016 6        36.934    27655916.641 5 111358952.41905      1285.398 5        30.551
G16        18.000    21990973.654 7 115563325.44707     -3742.406 7        42.694                                    21990967.250 3  90049323.92303     -2916.156 3        22.857
E26        19.000    24220748.601 8 127280898.56308       511.527 8        48.617                                                                    24220746.401 7  95047481.59807       382.164 7        42.525    24220746.564 7  97526972.93207       391.937 7        45.941
E21        22.000    25118342.556 6 131997767.18906     -3256.933 6        41.104                                                                    25118362.957 5  98569775.75105     -2431.934 5        35.800    25118343.986 6 101141187.49706     -2495.574 6        36.669
S36        23.000    38256555.536 6 201039437.21806      -851.938 6        36.193
S23        24.000    38212062.033 6 200805713.19506      -852.146 6        40.918
G26        25.000    24233937.106 6 127350214.92906     -4476.228 6        37.089                                    24233941.371 2  99234017.90202     -3487.962 2        14.048    24233936.282 4                     -3487.826 4        26.826
R20        26.000    21733507.250 4                      1838.340 4        24.135
R02        27.000                                                                                                                                    23709066.435 4                     -3257.847 4        27.150
R19        29.000                                                                                                                                    19790498.513 6                     -1266.736 6        39.598
R18        30.000    21792621.997 6 116330743.52406     -3647.185 6        37.758                                                                    21792622.989 5  90479260.39705     -2836.486 5        34.838
R03        32.000    21051861.287 6 112692222.14906      -950.203 6        40.279                                                                    21051854.166 6  87649500.26306      -739.067 6        41.244
R09        34.000    21569171.171 7 115178151.63107     -4066.423 7        44.164                                                                    21569169.346 7  89583002.08707     -3162.850 7        42.929
R10        35.000    21281384.470 5                      -998.950 5        31.260
C37        36.000                                                                                                                                    25293517.279 6 131710294.31106     -3474.310 6        38.051                                                                    25293508.191 5                     -2823.302 5        31.902
C33        37.000                                                                                                                                    23702374.895 6 123424445.39106      1496.319 6        40.436                                                                    23702368.613 5 100292507.46105      1215.738 5        35.405
C28        40.000                                                                                                                                    21621336.642 8 112588243.10208      -217.056 8        49.043                                                                    21621333.659 6  91486949.69306      -176.588 6        36.658
R11        41.000                                                                                                                                    23667407.444 4  98366554.32714      1858.697 4        28.408
C43        42.000                                                                                                                                    23750694.857 6 123676216.88606     -3153.458 6        37.225                                                                    23750672.048 5 100496892.49605     -2562.416 5        30.483
C11        44.000                                                                                                                                    25674885.549 4                     -3522.616 4        24.602
C13        45.000                                                                                                                                    38529971.908 6 200635690.59106     -1797.786 6        41.893    38529968.553 6 155144249.34306     -1390.050 6        40.157    38529966.572 6 163032961.82306     -1461.093 6        37.792
C08        46.000                                                                                                                                    39015524.145 5                     -2037.050 5        31.079    39015502.176 5 157099281.57605     -1574.910 5        31.185    39015498.197 4                     -1654.434 4        24.511
C14        47.000                                                                                                                                    23273779.853 6 121192728.69606        24.762 6        40.615    23273777.216 7  93713902.85807        19.105 7        47.943    23273775.461 6  98478969.56406        19.849 6        41.855
C42        48.000                                                                                                                                    23958108.458 7 124756196.11207     -1626.306 7        47.188                                                                    23958115.508 6 101374662.47506     -1321.730 6        37.641
C38        50.000                                                                                                                                    40488115.309 3                     -2111.395 3        21.452
C27        52.000                                                                                                                                    24023067.810 6 125094448.36406      1633.266 6        36.809                                                                    24023056.232 6 101649442.51906      1327.195 6        38.796
I06        58.000    38671133.142 5 151753995.35005      -562.798 5        33.275
> 2025 01 01 20 15 15.0000000  0 37
G18         1.000                                                                                                                                                                    23566597.593 5                     -2982.434 5        31.064
G10         2.000    21101707.287 7 110890460.94807       616.169 7        47.888                                    21101704.087 7  86407925.93207       480.133 7        47.341    21101704.659 7  86407957.92007       480.141 7        44.710
G07         3.000    25386077.888 5                     -1923.012 5        31.992                                                                                                    25386074.107 5                     -1498.538 5        31.434
G23         4.000    21181310.229 7 111308511.34207     -2207.217 7        46.665                                    21181304.126 4  86733869.51704     -1719.912 4        29.772    21181306.327 6  86733948.52806     -1719.855 6        38.943
G15         5.000    23925787.190 5 125730946.60105     -2119.270 5        33.018
G08         6.000    21652239.732 4 113783399.60504      1635.619 4        28.834                                    21652284.853 1  88662486.19501      1274.593 1         5.714    21652241.625 5  88662348.68805      1274.184 5        34.357
G27         7.000    20142719.825 7 105850744.64907      -386.428 7        46.559                                    20142717.830 6  82481036.41106      -301.112 6        41.466    20142718.144 6  82481095.42006      -301.097 6        40.806
G21         8.000    23521565.580 4                      2007.717 4        28.133
G30        10.000    25768040.169 4                      -693.440 4        25.429
E13        16.000    23734641.540 6 124726462.52506     -1955.601 6        40.157                                                                    23734640.557 7  93139888.24507     -1460.398 7        44.445    23734641.300 7  95569578.60507     -1498.554 7        47.907
E31        17.000    27654322.240 5 145324485.52605      1676.797 5        31.208                                                                    27654324.529 6 108521602.58006      1251.990 6        37.236    27654319.631 4 111352526.93704      1284.713 4        29.460
G16        18.000    21994535.770 7 115582043.58807     -3744.741 7        42.728                                    21994529.108 3  90063909.50303     -2917.985 3        22.705
E26        19.000    24220262.629 8 127278344.44608       510.203 8        49.076                                                                    24220260.407 7  95045574.32307       380.999 7        42.265    24220260.538 7  97525015.87907       390.954 7        46.239
E21        22.000    25121442.335 6 132014056.70206     -3258.794 6        41.385                                                                    25121466.254 5  98581940.06805     -2433.365 5        34.224    25121444.673 6 101153669.07106     -2496.872 6        36.866
S36        23.000    38257362.418 5 201043697.76205      -852.070 5        35.905
S23        24.000    38212871.235 6 200809974.65006      -852.246 6        40.586
G26        25.000    24238196.575 6 127372596.70906     -4476.490 6        36.832                                    24238199.925 2  99251458.20102     -3488.154 2        14.952    24238201.258 4                     -3488.315 4        26.275
R20        26.000    21731798.003 4                      1837.079 4        24.075
R02        27.000                                                                                                                                    23712991.026 4                     -3260.442 4        26.263
R19        29.000                                                                                                                                    19792021.695 6  82346444.61516     -1268.348 6        39.480
R18        30.000    21796039.282 6 116348982.35806     -3648.338 6        38.619                                                                    21796038.089 5  90493446.08805     -2837.510 5        32.898
R04        31.000    21513568.061 6 115203892.48316      2579.454 6        38.393                                                                    21513571.071 4                      2006.381 4        28.929
R03        32.000    21052752.047 6 112696985.99606      -955.063 6        41.335                                                                    21052744.182 6  87653205.43806      -742.727 6        41.535
R09        34.000    21572978.856 7 115198491.83507     -4069.469 7        43.681                                                                    21572979.516 7  89598822.24607     -3165.217 7        43.312
R10        35.000    21282326.341 4                     -1003.494 4        27.413
C37        36.000                                                                                                                                    25296853.724 6 131727669.70606     -3475.668 6        36.219                                                                    25296847.295 5                     -2824.179 5        33.048
C33        37.000                                                                                                                                    23700937.411 6 123416969.45306      1494.112 6        41.297                                                                    23700933.484 6 100286432.58106      1214.234 6        36.733
C28        40.000                                                                                                                                    21621545.747 8 112589332.73008      -218.656 8        48.765                                                                    21621542.364 6  91487835.09906      -177.560 6        36.495
R11        41.000    23665149.550 5 126459375.55515      2386.611 5        34.976                                                                    23665176.465 4  98357267.54704      1856.561 4        29.545
C43        42.000                                                                                                                                    23753724.808 5 123691987.03705     -3154.786 5        34.057                                                                    23753701.560 5 100509707.06205     -2562.956 5        31.947
C11        44.000                                                                                                                                    25678264.548 3                     -3522.572 3        23.314    25678248.381 4                     -2723.529 4        28.474
C13        45.000                                                                                                                                    38531698.477 6 200644681.22506     -1798.264 6        41.733    38531695.480 6 155151201.47506     -1390.553 6        40.565    38531693.030 6 163040267.44006     -1461.416 6        38.150
C08        46.000                                                                                                                                    39017480.144 5                     -2037.313 5        30.536    39017457.885 5 157107157.43905     -1575.144 5        30.792    39017454.412 4                     -1656.070 4        24.526
C14        47.000                                                                                                                                    23273759.048 6 121192613.00106        21.779 6        40.274    23273754.530 7  93713813.38807        16.802 7        47.523    23273752.976 6  98478875.53406        17.735 6        41.957
C42        48.000                                                                                                                                    23959670.879 7 124764335.57207     -1629.302 7        47.131                                                                    23959677.307 6 101381276.38606     -1323.912 6        36.151
C27        52.000                                                                                                                                    24021496.952 6 125086284.00506      1632.883 6        36.166                                                                    24021488.140 6 101642808.31006      1326.757 6        38.093
I06        58.000    38671850.320 5 151756808.32805      -562.477 5        33.347
> 2025 01 01 20 15 20.0000000  0 36
G18         1.000    23570214.136 4                     -3827.884 4        29.991                                                                                                    23570240.941 4                     -2982.542 4        28.578
G10         2.000    21101122.312 7 110887386.60607       613.400 7        47.993                                    21101118.805 8  86405530.33708       477.971 8        48.004    21101119.670 7  86405562.33607       477.977 7        45.418
G07         3.000    25387910.774 5 133414369.22215     -1925.145 5        34.133                                                                                                    25387905.389 5                     -1500.056 5        30.015
G23         4.000    21183411.497 7 111319554.35607     -2210.085 7        45.231                                    21183405.283 4  86742474.45404     -1722.136 4        29.649    21183408.193 6  86742553.48006     -1722.283 6        38.964
G15         5.000    23927801.707 5 125741550.14505     -2122.109 5        32.707                                    23927793.769 1  97980312.73911     -1653.590 1         9.143
G08         6.000    21650685.677 5 113775226.37005      1633.855 5        30.974                                    21650728.438 1  88656117.38401      1273.246 1         3.200    21650686.586 5  88655979.89505      1273.471 5        32.545
G27         7.000    20143088.993 7 105852683.52207      -389.149 7        46.105                                    20143086.891 6  82482547.21706      -303.230 6        41.621    20143087.338 6  82482606.22906      -303.249 6        41.554
G21         8.000    23519658.424 4                      2006.585 4        28.341
G30        10.000    25768700.632 4                      -695.932 4        27.784
E13        16.000    23736502.400 6 124736243.36706     -1956.649 6        41.015                                                                    23736501.788 7  93147192.11107     -1461.171 7        44.576    23736502.225 7  95577073.01007     -1499.291 7        47.522
E31        17.000    27652727.103 4 145316105.55404      1675.482 4        29.043                                                                    27652730.476 6 108515344.79306      1251.272 6        37.966    27652724.797 4 111346105.92004      1284.373 4        29.735
G16        18.000    21998100.226 7 115600772.10107     -3746.751 7        42.396                                    21998092.964 3  90078503.16203     -2919.550 3        22.514
E26        19.000    24219777.664 8 127275795.75408       509.158 8        49.296                                                                    24219775.607 7  95043671.07507       380.254 7        42.413    24219775.856 7  97523062.98407       390.208 7        46.487
E21        22.000    25124543.839 6 132030353.82306     -3260.175 6        41.619                                                                    25124569.869 5  98594110.03805     -2434.316 5        32.084    25124546.671 6 101166156.48706     -2498.121 6        37.319
S36        23.000    38258178.672 6 201047958.10806      -852.089 6        36.268
S23        24.000    38213681.310 6 200814235.85506      -852.244 6        40.598
G26        25.000    24242455.495 6 127394979.63506     -4476.816 6        36.741                                    24242458.533 2  99268899.39502     -3488.427 2        14.381    24242458.274 4                     -3487.498 4        24.150
R02        27.000                                                                                                                                    23716916.436 4                     -3262.105 4        28.047
R19        29.000    19793531.477 5                     -1632.592 5        33.545                                                                    19793547.516 6                     -1269.776 6        39.513
R18        30.000    21799455.703 6 116367225.41506     -3649.176 6        38.249                                                                    21799454.226 5  90507635.09505     -2838.347 5        30.370
R03        32.000    21053648.439 7 112701772.33907      -959.601 7        42.779                                                                    21053638.067 7  87656928.16207      -746.353 7        42.404
R09        34.000    21576789.755 7 115218845.59207     -4072.126 7        42.495                                                                    21576790.905 7  89614652.93607     -3167.157 7        43.350
R10        35.000    21283265.511 4                     -1007.996 4        28.123
C37        36.000                                                                                                                                    25300191.989 5 131745050.75905     -3476.751 5        33.647                                                                    25300185.683 5                     -2825.067 5        32.952
C33        37.000                                                                                                                                    23699499.801 6 123409503.69406      1492.031 6        39.420                                                                    23699501.600 6 100280366.04106      1212.156 6        38.087
C28        40.000                                                                                                                                    21621756.550 8 112590429.40408      -220.069 8        48.462                                                                    21621752.859 5  91488726.24005      -178.881 5        35.686
R11        41.000    23662925.898 5 126447448.82705      2383.823 5        34.205                                                                    23662943.619 4  98347991.28004      1853.850 4        29.299
C43        42.000                                                                                                                                    23756754.911 5 123707761.35505     -3155.617 5        33.054                                                                    23756731.765 5 100522525.09805     -2563.807 5        32.952
C11        44.000                                                                                                                                    25681640.257 4                     -3521.644 4        24.195    25681637.804 4                     -2724.003 4        26.934
C13        45.000                                                                                                                                    38533423.919 6 200653672.99506     -1798.630 6        41.545    38533422.594 6 155158154.46906     -1390.750 6        40.377    38533420.095 6 163047573.97006     -1461.416 6        38.084
C08        46.000                                                                                                                                    39019434.887 5                     -2037.274 5        30.023    39019414.923 5 157115033.96705     -1575.265 5        31.011    39019410.143 3                     -1656.539 3        23.810
C14        47.000                                                                                                                                    23273737.891 6 121192511.41806        18.826 6        39.949    23273734.415 7  93713734.83307        14.597 7        47.408    23273733.310 6  98478792.98206        15.281 6        41.740
C42        48.000                                                                                                                                    23961236.456 7 124772489.06507     -1632.147 7        46.408                                                                    23961240.367 5 101387901.71605     -1326.230 5        34.548
C38        50.000                                                                                                                                    40492163.952 3                     -2108.747 3        18.239
C27        52.000                                                                                                                                    24019930.632 6 125078122.33606      1632.093 6        36.953                                                                    24019920.494 6 101636176.30706      1326.248 6        37.153
I06        58.000    38672566.779 5 151759620.97805      -562.306 5        33.527
> 2025 01 01 20 15 25.0000000  0 36
G18         1.000    23573858.490 5                     -3827.779 5        34.086                                                                                                    23573886.557 3                     -2982.926 3        23.676
G10         2.000    21100540.140 8 110884326.08108       610.441 8        49.423                                    21100536.265 8  86403145.51308       475.666 8        48.618    21100537.117 7  86403177.51407       475.738 7        45.998
G07         3.000    25389740.761 5 133424000.37205     -1927.243 5        34.738                                    25389735.003 2 103966720.46012     -1501.777 2        13.212    25389737.958 4                     -1501.528 4        28.066
G23         4.000    21185515.709 7 111330611.55407     -2212.992 7        44.734                                    21185509.280 4  86751090.45004     -1724.407 4        29.280    21185512.449 6  86751169.46406     -1724.331 6        39.973
G15         5.000    23929818.593 4 125752169.81304     -2125.991 4        28.730                                    23929815.049 1  97988587.77001     -1656.533 1         9.143
G08         6.000    21649134.995 5 113767060.63005      1632.183 5        33.802                                    21649173.789 1  88649754.58401      1271.904 1         2.800    21649132.098 5  88649617.06005      1271.676 5        32.413
G27         7.000    20143460.458 7 105854635.20507      -391.621 7        44.980                                    20143458.317 6  82484068.00606      -305.163 6        41.311    20143458.229 6  82484127.01506      -305.290 6        41.268
G21         8.000    23517755.074 5                      2005.243 5        30.340
G30        10.000    25769361.046 4                      -698.661 4        25.098
E13        16.000    23738363.715 6 124746028.88506     -1957.660 6        41.573                                                                    23738364.027 7  93154499.48707     -1461.970 7        44.451    23738363.990 7  95584570.99607     -1500.020 7        46.687
E31        17.000    27651135.371 4 145307731.17804      1673.935 4        29.043                                                                    27651136.997 6 108509091.23206      1249.992 6        38.009    27651131.210 4 111339689.22904      1283.212 4        29.403
G16        18.000    22001665.579 6 115619510.80806     -3748.947 6        41.306                                    22001658.806 3  90093104.77703     -2921.267 3        23.143
E26        19.000    24219293.708 8 127273252.32308       507.995 8        49.342                                                                    24219292.431 7  95041771.75907       379.380 7        42.290    24219292.018 7  97521114.11607       389.267 7        46.629
E21        22.000    25127646.596 6 132046658.36906     -3261.751 6        41.714                                                                    25127679.887 4  98606285.49104     -2435.745 4        29.754    25127649.948 6 101178649.55006     -2499.281 6        37.312
S36        23.000    38258988.027 5 201052217.73905      -852.181 5        34.857
S23        24.000    38214493.826 6 200818496.62106      -852.317 6        40.727
G26        25.000    24246715.066 5 127417363.58905     -4476.945 5        35.929                                    24246717.365 2  99286341.38802     -3488.505 2        12.606    24246713.814 3                     -3488.032 3        22.514
R20        26.000    21728387.957 4                      1834.793 4        27.952
R02        27.000    23720898.796 4                     -4196.384 4        27.713                                                                    23720850.185 4                     -3263.867 4        29.033
R19        29.000                                                                                                                                    19795073.282 6  82359142.00116     -1271.338 6        40.241
R18        30.000    21802873.404 6 116385472.38806     -3649.904 6        37.720                                                                    21802872.453 5  90521827.19905     -2838.758 5        32.665
R04        31.000                                                                                                                                    21508719.065 4                      2002.235 4        27.880
R03        32.000    21054543.578 7 112706581.47007      -964.260 7        44.372                                                                    21054536.245 7  87660668.60307      -749.968 7        43.606
R09        34.000    21580603.346 6 115239212.80506     -4075.003 6        40.713                                                                    21580604.253 7  89630494.09307     -3169.327 7        42.027
C37        36.000                                                                                                                                    25303533.114 4 131762437.29104     -3478.418 4        28.919                                                                    25303523.512 5                     -2826.147 5        32.497
C33        37.000                                                                                                                                    23698063.594 6 123402047.97806      1489.944 6        37.062                                                                    23698070.716 6 100274307.61906      1210.708 6        39.183
C28        40.000                                                                                                                                    21621969.056 8 112591532.94408      -221.548 8        48.628                                                                    21621964.343 5  91489622.96205      -180.016 5        34.643
R11        41.000    23660702.846 5 126435535.34305      2381.184 5        33.479                                                                    23660714.898 4  98338725.21504      1852.271 4        28.180
C43        42.000                                                                                                                                                                                                                                                                    23759761.268 5 100535346.49605     -2564.851 5        33.024
C11        44.000                                                                                                                                                                                                    25685025.715 4                     -2724.677 4        26.168
C13        45.000                                                                                                                                    38535150.063 6 200662665.65706     -1798.807 6        41.113    38535148.774 6 155165108.15506     -1390.839 6        40.260    38535147.127 6 163054881.23506     -1461.681 6        38.024
C08        46.000                                                                                                                                    39021391.088 5                     -2037.304 5        30.030    39021370.242 5 157122910.87505     -1574.977 5        30.566    39021365.471 3                     -1654.721 3        22.648
C14        47.000                                                                                                                                    23273719.682 6 121192423.76106        15.903 6        39.015    23273717.771 7  93713667.04707        12.336 7        47.354    23273716.898 6  98478721.73906        12.924 6        41.387
C42        48.000                                                                                                                                    23962805.068 7 124780656.38807     -1634.950 7        45.609                                                                    23962806.892 5 101394538.32705     -1328.798 5        33.844
C27        52.000                                                                                                                                    24018364.718 6 125069963.17606      1631.340 6        37.297                                                                    24018353.437 6 101629546.32606      1325.657 6        36.726
I06        58.000    38673283.606 5 151762433.21305      -562.384 5        33.772
> 2025 01 01 20 15 30.0000000  0 35
G18         1.000    23577500.623 5 123900606.62215     -3829.215 5        34.967
G10         2.000    21099960.881 8 110881279.71908       607.633 8        50.754                                    21099956.497 8  86400771.73008       473.480 8        49.500    21099957.412 7  86400803.74507       473.428 7        46.497
G07         3.000    25391576.421 5 133433642.76105     -1929.672 5        33.539                                    25391569.937 2 103974233.97202     -1503.672 2        13.758    25391571.055 4                     -1503.690 4        25.459
G23         4.000    21187623.015 7 111341683.31607     -2216.004 7        43.905                                    21187616.335 4  86759717.78504     -1726.762 4        29.204    21187619.605 6  86759796.79606     -1726.634 6        41.163
G15         5.000    23931836.423 4 125762806.01704     -2129.294 4        28.607                                    23931839.098 1  97996875.69301     -1659.250 1         6.250
G08         6.000    21647581.419 5 113758902.91505      1630.822 5        34.186                                    21647620.642 1  88643397.72601      1270.786 1         2.600    21647579.702 5  88643260.39605      1270.634 5        32.479
G27         7.000    20143833.842 7 105856600.13507      -394.656 7        43.791                                    20143832.194 6  82485599.11706      -307.524 6        41.020    20143832.031 6  82485658.12006      -307.528 6        40.558
G21         8.000    23515850.229 5                      2004.238 5        32.922
G30        10.000    25770028.208 4                      -702.025 4        26.946
E13        16.000    23740226.842 7 124755819.46107     -1958.749 7        42.362                                                                    23740227.249 7  93161810.62807     -1462.655 7        44.766    23740226.357 7  95592072.87507     -1500.906 7        45.615
E31        17.000    27649543.120 4 145299362.84304      1673.062 4        29.934                                                                    27649544.424 6 108502842.15006      1249.300 6        38.456    27649538.175 4 111333277.17304      1282.089 4        29.166
G16        18.000    22005233.400 6 115638260.03006     -3751.066 6        41.068                                    22005226.771 3  90107714.58703     -2922.923 3        22.857
E26        19.000    24218810.672 8 127270714.54008       506.816 8        48.874                                                                    24218810.116 6  95039876.65606       378.495 6        41.757    24218809.199 7  97519169.57207       388.310 7        46.605
E21        22.000    25130751.492 6 132062970.70806     -3263.652 6        41.464                                                                                                                                    25130754.882 6 101191148.61006     -2500.479 6        37.577
S36        23.000    38259796.201 5 201056477.08905      -852.004 5        35.576
S23        24.000    38215305.681 6 200822757.32006      -852.413 6        41.106
G26        25.000    24250974.082 5 127439748.87805     -4477.102 5        34.819                                    24250976.545 2  99303784.48302     -3488.666 2        13.455    24250970.678 3                     -3488.843 3        21.905
R20        26.000    21726678.398 5                      1834.090 5        31.004
R02        27.000    23724828.771 4                     -4199.753 4        27.557                                                                    23724780.750 4                     -3266.214 4        28.123
R19        29.000    19796607.645 5 105898394.45115     -1636.591 5        35.295                                                                    19796601.945 6  82365501.66306     -1272.842 6        39.700
R18        30.000    21806291.902 6 116403723.81706     -3650.876 6        37.304                                                                    21806291.738 6  90536022.79106     -2839.687 6        36.885
R04        31.000                                                                                                                                    21506320.483 5                      1999.908 5        30.453
R03        32.000    21055444.305 7 112711413.49507      -968.988 7        45.520                                                                    21055439.162 7  87664426.85307      -753.606 7        44.349
