     3.04           OBSERVATION DATA    M                   RINEX VERSION / TYPE
ssrcrin-15.6.1x                         20250101 164500 UTC PGM / RUN BY / DATE 
(00000000023479385599111004) Septentrio proprietary         COMMENT             
ract                                                        MARKER NAME         
01                                                          MARKER NUMBER       
geodetic                                                    MARKER TYPE         
NFB                 CLIMERS@TUW                             OBSERVER / AGENCY   
3296359             SEPT ASTERX SB3 PROB4.14.4              REC # / TYPE / VERS 
Unknown             Unknown                                 ANT # / TYPE        
  4127448.4031  1206914.4203  4695544.1305                  APPROX POSITION XYZ 
        0.0000        0.0000        0.0000                  ANTENNA: DELTA H/E/N
G   23 X1  C1C L1C D1C S1C C1W S1W C2W L2W D2W S2W C2L L2L  SYS / # / OBS TYPES 
       D2L S2L C5Q L5Q D5Q S5Q C1L L1L D1L S1L              SYS / # / OBS TYPES 
E   21 X1  C1C L1C D1C S1C C6C L6C D6C S6C C5Q L5Q D5Q S5Q  SYS / # / OBS TYPES 
       C7Q L7Q D7Q S7Q C8Q L8Q D8Q S8Q                      SYS / # / OBS TYPES 
S    9 X1  C1C L1C D1C S1C C5I L5I D5I S5I                  SYS / # / OBS TYPES 
R   17 X1  C1C L1C D1C S1C C2P L2P D2P S2P C2C L2C D2C S2C  SYS / # / OBS TYPES 
       C3Q L3Q D3Q S3Q                                      SYS / # / OBS TYPES 
C   25 X1  C1P L1P D1P S1P C5P L5P D5P S5P C2I L2I D2I S2I  SYS / # / OBS TYPES 
       C7I L7I D7I S7I C6I L6I D6I S6I C7D L7D D7D S7D      SYS / # / OBS TYPES 
J   17 X1  C1C L1C D1C S1C C2L L2L D2L S2L C5Q L5Q D5Q S5Q  SYS / # / OBS TYPES 
       C1L L1L D1L S1L                                      SYS / # / OBS TYPES 
I    5 X1  C5A L5A D5A S5A                                  SYS / # / OBS TYPES 
SEPTENTRIO RECEIVERS OUTPUT ALIGNED CARRIER PHASES.         COMMENT             
NO FURTHER PHASE SHIFT APPLIED IN THE RINEX ENCODER.        COMMENT             
G L1C                                                       SYS / PHASE SHIFT   
G L2W                                                       SYS / PHASE SHIFT   
G L2L  0.00000                                              SYS / PHASE SHIFT   
G L5Q  0.00000                                              SYS / PHASE SHIFT   
G L1L  0.00000                                              SYS / PHASE SHIFT   
E L1C  0.00000                                              SYS / PHASE SHIFT   
E L6C  0.00000                                              SYS / PHASE SHIFT   
E L5Q  0.00000                                              SYS / PHASE SHIFT   
E L7Q  0.00000                                              SYS / PHASE SHIFT   
E L8Q  0.00000                                              SYS / PHASE SHIFT   
S L1C                                                       SYS / PHASE SHIFT   
S L5I                                                       SYS / PHASE SHIFT   
R L1C                                                       SYS / PHASE SHIFT   
R L2P  0.00000                                              SYS / PHASE SHIFT   
R L2C                                                       SYS / PHASE SHIFT   
R L3Q  0.00000                                              SYS / PHASE SHIFT   
C L1P  0.00000                                              SYS / PHASE SHIFT   
C L5P  0.00000                                              SYS / PHASE SHIFT   
C L2I                                                       SYS / PHASE SHIFT   
C L7I                                                       SYS / PHASE SHIFT   
C L6I                                                       SYS / PHASE SHIFT   
C L7D                                                       SYS / PHASE SHIFT   
J L1C                                                       SYS / PHASE SHIFT   
J L2L  0.00000                                              SYS / PHASE SHIFT   
J L5Q  0.00000                                              SYS / PHASE SHIFT   
J L1L  0.00000                                              SYS / PHASE SHIFT   
I L5A                                                       SYS / PHASE SHIFT   
  2025     1     1    16    45    0.0000000     GPS         TIME OF FIRST OBS   
 C1C    0.000 C2C    0.000 C2P    0.000                     GLONASS COD/PHS/BIS 
DBHZ                                                        SIGNAL STRENGTH UNIT
    18                                                      LEAP SECONDS        
 24 R01  1 R02 -4 R03  5 R04  6 R05  1 R06 -4 R07  5 R08  6 GLONASS SLOT / FRQ #
    R09 -2 R10 -7 R11  0 R12 -1 R13 -2 R14 -7 R15  0 R16 -1 GLONASS SLOT / FRQ #
    R17  4 R18 -3 R19  3 R20  2 R21  4 R22 -3 R23  3 R24  2 GLONASS SLOT / FRQ #
                                                            END OF HEADER       
> 2025 01 01 16 45  0.0000000  0 38
G18         1.000    21471946.444 7 112836022.03707      1390.486 7        44.786                                    21471944.477 5  87924039.99205      1083.496 5        32.880    21471944.161 7  87924050.99607      1083.423 7        45.661
G20         2.000    24054282.326 5                     -2362.943 5        32.234
G25         3.000    22366282.690 5 117535604.64805     -4052.120 5        32.796                                                                                                    22366284.111 5  91586203.83905     -3157.471 5        34.505
G31         5.000    21880390.406 5 114982237.02705     -1840.542 5        32.623                                    21880387.797 5  89596541.59005     -1434.189 5        31.072    21880388.640 7  89596556.60307     -1434.238 7        42.682
G28         6.000    22426944.229 6 117854386.58106     -3351.837 6        40.901                                    22426945.623 4  91834571.79304     -2611.820 4        24.180    22426945.473 6  91834586.78606     -2611.708 6        41.390
G29         8.000    20867784.969 8 109661087.62108     -2197.210 8        50.236                                    20867779.073 7  85450396.54407     -1712.111 7        42.415    20867781.337 6  85450198.54406     -1712.106 6        37.701
E30         9.000    26382067.208 4                     -3300.469 4        28.976                                                                    26382045.171 6 103528860.57206     -2464.619 6        40.200    26382039.916 5 106229556.29105     -2529.257 5        31.608
E15        10.000    23656700.918 6 124316879.00006      -489.988 6        38.363                                                                    23656701.938 7  92834112.53107      -365.885 7        46.941    23656701.399 8  95255814.24808      -375.462 8        48.241
E34        12.000    25925135.803 6 136237497.31006     -3142.663 6        39.219                                                                    25925131.508 6 101735903.57106     -2346.683 6        40.062    25925132.055 7 104389871.16407     -2408.011 7        44.138
G04        13.000    25363107.271 6 133284030.81506     -1765.143 6        37.505                                                                                                    25363109.320 4                     -1375.731 4        27.760
E27        15.000    23501266.163 7 123500079.62007     -1208.205 7        46.610                                                                    23501266.504 8  92224121.64608      -902.271 8        48.326    23501265.823 7  94630078.27907      -925.855 7        44.190
E13        16.000    25694658.767 4                      1976.448 4        29.592                                                                    25694635.316 6 100831279.65106      1475.970 6        40.918    25694632.691 6 103461635.95606      1514.615 6        36.741
R17        17.000    19270294.523 8 103119346.07308     -1647.255 8        50.526                                                                    19270292.934 6  80203955.95206     -1281.197 6        40.853
G16        18.000    23722738.709 5 124663836.42505      2599.074 5        34.271                                    23722732.919 1  97140602.52101      2025.346 1        11.556
R15        20.000    19487026.079 8 104133084.21108     -2432.870 8        52.409                                                                    19487026.097 7  80992463.75107     -1892.196 7        44.305
R24        21.000    22385538.470 5 119705582.81705     -4641.851 5        32.120                                                                    22385529.584 5                     -3610.150 5        33.611
E21        22.000    25339572.600 6 133160482.30906      1260.531 6        40.458                                                                    25339589.623 5  99437945.08205       941.231 5        34.076    25339573.080 6 102032100.97806       965.856 6        41.259
S36        23.000    38309848.722 6 201319465.87806      -853.342 6        36.389
S23        24.000    38260769.034 6 201061679.02006      -857.106 6        38.589
G26        25.000    21468306.056 6 112816681.60906      1302.066 6        41.988                                    21468301.259 4  87909154.39004      1014.591 4        29.867    21468302.763 5  87909164.37005      1014.641 5        31.479
E04        26.000    28565517.351 3                     -1101.636 3        21.690                                                                    28565511.589 3                      -822.253 3        21.381    28565512.973 4 115021461.28504      -844.181 4        24.737
C34        28.000                                                                                                                                    21969968.791 8 114403900.18908     -2264.088 8        50.177                                                                    21969968.410 7  92962319.11007     -1839.628 7        47.078
R18        30.000    20526800.287 7 109573348.49207      1860.823 7        45.846                                                                    20526800.683 6  85223828.05406      1447.318 6        39.426
R16        33.000    20419548.875 8 109077521.89608      1835.266 8        52.226                                                                    20419548.312 7  84838334.29807      1427.385 7        47.007
R14        35.000                                                                                                                                    22922691.622 5  95037329.92105     -3953.041 5        30.241
C37        36.000                                                                                                                                    25852884.654 6 134622762.76006      2087.782 6        39.099                                                                    25852888.686 6 109392079.93806      1696.825 6        36.518
S21        38.000    38537867.963 5 202518004.69705      -854.190 5        34.300
C44        39.000                                                                                                                                    25991740.728 3                     -3905.905 3        19.791
R07        40.000                                                                                                                                    24619398.488 4                     -2559.825 4        29.071
C25        41.000                                                                                                                                    22839354.043 7 118930556.57207     -3330.400 7        42.373                                                                    22839358.205 7  96640891.93307     -2706.196 7        43.209
C43        42.000                                                                                                                                    22038238.241 8 114758894.99108       474.466 8        49.744                                                                    22038238.378 8  93251147.43108       385.706 8        50.492
C12        43.000                                                                                                                                    24087174.537 5 125428287.28505     -3461.732 5        34.133    24087173.643 7  96989135.07107     -2676.790 7        43.839    24087170.859 6 101920838.76006     -2812.663 6        38.342
C11        44.000                                                                                                                                    21567010.412 7 112305137.35607      -857.780 7        47.611    21567007.162 8  86841543.19808      -663.277 8        50.911    21567006.798 7  91257211.62907      -696.861 7        47.395
C13        45.000                                                                                                                                    38221742.816 6 199030652.50406       150.332 6        36.938    38221743.163 7 153903076.44807       116.208 7        42.131    38221741.973 6 161728711.67006       122.348 6        40.238
C08        46.000                                                                                                                                    38094704.683 7 198369166.04007       -31.664 7        44.241    38094699.054 6 153391542.44106       -24.570 6        36.488    38094697.097 6 161191200.71606       -25.673 6        36.779
C38        49.000                                                                                                                                                                                                                                                                    38707351.195 5 163783451.04705      -512.687 5        33.778
C23        55.000                                                                                                                                    22616985.453 4 117772621.71004      -239.492 4        25.459                                                                    22616969.950 6  95699895.38606      -194.317 6        40.949
I06        58.000    38814540.026 5 152316706.13905      -660.255 5        35.657
> 2025 01 01 16 45  5.0000000  0 40
G18         1.000    21470624.663 7 112829076.26407      1387.824 7        44.874                                    21470622.849 5  87918627.71505      1081.421 5        33.162    21470622.332 7  87918638.71107      1081.457 7        45.344
G20         2.000    24056534.428 5                     -2365.933 5        34.300
G25         3.000    22370138.481 5 117555868.06905     -4053.830 5        33.677                                                                                                    22370140.605 5  91601993.51905     -3158.555 5        34.219
G31         5.000    21882143.594 6 114991448.40006     -1843.913 6        36.503                                    21882140.937 5  89603719.29505     -1436.816 5        31.366    21882141.401 7  89603734.31307     -1436.850 7        42.631
G28         6.000    22430134.767 6 117871151.57006     -3354.193 6        41.371                                    22430136.421 4  91847635.43004     -2613.656 4        24.767    22430136.168 6  91847650.41906     -2613.745 6        41.812
G29         8.000    20869876.493 8 109672078.24008     -2199.126 8        50.346                                    20869870.411 7  85458960.65507     -1713.602 7        42.246    20869872.412 6  85458762.64306     -1713.504 6        37.970
E30         9.000                                                                                                                                    26385185.842 6 103541185.49006     -2465.634 6        40.110    26385180.606 5 106242202.70305     -2529.423 5        32.683
E15        10.000    23657168.085 6 124319335.10606      -492.516 6        39.796                                                                    23657169.326 7  92835946.65507      -367.810 7        46.460    23657168.895 8  95257696.20908      -377.325 8        48.206
G05        11.000    23084079.505 4                        23.084 4        28.398
E34        12.000    25928126.462 6 136253214.09106     -3144.144 6        39.616                                                                    25928122.114 6 101747640.16206     -2347.888 6        39.610    25928122.829 7 104401913.91407     -2409.121 7        44.361
G04        13.000    25364786.187 5 133292864.74705     -1768.440 5        35.671                                                                                                    25364797.143 4                     -1377.828 4        28.863
E27        15.000    23502416.694 7 123506125.25407     -1209.999 7        46.643                                                                    23502417.013 8  92228636.24308      -903.573 8        48.498    23502416.419 7  94634710.65607      -927.188 7        44.567
E13        16.000    25692776.316 5                      1975.401 5        32.263                                                                    25692755.218 6 100823901.86806      1475.078 6        41.066    25692752.375 6 103454065.72206      1513.607 6        36.129
R17        17.000    19271835.978 8 103127590.80408     -1650.741 8        50.806                                                                    19271833.781 6  80210368.50806     -1283.898 6        40.546
G16        18.000    23720265.788 5 124650843.62005      2598.145 5        32.671                                    23720261.096 2  97130478.22802      2024.516 2        12.182
R15        20.000    19489304.702 8 104145258.38508     -2436.807 8        52.848                                                                    19489304.504 7  81001932.55407     -1895.312 7        44.059
R24        21.000    22389867.892 5 119728793.95605     -4642.807 5        33.018                                                                    22389872.839 5  93122323.71415     -3610.907 5        33.964
E21        22.000    25338373.611 6 133154182.27906      1259.469 6        40.634                                                                    25338390.022 5  99433240.49305       940.504 5        33.060    25338374.208 6 102027273.68606       965.062 6        40.872
S36        23.000    38310658.243 6 201323732.87006      -853.516 6        36.454
S23        24.000    38261584.255 6 201065964.67506      -857.112 6        38.613
G26        25.000    21467068.475 6 112810176.46006      1299.968 6        41.201                                    21467062.785 4  87904085.47004      1012.963 4        28.995    21467066.584 5  87904095.43805      1012.941 5        32.114
E04        26.000    28566568.137 3                     -1103.963 3        23.581                                                                    28566568.998 3                      -824.613 3        19.642    28566562.372 4 115025684.32004      -845.139 4        25.203
C34        28.000                                                                                                                                    21972143.293 8 114415224.80008     -2265.811 8        50.342                                                                    21972143.032 7  92971521.29907     -1841.104 7        46.795
R08        29.000                                                                                                                                    23844670.855 4  99312207.98714      -517.592 4        29.422
R18        30.000    20525058.279 7 109564051.44507      1857.932 7        47.507                                                                    20525059.130 6  85216597.02906      1445.211 6        39.042
R16        33.000    20417832.702 8 109068353.06508      1832.245 8        52.735                                                                    20417832.173 7  84831203.00207      1425.041 7        47.879
R14        35.000                                                                                                                                    22927457.250 4  95057097.58504     -3953.894 4        28.038
C37        36.000                                                                                                                                    25850881.451 6 134612326.33606      2086.705 6        40.670                                                                    25850884.247 6 109383599.52306      1695.682 6        36.646
S21        38.000    38538681.145 5 202522276.46105      -854.565 5        34.486
C44        39.000                                                                                                                                    25995476.456 3                     -3904.199 3        20.143
R07        40.000    24622446.084 4 131805528.65914     -3294.419 4        28.237                                                                    24622473.283 4                     -2561.874 4        28.237
C25        41.000                                                                                                                                    22842551.971 7 118947213.23407     -3332.316 7        42.385                                                                    22842557.225 7  96654426.85307     -2707.860 7        44.081
C43        42.000                                                                                                                                    22037783.582 8 114756527.25808       472.465 8        49.957                                                                    22037783.572 8  93249223.46908       384.017 8        50.487
C12        43.000                                                                                                                                    24090497.975 5 125445597.59205     -3462.846 5        33.790    24090497.847 7  97002520.50107     -2677.453 7        43.507    24090495.177 6 101934904.83006     -2813.742 6        38.565
C11        44.000                                                                                                                                    21567835.518 8 112309431.39908      -859.927 8        48.152    21567831.818 8  86844863.63308      -664.937 8        50.651    21567831.507 7  91260700.89607      -698.677 7        47.371
C13        45.000                                                                                                                                    38221598.161 5 199029903.66905       149.248 5        35.990    38221599.211 6 153902497.40506       115.340 6        41.890    38221597.854 6 161728103.19506       121.200 6        40.076
C08        46.000                                                                                                                                    38094736.107 7 198369327.71607       -32.938 7        44.426    38094729.726 6 153391667.47806       -25.476 6        36.261    38094728.646 6 161191332.12006       -26.821 6        36.904
C38        49.000                                                                                                                                                                                                                                                                    38707957.802 5 163786019.76405      -514.287 5        33.036
C23        55.000                                                                                                                                    22617213.902 4 117773824.58504      -242.071 4        28.777                                                                    22617200.981 6  95700872.93206      -196.495 6        41.068
I06        58.000    38815380.232 5 152320006.77105      -660.296 5        35.676
> 2025 01 01 16 45 10.0000000  0 39
G18         1.000    21469305.272 7 112822143.20807      1385.560 7        46.092                                    21469303.640 5  87913225.35205      1079.657 5        33.503    21469302.732 7  87913236.35707      1079.619 7        44.977
G20         2.000    24058785.849 5 126429775.54615     -2368.289 5        34.657
G25         3.000    22373996.941 5 117576138.85005     -4054.830 5        34.424                                                                                                    22373997.096 5  91617788.90005     -3159.570 5        34.829
G31         5.000    21883899.427 6 115000676.38006     -1847.052 6        37.830                                    21883897.122 5  89610909.91105     -1439.261 5        31.887    21883896.919 7  89610924.93007     -1439.220 7        42.555
G28         6.000    22433327.599 6 117887928.41006     -3356.406 6        41.437                                    22433329.441 4  91860708.30104     -2615.374 4        25.293    22433329.449 7  91860723.29107     -2615.424 7        42.652
G29         8.000    20871969.886 8 109683077.97908     -2200.640 8        50.443                                    20871963.577 7  85467531.87207     -1714.780 7        42.154    20871965.149 6  85467333.87506     -1714.667 6        38.231
E30         9.000    26388333.002 5                     -3302.455 5        31.826                                                                    26388327.319 6 103553513.96906     -2465.912 6        39.784    26388322.828 5 106254852.81705     -2530.245 5        33.024
E15        10.000    23657637.544 6 124321803.07406      -494.630 6        41.037                                                                    23657638.876 7  92837789.63007      -369.329 7        46.215    23657638.585 8  95259587.26308      -378.979 8        48.177
G05        11.000    23084053.038 4                        19.932 4        25.444                                                                                                    23084037.582 4                        15.335 4        26.886
E34        12.000    25931118.951 6 136268937.79406     -3145.141 6        39.327                                                                    25931114.316 6 101759381.91606     -2348.744 6        39.450    25931114.847 7 104413961.96407     -2410.003 7        44.366
G04        13.000    25366468.174 5 133301712.52605     -1770.911 5        33.317
E27        15.000    23503568.591 7 123512179.36907     -1211.506 7        46.048                                                                    23503569.188 8  92233157.17808      -904.691 8        48.622    23503568.572 7  94639349.53007      -928.343 7        44.894
E13        16.000    25690894.778 5                      1974.076 5        33.760                                                                    25690875.781 6 100816528.60806      1474.241 6        41.073    25690873.556 6 103446500.11906      1512.842 6        36.166
R17        17.000    19273379.968 8 103135852.64908     -1653.903 8        50.955                                                                    19273377.004 6  80216794.38406     -1286.307 6        40.234
G16        18.000    23717791.684 5 124637854.55805      2597.528 5        31.026                                    23717790.122 1  97120356.91601      2023.952 1        11.185
R15        20.000    19491586.423 8 104157451.98608     -2440.481 8        52.577                                                                    19491586.470 7  81011416.47207     -1898.142 7        43.479
R24        21.000    22394205.779 5 119752009.44005     -4643.167 5        34.776                                                                    22394213.618 5  93140380.28205     -3611.273 5        34.267
E21        22.000    25337175.329 6 133147886.54506      1258.883 6        40.594                                                                    25337193.986 5  99428539.09905       939.790 5        32.162    25337176.245 6 102022449.69806       964.642 6        40.553
S36        23.000    38311469.945 6 201328000.45406      -853.156 6        36.578
S23        24.000    38262398.596 6 201070250.45806      -856.981 6        38.592
G26        25.000    21465832.791 6 112803682.00906      1297.947 6        40.822                                    21465826.471 4  87899024.87004      1011.386 4        28.455    21465829.019 5  87899034.84705      1011.359 5        31.577
E04        26.000    28567621.598 4                     -1105.613 4        26.934                                                                    28567611.409 3                      -826.672 3        22.343    28567613.895 4 115029916.48804      -846.817 4        26.263
C34        28.000                                                                                                                                    21974319.275 8 114426557.85208     -2267.268 8        49.994                                                                    21974319.404 7  92980730.33207     -1842.316 7        46.675
R18        30.000    20523319.318 8 109554768.42108      1855.467 8        48.638                                                                    20523319.802 6  85209376.92106      1443.046 6        38.120
R16        33.000    20416118.814 8 109059198.96808      1829.552 8        53.064                                                                    20416118.404 7  84824083.16707      1422.959 7        47.823
R14        35.000                                                                                                                                    22932227.765 4  95076870.05604     -3955.247 4        25.444
C37        36.000                                                                                                                                    25848880.401 6 134601895.46806      2085.863 6        41.621                                                                    25848881.150 6 109375123.64006      1694.570 6        36.699
S21        38.000    38539492.275 5 202526548.12305      -854.258 5        34.367
C44        39.000                                                                                                                                    25999219.217 3                     -3906.214 3        20.857
R07        40.000    24625519.540 4 131822009.44814     -3297.377 4        28.607
C25        41.000                                                                                                                                    22845752.480 7 118963879.44007     -3333.975 7        42.100                                                                    22845758.223 7  96667969.50007     -2708.980 7        44.978
C43        42.000                                                                                                                                    22037331.172 8 114754169.13108       470.831 8        50.185                                                                    22037330.604 8  93247307.31408       382.674 8        50.586
C12        43.000                                                                                                                                    24093823.013 5 125462912.11205     -3462.736 5        33.623    24093823.257 7  97015909.19807     -2677.813 7        43.291    24093820.681 6 101948974.30106     -2814.039 6        38.829
C11        44.000                                                                                                                                    21568661.851 8 112313735.95608      -861.764 8        48.587    21568658.395 8  86848192.20208      -666.365 8        50.540    21568658.127 7  91264198.70007      -700.188 7        47.390
C13        45.000                                                                                                                                    38221454.889 5 199029160.09805       148.491 5        34.371    38221456.265 6 153901922.41506       114.670 6        41.831    38221455.166 6 161727498.96106       120.592 6        39.934
C08        46.000                                                                                                                                    38094768.712 7 198369495.27607       -33.871 7        44.608    38094762.377 6 153391797.03906       -26.190 6        36.083    38094760.652 6 161191468.27606       -27.524 6        37.176
C38        49.000                                                                                                                                                                                                                                                                    38708565.524 5 163788592.86005      -514.927 5        32.856
C23        55.000                                                                                                                                    22617455.573 4 117775040.93104      -243.703 4        26.455                                                                    22617433.689 6  95701861.37706      -198.604 6        41.549
I06        58.000    38816222.247 5 152323307.33705      -660.029 5        35.638
> 2025 01 01 16 45 15.0000000  0 40
G18         1.000    21467987.946 7 112815222.09307      1382.988 7        47.201                                    21467986.568 5  87907832.29805      1077.643 5        33.497    21467985.819 7  87907843.30907      1077.674 7        44.464
G20         2.000    24061040.462 5 126441625.36705     -2371.477 5        32.677
G25         3.000    22377857.224 5 117596416.14305     -4056.191 5        35.043                                                                                                    22377855.834 5  91633589.40205     -3160.783 5        35.019
G31         5.000    21885657.318 6 115009920.17306     -1850.363 6        37.104                                    21885656.308 5  89618112.86505     -1441.839 5        31.955    21885656.138 7  89618127.85507     -1441.750 7        42.102
G28         6.000    22436522.531 7 117904716.29407     -3358.689 7        42.131                                    22436524.549 4  91873789.77504     -2617.152 4        25.263    22436523.911 7  91873804.75007     -2617.011 7        43.060
E19         7.000    28224199.426 4 148319177.99514     -3099.451 4        28.218
G29         8.000    20874064.634 8 109694086.03708     -2202.392 8        50.196                                    20874058.465 7  85476109.57007     -1716.148 7        42.068    20874059.786 6  85475911.59306     -1716.090 6        38.156
E30         9.000    26391474.160 5                     -3302.972 5        32.599                                                                    26391469.448 6 103565845.44606     -2466.701 6        39.327    26391465.320 5 106267505.95905     -2530.917 5        33.766
E15        10.000    23658109.056 7 124324282.08807      -496.916 7        42.258                                                                    23658110.579 7  92839640.86507      -371.007 7        45.845    23658110.446 8  95261486.79108      -380.758 8        48.139
G05        11.000    23084032.330 4                        17.590 4        25.338                                                                                                    23084022.553 4                        13.253 4        29.223
E34        12.000    25934112.208 6 136284667.69306     -3146.409 6        39.369                                                                    25934107.763 6 101771128.27406     -2349.802 6        38.913    25934108.072 7 104426014.75107     -2411.063 7        44.352
G04        13.000    25368154.483 5 133310573.38105     -1773.613 5        33.515                                                                                                    25368178.347 4                     -1381.859 4        29.469
E27        15.000    23504721.717 7 123518241.17107     -1213.047 7        45.383                                                                    23504722.798 8  92237683.84808      -905.858 8        48.495    23504722.192 7  94643994.28307      -929.505 7        45.180
E13        16.000    25689011.495 5 134996692.69715      1973.068 5        35.114                                                                    25688997.650 6 100809159.27206      1473.484 6        41.075    25688995.868 6 103438938.56806      1511.918 6        36.159
R17        17.000    19274926.728 8 103144130.65208     -1657.222 8        50.720                                                                    19274923.464 6  80223232.82706     -1288.786 6        39.336
G16        18.000    23715321.528 5 124624868.48205      2597.030 5        31.540                                    23715319.282 1  97110237.89001      2023.666 1        11.111
R15        20.000    19493871.423 8 104169664.34408     -2444.351 8        52.415                                                                    19493871.865 7  81020914.97907     -1901.154 7        43.209
R24        21.000    22398550.720 5 119775228.38905     -4644.200 5        35.138                                                                    22398561.126 5  93158439.41505     -3611.821 5        33.910
E21        22.000    25335978.434 6 133141594.31106      1258.203 6        40.372                                                                    25335997.098 5  99423840.29905       939.606 5        31.087    25335979.274 6 102017628.39306       963.996 6        40.262
S36        23.000    38312282.416 6 201332267.47306      -853.255 6        36.446
S23        24.000    38263215.226 6 201074535.60506      -857.011 6        38.619
G26        25.000    21464599.033 7 112797197.44607      1295.978 7        42.135                                    21464591.896 4  87893971.98704      1009.853 4        27.365    21464594.558 4  87893981.96004      1009.549 4        28.967
E04        26.000    28568677.375 4                     -1108.092 4        27.689                                                                    28568666.269 3                      -828.133 3        23.295    28568666.310 4 115034157.07204      -849.483 4        26.850
C34        28.000                                                                                                                                    21976496.857 8 114437898.53508     -2268.803 8        49.243                                                                    21976497.349 7  92989945.57807     -1843.499 7        46.707
R18        30.000    20521582.106 8 109545498.66608      1852.623 8        49.288                                                                    20521583.470 6  85202167.13506      1440.983 6        37.558
R16        33.000    20414407.422 8 109050058.63208      1826.609 8        53.143                                                                    20414407.260 7  84816974.02607      1420.703 7        47.859
R14        35.000    22937023.152 5 122267139.15815     -5086.056 5        33.551                                                                    22936998.625 4  95096646.76404     -3955.990 4        27.545
C37        36.000                                                                                                                                    25846879.761 6 134591469.36706      2084.770 6        41.998                                                                    25846879.080 6 109366651.58606      1694.053 6        37.025
S21        38.000    38540307.233 5 202530818.85005      -853.922 5        34.652
C44        39.000                                                                                                                                    26002970.032 3                     -3900.497 3        19.940
R07        40.000    24628600.263 5 131838504.73115     -3300.680 5        30.075
C25        41.000                                                                                                                                    22848955.766 6 118980554.38106     -3335.849 6        41.821                                                                    22848960.921 7  96681519.26807     -2710.577 7        46.077
C43        42.000                                                                                                                                    22036880.483 8 114751819.81708       469.048 8        50.312                                                                    22036879.447 8  93245398.32408       381.199 8        50.797
C12        43.000                                                                                                                                    24097148.726 5 125480230.08205     -3463.859 5        34.138    24097148.924 7  97029300.53607     -2678.493 7        42.842    24097146.727 6 101963046.57606     -2814.723 6        39.892
C11        44.000                                                                                                                                    21569490.378 8 112318050.24508      -863.833 8        48.780    21569486.820 8  86851528.29508      -667.963 8        50.432    21569486.575 7  91267704.42907      -701.824 7        47.447
C13        45.000                                                                                                                                    38221313.406 5 199028420.94505       147.466 5        32.617    38221314.115 6 153901350.86206       113.994 6        41.821    38221313.227 6 161726898.35906       119.882 6        40.062
C08        46.000                                                                                                                                    38094802.104 7 198369668.00507       -35.026 7        44.752    38094795.265 5 153391930.61705       -27.229 5        35.957    38094793.926 6 161191608.65806       -28.304 6        37.425
C38        49.000                                                                                                                                                                                                                                                                    38709174.542 5 163791169.75205      -515.854 5        32.964
C23        55.000                                                                                                                                                                                                                                                                    22617668.937 6  95702860.07706      -200.781 6        41.897
I06        58.000    38817062.393 5 152326607.24105      -659.806 5        35.657
> 2025 01 01 16 45 20.0000000  0 40
G18         1.000    21466672.825 7 112808313.28407      1380.341 7        47.993                                    21466671.786 5  87902448.83105      1075.587 5        33.521    21466671.138 7  87902459.84607      1075.604 7        43.771
G20         2.000    24063296.113 4 126453489.03804     -2374.170 4        29.118
G25         3.000    22381717.746 6 117616700.30106     -4057.667 6        36.197                                                                                                    22381717.015 5  91649395.28005     -3162.167 5        35.838
G31         5.000    21887418.729 6 115019179.93806     -1853.687 6        38.520                                    21887418.655 5  89625328.32405     -1444.419 5        34.143    21887418.160 7  89625343.30807     -1444.476 7        42.392
G28         6.000    22439719.729 7 117921515.55607     -3361.123 7        43.380                                    22439721.719 4  91886880.11504     -2619.051 4        25.504    22439720.296 7  91886895.09807     -2619.146 7        43.168
E19         7.000    28227147.347 4 148334674.62804     -3099.784 4        26.635
G29         8.000    20876160.958 8 109705102.78408     -2204.395 8        50.108                                    20876155.071 7  85484694.04007     -1717.706 7        42.167    20876156.671 6  85484496.06006     -1717.749 6        38.429
E30         9.000    26394616.437 5                     -3304.072 5        33.659                                                                    26394612.303 6 103578180.15506     -2467.514 6        38.874    26394608.618 5 106280162.43805     -2531.737 5        34.190
E15        10.000    23658582.779 7 124326772.51107      -499.443 7        43.156                                                                    23658584.367 7  92841500.61507      -372.893 7        45.729    23658584.457 8  95263395.04908      -382.721 8        48.138
G05        11.000    23084012.408 4                        13.847 4        28.180                                                                                                    23084013.941 5                        10.594 5        32.072
E34        12.000    25937107.104 6 136300404.08606     -3148.192 6        38.883                                                                    25937102.143 6 101782879.45406     -2350.997 6        38.826    25937102.419 7 104438072.48607     -2412.214 7        44.322
G04        13.000    25369844.467 5 133319447.69005     -1776.536 5        31.849
E27        15.000    23505876.730 7 123524311.01707     -1214.952 7        44.787                                                                    23505877.906 8  92242216.53808      -907.347 8        48.462    23505877.230 7  94648645.21307      -930.942 7        45.472
E13        16.000    25687129.905 5 134986829.74705      1972.050 5        35.957                                                                    25687120.657 6 100801794.15306      1472.408 6        41.066    25687119.422 6 103431381.33106      1511.070 6        36.106
R17        17.000    19276476.517 8 103152425.27808     -1660.848 8        50.107                                                                    19276473.993 6  80229684.20706     -1291.818 6        39.517
G16        18.000    23712850.814 5 124611885.76005      2595.999 5        33.108                                    23712849.068 2  97100121.46502      2022.844 2        12.121
R15        20.000    19496160.314 8 104181895.79508     -2448.423 8        51.954                                                                    19496160.457 7  81030428.32507     -1904.429 7        43.172
R24        21.000    22402901.967 5 119798451.08805     -4645.227 5        34.600                                                                    22402903.345 5  93176501.49905     -3612.608 5        32.838
E21        22.000    25334781.715 6 133135305.96406      1257.151 6        39.766                                                                    25334798.065 5  99419144.44505       938.490 5        30.785    25334783.261 6 102012810.06106       963.185 6        40.131
S36        23.000    38313096.171 6 201336534.10706      -853.408 6        36.306
S23        24.000    38264030.707 6 201078820.74706      -857.202 6        38.450
G26        25.000    21463367.586 7 112790723.14407      1293.708 7        43.448                                    21463359.405 4  87888927.10204      1008.079 4        26.407    21463363.670 4  87888937.05404      1008.211 4        28.284
E04        26.000    28569737.015 4                     -1110.087 4        27.186                                                                    28569721.666 4                      -829.623 4        26.419    28569721.810 4 115038406.28104      -850.684 4        27.533
C34        28.000                                                                                                                                    21978676.011 8 114449247.19708     -2270.743 8        48.441                                                                    21978676.766 7  92999167.29307     -1845.138 7        46.423
R18        30.000    20519847.803 8 109536242.53008      1849.627 8        49.175                                                                    20519849.388 6  85194967.99206      1438.403 6        37.153
R16        33.000    20412698.815 8 109040932.56008      1823.663 8        53.213                                                                    20412699.228 8  84809875.98808      1418.372 8        48.315
R14        35.000    22941790.197 5 122292572.31205     -5087.543 5        33.593                                                                    22941767.464 4  95116428.09704     -3956.984 4        28.749
C37        36.000                                                                                                                                    25844877.498 7 134581048.44607      2083.546 7        42.070                                                                    25844877.830 6 109358183.73006      1692.994 6        36.994
S21        38.000    38541121.225 5 202535089.11605      -854.172 5        34.114
C44        39.000                                                                                                                                    26006725.265 3                     -3904.786 3        20.643
R07        40.000    24631688.465 5 131855014.48205     -3303.510 5        31.034
C25        41.000                                                                                                                                    22852161.801 6 118997238.42606     -3337.920 6        41.580                                                                    22852165.155 7  96695076.42607     -2712.319 7        46.515
C43        42.000                                                                                                                                    22036431.411 8 114749479.68408       466.938 8        50.449                                                                    22036429.985 8  93243496.78408       379.414 8        50.711
C12        43.000                                                                                                                                    24100476.072 5 125497551.82605     -3464.894 5        35.214    24100475.253 7  97042694.81707     -2679.336 7        42.438    24100473.757 6 101977121.89606     -2815.505 6        40.186
C11        44.000                                                                                                                                    21570321.084 8 112322374.62408      -866.071 8        48.814    21570317.230 8  86854872.19608      -669.781 8        50.300    21570316.968 7  91271218.34407      -703.767 7        47.252
C13        45.000                                                                                                                                    38221171.252 5 199027686.74305       146.078 5        31.306    38221172.909 6 153900783.11606       113.000 6        41.614    38221172.286 6 161726301.74806       118.855 6        39.634
C08        46.000                                                                                                                                    38094836.588 7 198369846.15607       -36.389 7        44.805    38094829.740 5 153392068.36705       -28.002 5        35.914    38094828.516 6 161191753.41306       -29.662 6        37.399
C38        49.000                                                                                                                                                                                                                                                                    38709784.852 5 163793750.69305      -516.645 5        32.323
C23        55.000                                                                                                                                                                                                                                                                    22617906.965 6  95703869.30106      -203.053 6        41.731
I06        58.000    38817902.824 5 152329906.80205      -660.042 5        35.981
> 2025 01 01 16 45 25.0000000  0 39
G18         1.000    21465359.995 8 112801417.55608      1377.962 8        48.006                                    21465359.369 5  87897075.55505      1073.728 5        33.671    21465358.797 7  87897086.57207      1073.748 7        43.149
G20         2.000    24065552.751 4 126465367.42704     -2376.792 4        26.060
G25         3.000    22385579.797 6 117636992.14706     -4058.827 6        37.645                                                                                                    22385577.696 5  91665207.06505     -3162.760 5        35.976
G31         5.000    21889186.330 6 115028456.61706     -1856.904 6        40.532                                    21889184.239 6  89632556.91906     -1446.934 6        36.560    21889183.383 7  89632571.90507     -1446.855 7        42.519
G28         6.000    22442919.798 7 117938326.97907     -3363.378 7        44.357                                    22442921.062 4  91899979.92704     -2620.820 4        25.083    22442918.983 7  91899994.90107     -2620.705 7        42.682
E19         7.000    28230097.616 4 148350177.33604     -3101.312 4        25.398
G29         8.000    20878259.293 8 109716128.95508     -2205.976 8        50.481                                    20878253.447 7  85493285.85507     -1718.941 7        42.563    20878254.619 6  85493087.88206     -1718.909 6        38.517
E30         9.000    26397752.954 5 138721165.81615     -3304.841 5        34.148                                                                    26397756.577 6 103590518.67406     -2467.982 6        38.453    26397752.382 5 106292822.82905     -2532.256 5        34.286
E15        10.000    23659058.996 7 124329275.12207      -501.658 7        43.371                                                                    23659060.671 7  92843369.45607      -374.543 7        45.588    23659060.635 8  95265312.63108      -384.357 8        48.109
G05        11.000    23084005.218 4                        10.261 4        27.437
E34        12.000    25940104.133 6 136316147.73706     -3149.490 6        38.498                                                                    25940098.196 6 101794636.06306     -2351.824 6        38.901    25940098.324 7 104450135.77907     -2413.054 7        44.113
G04        13.000    25371533.893 5 133328336.24805     -1779.012 5        32.126                                                                                                    25371531.496 4                     -1386.287 4        29.213
E27        15.000    23507033.522 7 123530389.67607     -1216.481 7        44.352                                                                    23507034.659 8  92246755.79808      -908.411 8        48.220    23507034.018 7  94653302.88907      -932.090 7        45.446
E13        16.000                                                                                                                                    25685245.378 6 100794433.80606      1471.615 6        41.352    25685243.834 6 103423829.01206      1509.840 6        36.378
R17        17.000    19278029.084 8 103160737.41108     -1664.067 8        50.137                                                                    19278027.336 6  80236149.19506     -1294.275 6        39.778
G16        18.000    23710383.752 5 124598907.13805      2595.485 5        35.695                                    23710379.525 2  97090008.30002      2022.447 2        14.000
R15        20.000    19498453.395 8 104194147.23508     -2452.111 8        51.791                                                                    19498453.111 7  81039957.21807     -1907.171 7        43.327
R24        21.000    22407249.870 5 119821678.42005     -4645.958 5        31.947                                                                    22407245.487 5  93194567.23105     -3613.100 5        31.577
E21        22.000    25333585.986 6 133129022.25506      1256.319 6        38.637                                                                    25333600.552 5  99414452.01805       938.020 5        30.604    25333588.295 6 102007995.26806       962.657 6        39.670
S36        23.000    38313908.772 6 201340801.17306      -853.164 6        36.370
S23        24.000    38264845.682 6 201083106.38306      -857.295 6        38.441
G26        25.000    21462137.869 7 112784259.88707      1291.671 7        42.969                                    21462129.012 4  87883890.81504      1006.494 4        24.962    21462134.570 4  87883900.72004      1005.944 4        24.286
E04        26.000    28570798.565 4                     -1112.782 4        26.886                                                                    28570780.640 4                      -830.692 4        28.673    28570779.659 4 115042664.74204      -852.078 4        26.874
C34        28.000                                                                                                                                    21980857.184 8 114460604.59008     -2272.215 8        48.028                                                                    21980857.894 7  93008396.08707     -1846.313 7        46.300
R18        30.000    20518115.676 8 109527000.79308      1847.086 8        49.203                                                                    20518120.001 6  85187779.99606      1436.602 6        38.880
R16        33.000    20410993.217 8 109031821.61808      1820.796 8        52.890                                                                    20410993.860 8  84802789.70608      1416.212 8        49.103
R14        35.000                                                                                                                                    22946538.970 4  95136214.57904     -3957.512 4        28.578
C37        36.000                                                                                                                                    25842876.644 7 134570633.45107      2082.618 7        42.195                                                                    25842877.717 6 109349720.66106      1692.209 6        37.297
S21        38.000    38541935.833 5 202539359.98805      -854.016 5        34.305
R07        40.000    24634778.956 5 131871539.48515     -3306.698 5        30.121                                                                    24634851.226 3                     -2571.891 3        23.943
C25        41.000                                                                                                                                    22855369.806 7 119013932.32107     -3339.654 7        42.341                                                                    22855371.161 7  96708641.55507     -2713.646 7        46.723
C43        42.000                                                                                                                                    22035983.800 8 114747149.47708       465.159 8        50.591                                                                    22035982.490 8  93241603.28308       378.026 8        50.713
C12        43.000                                                                                                                                    24103805.259 6 125514878.13606     -3465.612 6        36.805    24103802.722 7  97056092.60207     -2679.792 7        42.072    24103801.587 6 101991200.91806     -2816.107 6        40.939
C11        44.000                                                                                                                                    21571153.578 8 112326709.86008      -868.026 8        48.654    21571150.041 8  86858224.49308      -671.188 8        50.394    21571149.356 7  91274741.06107      -705.237 7        47.077
C13        45.000                                                                                                                                    38221029.637 5 199026958.04505       145.366 5        30.377    38221032.924 6 153900219.65106       112.342 6        41.676    38221032.380 6 161725709.60406       118.174 6        39.435
