     3.04           OBSERVATION DATA    M                   RINEX VERSION / TYPE
ssrcrin-15.6.1x                         20250101 161500 UTC PGM / RUN BY / DATE 
(00000000023479385599111004) Septentrio proprietary         COMMENT             
ract                                                        MARKER NAME         
01                                                          MARKER NUMBER       
geodetic                                                    MARKER TYPE         
NFB                 CLIMERS@TUW                             OBSERVER / AGENCY   
3296359             SEPT ASTERX SB3 PROB4.14.4              REC # / TYPE / VERS 
Unknown             Unknown                                 ANT # / TYPE        
  4127448.5710  1206915.0705  4695543.8672                  APPROX POSITION XYZ 
        0.0000        0.0000        0.0000                  ANTENNA: DELTA H/E/N
G   23 X1  C1C L1C D1C S1C C1W S1W C2W L2W D2W S2W C2L L2L  SYS / # / OBS TYPES 
       D2L S2L C5Q L5Q D5Q S5Q C1L L1L D1L S1L              SYS / # / OBS TYPES 
E   21 X1  C1C L1C D1C S1C C6C L6C D6C S6C C5Q L5Q D5Q S5Q  SYS / # / OBS TYPES 
       C7Q L7Q D7Q S7Q C8Q L8Q D8Q S8Q                      SYS / # / OBS TYPES 
S    9 X1  C1C L1C D1C S1C C5I L5I D5I S5I                  SYS / # / OBS TYPES 
R   17 X1  C1C L1C D1C S1C C2P L2P D2P S2P C2C L2C D2C S2C  SYS / # / OBS TYPES 
       C3Q L3Q D3Q S3Q                                      SYS / # / OBS TYPES 
C   25 X1  C1P L1P D1P S1P C5P L5P D5P S5P C2I L2I D2I S2I  SYS / # / OBS TYPES 
       C7I L7I D7I S7I C6I L6I D6I S6I C7D L7D D7D S7D      SYS / # / OBS TYPES 
J   17 X1  C1C L1C D1C S1C C2L L2L D2L S2L C5Q L5Q D5Q S5Q  SYS / # / OBS TYPES 
       C1L L1L D1L S1L                                      SYS / # / OBS TYPES 
I    5 X1  C5A L5A D5A S5A                                  SYS / # / OBS TYPES 
SEPTENTRIO RECEIVERS OUTPUT ALIGNED CARRIER PHASES.         COMMENT             
NO FURTHER PHASE SHIFT APPLIED IN THE RINEX ENCODER.        COMMENT             
G L1C                                                       SYS / PHASE SHIFT   
G L2W                                                       SYS / PHASE SHIFT   
G L2L  0.00000                                              SYS / PHASE SHIFT   
G L5Q  0.00000                                              SYS / PHASE SHIFT   
G L1L  0.00000                                              SYS / PHASE SHIFT   
E L1C  0.00000                                              SYS / PHASE SHIFT   
E L6C  0.00000                                              SYS / PHASE SHIFT   
E L5Q  0.00000                                              SYS / PHASE SHIFT   
E L7Q  0.00000                                              SYS / PHASE SHIFT   
E L8Q  0.00000                                              SYS / PHASE SHIFT   
S L1C                                                       SYS / PHASE SHIFT   
S L5I                                                       SYS / PHASE SHIFT   
R L1C                                                       SYS / PHASE SHIFT   
R L2P  0.00000                                              SYS / PHASE SHIFT   
R L2C                                                       SYS / PHASE SHIFT   
R L3Q  0.00000                                              SYS / PHASE SHIFT   
C L1P  0.00000                                              SYS / PHASE SHIFT   
C L5P  0.00000                                              SYS / PHASE SHIFT   
C L2I                                                       SYS / PHASE SHIFT   
C L7I                                                       SYS / PHASE SHIFT   
C L6I                                                       SYS / PHASE SHIFT   
C L7D                                                       SYS / PHASE SHIFT   
J L1C                                                       SYS / PHASE SHIFT   
J L2L  0.00000                                              SYS / PHASE SHIFT   
J L5Q  0.00000                                              SYS / PHASE SHIFT   
J L1L  0.00000                                              SYS / PHASE SHIFT   
I L5A                                                       SYS / PHASE SHIFT   
  2025     1     1    16    15    0.0000000     GPS         TIME OF FIRST OBS   
 C1C    0.000 C2C    0.000 C2P    0.000                     GLONASS COD/PHS/BIS 
DBHZ                                                        SIGNAL STRENGTH UNIT
    18                                                      LEAP SECONDS        
 24 R01  1 R02 -4 R03  5 R04  6 R05  1 R06 -4 R07  5 R08  6 GLONASS SLOT / FRQ #
    R09 -2 R10 -7 R11  0 R12 -1 R13 -2 R14 -7 R15  0 R16 -1 GLONASS SLOT / FRQ #
    R17  4 R18 -3 R19  3 R20  2 R21  4 R22 -3 R23  3 R24  2 GLONASS SLOT / FRQ #
                                                            END OF HEADER       
> 2025 01 01 16 15  0.0000000  0 42
G18         1.000    22390383.263 6 117662242.04606      2183.817 6        39.135                                    22390381.593 3  91684910.21803      1701.678 3        18.746    22390382.679 5  91684890.29405      1701.402 5        30.989
G20         2.000    23727625.897 4                     -1277.874 4        25.955
G25         3.000    21376080.036 6 112332042.27606     -3452.688 6        41.774                                    21376083.450 4  87531449.78604     -2690.416 4        24.797    21376085.761 5                     -2690.487 5        31.064
G11         4.000    24988041.604 4                     -4237.728 4        27.964
G31         5.000    21757849.353 6 114338258.10506      -614.165 6        40.827                                    21757954.779 1  89094740.24101      -478.727 1         5.857    21757849.768 6  89094749.16806      -478.466 6        39.219
G28         6.000    21739430.791 6 114241465.19806     -2367.602 6        41.886                                    21739426.763 3  89019320.83803     -1844.880 3        23.905    21739431.547 6  89019373.84306     -1844.867 6        39.943
G29         8.000    20531464.118 8 107893696.99708     -1497.840 8        50.312                                    20531461.187 8  84073205.24008     -1167.153 8        50.605    20531461.984 7  84073007.24207     -1167.070 7        46.417
E30         9.000    25610724.626 6 134585274.03506     -2945.892 6        37.928                                                                    25610727.979 7 100502084.06307     -2199.823 7        43.014    25610724.773 5 103123878.69305     -2257.282 5        35.600
E15        10.000    23932515.767 7 125766284.14807       347.577 7        45.238                                                                    23932519.126 7  93916453.37507       259.576 7        45.010    23932519.304 7  96366390.72907       266.333 7        47.656
G05        11.000    23582665.920 4 123927745.31504      1091.747 4        29.583
E34        12.000    25243262.318 6 132654279.61506     -2556.384 6        40.746                                                                    25243264.844 6  99060090.25306     -1908.956 6        41.213    25243263.473 5 101644245.36505     -1958.379 5        31.313
G04        13.000    25234812.719 6 132609609.47306      -717.333 6        36.333
E19        14.000    27534384.086 3                     -2593.419 3        22.495                                                                    27534409.541 4                     -1936.275 4        29.128    27534400.272 4 110869634.89404     -1986.909 4        25.308
E27        15.000    23485648.658 7 123417998.71907      -644.384 7        46.253                                                                    23485650.337 7  92162823.27207      -481.201 7        47.099    23485649.908 7  94567181.27607      -493.652 7        45.133
E13        16.000    26734060.041 5 140488462.89205      2313.620 5        35.895                                                                    26734072.359 6 104910380.07906      1727.891 6        38.153    26734066.421 5 107647115.39005      1772.670 5        35.714
R17        17.000    19231775.125 8 102913201.62508      -336.710 8        49.528                                                                    19231776.275 7  80043616.06507      -261.921 7        46.338
G16        18.000    24944254.475 5                      2749.747 5        31.796
R15        20.000    19205288.343 8 102627554.08208     -1019.990 8        50.476                                                                    19205289.241 7  79821493.38507      -793.347 7        43.424
R24        21.000    21192690.455 7 113326778.93107     -4162.794 7        42.781                                                                    21192684.815 6  88143152.41206     -3237.853 6        36.518
E21        22.000    26114008.978 5 137230327.58805      1490.771 5        35.776                                                                    26114030.577 5 102477120.93305      1112.920 5        33.275    26114010.565 6 105150464.13506      1142.092 6        38.093
S36        23.000    38317247.062 6 201358334.59906      -853.191 6        36.790
S23        24.000    38266909.989 6 201093947.63906      -856.924 6        37.614
G26        25.000    22329479.621 5 117342406.71005      1935.621 5        32.557                                    22329473.310 2  91435604.34802      1508.233 2        14.905    22329508.659 4                      1508.453 4        28.531
E04        26.000                                                                                                                                    28632318.998 4                      -194.271 4        27.521    28632319.245 4 115290526.12904      -198.980 4        25.308
C34        28.000                                                                                                                                    21598257.512 7 112468284.48107     -1596.110 7        47.757                                                                    21598258.673 7  91389470.44607     -1297.000 7        42.808
R18        30.000    21610675.731 6 115359083.35206      2751.506 6        39.688
R16        33.000    21488289.260 8 114786510.93708      2656.219 8        50.530                                                                    21488287.138 7  89278654.49807      2065.973 7        43.058
C24        34.000                                                                                                                                    25743128.818 3                     -4250.735 3        23.010                                                                    25743127.568 3                     -3453.998 3        23.790
R14        35.000    21598716.912 7 115133278.20307     -4481.755 7        45.330                                                                    21598720.380 6  89548148.00006     -3485.746 6        39.904
C37        36.000                                                                                                                                    26927479.547 5 140218537.60905      2357.295 5        33.096                                                                    26927483.566 5 113939060.15105      1915.545 5        34.357
S21        38.000    38545087.196 5 202555858.06405      -853.885 5        34.990
C44        39.000                                                                                                                                    24954339.434 5                     -3807.765 5        30.128
R07        40.000    24012728.101 4                     -2042.766 4        24.286                                                                    24012739.989 4  99977191.09504     -1589.698 4        27.461
C25        41.000                                                                                                                                    22114030.542 7 115153568.56307     -2574.997 7        45.655                                                                    22114028.505 8  93571777.62108     -2092.425 8        48.518
C43        42.000                                                                                                                                    22617408.615 7 117774874.07907      1135.482 7        47.973                                                                    22617409.188 6  95701764.42806       922.701 6        38.574
C12        43.000                                                                                                                                    23251152.296 6 121074876.27706     -3077.886 6        39.898    23251143.491 6  93622785.89806     -2379.906 6        40.920    23251143.521 6  98383319.99606     -2500.874 6        40.973
C11        44.000                                                                                                                                    21703027.498 7 113013393.48607       -79.859 7        46.858    21703027.240 8  87389205.86808       -61.722 8        49.466    21703025.464 7  91832722.91107       -64.853 7        46.860
C13        45.000                                                                                                                                    38635219.664 7 201183711.47707       503.307 7        42.294    38635218.950 5 155568090.21805       389.121 5        32.515    38635217.261 5 163478238.14505       408.742 5        34.814
C08        46.000                                                                                                                                    38453448.396 6 200237212.94006       369.650 6        40.779    38453444.340 7 154836030.88807       285.887 7        46.833    38453439.812 6 162709138.67406       300.370 6        39.345
C38        49.000                                                                                                                                    38854635.753 7 202326283.14807      -248.965 7        42.282                                                                    38854633.878 6 164406694.34306      -202.372 6        39.279
C23        55.000                                                                                                                                    22990717.111 6 119718647.79906       642.302 6        37.153                                                                    22990698.941 7  97281251.85807       521.979 7        45.011
I06        58.000    38808172.504 5 152291682.84005      -674.343 5        35.157
> 2025 01 01 16 15  5.0000000  0 41
G18         1.000    22388307.067 6 117651327.39806      2181.926 6        39.474                                    22388304.113 2  91676405.34402      1700.202 2        17.811    22388305.428 5  91676385.38205      1700.562 5        30.702
G20         2.000    23728846.892 3                     -1280.361 3        20.262
G25         3.000    21379366.103 7 112349310.26607     -3454.582 7        42.942                                    21379368.661 4  87544905.38304     -2691.887 4        25.805    21379367.208 4                     -2691.706 4        29.469
G31         5.000    21758437.616 7 114341336.57307      -617.425 7        44.123                                    21758542.846 1  89097138.75601      -481.049 1         5.000    21758436.614 6  89097148.00806      -481.187 6        39.363
G28         6.000    21741683.900 6 114253310.35506     -2370.567 6        41.201                                    21741681.261 4  89028550.83604     -1847.193 4        24.226    21741685.110 6  89028603.84706     -1847.252 6        40.741
G29         8.000    20532890.165 8 107901190.91208     -1499.821 8        50.215                                    20532887.160 8  84079044.67608     -1168.697 8        50.364    20532887.885 7  84078846.68407     -1168.748 7        46.331
E30         9.000    25613527.493 6 134600005.61006     -2946.965 6        37.531                                                                    25613531.204 7 100513084.93307     -2200.567 7        42.893    25613528.222 5 103135166.55905     -2258.017 5        34.386
E15        10.000    23932186.116 7 125764551.63207       345.404 7        44.199                                                                    23932189.465 7  93915159.62907       257.882 7        44.894    23932189.707 7  96365063.22507       264.612 7        47.842
G05        11.000    23581625.564 4 123922294.42204      1088.616 4        29.090                                    23581619.188 1  96562788.35111       848.042 1         4.571
E34        12.000    25245695.380 6 132667065.44406     -2558.184 6        41.464                                                                    25245698.464 6  99069638.14306     -1910.334 6        40.815    25245696.968 5 101654042.36105     -1960.319 5        30.853
G04        13.000    25235491.450 6 132613204.13106      -720.486 6        36.287                                                                                                    25235474.057 4                      -561.415 4        25.278
E19        14.000    27536849.703 3                     -2595.301 3        21.619                                                                    27536876.351 4                     -1937.994 4        29.156    27536862.672 4 110879571.42204     -1988.320 4        24.932
E27        15.000    23486262.234 7 123421223.82807      -645.730 7        46.214                                                                    23486264.077 7  92165231.64907      -482.241 7        47.056    23486263.635 7  94569652.48207      -494.851 7        45.539
E13        16.000    26731859.367 5 140476895.95105      2313.152 5        34.595                                                                    26731871.353 6 104901742.54106      1727.409 6        38.027    26731865.147 5 107638252.51605      1772.211 5        35.152
R17        17.000    19232091.919 8 102914894.29408      -340.484 8        49.705                                                                    19232092.451 7  80044932.60307      -264.801 7        46.126
G16        18.000    24941636.872 5                      2749.630 5        31.645
R15        20.000    19206245.016 8 102632663.59208     -1023.836 8        51.364                                                                    19206245.385 7  79825467.46207      -796.351 7        43.494
R24        21.000    21196581.236 6 113347597.24706     -4164.561 6        39.369                                                                    21196578.066 5  88159344.44605     -3239.121 5        34.824
E21        22.000    26112589.549 6 137222875.24506      1490.241 6        36.291                                                                    26112612.964 5 102471555.82105      1112.836 5        32.108    26112592.690 6 105144753.91706      1141.969 6        38.456
S36        23.000    38318058.881 6 201362599.42706      -852.928 6        36.873
S23        24.000    38267724.128 6 201098232.99406      -856.937 6        37.660
G26        25.000    22327642.218 5 117332730.66805      1934.472 5        35.205                                    22327631.346 2  91428064.64602      1507.376 2        14.619    22327666.900 4                      1507.230 4        28.028
E04        26.000                                                                                                                                    28632566.704 4                      -195.789 4        25.429    28632568.305 4 115291525.64004      -200.266 4        25.248
C34        28.000                                                                                                                                    21599790.756 7 112476270.14307     -1598.182 7        47.855                                                                    21599792.425 7  91395959.44507     -1298.459 7        42.717
R18        30.000    21608098.851 6 115345330.51106      2749.539 6        38.733
R16        33.000    21485803.042 8 114773233.84008      2654.574 8        49.902                                                                    21485801.910 7  89268327.90407      2064.572 7        42.779
C24        34.000                                                                                                                                    25747215.769 3                     -4251.799 3        23.467                                                                    25747211.563 4                     -3455.962 4        24.722
R14        35.000    21602921.169 7 115155692.18607     -4483.823 7        44.944                                                                    21602925.498 6  89565581.12606     -3487.392 6        40.198
C37        36.000                                                                                                                                    26925217.256 5 140206751.44805      2357.071 5        32.766                                                                    26925220.068 5 113929482.98805      1915.374 5        34.067
S21        38.000    38545902.395 5 202560126.64605      -853.841 5        35.186
C44        39.000                                                                                                                                    24957996.980 4                     -3808.148 4        29.943
R07        40.000                                                                                                                                    24014648.937 4  99985144.70114     -1592.928 4        24.241
C25        41.000                                                                                                                                    22116503.339 7 115166449.21707     -2577.295 7        46.022                                                                    22116502.221 8  93582244.20108     -2094.041 8        48.614
C43        42.000                                                                                                                                    22616318.968 7 117769200.85407      1133.700 7        47.880                                                                    22616320.103 6  95697154.48306       921.394 6        39.150
C12        43.000                                                                                                                                    23254107.894 6 121090268.22506     -3079.099 6        39.309    23254101.588 6  93634687.93406     -2380.940 6        41.933    23254099.532 6  98395827.19106     -2501.760 6        41.085
C11        44.000                                                                                                                                    21703104.804 7 113013797.94307       -82.029 7        46.668    21703105.186 8  87389518.65708       -63.429 8        50.061    21703103.170 7  91833051.57507       -66.406 7        46.932
C13        45.000                                                                                                                                    38634736.675 6 201181197.56206       502.282 6        41.890    38634735.380 5 155566146.33905       388.618 5        32.413    38634735.017 5 163476195.35305       408.457 5        35.257
C08        46.000                                                                                                                                    38453093.362 6 200235366.81206       368.789 6        40.720    38453089.580 7 154834603.36307       285.122 7        46.775    38453085.237 6 162707638.53906       299.693 6        39.234
C38        49.000                                                                                                                                    38854875.414 6 202327531.22706      -250.137 6        41.957                                                                    38854873.394 6 164407708.49206      -203.002 6        39.387
C23        55.000                                                                                                                                                                                                                                                                    22990083.226 7  97278646.51107       520.320 7        45.052
I06        58.000    38809031.363 5 152295054.94905      -674.398 5        35.190
> 2025 01 01 16 15 10.0000000  0 42
G18         1.000    22386232.237 6 117640422.02406      2180.131 6        40.265                                    22386228.252 2  91667907.71502      1698.793 2        17.019
G20         2.000    23730075.962 4                     -1283.986 4        26.551
G25         3.000    21382653.288 7 112366587.59007     -3456.397 7        43.496                                    21382656.051 4  87558368.25004     -2693.297 4        27.377    21382655.670 4                     -2693.196 4        28.834
G11         4.000    24996092.314 4                     -4239.807 4        27.377
G31         5.000    21759027.138 7 114344432.27007      -620.836 7        45.910                                    21759134.102 1  89099550.77101      -483.595 1         6.250    21759026.062 6  89099560.27406      -483.815 6        39.018
G28         6.000    21743940.256 6 114265170.85206     -2373.723 6        40.830                                    21743938.760 4  89037792.79304     -1849.657 4        24.060    21743941.855 6  89037845.78606     -1849.587 6        41.576
G29         8.000    20534318.024 8 107908695.24108     -1501.928 8        50.204                                    20534315.227 8  84084892.22608     -1170.337 8        50.253    20534315.960 7  84084694.23307     -1170.352 7        46.258
E30         9.000    25616332.304 6 134614742.33706     -2947.850 6        36.817                                                                    25616335.380 7 100524089.64507     -2201.439 7        42.770    25616332.975 5 103146458.36005     -2258.793 5        33.820
E15        10.000    23931859.121 7 125762830.47007       343.088 7        43.264                                                                    23931862.001 7  93913874.36307       256.172 7        44.861    23931862.240 8  96363744.42608       262.862 8        48.077
G05        11.000    23580594.169 5 123916856.28305      1086.449 5        30.045                                    23580585.631 1  96558551.00501       846.418 1         4.857
E34        12.000    25248130.505 6 132679860.69706     -2560.073 6        41.998                                                                    25248134.223 6  99079193.05906     -1911.776 6        40.615    25248132.356 5 101663846.56405     -1961.612 5        30.272
G04        13.000                                                                                                                                                                    25236163.407 4                      -563.982 4        25.338
E19        14.000    27539320.212 3                     -2596.657 3        20.262                                                                    27539344.115 4                     -1938.935 4        29.223    27539330.594 4 110889514.42704     -1989.580 4        25.579
E27        15.000    23486877.375 7 123424456.22107      -647.303 7        46.237                                                                    23486879.273 7  92167645.46007      -483.321 7        47.040    23486878.410 7  94572129.26007      -495.911 7        45.788
E13        16.000    26729659.468 5 140465332.43205      2312.238 5        32.497                                                                    26729670.754 6 104893107.55306      1726.749 6        37.543    26729664.498 5 107629392.25905      1772.020 5        34.386
R17        17.000    19232412.377 8 102916606.14408      -344.321 8        50.123                                                                    19232412.100 7  80046264.06207      -267.707 7        46.353
G16        18.000    24939021.563 5                      2749.515 5        31.026
R15        20.000    19207205.345 8 102637792.29808     -1027.661 8        51.353                                                                    19207205.315 7  79829456.45107      -799.328 7        43.882
R24        21.000    21200476.638 6 113368424.97006     -4166.752 6        36.631                                                                    21200471.752 5  88175543.79205     -3240.656 5        32.731
E21        22.000    26111171.597 6 137215425.22806      1489.682 6        36.197                                                                    26111195.267 5 102465992.43505      1112.696 5        30.355    26111174.851 6 105139045.50506      1141.350 6        38.631
S36        23.000    38318871.504 6 201366864.49206      -853.370 6        36.991
S23        24.000    38268538.192 6 201102518.19106      -857.081 6        37.928
G26        25.000    22325802.485 6 117323061.81806      1933.106 6        37.062                                    22325790.876 2  91420530.45702      1506.323 2        14.476    22325820.500 4                      1505.976 4        25.970
E04        26.000    28632867.937 4 150466743.56314      -265.152 4        26.132                                                                    28632815.295 4                      -196.707 4        24.917    28632818.875 4 115292534.23504      -202.531 4        26.072
C34        28.000                                                                                                                                    21601325.372 7 112484266.00607     -1600.213 7        47.543                                                                    21601328.165 7  91402456.74907     -1300.356 7        42.366
R18        30.000    21605519.937 5 115331588.15005      2747.411 5        35.419                                                                    21605570.317 3                      2135.596 3        20.929
R16        33.000    21483317.256 8 114759965.07708      2652.923 8        49.198                                                                    21483318.804 7  89258007.81007      2063.414 7        43.308
C24        34.000                                                                                                                                    25751297.359 3                     -4252.129 3        23.524                                                                    25751294.561 4                     -3455.313 4        24.346
R14        35.000    21607128.031 7 115178116.45907     -4485.874 7        45.124                                                                    21607132.492 6  89583022.24406     -3489.125 6        40.274
C37        36.000                                                                                                                                    26922956.016 5 140194967.33305      2356.443 5        32.204                                                                    26922957.047 5 113919907.44005      1915.057 5        34.086
S21        38.000    38546710.900 5 202564395.22305      -853.692 5        35.090
C44        39.000                                                                                                                                    24961653.234 5                     -3808.456 5        30.174
R07        40.000    24016568.948 6 128562559.36416     -2050.984 6        36.681                                                                    24016562.150 3                     -1596.327 3        20.738
C25        41.000                                                                                                                                    22118978.546 7 115179341.26707     -2579.577 7        46.290                                                                    22118978.080 8  93592720.06308     -2096.050 8        48.542
C43        42.000                                                                                                                                    22615231.531 7 117763536.39807      1132.003 7        47.798                                                                    22615232.844 6  95692551.68306       919.796 6        39.751
C12        43.000                                                                                                                                    23257064.887 6 121105666.78406     -3080.344 6        38.769    23257059.135 7  93646595.07607     -2381.874 7        42.432    23257056.639 6  98408339.78706     -2503.026 6        40.644
C11        44.000                                                                                                                                    21703184.366 7 113014213.50207       -84.171 7        46.850    21703185.107 8  87389840.01308       -65.062 8        50.598    21703182.765 7  91833389.28407       -68.409 7        46.779
C13        45.000                                                                                                                                    38634255.004 6 201178688.21106       501.357 6        41.538    38634256.313 5 155564205.93205       387.891 5        31.955    38634253.377 5 163474156.34205       407.491 5        35.524
C08        46.000                                                                                                                                    38452739.300 6 200233525.99306       367.614 6        40.360    38452735.856 7 154833179.92907       284.321 7        46.686    38452731.792 6 162706142.73506       298.777 6        39.228
C38        49.000                                                                                                                                    38855116.170 6 202328784.58106      -251.206 6        41.757                                                                    38855114.153 6 164408726.97706      -203.948 6        38.955
C23        55.000                                                                                                                                                                                                                                                                    22989469.531 7  97276050.17407       518.383 7        44.634
I06        58.000    38809891.078 5 152298426.80505      -674.345 5        35.276
> 2025 01 01 16 15 15.0000000  0 41
G18         1.000    22384157.957 6 117629525.77306      2178.200 6        40.794                                    22384154.550 2  91659417.19702      1697.277 2        16.000
G20         2.000    23731298.723 4                     -1287.336 4        29.896
G25         3.000    21385942.997 7 112383874.05107     -3458.373 7        43.592                                    21385945.394 4  87571838.23304     -2694.833 4        28.531    21385946.007 4                     -2694.639 4        29.498
G11         4.000    25000122.028 4                     -4240.639 4        26.216
G31         5.000    21759618.647 7 114347545.00907      -624.352 7        46.023                                    21759728.761 1  89101975.85601      -486.484 1         8.286    21759617.826 6  89101985.80806      -486.404 6        37.773
G28         6.000    21746200.648 6 114277046.48006     -2376.853 6        39.261                                    21746199.375 3  89047046.53303     -1852.098 3        23.371    21746201.794 7  89047099.53107     -1852.043 7        42.466
G29         8.000    20535748.145 8 107916209.85608     -1504.072 8        50.842                                    20535745.332 8  84090747.79408     -1172.008 8        50.110    20535745.802 7  84090549.79207     -1172.034 7        46.105
E30         9.000    25619136.986 5 134629484.00405     -2948.844 5        35.448                                                                    25619140.381 7 100535098.05507     -2202.202 7        42.353    25619138.759 5 103157753.96805     -2259.798 5        32.569
E15        10.000    23931534.183 7 125761120.47407       340.785 7        42.330                                                                    23931536.695 7  93912597.43907       254.404 7        44.682    23931536.846 8  96362434.18508       261.084 8        48.168
G05        11.000    23579568.857 5 123911430.66405      1083.702 5        30.717                                    23579554.716 1  96554323.48101       844.612 1         5.571
E34        12.000    25250567.833 7 132692665.14507     -2561.900 7        42.218                                                                    25250572.111 6  99088754.86606     -1913.260 6        40.248    25250570.271 4 101673657.83604     -1962.545 4        29.649
G04        13.000                                                                                                                                                                    25236845.557 4                      -566.423 4        24.421
E19        14.000    27541798.908 3                     -2597.746 3        22.419                                                                    27541813.935 4                     -1940.189 4        29.081    27541802.925 4 110899463.89704     -1990.711 4        25.489
E27        15.000    23487493.899 7 123427695.69507      -648.749 7        46.604                                                                    23487495.753 7  92170064.56807      -484.504 7        46.828    23487494.727 7  94574611.47407      -497.111 7        45.929
E13        16.000    26727459.876 5 140453772.12905      2312.027 5        30.030                                                                    26727470.780 6 104884474.96006      1726.183 6        37.391    26727464.687 5 107620534.47505      1771.164 5        33.802
R17        17.000    19232735.655 8 102918336.79208      -348.230 8        49.757                                                                    19232735.838 7  80047610.15207      -270.872 7        46.595
R15        20.000    19208168.218 8 102642940.12608     -1031.665 8        50.942                                                                    19208168.957 7  79833460.32107      -802.372 7        44.149
R24        21.000    21204372.877 5 113389261.72005     -4168.645 5        32.317                                                                    21204368.719 5  88191750.12305     -3241.479 5        30.611
E21        22.000    26109753.962 5 137207977.32505      1489.242 5        35.790                                                                    26109774.967 4 102460430.64504      1112.149 4        29.829    26109757.524 6 105133338.68706      1141.222 6        38.688
S36        23.000    38319682.357 6 201371129.63306      -852.900 6        36.628
S23        24.000    38269354.737 6 201106803.16706      -857.298 6        37.800
G26        25.000    22323962.887 6 117313399.91906      1931.495 6        38.126                                    22323951.974 2  91413001.70402      1505.044 2        15.667    22323977.588 4                      1505.497 4        24.421
E04        26.000    28633120.243 3 150468071.00703      -267.296 3        23.257                                                                    28633067.584 4                      -199.224 4        24.120    28633070.368 4 115293551.47104      -204.590 4        26.455
C34        28.000                                                                                                                                    21602861.675 7 112492271.88807     -1602.322 7        46.974                                                                    21602865.496 7  91408962.20307     -1301.937 7        42.152
R18        30.000    21602944.069 5 115317856.31605      2745.177 5        35.176                                                                    21602988.398 3                      2135.156 3        23.676
R16        33.000    21480834.244 8 114746704.49708      2651.132 8        49.316                                                                    21480835.845 7  89247694.05407      2061.977 7        43.333
C24        34.000                                                                                                                                    25755380.491 4                     -4253.479 4        25.173                                                                    25755378.628 4                     -3455.924 4        25.188
R14        35.000    21611336.735 7 115200551.02607     -4488.089 7        45.222                                                                    21611340.922 6  89600471.34606     -3490.716 6        40.312
C37        36.000                                                                                                                                    26920694.968 5 140183185.24805      2355.939 5        31.826                                                                    26920694.210 5 113910333.56505      1914.646 5        33.132
S21        38.000    38547526.703 5 202568663.68205      -853.625 5        34.871
C44        39.000                                                                                                                                    24965309.670 5                     -3808.868 5        30.181
R07        40.000    24018487.954 6 128572824.01706     -2055.032 6        36.688                                                                    24018485.006 3                     -1597.517 3        22.552
C25        41.000                                                                                                                                    22121456.278 7 115192244.51407     -2581.924 7        46.638                                                                    22121455.999 8  93603205.04808     -2097.888 8        48.530
C43        42.000                                                                                                                                    22614145.401 7 117757880.54407      1130.260 7        47.953                                                                    22614146.867 6  95687955.87706       918.464 6        40.246
C12        43.000                                                                                                                                    23260023.332 6 121121071.78006     -3081.872 6        38.303    23260017.588 7  93658507.20007     -2383.049 7        42.851    23260014.836 6  98420857.63106     -2503.990 6        40.603
C11        44.000                                                                                                                                    21703266.471 7 113014639.91307       -86.518 7        47.089    21703267.172 8  87390169.77808       -66.895 8        51.463    21703264.486 7  91833735.82507       -70.271 7        46.807
C13        45.000                                                                                                                                    38633773.665 6 201176183.33706       500.358 6        41.359    38633775.912 5 155562268.99605       386.985 5        32.090    38633772.393 5 163472120.96105       406.642 5        35.867
C08        46.000                                                                                                                                    38452386.768 6 200231690.40606       366.458 6        40.195    38452383.016 7 154831760.55507       283.358 7        46.842    38452379.509 6 162704651.21506       297.782 6        39.261
C38        49.000                                                                                                                                    38855357.995 6 202330043.03206      -252.368 6        41.619                                                                    38855355.688 6 164409749.61606      -205.055 6        38.877
C23        55.000                                                                                                                                                                                                                                                                    22988858.187 7  97273462.70207       516.547 7        44.620
I06        58.000    38810749.171 5 152301798.28705      -674.258 5        35.205
> 2025 01 01 16 15 20.0000000  0 41
G18         1.000    22382085.217 6 117618639.06706      2176.411 6        41.933                                    22382082.709 2  91650934.11702      1695.875 2        13.939    22382104.934 5  91650914.24805      1695.867 5        34.043
G20         2.000    23732521.707 4                     -1290.422 4        28.796
G25         3.000    21389234.854 7 112401170.08907     -3460.127 7        43.594                                    21389236.942 4  87585315.67804     -2696.207 4        29.517    21389238.288 5                     -2696.107 5        31.487
G11         4.000    25004157.395 4                     -4242.207 4        24.917
G31         5.000    21760213.499 7 114350675.21707      -627.707 7        46.251                                    21760326.528 1  89104414.95201      -489.084 1         9.810    21760211.327 5  89104424.98005      -489.139 5        35.071
G28         6.000    21748463.477 6 114288937.65506     -2379.605 6        38.192                                    21748462.727 3  89056312.40603     -1854.227 3        22.705    21748464.011 6  89056365.39906     -1854.312 6        41.993
G29         8.000    20537180.263 8 107923735.15708     -1506.036 8        51.356                                    20537177.499 8  84096611.68308     -1173.536 8        50.049    20537177.703 7  84096413.68007     -1173.517 7        45.917
E30         9.000    25621942.504 5 134644231.04305     -2949.934 5        34.690                                                                    25621946.234 6 100546110.49606     -2202.811 6        41.476    25621945.039 5 103169053.67805     -2260.473 5        31.268
E15        10.000    23931211.409 6 125759422.07206       338.638 6        41.533                                                                    23931213.496 7  93911329.16207       252.923 7        44.250    23931213.722 8  96361132.83208       259.475 8        48.414
G05        11.000    23578539.580 4 123906018.18404      1081.679 4        28.806                                    23578525.966 1  96550106.06401       842.742 1         4.714
E34        12.000    25253006.710 7 132705479.24507     -2563.723 7        42.398                                                                    25253011.644 6  99098323.85706     -1914.427 6        39.898    25253009.645 5 101683476.46705     -1964.158 5        30.174
G04        13.000    25237520.698 5 132624078.11205      -729.479 5        34.505                                                                                                    25237530.690 3                      -570.357 3        21.857
E19        14.000                                                                                                                                    27544285.562 5                     -1941.143 5        30.136    27544274.977 4 110909419.79804     -1991.541 4        26.742
E27        15.000    23488111.605 7 123430942.69207      -650.036 7        47.114                                                                    23488113.670 7  92172489.28807      -485.435 7        46.595    23488112.425 7  94577099.44907      -498.134 7        46.096
E13        16.000    26725259.073 4 140442215.54304      2311.839 4        26.766                                                                    26725271.457 6 104875845.09806      1725.874 6        36.378    26725265.542 5 107611679.48305      1770.905 5        33.928
R17        17.000    19233061.839 8 102920086.71508      -351.824 8        49.695                                                                    19233062.695 7  80048971.24707      -273.702 7        46.493
R15        20.000    19209134.471 8 102648107.48208     -1035.358 8        50.530                                                                    19209135.185 7  79837479.39507      -805.229 7        43.553
R24        21.000    21208269.376 4 113410107.94804     -4170.254 4        29.213                                                                    21208265.987 4  88207964.04104     -3243.345 4        29.261
E21        22.000    26108337.227 6 137200531.95106      1488.878 6        36.242                                                                    26108354.961 5 102454870.74305      1112.115 5        30.845    26108340.482 6 105127633.81406      1140.845 6        38.916
S36        23.000    38320493.116 6 201375395.48106      -853.079 6        36.858
S23        24.000    38270169.391 6 201111088.51106      -857.018 6        37.558
G26        25.000    22322125.564 6 117303745.29906      1930.361 6        38.273                                    22322114.701 2  91405478.63902      1504.162 2        15.762    22322142.389 4                      1504.193 4        26.060
E04        26.000    28633381.812 3                      -271.290 3        18.866                                                                    28633320.763 3                      -201.558 3        22.457    28633325.989 4 115294577.95604      -206.226 4        27.222
C34        28.000                                                                                                                                    21604400.521 7 112500288.21507     -1604.295 7        46.461                                                                    21604404.644 6  91415476.09906     -1303.480 6        41.547
R18        30.000    21600379.513 6 115304135.38906      2743.193 6        37.202
R16        33.000    21478354.166 8 114733452.52608      2649.598 8        49.281                                                                    21478354.589 7  89237386.99907      2060.865 7        43.602
C24        34.000                                                                                                                                    25759463.856 4                     -4252.766 4        26.347                                                                    25759462.575 4                     -3456.203 4        25.534
R14        35.000    21615547.471 7 115222996.18507     -4490.080 7        44.752                                                                    21615552.195 6  89617928.66706     -3492.193 6        40.100
C37        36.000                                                                                                                                    26918433.158 5 140171405.55305      2355.955 5        31.004                                                                    26918431.788 5 113900761.63405      1914.145 5        33.036
S21        38.000    38548339.438 5 202572932.16105      -853.556 5        34.814
C44        39.000                                                                                                                                    24968967.654 5                     -3809.312 5        31.411
R07        40.000    24020405.782 5 128583108.09205     -2058.481 5        33.090                                                                    24020415.227 4                     -1600.718 4        25.820
C25        41.000                                                                                                                                    22123935.802 7 115205159.39707     -2584.107 7        47.133                                                                    22123936.065 8  93613699.44708     -2099.695 8        48.554
C43        42.000                                                                                                                                    22613060.598 7 117752233.71907      1128.590 7        47.394                                                                    22613062.426 6  95683367.38906       916.944 6        40.484
C12        43.000                                                                                                                                    23262983.788 6 121136483.61106     -3082.990 6        37.527    23262977.199 7  93670424.63007     -2383.882 7        42.720    23262974.848 6  98433381.04006     -2505.170 6        40.529
C11        44.000                                                                                                                                    21703351.141 7 113015077.65007       -88.645 7        47.506    21703351.371 8  87390508.28408       -68.474 8        51.925    21703348.411 7  91834091.51907       -71.970 7        46.909
C13        45.000                                                                                                                                    38633293.822 6 201173683.33606       499.560 6        41.118    38633297.211 5 155560335.84405       386.405 5        32.856    38633292.599 6 163470089.50006       406.314 6        36.450
C08        46.000                                                                                                                                    38452035.383 6 200229860.41006       365.579 6        39.991    38452031.344 7 154830345.50907       282.646 7        46.787    38452028.183 6 162703164.20106       297.048 6        39.544
C38        49.000                                                                                                                                    38855600.676 6 202331306.99606      -253.262 6        41.602                                                                    38855598.258 6 164410776.69706      -205.857 6        38.598
C23        55.000                                                                                                                                    22988320.813 4                       633.656 4        29.886                                                                    22988248.805 7  97270884.36907       514.877 7        44.545
I06        58.000    38811608.810 5 152305169.72705      -674.334 5        35.257
> 2025 01 01 16 15 25.0000000  0 39
G18         1.000    22380014.930 7 117607761.41107      2174.795 7        42.400                                    22380012.643 2  91642458.11802      1694.597 2        12.727    22380030.667 5  91642438.21205      1694.682 5        33.126
G25         3.000    21392527.476 7 112418475.22007     -3461.822 7        43.562                                    21392530.319 5  87598800.20205     -2697.526 5        30.415    21392533.932 5                     -2697.642 5        33.748
G11         4.000    25008191.813 3                     -4242.344 3        23.524
G31         5.000    21760812.188 7 114353822.39207      -630.965 7        46.434                                    21760927.621 1  89106867.17201      -491.799 1         5.143    21760807.867 5  89106877.38905      -491.700 5        32.725
G28         6.000    21750730.296 6 114300843.89306     -2382.531 6        38.637                                    21750729.071 3  89065589.99603     -1856.517 3        22.514    21750728.912 6  89065642.99006     -1856.556 6        40.644
G29         8.000    20538614.108 8 107931270.61508     -1508.000 8        51.317                                    20538611.566 8  84102483.48708     -1175.067 8        49.763    20538611.818 7  84102285.47707     -1175.032 7        45.630
E30         9.000    25624749.565 5 134658982.98705     -2951.024 5        34.790                                                                    25624752.911 6 100557126.56306     -2203.484 6        41.132    25624755.364 5 103180357.23905     -2261.227 5        30.038
E15        10.000    23930890.449 6 125757734.80406       336.458 6        41.714                                                                    23930892.438 7  93910069.20707       251.288 7        44.260    23930892.607 8  96359840.00408       257.798 8        48.330
E34        12.000    25255446.508 7 132718302.46607     -2565.402 7        42.421                                                                    25255452.795 6  99107899.66406     -1915.869 6        39.513    25255451.699 4 101693302.14204     -1965.724 4        29.934
G04        13.000    25238208.720 5 132627732.84905      -732.699 5        33.611                                                                                                    25238226.265 3                      -570.216 3        22.552
E19        14.000    27546775.909 4                     -2601.170 4        24.647                                                                    27546760.582 5                     -1942.564 5        30.121    27546750.841 4 110919382.08204     -1993.008 4        26.874
E27        15.000    23488731.116 7 123434196.71607      -651.339 7        47.652                                                                    23488732.856 7  92174919.25807      -486.448 7        46.577    23488731.562 7  94579592.81107      -499.108 7        46.077
E13        16.000    26723057.501 4 140430662.22104      2310.176 4        24.045                                                                    26723072.965 6 104867217.62106      1725.461 6        36.026    26723068.147 5 107602826.92805      1770.155 5        34.333
R17        17.000    19233392.291 8 102921855.45308      -355.474 8        50.394                                                                    19233392.686 7  80050346.94207      -276.439 7        45.959
R15        20.000    19210104.519 8 102653293.80908     -1039.036 8        49.613                                                                    19210106.455 7  79841513.20707      -808.071 7        43.454
R24        21.000    21212166.954 4 113430963.32404     -4172.190 4        28.028                                                                    21212167.983 4  88224184.83004     -3245.209 4        29.223
E21        22.000    26106921.451 6 137193088.68006      1488.619 6        37.240                                                                    26106933.920 5 102449312.44505      1111.570 5        32.557    26106924.543 6 105121930.56106      1140.652 6        38.784
S36        23.000    38321305.399 6 201379661.54906      -853.356 6        36.575
S23        24.000    38270984.599 6 201115373.42806      -856.862 6        37.437
G26        25.000    22320288.988 6 117294097.55706      1929.007 6        38.327                                    22320278.630 2  91397960.95402      1503.113 2        16.641    22320312.870 3                      1503.629 3        23.238
E04        26.000                                                                                                                                    28633575.323 3                      -201.947 3        21.000    28633583.890 4 115295612.81504      -207.533 4        27.377
C34        28.000                                                                                                                                    21605942.249 7 112508314.48107     -1606.112 7        46.146                                                                    21605945.497 6  91421998.09006     -1305.193 6        40.729
R18        30.000    21597817.407 6 115290424.84816      2741.091 6        38.799
R16        33.000    21475874.344 8 114720208.72408      2648.065 8        48.995                                                                    21475874.445 7  89227086.29207      2059.590 7        43.464
C24        34.000                                                                                                                                    25763547.342 4                     -4253.242 4        26.240                                                                    25763546.825 4                     -3456.610 4        25.759
