     3.04           OBSERVATION DATA    M                   RINEX VERSION / TYPE
ssrcrin-15.6.1x                         20250101 110000 UTC PGM / RUN BY / DATE 
(00000000023479385599111004) Septentrio proprietary         COMMENT             
ract                                                        MARKER NAME         
01                                                          MARKER NUMBER       
geodetic                                                    MARKER TYPE         
NFB                 CLIMERS@TUW                             OBSERVER / AGENCY   
3296359             SEPT ASTERX SB3 PROB4.14.4              REC # / TYPE / VERS 
Unknown             Unknown                                 ANT # / TYPE        
  4127447.6499  1206914.8578  4695543.2213                  APPROX POSITION XYZ 
        0.0000        0.0000        0.0000                  ANTENNA: DELTA H/E/N
G   23 X1  C1C L1C D1C S1C C1W S1W C2W L2W D2W S2W C2L L2L  SYS / # / OBS TYPES 
       D2L S2L C5Q L5Q D5Q S5Q C1L L1L D1L S1L              SYS / # / OBS TYPES 
E   21 X1  C1C L1C D1C S1C C6C L6C D6C S6C C5Q L5Q D5Q S5Q  SYS / # / OBS TYPES 
       C7Q L7Q D7Q S7Q C8Q L8Q D8Q S8Q                      SYS / # / OBS TYPES 
S    9 X1  C1C L1C D1C S1C C5I L5I D5I S5I                  SYS / # / OBS TYPES 
R   17 X1  C1C L1C D1C S1C C2P L2P D2P S2P C2C L2C D2C S2C  SYS / # / OBS TYPES 
       C3Q L3Q D3Q S3Q                                      SYS / # / OBS TYPES 
C   25 X1  C1P L1P D1P S1P C5P L5P D5P S5P C2I L2I D2I S2I  SYS / # / OBS TYPES 
       C7I L7I D7I S7I C6I L6I D6I S6I C7D L7D D7D S7D      SYS / # / OBS TYPES 
J   17 X1  C1C L1C D1C S1C C2L L2L D2L S2L C5Q L5Q D5Q S5Q  SYS / # / OBS TYPES 
       C1L L1L D1L S1L                                      SYS / # / OBS TYPES 
I    5 X1  C5A L5A D5A S5A                                  SYS / # / OBS TYPES 
SEPTENTRIO RECEIVERS OUTPUT ALIGNED CARRIER PHASES.         COMMENT             
NO FURTHER PHASE SHIFT APPLIED IN THE RINEX ENCODER.        COMMENT             
G L1C                                                       SYS / PHASE SHIFT   
G L2W                                                       SYS / PHASE SHIFT   
G L2L  0.00000                                              SYS / PHASE SHIFT   
G L5Q  0.00000                                              SYS / PHASE SHIFT   
G L1L  0.00000                                              SYS / PHASE SHIFT   
E L1C  0.00000                                              SYS / PHASE SHIFT   
E L6C  0.00000                                              SYS / PHASE SHIFT   
E L5Q  0.00000                                              SYS / PHASE SHIFT   
E L7Q  0.00000                                              SYS / PHASE SHIFT   
E L8Q  0.00000                                              SYS / PHASE SHIFT   
S L1C                                                       SYS / PHASE SHIFT   
S L5I                                                       SYS / PHASE SHIFT   
R L1C                                                       SYS / PHASE SHIFT   
R L2P  0.00000                                              SYS / PHASE SHIFT   
R L2C                                                       SYS / PHASE SHIFT   
R L3Q  0.00000                                              SYS / PHASE SHIFT   
C L1P  0.00000                                              SYS / PHASE SHIFT   
C L5P  0.00000                                              SYS / PHASE SHIFT   
C L2I                                                       SYS / PHASE SHIFT   
C L7I                                                       SYS / PHASE SHIFT   
C L6I                                                       SYS / PHASE SHIFT   
C L7D                                                       SYS / PHASE SHIFT   
J L1C                                                       SYS / PHASE SHIFT   
J L2L  0.00000                                              SYS / PHASE SHIFT   
J L5Q  0.00000                                              SYS / PHASE SHIFT   
J L1L  0.00000                                              SYS / PHASE SHIFT   
I L5A                                                       SYS / PHASE SHIFT   
  2025     1     1    11     0    0.0000000     GPS         TIME OF FIRST OBS   
 C1C    0.000 C2C    0.000 C2P    0.000                     GLONASS COD/PHS/BIS 
DBHZ                                                        SIGNAL STRENGTH UNIT
    18                                                      LEAP SECONDS        
 24 R01  1 R02 -4 R03  5 R04  6 R05  1 R06 -4 R07  5 R08  6 GLONASS SLOT / FRQ #
    R09 -2 R10 -7 R11  0 R12 -1 R13 -2 R14 -7 R15  0 R16 -1 GLONASS SLOT / FRQ #
    R17  4 R18 -3 R19  3 R20  2 R21  4 R22 -3 R23  3 R24  2 GLONASS SLOT / FRQ #
                                                            END OF HEADER       
> 2025 01 01 11 00  0.0000000  0 38
G19         1.000    21550585.229 5 113248838.61905       560.244 5        30.257                                    21550543.014 1  88245846.73301       436.763 1         2.400
G13         2.000    22646530.694 5 119008291.79905     -4365.816 5        35.100                                    22646535.234 2  92733734.80902     -3401.926 2        15.905
G14         4.000    23825762.184 4                     -4074.530 4        24.677                                                                                                    23825773.267 5                     -3174.836 5        33.012
G17         5.000    22261081.425 7 116982792.80407     -2009.149 7        45.032                                    22261084.438 5  91155429.44105     -1565.565 5        31.306    22261083.739 6  91155417.38306     -1565.462 6        36.847
G15         6.000    21409367.846 7 112507221.41307     -3574.734 7        45.395                                    21409375.257 6  87667804.33406     -2785.508 6        39.051    21409373.303 6  87667771.33206     -2785.518 6        41.981
G12         7.000    22423231.305 7 117834899.83107      2217.426 7        43.649                                    22423228.938 5  91819430.79905      1727.865 5        30.664    22423233.769 5  91819411.80605      1727.656 5        32.593
E30         9.000    25558614.765 7 134311462.02507      1376.618 7        44.128                                                                    25558618.182 7 100297499.18707      1027.989 7        43.437    25558614.080 6 102913960.30506      1054.796 6        36.975
G10        12.000                                                                                                                                                                    24418792.561 5  99990858.07505      -358.496 5        32.796
E02        13.000    23204851.032 8 121942348.22608     -1050.425 8        48.254                                                                    23204855.577 8  91060936.59308      -784.411 8        49.865    23204854.482 8  93436444.37408      -804.963 8        50.041
E25        14.000    25876591.163 6 135982386.53306     -3232.027 6        39.495                                                                    25876604.216 7 101545330.30707     -2413.504 7        42.260    25876599.937 6 104194262.95506     -2476.601 6        40.069
G24        16.000    20395220.947 7 107177754.75607       426.289 7        44.236                                    20395221.686 6  83515137.87806       332.175 6        38.574    20395224.125 6  83515040.88406       331.923 6        38.216
E08        17.000    23800333.810 6 125071583.39906     -1892.825 6        39.369                                                                    23800339.080 7  93397621.49807     -1413.464 7        47.585    23800338.236 7  95834119.41107     -1450.413 7        47.395
E07        18.000    25146529.292 6 132145927.34006       950.201 6        40.169                                                                    25146540.173 7  98680445.93307       709.555 7        45.180    25146538.146 7 101254718.45907       727.952 7        46.023
R22        22.000    22766566.540 5 121529497.10505      2439.336 5        34.857
S36        23.000    38267243.626 5 201095721.63805      -834.538 5        34.343
S23        24.000    38201659.366 5 200751128.24505      -836.914 5        34.729
R04        25.000                                                                                                                                    23222141.368 5                      2318.694 5        31.215
R20        26.000                                                                                                                                    24440382.751 4                     -3017.636 4        24.842
E03        27.000    26499255.130 4 139254524.30004     -3841.037 4        26.910                                                                    26499272.235 7 103988825.72707     -2868.181 7        44.029    26499269.890 7 106701573.57407     -2943.034 7        44.348
R13        29.000    20111207.634 6 107392745.39306       778.048 6        40.327
R21        30.000                                                                                                                                    22315996.945 3                      -728.054 3        20.738
R12        31.000    19775631.370 7 105637858.46007     -2274.892 7        47.457                                                                    19775632.530 5  82162781.80005     -1769.374 5        31.555
C10        32.000                                                                                                                                    38616778.709 6 201087691.90006     -1115.714 6        39.994    38616784.715 7 155493798.00607      -862.746 7        42.095    38616780.235 6 163400228.77906      -906.773 6        39.042
R03        33.000    20292216.546 7 108625838.45007       -45.720 7        44.229                                                                    20292210.581 6  84486770.35306       -35.505 6        40.906
C24        34.000                                                                                                                                    22885246.755 7 119169626.36307      1178.384 7        43.302                                                                    22885249.259 6  96835007.36906       957.427 6        41.256
C26        37.000                                                                                                                                    21779098.382 8 113409565.61708     -1328.580 8        50.637                                                                    21779101.187 8  92154588.37808     -1079.635 8        50.214
C29        39.000                                                                                                                                    24633363.487 3                     -1134.752 3        21.643                                                                    24633369.998 4 104231851.35204      -922.873 4        28.047
C35        40.000                                                                                                                                    24494127.690 4 127547510.10004      1710.791 4        27.078
C42        41.000                                                                                                                                    23942486.454 6 124674813.80306     -3359.969 6        40.122                                                                    23942500.115 6 101308507.08406     -2730.384 6        38.868
R02        43.000    20800940.354 6 110998029.77206     -4168.793 6        39.300                                                                    20800950.148 5  86331677.03705     -3242.635 5        34.452
C40        44.000                                                                                                                                    39408931.775 5 205212580.33705     -1714.983 5        32.156                                                                    39408904.908 4                     -1393.714 4        24.662
C33        46.000                                                                                                                                    24058361.369 6 125278358.34606      -426.697 6        41.449                                                                    24058375.509 5 101798847.77305      -347.061 5        33.006
C14        48.000                                                                                                                                    23489676.606 7 122316933.53607     -2006.521 7        42.282    23489677.086 6  94583342.79406     -1551.640 6        41.302    23489676.202 7  99392482.27307     -1630.531 7        44.764
C45        49.000                                                                                                                                    24913396.367 5 129730528.56505     -3465.967 5        32.952                                                                    24913367.938 3                     -2816.930 3        23.200
C41        50.000                                                                                                                                    26944814.452 5 140308713.99905      1818.728 5        30.302                                                                    26944817.588 4                      1477.539 4        28.995
C07        53.000                                                                                                                                    39219153.507 4                     -1470.017 4        26.467    39219146.672 5                     -1136.685 5        32.000
I02        56.000    36973772.717 6 145093029.08906      -540.120 6        40.431
I06        58.000    38330192.238 6 150415908.33606      -731.824 6        38.414
> 2025 01 01 11 00  5.0000000  0 37
G13         2.000    22650686.156 5 119030123.25405     -4366.998 5        34.886                                    22650690.073 2  92750746.29602     -3402.826 2        16.415
G14         4.000    23829640.171 4                     -4074.204 4        24.391                                                                                                    23829649.726 5                     -3175.158 5        33.180
G17         5.000    22262993.644 7 116992845.13107     -2012.029 7        45.183                                    22262997.581 5  91163262.40705     -1567.811 5        30.966    22262996.881 6  91163250.35606     -1567.577 6        36.877
G15         6.000    21412770.168 7 112525100.25307     -3577.108 7        45.427                                    21412778.090 6  87681735.88706     -2787.354 6        38.928    21412775.511 6  87681702.87506     -2787.302 6        41.900
G12         7.000    22421121.651 7 117823816.28907      2215.888 7        44.676                                    22421119.638 5  91810794.28205      1726.662 5        31.441    22421124.717 5  91810775.28905      1726.628 5        34.219
E30         9.000    25557305.271 7 134304581.35107      1375.508 7        44.743                                                                    25557308.592 7 100292361.04507      1027.109 7        43.638    25557308.356 6 102908688.09406      1053.939 6        36.522
G23        10.000    23778047.089 3                     -2804.731 3        21.476
G10        12.000                                                                                                                                                                    24419232.341 5  99992655.50505      -360.748 5        31.728
E02        13.000    23205850.866 7 121947603.98607     -1052.004 7        47.701                                                                    23205855.759 8  91064861.33308      -785.553 8        50.082    23205854.708 8  93440471.50308      -806.116 8        50.140
E25        14.000    25879666.380 6 135998547.41406     -3232.546 6        39.748                                                                    25879679.655 7 101557398.45307     -2413.798 7        42.294    25879675.348 6 104206645.92406     -2476.859 6        40.281
G24        16.000    20394816.609 7 107175628.78207       423.999 7        44.346                                    20394817.281 6  83513481.28406       330.386 6        38.342    20394819.640 6  83513384.29706       330.358 6        38.225
E08        17.000    23802136.048 6 125081052.56606     -1894.898 6        40.749                                                                    23802141.025 7  93404692.62107     -1415.084 7        47.796    23802140.255 7  95841375.00807     -1451.966 7        47.293
E07        18.000    25145627.405 6 132141179.87306       948.571 6        40.064                                                                    25145636.571 7  98676900.74707       708.334 7        45.347    25145634.536 7 101251080.79007       726.820 7        46.115
R22        22.000    22764280.178 5 121517304.19305      2437.646 5        34.843
S36        23.000    38268034.794 5 201099892.78805      -834.328 5        34.186
S23        24.000    38202459.684 5 200755313.61505      -837.081 5        35.395
R04        25.000    23219307.113 5 124338598.72115      2979.555 5        31.049                                                                    23219365.336 5                      2317.142 5        31.026
R20        26.000                                                                                                                                    24444002.976 3                     -3019.232 3        20.238
E03        27.000    26502903.988 3                     -3839.334 3        19.582                                                                    26502927.143 7 104003167.52707     -2868.773 7        44.590    26502924.837 7 106716289.52407     -2943.605 7        44.456
R13        29.000    20110477.096 6 107388859.08706       776.097 6        39.877
R12        31.000    19777761.973 8 105649236.89008     -2276.733 8        48.134                                                                    19777766.928 5  82171631.67605     -1770.932 5        31.774
C10        32.000                                                                                                                                    38617850.371 6 201093271.26606     -1116.252 6        40.019    38617856.294 7 155498112.33807      -863.115 7        42.193    38617851.754 6 163404762.48806      -907.049 6        39.096
R03        33.000    20292264.292 7 108626077.60007       -50.151 7        42.083                                                                    20292256.083 6  84486956.31506       -38.962 6        41.058
C24        34.000                                                                                                                                    22884116.502 7 119163736.87107      1177.371 7        43.886                                                                    22884118.252 6  96830221.70306       956.505 6        41.588
C26        37.000                                                                                                                                    21780374.913 8 113416211.47908     -1330.028 8        50.541                                                                    21780377.327 8  92159988.69608     -1080.738 8        50.067
C29        39.000                                                                                                                                                                                                                                                                    24634461.028 4 104236471.29104      -925.220 4        27.138
C35        40.000                                                                                                                                    24492487.284 4 127538961.04504      1708.895 4        27.449
C42        41.000                                                                                                                                    23945714.479 6 124691617.29606     -3361.594 6        41.683                                                                    23945727.598 6 101322161.30406     -2731.745 6        38.856
R02        43.000    20804851.530 6 111018881.36606     -4171.875 6        38.066                                                                    20804860.650 6  86347894.96506     -3244.753 6        36.911
C40        44.000                                                                                                                                    39410578.717 5 205221155.70905     -1715.207 5        32.132                                                                    39410550.336 4                     -1393.198 4        24.195
C33        46.000                                                                                                                                    24058773.372 6 125280498.85306      -429.561 6        40.324                                                                    24058790.733 5 101800587.05905      -349.455 5        30.106
C14        48.000                                                                                                                                    23491602.373 6 122326972.60506     -2009.175 6        39.375    23491607.506 6  94591105.63906     -1553.679 6        41.201    23491603.565 7  99400639.85307     -1632.694 7        44.773
C45        49.000                                                                                                                                    24916731.303 5 129747859.90005     -3466.604 5        32.868                                                                    24916699.887 4                     -2816.968 4        24.586
C41        50.000                                                                                                                                    26943066.172 5 140299625.95005      1816.471 5        30.898                                                                    26943069.957 4                      1476.012 4        29.706
C07        53.000                                                                                                                                    39220566.616 4                     -1470.162 4        26.323    39220561.404 5                     -1136.725 5        31.683
I02        56.000    36974461.404 6 145095729.57906      -540.259 6        40.417
I06        58.000    38331124.839 6 150419566.89806      -731.758 6        38.303
> 2025 01 01 11 00 10.0000000  0 37
G13         2.000    22654841.565 5 119051961.96605     -4368.414 5        34.786                                    22654846.285 2  92767763.42502     -3403.960 2        16.113
G14         4.000    23833514.832 3                     -4075.317 3        22.857                                                                                                    23833527.615 5                     -3175.829 5        33.359
G17         5.000    22264909.179 7 117002913.01707     -2015.115 7        44.259                                    22264913.506 4  91171107.48704     -1570.213 4        29.754    22264912.188 6  91171095.44506     -1570.127 6        36.204
G15         6.000    21416174.133 7 112542992.09107     -3579.545 7        44.543                                    21416183.137 6  87695677.56206     -2789.257 6        38.153    21416179.927 6  87695644.55306     -2789.352 6        41.216
G12         7.000    22419014.053 7 117812741.26307      2214.227 7        45.872                                    22419012.127 5  91802164.40105      1725.369 5        32.269    22419016.624 5  91802145.39605      1725.353 5        34.305
E30         9.000    25555996.328 7 134297706.99307      1374.346 7        44.927                                                                    25556000.295 7 100287227.62307      1026.311 7        43.894    25556011.504 6 102903420.62906      1053.130 6        37.800
G23        10.000    23780738.841 3                     -2804.849 3        19.821
G10        12.000    24419716.638 5 128326184.90015      -465.947 5        34.505                                    24419672.671 2  99994460.68012      -363.070 2        17.283    24419675.462 5  99994465.60705      -362.990 5        32.563
E02        13.000    23206852.701 7 121952868.60307     -1053.713 7        47.412                                                                    23206857.595 8  91068792.68908      -786.835 8        50.136    23206856.572 8  93444505.41708      -807.362 8        50.290
E25        14.000    25882742.225 6 136014711.77206     -3233.166 6        39.976                                                                    25882755.830 7 101569469.19707     -2414.227 7        42.627    25882751.545 6 104219031.56706     -2477.419 6        40.884
G24        16.000    20394414.845 7 107173515.19507       421.573 7        44.403                                    20394415.273 6  83511834.34906       328.491 6        38.108    20394417.676 6  83511737.35206       328.467 6        38.934
E08        17.000    23803940.516 7 125090533.19307     -1897.240 7        42.239                                                                    23803945.208 7  93411772.30707     -1416.658 7        47.896    23803944.562 7  95848639.39107     -1453.756 7        47.077
E07        18.000    25144726.436 6 132136441.37706       946.984 6        40.598                                                                    25144734.809 7  98673362.25807       707.131 7        45.732    25144732.675 7 101247449.99507       725.539 7        46.190
R22        22.000    22761998.528 5 121505123.24505      2434.775 5        35.348
S36        23.000    38268827.076 5 201104064.93305      -834.537 5        34.433
S23        24.000    38203250.808 5 200759499.58805      -837.115 5        35.048
R04        25.000    23216532.712 5 124323708.35005      2976.855 5        30.332                                                                    23216583.003 5                      2315.278 5        31.924
E03        27.000    26506565.410 3                     -3843.148 3        23.981                                                                    26506582.871 7 104017512.69607     -2869.283 7        44.865    26506580.485 7 106731008.92407     -2944.140 7        44.555
R13        29.000    20109751.071 6 107384983.93306       773.981 6        39.685
R21        30.000    22317801.474 5 119427042.18915      -944.151 5        30.785
R12        31.000    19779893.804 7 105660625.56507     -2278.646 7        47.931
C10        32.000                                                                                                                                    38618921.987 6 201098853.75606     -1116.865 6        40.062    38618928.053 7 155502429.08007      -863.637 7        42.282    38618923.774 6 163409298.71006      -907.584 6        39.105
R03        33.000                                                                                                                                    20292306.034 6  84487160.78906       -42.716 6        41.094
C24        34.000                                                                                                                                    22882987.470 7 119157853.27307      1176.270 7        44.268                                                                    22882988.294 6  96825440.79306       955.769 6        41.650
C26        37.000                                                                                                                                    21781652.579 8 113422865.42608     -1331.487 8        50.229                                                                    21781655.059 8  92165395.55608     -1081.960 8        49.750
C29        39.000                                                                                                                                                                                                                                                                    24635555.989 4 104241103.12604      -928.248 4        26.982
C35        40.000                                                                                                                                    24490846.367 4 127530420.16304      1706.950 4        29.621
C42        41.000                                                                                                                                    23948943.918 7 124708430.53307     -3363.451 7        43.098                                                                    23948956.898 6 101335823.40906     -2733.075 6        39.138
R02        43.000    20808764.199 6 111039748.92906     -4175.170 6        37.966                                                                    20808775.595 6  86364125.23206     -3247.354 6        37.346
C40        44.000                                                                                                                                    39412227.037 5 205229734.35505     -1715.838 5        32.066                                                                    39412197.198 4                     -1394.401 4        24.421
C33        46.000                                                                                                                                                                                                                                                                    24059206.569 4 101802338.85904      -351.627 4        28.095
C14        48.000                                                                                                                                    23493530.274 6 122337025.93306     -2011.767 6        36.888    23493537.512 6  94598879.47306     -1555.779 6        40.687    23493533.785 7  99408808.97507     -1634.956 7        44.299
C45        49.000                                                                                                                                    24920061.220 5 129765193.80705     -3466.650 5        32.940                                                                    24920029.645 4                     -2816.615 4        25.579
C41        50.000                                                                                                                                    26941322.731 5 140290546.39305      1814.939 5        30.528                                                                    26941325.247 4                      1474.905 4        29.981
C07        53.000                                                                                                                                    39221979.532 4                     -1471.285 4        26.671    39221972.675 5                     -1137.478 5        32.102
I02        56.000    36975150.502 6 145098431.84506      -540.314 6        40.262
I06        58.000    38332057.263 6 150423225.97306      -731.758 6        38.261
> 2025 01 01 11 00 15.0000000  0 38
G19         1.000    21548965.266 5 113240505.99805       550.818 5        34.000                                    21548957.918 2  88239354.19502       429.193 2        14.048
G13         2.000    22658998.712 6 119073807.57506     -4370.019 6        36.011                                    22659003.848 2  92784785.98702     -3405.201 2        17.472
G14         4.000    23837392.556 3                     -4074.773 3        21.429                                                                                                    23837405.809 5                     -3176.122 5        32.862
G17         5.000    22266826.909 6 117012996.17706     -2018.408 6        41.893                                    22266832.239 4  91178964.46304     -1572.776 4        28.815    22266829.472 5  91178952.41005     -1572.585 5        35.657
G15         6.000    21419580.997 7 112560896.57107     -3582.229 7        43.820                                    21419590.299 6  87709629.08306     -2791.344 6        36.987    21419586.587 6  87709596.06306     -2791.234 6        40.565
G12         7.000    22416908.292 7 117801674.41507      2212.413 7        45.997                                    22416906.565 5  91793540.89405      1723.963 5        33.713    22416910.464 5  91793521.90605      1723.805 5        35.300
E30         9.000    25554688.169 7 134290838.62707      1372.877 7        44.945                                                                    25554693.219 7 100282098.67607      1025.265 7        44.041    25554705.436 6 102898157.84606      1052.005 6        38.426
G23        10.000    23783424.068 4                     -2810.509 4        26.910                                                                                                    23783424.670 4                     -2189.497 4        27.820
G10        12.000    24420157.869 5 128328523.83405      -469.410 5        30.136                                    24420118.349 2  99996283.21402      -365.811 2        13.030    24420121.431 5  99996288.20405      -365.876 5        33.695
E02        13.000    23207856.231 7 121958141.71907     -1055.642 7        47.184                                                                    23207861.041 8  91072730.38908      -788.247 8        50.235    23207860.042 8  93448545.84808      -808.860 8        50.445
E25        14.000    25885819.034 6 136030879.26506     -3233.937 6        39.856                                                                    25885832.428 7 101581542.28807     -2415.030 7        42.815    25885828.464 6 104231419.61006     -2478.001 6        41.228
G24        16.000    20394015.157 7 107171413.62407       418.788 7        44.369                                    20394015.591 6  83510196.77706       326.322 6        38.141    20394017.881 6  83510099.79206       326.404 6        39.541
E08        17.000    23805746.569 7 125100024.95907     -1899.533 7        43.118                                                                    23805751.459 8  93418860.31108     -1418.498 8        48.124    23805751.122 7  95855912.29807     -1455.580 7        46.958
E07        18.000    25143825.899 6 132131711.55406       944.969 6        41.657                                                                    25143834.538 7  98669830.22807       705.677 7        45.956    25143832.433 7 101243825.83307       724.070 7        46.120
R22        22.000    22759726.606 5 121492953.82205      2432.324 5        35.157
S36        23.000    38269622.363 5 201108237.13705      -834.472 5        34.410
S23        24.000    38204048.330 5 200763685.86905      -837.609 5        34.976
R04        25.000    23213762.229 5 124308828.57005      2974.619 5        32.018
E03        27.000    26510231.215 4                     -3843.245 4        29.573                                                                    26510239.483 7 104031860.97107     -2870.041 7        45.302    26510237.037 7 106745731.51107     -2944.964 7        44.653
R13        29.000    20109028.980 6 107381119.40706       771.831 6        38.913
R21        30.000                                                                                                                                    22318625.634 4                      -737.750 4        26.371
R12        31.000    19782026.107 7 105672024.20707     -2280.793 7        46.850
C10        32.000                                                                                                                                    38619994.239 6 201104439.04306     -1117.336 6        39.889    38620000.800 7 155506748.00207      -864.114 7        42.381    38619996.404 6 163413837.21606      -908.017 6        39.378
R03        33.000    20292351.818 5 108626626.23205       -59.590 5        30.158                                                                    20292359.529 6  84487383.17906       -46.382 6        40.632
C24        34.000                                                                                                                                    22881859.160 7 119151975.24607      1174.939 7        43.882                                                                    22881859.713 6  96820664.43306       954.734 6        41.983
C26        37.000                                                                                                                                    21782931.353 8 113429527.12008     -1333.286 8        49.847                                                                    21782934.259 8  92170808.71808     -1083.238 8        49.421
C29        39.000                                                                                                                                    24636686.949 4                     -1144.185 4        27.760                                                                    24636657.464 4 104245746.58804      -929.981 4        27.126
C35        40.000                                                                                                                                    24489210.789 5 127521887.07505      1705.547 5        31.992
C42        41.000                                                                                                                                    23952175.236 7 124725253.15807     -3365.573 7        44.743                                                                    23952188.121 6 101349493.17606     -2734.676 6        40.036
R02        43.000    20812679.624 6 111060632.39706     -4178.519 6        41.032                                                                    20812690.015 6  86380367.87806     -3249.914 6        37.955
C40        44.000                                                                                                                                    39413874.605 5 205238315.92105     -1716.684 5        32.006                                                                    39413844.719 3                     -1394.214 3        23.695
C33        46.000                                                                                                                                                                                                                                                                    24059623.600 4 101804102.76604      -354.366 4        28.408
C14        48.000                                                                                                                                    23495461.221 5 122347093.16105     -2015.143 5        34.619    23495465.902 6  94606664.04906     -1558.011 6        38.544    23495466.859 7  99416989.42107     -1637.208 7        43.865
C45        49.000                                                                                                                                    24923387.232 5 129782530.11505     -3467.649 5        31.034                                                                    24923359.738 4                     -2817.458 4        26.347
C41        50.000                                                                                                                                    26939580.332 5 140281475.14505      1813.233 5        30.989                                                                    26939583.009 5                      1473.489 5        30.362
C07        53.000                                                                                                                                    39223388.218 4                     -1471.177 4        27.545    39223386.512 5                     -1137.693 5        32.042
I02        56.000    36975839.117 6 145101135.34406      -541.125 6        40.338
I06        58.000    38332989.806 6 150426885.31106      -731.929 6        38.411
> 2025 01 01 11 00 20.0000000  0 38
G19         1.000    21548442.079 5 113237759.68405       547.757 5        34.467                                    21548435.615 2  88237214.21402       426.838 2        14.619
G13         2.000    22663158.290 6 119095659.79106     -4371.137 6        36.159                                    22663162.502 2  92801813.63702     -3406.059 2        17.736
G14         4.000    23841273.764 4                     -4075.546 4        24.857                                                                                                    23841284.007 5                     -3176.415 5        32.964
G17         5.000    22268747.205 6 117023094.38506     -2021.188 6        38.907                                    22268753.691 4  91186833.16104     -1574.944 4        27.341    22268748.522 5  91186821.14805     -1575.151 5        35.786
G15         6.000    21422990.827 7 112578813.34407     -3584.603 7        44.044                                    21422999.522 5  87723590.19805     -2793.196 5        35.438    21422995.466 6  87723557.16206     -2793.217 6        39.550
G12         7.000    22414803.843 7 117790615.54907      2210.806 7        46.115                                    22414802.751 5  91784923.60505      1722.701 5        34.867    22414806.623 6  91784904.59306      1722.867 6        36.522
E30         9.000    25553382.080 7 134283975.92007      1371.858 7        45.147                                                                    25553387.193 7 100276973.94807      1024.501 7        44.134    25553398.715 6 102892899.42706      1050.999 6        38.189
G23        10.000                                                                                                                                                                    23786101.902 5                     -2191.638 5        30.377
G10        12.000    24420595.012 3                      -470.057 3        22.133                                                                                                    24420572.811 5  99998122.95605      -368.249 5        34.095
E02        13.000    23208861.237 7 121963423.01707     -1057.190 7        47.039                                                                    23208866.009 8  91076674.20308      -789.423 8        50.333    23208865.125 8  93452592.54308      -810.001 8        50.376
E25        14.000    25888896.197 6 136047049.55306     -3234.424 6        39.231                                                                    25888909.731 7 101593617.46407     -2415.222 7        43.141    25888906.019 6 104243809.78506     -2478.274 6        41.402
G24        16.000    20393617.859 7 107169323.80407       416.651 7        44.576                                    20393618.220 6  83508568.36006       324.659 6        38.186    20393620.452 6  83508471.35206       324.720 6        40.002
E08        17.000    23807554.499 7 125109527.51507     -1901.671 7        44.224                                                                    23807559.672 8  93425956.37308     -1420.072 8        48.136    23807559.641 7  95863193.46907     -1457.120 7        46.695
E07        18.000    25142927.029 7 132126990.02507       943.273 7        42.315                                                                    25142935.949 7  98666304.41007       704.466 7        46.195    25142933.828 7 101240208.03507       722.872 7        45.845
R22        22.000    22757455.799 5 121480795.69605      2430.566 5        33.114
S36        23.000    38270419.926 5 201112408.80505      -834.210 5        34.024
S23        24.000    38204850.267 5 200767871.93905      -837.294 5        35.229
R04        25.000    23210984.696 5 124293959.06615      2972.724 5        30.347                                                                    23211005.016 5                      2312.193 5        30.377
R20        26.000                                                                                                                                    24454926.015 4                     -3025.733 4        24.752
E03        27.000    26513886.230 5 139331413.20815     -3843.874 5        34.771                                                                    26513896.653 7 104046212.09807     -2870.558 7        45.506    26513894.189 7 106760457.02407     -2945.362 7        44.512
R13        29.000    20108308.000 6 107377265.31206       769.506 6        38.997
R21        30.000    22319585.816 4 119436529.00704      -953.080 4        27.509                                                                    22319521.098 5                      -741.290 5        30.234
R12        31.000    19784160.938 7 105683432.47007     -2282.688 7        47.365                                                                    19784160.363 4  82198228.13704     -1775.081 4        26.551
C10        32.000                                                                                                                                    38621067.359 6 201110026.80906     -1117.814 6        39.562    38621073.922 7 155511068.79707      -864.400 7        42.487    38621069.573 6 163418377.72006      -908.144 6        39.294
R03        33.000                                                                                                                                    20292418.079 6  84487623.45606       -49.908 6        40.827
C24        34.000                                                                                                                                    22880730.478 7 119146102.48007      1173.934 7        43.065                                                                    22880732.080 7  96815892.29807       954.052 7        42.330
C26        37.000                                                                                                                                    21784212.155 8 113436196.22408     -1334.593 8        50.008                                                                    21784215.008 8  92176227.90408     -1084.327 8        49.324
C29        39.000                                                                                                                                                                                                                                                                    24637760.205 4 104250401.41304      -931.671 4        28.332
C42        41.000                                                                                                                                    23955408.134 7 124742084.85707     -3367.342 7        46.167                                                                    23955421.157 6 101363170.29906     -2736.183 6        41.044
R02        43.000    20816599.812 7 111081531.24907     -4181.310 7        44.074                                                                    20816607.440 6  86396622.44806     -3251.992 6        38.643
C40        44.000                                                                                                                                    39415520.919 5 205246900.14405     -1716.976 5        30.762                                                                    39415495.074 3                     -1396.840 3        23.257
C33        46.000                                                                                                                                                                                                                                                                    24060043.768 4 101805878.69404      -356.798 4        25.549
C14        48.000                                                                                                                                    23497396.351 5 122357173.95405     -2017.630 5        32.737    23497400.521 5  94614459.15205     -1560.081 5        35.838    23497402.812 7  99425180.88207     -1639.284 7        43.674
C45        49.000                                                                                                                                    24926713.272 5 129799868.47305     -3467.790 5        30.951                                                                    24926688.839 4                     -2818.024 4        26.599
C41        50.000                                                                                                                                    26937838.392 5 140272411.88505      1811.675 5        30.453                                                                    26937842.161 5                      1472.320 5        30.679
C07        53.000                                                                                                                                    39224801.908 4                     -1472.086 4        27.138    39224800.202 5                     -1138.087 5        32.647
I02        56.000    36976527.442 6 145103839.98506      -541.158 6        40.324
I06        58.000    38333921.850 6 150430544.66106      -731.911 6        38.237
> 2025 01 01 11 00 25.0000000  0 38
G19         1.000    21547923.860 5 113235028.36405       544.561 5        33.778                                    21547916.218 2  88235085.86202       424.320 2        12.727
G13         2.000    22667318.685 6 119117518.19906     -4372.409 6        37.637                                    22667322.112 3  92818846.16203     -3407.061 3        18.507
G14         4.000    23845150.361 4                     -4076.662 4        25.308                                                                                                    23845163.461 5                     -3176.798 5        33.216
G17         5.000    22270672.488 6 117033207.07006     -2024.275 6        36.507                                    22270677.531 4  91194713.14504     -1577.357 4        26.240    22270673.444 6  91194701.13306     -1577.427 6        36.034
G15         6.000    21426403.540 7 112596742.00607     -3587.348 7        43.803                                    21426410.704 5  87737560.58905     -2795.336 5        34.076    21426406.789 6  87737527.52906     -2795.059 6        38.183
G12         7.000    22412700.638 7 117779564.17107      2209.255 7        46.402                                    22412700.592 5  91776312.15405      1721.496 5        35.957    22412704.094 6  91776293.16706      1721.447 6        37.236
E30         9.000    25552076.651 7 134277118.49707      1370.630 7        45.111                                                                    25552082.392 7 100271853.17607      1023.577 7        44.057    25552093.574 6 102887645.03506      1050.315 6        37.966
G23        10.000                                                                                                                                                                    23788776.357 5                     -2193.226 5        30.226
G10        12.000    24421036.424 5                      -475.563 5        32.204                                                                                                    24421026.047 5  99999969.61905      -370.643 5        33.964
E02        13.000    23209867.656 7 121968712.12107     -1058.905 7        46.553                                                                    23209872.455 8  91080623.84508      -790.695 8        50.427    23209871.600 8  93456645.22808      -811.345 8        50.509
E25        14.000    25891974.278 6 136063222.29806     -3235.002 6        38.057                                                                    25891987.464 7 101605694.46907     -2415.773 7        43.336    25891983.840 6 104256201.84606     -2478.650 6        41.712
G24        16.000    20393221.972 7 107167245.30407       414.307 7        45.341                                    20393223.049 6  83506948.77206       322.836 6        38.724    20393224.644 6  83506851.77206       322.771 6        40.162
E08        17.000    23809364.338 7 125119040.50007     -1903.842 7        44.591                                                                    23809369.935 8  93433060.22008     -1421.695 8        48.109    23809370.158 7  95870482.63407     -1458.837 7        46.634
E07        18.000    25142030.135 7 132122276.45507       941.646 7        42.834                                                                    25142038.879 7  98662784.53207       703.190 7        46.375    25142036.729 7 101236596.34707       721.498 7        45.573
R22        22.000    22755175.833 4 121468648.47704      2428.352 4        29.536
S36        23.000    38271210.536 5 201116580.09805      -834.426 5        34.586
S23        24.000    38205642.692 5 200772057.56005      -837.463 5        34.733
R04        25.000    23208201.077 5 124279099.39705      2970.640 5        33.940                                                                    23208233.719 5                      2311.072 5        30.408
R20        26.000                                                                                                                                    24458568.017 4                     -3027.195 4        25.789
E03        27.000    26517542.265 6 139350634.96106     -3845.213 6        37.214                                                                    26517554.487 7 104060565.82107     -2871.201 7        45.622    26517551.922 7 106775185.19407     -2946.170 7        44.509
R13        29.000    20107589.218 6 107373421.09206       767.590 6        39.961
R21        30.000                                                                                                                                    22320420.172 5                      -744.838 5        33.575
R12        31.000    19786299.567 7 105694849.96307     -2284.704 7        47.209                                                                    19786304.497 5  82207108.45905     -1777.284 5        32.527
C10        32.000                                                                                                                                    38622140.918 6 201115616.68506     -1118.393 6        39.685    38622147.365 7 155515391.25707      -864.852 7        42.658    38622143.107 6 163422919.96606      -908.570 6        39.114
R03        33.000    20292479.227 5 108627266.75805       -68.932 5        34.862                                                                    20292480.245 6  84487881.22906       -53.487 6        40.398
C24        34.000                                                                                                                                    22879602.497 7 119140234.59507      1172.812 7        42.489                                                                    22879605.278 7  96811124.16507       953.036 7        42.235
C26        37.000                                                                                                                                    21785494.236 8 113442872.38808     -1336.228 8        50.057                                                                    21785497.084 8  92181652.83608     -1085.675 8        49.108
C29        39.000                                                                                                                                                                                                                                                                    24638863.570 4 104255067.35004      -934.387 4        28.332
C35        40.000                                                                                                                                    24485956.422 6 127504843.26806      1702.681 6        36.866                                                                    24485943.072 5 103608039.03715      1383.884 5        34.590
C42        41.000                                                                                                                                    23958641.506 7 124758925.25107     -3369.187 7        47.083                                                                    23958655.672 6 101376854.48606     -2737.708 6        41.807
R02        43.000    20820520.995 7 111102445.13207     -4184.556 7        42.404                                                                    20820528.837 6  86412888.76306     -3254.617 6        38.099
C40        44.000                                                                                                                                    39417171.296 5 205255486.52805     -1717.441 5        30.536                                                                    39417142.420 3                     -1396.154 3        23.924
C14        48.000                                                                                                                                    23499336.822 4 122367267.95604     -2020.279 4        29.763    23499339.464 5  94622264.46405     -1562.099 5        35.524    23499341.204 7  99433383.08807     -1641.618 7        43.611
C45        49.000                                                                                                                                    24930047.111 5 129817208.48405     -3468.348 5        31.698                                                                    24930018.333 4                     -2817.810 4        26.012
C41        50.000                                                                                                                                    26936093.817 5 140263356.13805      1810.296 5        30.423                                                                    26936103.925 5                      1471.041 5        30.725
C07        53.000                                                                                                                                    39226217.884 4                     -1471.691 4        26.898    39226214.000 5                     -1138.367 5        32.210
I02        56.000    36977217.510 6 145106545.66706      -541.454 6        40.367
I06        58.000    38334854.833 6 150434203.75506      -732.032 6        38.231
> 2025 01 01 11 00 30.0000000  0 37
G13         2.000    22671480.175 6 119139383.10006     -4373.789 6        39.541                                    22671482.917 3  92835883.72303     -3408.154 3        18.836
G14         4.000    23849031.175 4                     -4077.664 4        26.994                                                                                                    23849044.034 5                     -3177.110 5        33.407
G17         5.000    22272597.531 5 117043334.47105     -2027.312 5        32.713                                    22272603.923 3  91202604.57403     -1579.715 3        23.638    22272601.333 5  91202592.57605     -1579.882 5        35.752
G15         6.000    21429817.517 7 112614682.84107     -3589.783 7        43.005                                    21429824.108 5  87751540.46405     -2797.236 5        32.593    21429820.626 6  87751507.40606     -2796.929 6        36.938
G12         7.000    22410599.465 7 117768520.56907      2207.639 7        46.799                                    22410599.900 6  91767706.76606      1720.238 6        36.389    22410601.637 6  91767687.76006      1720.424 6        37.009
E30         9.000    25550772.061 7 134270266.66207      1369.442 7        44.945                                                                    25550778.562 7 100266736.58007      1022.536 7        44.361    25550789.751 6 102882394.92906      1049.468 6        37.157
