     3.04           OBSERVATION DATA    M                   RINEX VERSION / TYPE
ssrcrin-15.6.1x                         20250101 160000 UTC PGM / RUN BY / DATE 
(00000000023479385599111004) Septentrio proprietary         COMMENT             
ract                                                        MARKER NAME         
01                                                          MARKER NUMBER       
geodetic                                                    MARKER TYPE         
NFB                 CLIMERS@TUW                             OBSERVER / AGENCY   
3296359             SEPT ASTERX SB3 PROB4.14.4              REC # / TYPE / VERS 
Unknown             Unknown                                 ANT # / TYPE        
  4127447.9318  1206915.9144  4695542.6955                  APPROX POSITION XYZ 
        0.0000        0.0000        0.0000                  ANTENNA: DELTA H/E/N
G   23 X1  C1C L1C D1C S1C C1W S1W C2W L2W D2W S2W C2L L2L  SYS / # / OBS TYPES 
       D2L S2L C5Q L5Q D5Q S5Q C1L L1L D1L S1L              SYS / # / OBS TYPES 
E   21 X1  C1C L1C D1C S1C C6C L6C D6C S6C C5Q L5Q D5Q S5Q  SYS / # / OBS TYPES 
       C7Q L7Q D7Q S7Q C8Q L8Q D8Q S8Q                      SYS / # / OBS TYPES 
S    9 X1  C1C L1C D1C S1C C5I L5I D5I S5I                  SYS / # / OBS TYPES 
R   17 X1  C1C L1C D1C S1C C2P L2P D2P S2P C2C L2C D2C S2C  SYS / # / OBS TYPES 
       C3Q L3Q D3Q S3Q                                      SYS / # / OBS TYPES 
C   25 X1  C1P L1P D1P S1P C5P L5P D5P S5P C2I L2I D2I S2I  SYS / # / OBS TYPES 
       C7I L7I D7I S7I C6I L6I D6I S6I C7D L7D D7D S7D      SYS / # / OBS TYPES 
J   17 X1  C1C L1C D1C S1C C2L L2L D2L S2L C5Q L5Q D5Q S5Q  SYS / # / OBS TYPES 
       C1L L1L D1L S1L                                      SYS / # / OBS TYPES 
I    5 X1  C5A L5A D5A S5A                                  SYS / # / OBS TYPES 
SEPTENTRIO RECEIVERS OUTPUT ALIGNED CARRIER PHASES.         COMMENT             
NO FURTHER PHASE SHIFT APPLIED IN THE RINEX ENCODER.        COMMENT             
G L1C                                                       SYS / PHASE SHIFT   
G L2W                                                       SYS / PHASE SHIFT   
G L2L  0.00000                                              SYS / PHASE SHIFT   
G L5Q  0.00000                                              SYS / PHASE SHIFT   
G L1L  0.00000                                              SYS / PHASE SHIFT   
E L1C  0.00000                                              SYS / PHASE SHIFT   
E L6C  0.00000                                              SYS / PHASE SHIFT   
E L5Q  0.00000                                              SYS / PHASE SHIFT   
E L7Q  0.00000                                              SYS / PHASE SHIFT   
E L8Q  0.00000                                              SYS / PHASE SHIFT   
S L1C                                                       SYS / PHASE SHIFT   
S L5I                                                       SYS / PHASE SHIFT   
R L1C                                                       SYS / PHASE SHIFT   
R L2P  0.00000                                              SYS / PHASE SHIFT   
R L2C                                                       SYS / PHASE SHIFT   
R L3Q  0.00000                                              SYS / PHASE SHIFT   
C L1P  0.00000                                              SYS / PHASE SHIFT   
C L5P  0.00000                                              SYS / PHASE SHIFT   
C L2I                                                       SYS / PHASE SHIFT   
C L7I                                                       SYS / PHASE SHIFT   
C L6I                                                       SYS / PHASE SHIFT   
C L7D                                                       SYS / PHASE SHIFT   
J L1C                                                       SYS / PHASE SHIFT   
J L2L  0.00000                                              SYS / PHASE SHIFT   
J L5Q  0.00000                                              SYS / PHASE SHIFT   
J L1L  0.00000                                              SYS / PHASE SHIFT   
I L5A                                                       SYS / PHASE SHIFT   
  2025     1     1    16     0    0.0000000     GPS         TIME OF FIRST OBS   
 C1C    0.000 C2C    0.000 C2P    0.000                     GLONASS COD/PHS/BIS 
DBHZ                                                        SIGNAL STRENGTH UNIT
    18                                                      LEAP SECONDS        
 24 R01  1 R02 -4 R03  5 R04  6 R05  1 R06 -4 R07  5 R08  6 GLONASS SLOT / FRQ #
    R09 -2 R10 -7 R11  0 R12 -1 R13 -2 R14 -7 R15  0 R16 -1 GLONASS SLOT / FRQ #
    R17  4 R18 -3 R19  3 R20  2 R21  4 R22 -3 R23  3 R24  2 GLONASS SLOT / FRQ #
                                                            END OF HEADER       
> 2025 01 01 16 00  0.0000000  0 42
G18         1.000                                                                                                                                                                    22791254.720 6  93326548.50506      1937.027 6        39.144
G25         3.000    20814722.050 7 109382463.01407     -3097.437 7        44.161                                    20814723.249 6  85233033.34806     -2413.593 6        40.660    20814724.595 6  85232890.34806     -2413.643 6        41.774
G31         5.000    21705611.511 7 114063759.49907         0.946 7        46.972                                    21705611.420 6  88880859.50206         0.733 6        40.095    21705613.978 6  88880855.50906         0.797 6        41.538
G28         6.000    21382770.168 6 112367236.29806     -1790.585 6        40.532                                    21382769.724 2  87558896.97902     -1395.210 2        16.755    21382766.344 6  87558898.92606     -1395.288 6        38.081
G12         7.000    24191252.164 5                     -4283.491 5        30.264
G29         8.000    20307990.703 8 106719319.11308     -1107.884 8        49.289                                    20307985.560 7  83158102.36707      -863.292 7        44.939    20307988.262 7  83157904.38207      -863.360 7        42.174
E30         9.000    25122455.126 7 132019398.05407     -2755.094 7        42.745                                                                    25122469.161 6  98586005.59106     -2057.312 6        36.904    25122454.331 6 101157816.64006     -2110.853 6        39.348
E15        10.000    24026721.216 8 126261307.99308       748.978 8        48.706                                                                    24026724.780 8  94286108.90208       559.320 8        48.730    24026722.485 7  96745690.03307       573.827 7        47.463
G05        11.000    23806815.153 5                      1511.497 5        31.381
E34        12.000    24835931.677 6 130513736.57006     -2193.468 6        41.139                                                                    24835933.996 6  97461628.96206     -1638.006 6        39.829    24835946.173 5 100004085.59105     -1680.659 5        35.838
G04        13.000                                                                                                                                                                    25158267.712 3                      -138.900 3        22.876
E19        14.000                                                                                                                                    27117955.686 4                     -1689.928 4        26.910    27117934.290 3                     -1732.171 3        22.343
E27        15.000    23397343.429 7 122953941.67007      -390.309 7        45.384                                                                    23397346.235 8  91816283.65208      -291.452 8        50.073    23397346.300 8  94211601.92708      -299.078 8        49.617
E13        16.000    27139659.744 4 142619882.92704      2414.983 4        24.090                                                                    27139666.033 5 106501971.10305      1803.594 5        32.695    27139664.218 5 109280227.55105      1850.204 5        35.286
R17        17.000    19233351.456 8 102921624.99508       355.944 8        48.196                                                                    19233353.686 6  80050163.47306       276.950 6        37.391
E29        19.000                                                                                                                                    28097743.438 4 110261588.10404     -2597.803 4        28.445    28097722.517 4 113137950.31004     -2665.441 4        24.857
R15        20.000    19091177.682 8 102017765.59208      -341.876 8        52.611                                                                    19091178.737 6  79347211.02706      -265.992 6        41.232
R24        21.000    20523436.619 8 109748063.00708     -3772.550 8        50.814                                                                    20523435.119 6  85359650.17706     -2934.170 6        41.654
E21        22.000    26375876.729 6 138606432.33006      1563.011 6        37.463                                                                    26375884.710 6 103504721.90706      1167.217 6        36.926    26375920.306 5                      1197.774 5        33.036
S36        23.000    38171135.382 6 200590508.50106      -853.007 6        36.775
S23        24.000    38120124.315 6 200322571.14806      -857.062 6        37.040
G26        25.000    22681367.533 5 119191311.87605      2164.052 5        30.906                                    22681355.336 2  92876433.95502      1686.201 2        14.333    22681355.403 5                      1685.944 5        31.630
C34        28.000                                                                                                                                    21355261.505 7 111202928.41907     -1210.746 7        46.916                                                                    21355263.036 7  90361262.19607      -983.895 7        44.418
R18        30.000                                                                                                                                    22104921.030 5  91775918.83505      2410.093 5        30.174
R16        33.000    21958381.666 6 117297649.55506      2907.141 6        38.949                                                                    21958381.880 7  91231593.06607      2261.218 7        42.284
C24        34.000                                                                                                                                    25016335.067 4                     -4151.170 4        29.270                                                                    25016324.618 5 105852204.25805     -3373.193 5        35.133
R14        35.000                                                                                                                                    20875783.138 7  86550907.07707     -3166.233 7        43.238
C05        36.000                                                                                                                                                                                                    39374528.845 5                      -616.511 5        30.332
S21        38.000    38398906.867 5 201787630.14705      -853.693 5        34.914
C44        39.000                                                                                                                                                                                                                                                                    24305076.990 3 102842692.12103     -3005.165 3        22.990
R07        40.000                                                                                                                                    23729414.793 4                     -1026.960 4        25.955
C25        41.000                                                                                                                                    21705341.340 8 113025425.25008     -2150.502 8        51.482                                                                    21705341.651 7  91842485.49707     -1747.531 7        45.090
C43        42.000                                                                                                                                    22840615.972 7 118937144.44607      1444.004 7        45.943                                                                    22840618.016 7  96646198.82507      1173.425 7        43.594
C12        43.000                                                                                                                                    22741491.510 7 118421105.97507     -2811.325 7        45.068    22741488.378 8  91570672.87608     -2173.902 8        50.483    22741486.428 7  96226773.67407     -2284.442 7        47.127
C11        44.000                                                                                                                                    21723966.893 7 113122418.42407       322.314 7        44.193    21723964.396 5  87473506.60605       249.291 5        34.062    21723966.968 8  91921311.31108       261.888 8        48.080
C13        45.000                                                                                                                                    38736492.242 5 201711108.60105       666.691 5        31.977    38736496.873 6 155975875.85106       515.677 6        36.605    38736495.081 6 163906812.41406       541.768 6        36.163
C08        46.000                                                                                                                                    38533919.931 6 200656240.48206       559.998 6        38.120    38533915.918 5 155160046.39205       432.964 5        34.429    38533912.301 5 163049630.39505       455.061 5        34.890
C37        48.000                                                                                                                                    27340337.460 5 142368311.47305      2411.620 5        30.891
C38        49.000                                                                                                                                    38828155.841 6 202188367.02106       -57.717 6        39.649                                                                    38828148.692 5 164294624.24805       -47.092 5        34.467
C23        55.000                                                                                                                                    23134917.612 7 120469566.47907      1018.208 7        43.283                                                                    23134921.722 6  97891431.56206       827.378 6        36.242
I02        57.000    37831008.094 5 148457049.71605     -1067.978 5        33.096
I06        58.000    38652701.259 5 151681551.93605      -681.524 5        34.352
> 2025 01 01 16 00  5.0000000  0 41
G18         1.000    22788894.843 6 119756416.70616      2484.322 6        37.425                                    22788886.302 1  93316706.66011      1935.821 1        10.444    22788890.820 6  93316866.67206      1935.518 6        39.985
G25         3.000    20817669.697 7 109397955.32307     -3099.532 7        43.289                                    20817671.287 6  85245105.29306     -2415.228 6        40.002    20817671.973 6  85244962.28806     -2415.281 6        41.182
G11         4.000    24285074.665 3                     -4003.026 3        23.619
G31         5.000    21705613.022 7 114063763.37807        -2.492 7        47.389                                    21705612.193 6  88880862.55006        -1.950 6        39.856    21705614.344 6  88880858.56606        -1.821 6        41.464
G28         6.000    21384475.896 6 112376198.23006     -1794.003 6        37.977                                    21384474.700 2  87565880.30802     -1397.907 2        15.286    21384471.252 6  87565882.25106     -1397.885 6        37.323
G12         7.000    24195332.390 5                     -4284.119 5        31.977
G29         8.000    20309045.704 8 106724864.43208     -1110.279 8        48.830                                    20309041.297 7  83162423.41907      -865.156 7        45.135    20309043.656 7  83162225.43707      -865.098 7        42.726
E30         9.000    25125077.034 7 132033176.21607     -2756.353 7        42.298                                                                                                                                    25125075.543 6 101168373.95006     -2112.038 6        38.258
E15        10.000    24026009.740 8 126257568.77908       746.692 8        49.289                                                                    24026013.198 8  94283316.66908       557.599 8        48.633    24026010.739 7  96742824.95007       572.162 7        47.255
G05        11.000    23805375.862 5                      1509.347 5        30.649
E34        12.000    24838019.582 6 130524709.16006     -2195.728 6        41.640                                                                    24838021.693 6  97469822.80406     -1639.716 6        38.754    24838032.081 5 100012493.16805     -1682.585 5        35.076
G04        13.000    25158479.803 4                      -179.550 4        25.699                                                                                                    25158442.606 4                      -140.148 4        26.144
E19        14.000                                                                                                                                    27120108.320 3                     -1691.111 3        23.867    27120091.732 4                     -1734.380 4        24.165
E27        15.000    23397715.781 7 122955896.73707      -391.799 7        44.900                                                                    23397718.309 8  91817743.61708      -292.530 8        49.964    23397718.282 8  94213099.97808      -300.181 8        49.782
E13        16.000    27137359.757 3                      2413.185 3        21.381                                                                    27137369.374 5 106492955.70805      1802.728 5        32.719    27137366.861 5 109270976.90205      1850.061 5        34.938
R17        17.000    19233021.157 8 102919854.88608       352.053 8        48.963                                                                    19233023.833 6  80048786.72606       273.737 6        37.009
E29        19.000                                                                                                                                    28101053.162 4 110274578.07304     -2598.272 4        27.425    28101032.154 3 113151279.16803     -2666.627 3        23.200
R15        20.000    19091499.194 8 102019484.38408      -345.643 8        52.397                                                                    19091500.116 6  79348547.88806      -268.877 6        40.415
R24        21.000    20526964.973 8 109766931.99408     -3775.077 8        50.654                                                                    20526963.332 6  85374326.07706     -2936.345 6        40.348
E21        22.000    26374391.523 6 138598617.71406      1562.510 6        38.550                                                                    26374397.510 6 103498886.39806      1166.837 6        37.732    26374427.151 5                      1197.490 5        33.395
S36        23.000    38171948.064 6 200594774.02406      -852.988 6        36.401
S23        24.000    38120935.968 6 200326856.78706      -857.104 6        37.089
G26        25.000    22679315.676 4 119180496.86504      2162.303 4        29.810                                    22679296.708 2  92868006.87202      1684.818 2        13.818    22679297.639 5                      1685.242 5        30.415
C34        28.000                                                                                                                                    21356425.714 7 111208987.83107     -1212.963 7        47.317                                                                    21356426.641 7  90366185.99307      -985.754 7        44.104
R16        33.000    21955665.644 6 117283116.28606      2905.908 6        40.410                                                                    21955661.685 7  91220289.44107      2260.169 7        42.631
C24        34.000                                                                                                                                    25020319.479 5                     -4151.740 5        30.438                                                                    25020310.948 5 105869071.90405     -3374.141 5        34.457
R14        35.000    20879648.903 6 111300569.30316     -4073.425 6        38.279                                                                    20879601.743 7  86566743.42607     -3168.241 7        42.273
C05        36.000                                                                                                                                                                                                    39375295.809 5                      -616.791 5        30.325
S21        38.000    38399716.558 5 201791897.97105      -853.502 5        34.776
C44        39.000                                                                                                                                    24308639.229 5                     -3698.931 5        33.653                                                                    24308629.254 3                     -3006.886 3        20.286
C25        41.000                                                                                                                                    21707407.180 8 113036183.98208     -2153.001 8        51.710                                                                    21707407.700 7  91851227.86007     -1749.544 7        45.315
C43        42.000                                                                                                                                    22839230.824 7 118929929.08607      1442.241 7        46.240                                                                    22839232.665 7  96640335.80507      1171.634 7        44.244
C12        43.000                                                                                                                                    22744191.110 7 118435166.95007     -2813.093 7        45.114    22744188.698 8  91581545.74808     -2175.295 8        50.812    22744186.649 7  96238199.40407     -2286.006 7        47.254
C11        44.000                                                                                                                                    21723659.352 7 113120812.73007       319.939 7        44.615    21723656.744 5  87472265.01405       247.305 5        35.700    21723658.494 7  91920006.58307       259.836 7        47.590
C13        45.000                                                                                                                                    38735854.403 5 201707776.27605       665.917 5        33.072    38735856.399 6 155973299.11706       515.105 6        36.125    38735854.840 5 163904104.68705       541.296 5        35.719
C08        46.000                                                                                                                                    38533382.364 6 200653443.91306       558.715 6        38.126    38533378.393 5 155157883.89905       432.264 5        34.919    38533375.372 5 163047357.96505       454.069 5        34.976
C37        48.000                                                                                                                                    27338021.609 4 142356254.57404      2411.227 4        29.185
C38        49.000                                                                                                                                    38828211.208 6 202188658.43306       -58.862 6        40.083                                                                    38828204.534 5 164294861.06805       -48.035 5        34.538
C23        55.000                                                                                                                                    23133940.778 7 120464480.78007      1016.131 7        44.305                                                                    23133942.250 6  97887299.01006       825.486 6        37.459
I02        57.000    37832369.200 5 148462391.42105     -1068.548 5        32.958
I06        58.000    38653569.248 5 151684958.73705      -681.308 5        34.167
> 2025 01 01 16 00 10.0000000  0 43
G18         1.000    22786526.670 6 119743998.99706      2482.900 6        39.586                                    22786523.748 2  93307030.60202      1934.719 2        16.377    22786529.829 6  93307190.62206      1934.689 6        41.294
G20         2.000    23558156.005 4                      -725.202 4        25.444
G25         3.000    20820619.807 7 109413457.95507     -3101.407 7        42.747                                    20820621.109 6  85257185.28306     -2416.688 6        38.886    20820621.596 6  85257042.26506     -2416.704 6        40.050
G11         4.000                                                                                                                                                                    24288856.985 3                     -3121.687 3        20.524
G31         5.000    21705617.194 7 114063784.05207        -5.771 7        47.314                                    21705616.289 6  88880878.69006        -4.504 6        39.480    21705617.425 6  88880874.71006        -4.418 6        41.092
G28         6.000    21386187.248 5 112385176.73905     -1797.276 5        34.257                                    21386182.999 2  87572876.60702     -1400.423 2        13.697    21386179.969 6  87572878.52206     -1400.437 6        37.089
G12         7.000    24199409.361 5                     -4284.841 5        32.677
G29         8.000    20310102.668 8 106730420.92408     -1112.352 8        48.442                                    20310099.216 7  83166753.18007      -866.772 7        45.410    20310100.809 7  83166555.17607      -866.783 7        43.659
E30         9.000    25127699.810 6 132046959.78906     -2757.185 6        41.650                                                                    25127694.824 6  98606587.31706     -2058.926 6        37.618    25127697.962 6 101178935.38706     -2112.397 6        37.270
E15        10.000    24025300.074 8 126253840.43008       744.668 8        49.657                                                                    24025303.570 8  94280532.54308       556.084 8        48.663    24025301.196 7  96739968.19707       570.542 7        47.103
G05        11.000    23803939.112 4                      1507.503 4        28.000
E34        12.000    24840109.758 6 130535692.42506     -2197.701 6        41.340                                                                    24840111.440 6  97478024.61606     -1640.986 6        37.792    24840116.244 5 100020908.90405     -1683.886 5        34.643
G04        13.000    25158651.781 4                      -182.625 4        27.748                                                                                                    25158617.634 4                      -142.435 4        29.043
E19        14.000                                                                                                                                    27122259.792 3                     -1691.847 3        22.133    27122250.810 4                     -1737.159 4        24.571
E27        15.000    23398089.149 7 122957858.60507      -392.941 7        44.457                                                                    23398091.625 8  91819208.67008      -293.495 8        50.084    23398091.451 8  94214603.24208      -301.115 8        49.935
E13        16.000    27135060.860 3                      2412.696 3        19.194                                                                    27135072.487 5 106483941.91605      1802.597 5        32.976    27135069.438 5 109261727.96605      1849.732 5        34.500
R17        17.000    19232693.347 8 102918103.96908       348.338 8        48.604                                                                    19232697.248 6  80047424.90906       270.878 6        37.187
E29        19.000                                                                                                                                    28104363.667 4 110287569.60504     -2598.316 4        26.611    28104343.239 3 113164609.50003     -2664.902 3        23.048
R15        20.000    19091823.452 8 102021221.29608      -349.173 8        52.099                                                                    19091825.363 6  79349898.85206      -271.617 6        40.141
R24        21.000    20530495.032 8 109785813.32308     -3777.425 8        50.592                                                                    20530493.785 6  85389011.56306     -2938.084 6        38.655
E21        22.000    26372906.482 6 138590804.78706      1562.450 6        38.438                                                                    26372910.988 6 103493052.14006      1166.925 6        38.486    26372938.490 5 106192896.86015      1197.167 5        34.843
S36        23.000    38172759.940 6 200599038.99406      -852.970 6        36.446
S23        24.000    38121752.982 6 200331142.42606      -856.911 6        37.142
G26        25.000    22677266.737 5 119169687.35205      2161.635 5        33.952                                    22677239.212 2  92859584.08502      1684.360 2        12.667    22677240.446 4                      1683.899 4        28.237
C34        28.000                                                                                                                                    21357591.892 8 111215058.37708     -1215.189 8        48.049                                                                    21357592.283 7  90371118.79507      -987.331 7        43.674
R16        33.000    21952947.784 6 117268588.68006      2905.125 6        40.212                                                                    21952942.791 7  91208990.20907      2259.490 7        43.312
C24        34.000                                                                                                                                    25024306.534 5                     -4152.650 5        30.483                                                                    25024297.608 5 105885942.26905     -3374.590 5        32.892
R14        35.000                                                                                                                                    20883423.389 6  86582589.25806     -3170.027 6        41.159
C05        36.000                                                                                                                                                                                                    39376062.249 5                      -616.565 5        30.113
S21        38.000    38400532.173 5 201796165.55505      -853.573 5        34.948
C44        39.000                                                                                                                                    24312189.970 5                     -3699.857 5        33.856                                                                    24312190.513 3                     -3005.098 3        21.476
R07        40.000    23731873.006 5                     -1329.058 5        33.880
C25        41.000                                                                                                                                    21709475.303 8 113046954.81008     -2155.310 8        51.660                                                                    21709476.009 7  91859980.02207     -1751.328 7        45.279
C43        42.000                                                                                                                                    22837846.818 7 118922722.02507      1440.632 7        46.012                                                                    22837848.891 7  96634479.46907      1170.679 7        44.668
C12        43.000                                                                                                                                    22746892.772 7 118449236.07807     -2814.539 7        44.909    22746890.489 8  91592424.91908     -2176.411 8        50.720    22746888.443 7  96249631.71007     -2287.066 7        47.341
C11        44.000                                                                                                                                    21723354.134 7 113119218.23507       317.792 7        45.017    21723352.584 6  87471032.11206       245.644 6        38.544    21723352.278 7  91918710.90707       258.251 7        47.108
C13        45.000                                                                                                                                    38735216.425 5 201704448.40805       665.186 5        34.424    38735216.898 5 155970725.84205       514.177 5        35.676    38735215.506 6 163901400.51906       540.755 6        36.042
C08        46.000                                                                                                                                    38532846.127 6 200650652.52806       557.740 6        37.410    38532843.412 5 155155725.46705       431.254 5        35.724    38532839.398 5 163045089.74005       453.162 5        35.114
C37        48.000                                                                                                                                    27335708.348 4 142344198.54804      2411.851 4        28.853
C38        49.000                                                                                                                                    38828267.662 6 202188955.16406       -59.711 6        40.298                                                                    38828261.893 5 164295102.19305       -48.732 5        34.629
C23        55.000                                                                                                                                    23132965.730 7 120459404.85507      1014.196 7        44.471                                                                    23132966.296 6  97883174.35506       824.228 6        38.177
I02        57.000    37833730.327 5 148467733.70405     -1068.314 5        32.802
I06        58.000    38654437.534 5 151688365.38805      -681.185 5        34.067
> 2025 01 01 16 00 15.0000000  0 42
G18         1.000    22784163.891 6 119731588.49206      2481.171 6        40.822                                    22784163.227 3  93297360.13903      1933.375 3        19.224    22784169.002 6  93297520.16506      1933.264 6        41.623
G25         3.000    20823571.947 7 109428970.63307     -3103.748 7        43.050                                    20823572.644 6  85269273.09106     -2418.511 6        37.221    20823572.856 6  85269130.05906     -2418.409 6        38.946
G11         4.000                                                                                                                                                                    24292671.597 3                     -3122.239 3        19.672
G31         5.000    21705623.244 7 114063821.25007        -9.413 7        46.397                                    21705623.663 6  88880907.70406        -7.339 6        38.751    21705624.177 6  88880903.72406        -7.355 6        40.436
G28         6.000                                                                                                                                                                    21387891.485 6  87579887.46506     -1403.297 6        37.210
G12         7.000    24203483.639 5                     -4285.608 5        32.383                                                                                                    24203509.783 3                     -3337.986 3        22.286
G29         8.000    20311161.763 7 106735988.25707     -1114.839 7        47.767                                    20311159.187 7  83171091.38707      -868.707 7        45.248    20311160.456 7  83170893.38707      -868.674 7        44.441
E30         9.000    25130323.385 6 132060748.47306     -2758.541 6        41.974                                                                    25130323.304 6  98616884.07306     -2059.931 6        38.769    25130322.332 6 101189500.77806     -2113.961 6        36.669
E15        10.000    24024592.712 8 126250122.63708       742.200 8        50.148                                                                    24024595.990 8  94277756.31208       554.238 8        48.634    24024593.671 7  96737119.53407       568.709 7        46.966
G05        11.000    23802505.376 4                      1504.897 4        27.509
E34        12.000    24842201.704 6 130546686.04406     -2199.961 6        41.473                                                                    24842203.238 6  97486234.17106     -1643.033 6        36.454    24842203.023 5 100029332.57305     -1685.949 5        33.455
G04        13.000    25158826.913 4                      -185.596 4        28.569                                                                                                    25158794.107 5                      -145.145 5        30.045
E19        14.000                                                                                                                                    27124414.573 3                     -1697.664 3        20.357    27124414.937 4                     -1738.203 4        25.699
E27        15.000    23398463.686 7 122959826.98307      -394.588 7        44.001                                                                    23398466.268 8  91820678.56808      -294.711 8        50.211    23398465.928 8  94216111.49608      -302.397 8        50.127
E13        16.000                                                                                                                                    27132775.783 5 106474929.54105      1801.925 5        32.707    27132772.767 5 109252480.47905      1849.161 5        34.067
R17        17.000    19232368.999 8 102916372.03508       344.197 8        48.446                                                                    19232372.524 6  80046077.90206       267.725 6        38.057
E29        19.000                                                                                                                                    28107673.452 4 110300562.57304     -2599.157 4        26.383
R15        20.000    19092151.572 8 102022976.28608      -353.077 8        51.606                                                                    19092154.216 6  79351263.86206      -274.681 6        40.837
R24        21.000    20534028.359 8 109804706.61408     -3780.115 8        50.757                                                                    20534027.341 6  85403706.37506     -2940.199 6        38.510
E21        22.000    26371420.519 6 138582993.28906      1561.902 6        38.426                                                                    26371424.510 6 103487218.97306      1166.421 6        38.922    26371451.849 5 106186911.40205      1197.079 5        35.614
S36        23.000    38173571.307 6 200603304.64506      -853.231 6        36.295
S23        24.000    38122571.669 6 200335427.61606      -857.334 6        37.308
G26        25.000    22675212.859 6 119158883.26006      2159.881 6        36.204                                    22675182.731 2  92851165.47402      1683.011 2        13.273    22675181.783 4                      1683.718 4        25.263
C34        28.000                                                                                                                                    21358759.797 8 111221139.74408     -1217.650 8        48.834                                                                    21358759.950 7  90376060.45307      -989.505 7        43.048
R16        33.000    21950228.110 6 117254066.27506      2903.677 6        39.709                                                                    21950223.382 7  91197695.03607      2258.471 7        42.910
C24        34.000                                                                                                                                    25028292.185 5                     -4153.305 5        30.528                                                                    25028284.660 5 105902815.17805     -3375.120 5        31.479
R14        35.000                                                                                                                                    20887247.815 6  86598444.57406     -3172.238 6        40.279
C05        36.000                                                                                                                                                                                                    39376826.418 4                      -616.727 4        29.962
S21        38.000    38401341.134 5 201800432.73005      -853.587 5        35.024
C44        39.000                                                                                                                                    24315742.779 5 126618455.03515     -3700.550 5        33.934                                                                    24315747.720 3                     -3009.747 3        20.833
R07        40.000    23733113.229 5 127045228.31115     -1333.511 5        33.228                                                                    23733095.211 5                     -1036.773 5        31.321
C25        41.000                                                                                                                                    21711545.694 8 113057737.42208     -2157.968 8        51.719                                                                    21711546.666 7  91868741.80007     -1753.456 7        45.332
C43        42.000                                                                                                                                    22836463.739 7 118915522.96907      1438.737 7        45.753                                                                    22836466.335 7  96628629.68107      1169.150 7        44.787
C12        43.000                                                                                                                                    22749595.343 7 118463313.04007     -2816.430 7        44.653    22749593.649 8  91603310.15108     -2177.885 8        50.699    22749591.741 7  96261070.44107     -2288.570 7        47.169
C11        44.000                                                                                                                                    21723050.574 7 113117634.61107       315.339 7        45.461    21723050.642 6  87469807.61206       243.931 6        40.818    21723048.221 7  91917424.11207       256.298 7        46.515
C13        45.000                                                                                                                                    38734579.527 5 201701124.59205       664.204 5        35.395    38734578.781 5 155968155.68005       513.551 5        35.238    38734577.336 5 163898699.69605       539.611 5        35.671
C08        46.000                                                                                                                                    38532310.194 6 200647866.05206       556.622 6        37.074    38532308.794 6 155153570.82006       430.256 6        36.113    38532304.335 5 163042825.51805       452.209 5        35.514
C37        48.000                                                                                                                                    27333390.042 4 142332143.18904      2411.039 4        26.503
C38        49.000                                                                                                                                    38828325.012 6 202189256.90606       -61.151 6        40.591                                                                    38828319.725 5 164295347.38305       -49.601 5        34.881
C23        55.000                                                                                                                                    23131992.605 7 120454338.42807      1012.085 7        45.318                                                                    23131991.755 6  97879057.50506       822.192 6        38.595
I02        57.000    37835092.611 5 148473076.78505     -1068.550 5        32.605
I06        58.000    38655305.186 5 151691771.62605      -681.269 5        34.324
> 2025 01 01 16 00 20.0000000  0 43
G18         1.000    22781805.029 6 119719186.02006      2479.365 6        41.077                                    22781804.612 3  93287695.93303      1931.955 3        20.976    22781809.102 6  93287855.95806      1932.043 6        41.733
G25         3.000    20826526.157 7 109444494.17907     -3106.038 7        43.056                                    20826526.034 6  85281369.36306     -2420.288 6        36.095    20826526.910 6  85281226.34106     -2420.201 6        37.890
G11         4.000                                                                                                                                                                    24296424.616 3                     -3122.979 3        19.403
G31         5.000    21705632.637 7 114063875.80907       -12.921 7        45.874                                    21705634.400 6  88880950.24106       -10.071 6        38.279    21705634.402 6  88880946.25606       -10.021 6        40.205
G28         6.000    21389634.849 5 112403183.55305     -1804.170 5        32.659                                    21389609.294 2  87586907.75102     -1405.849 2        13.758    21389607.559 6  87586909.73706     -1406.015 6        38.213
G12         7.000    24207559.706 5                     -4286.324 5        32.695                                                                                                    24207589.191 3                     -3339.674 3        22.248
G29         8.000    20312223.363 7 106741567.34307     -1117.255 7        46.885                                    20312221.331 7  83175438.75207      -870.590 7        45.226    20312222.373 7  83175240.75307      -870.552 7        44.975
E30         9.000    25132948.461 7 132074543.11707     -2759.887 7        42.047                                                                    25132951.096 6  98627185.26606     -2060.824 6        40.045    25132948.255 6 101200070.67006     -2114.418 6        36.340
E15        10.000    24023887.580 8 126246416.27808       739.929 8        50.594                                                                    24023890.555 8  94274988.61608       552.504 8        48.750    24023888.427 7  96734279.63607       566.914 7        46.775
G05        11.000    23801076.769 4                      1502.509 4        27.389
E34        12.000    24844295.531 7 130557690.90207     -2202.271 7        42.064                                                                    24844297.162 5  97494452.09205     -1644.542 5        35.333    24844295.688 5 100037764.84805     -1687.531 5        32.144
G04        13.000    25159003.376 4                      -188.785 4        27.281                                                                                                    25158978.646 4                      -147.015 4        29.336
E19        14.000                                                                                                                                                                                                    27126585.771 4                     -1739.567 4        27.126
E27        15.000    23398839.660 7 122961802.72807      -396.113 7        43.695                                                                    23398842.283 8  91822153.97908      -295.812 8        50.423    23398841.812 8  94217625.39108      -303.501 8        50.145
E13        16.000                                                                                                                                    27130479.882 5 106465919.21705      1801.597 5        33.006    27130476.482 5 109243235.07805      1848.631 5        33.563
R17        17.000    19232049.640 8 102914659.85108       340.241 8        49.088                                                                    19232053.251 6  80044746.22506       264.578 6        39.934
E29        19.000                                                                                                                                    28110985.483 4 110313557.53704     -2599.451 4        26.814    28110964.824 3                     -2665.869 3        23.657
R15        20.000    19092483.344 8 102024750.14008      -356.874 8        50.786                                                                    19092485.816 6  79352643.56406      -277.555 6        41.399
R24        21.000    20537564.377 8 109823612.84908     -3782.761 8        50.158                                                                    20537562.531 6  85418411.22506     -2942.206 6        39.745
E21        22.000    26369934.126 6 138575184.09006      1561.521 6        38.655                                                                    26369938.656 6 103481387.51806      1166.013 6        39.685    26369967.219 5 106180927.82305      1196.300 5        35.619
S36        23.000    38174381.896 6 200607570.85606      -853.495 6        36.646
S23        24.000    38123380.939 6 200339713.48506      -857.586 6        37.077
G26        25.000    22673152.934 6 119148085.37006      2158.794 6        37.055                                    22673127.399 2  92842751.58702      1682.160 2        15.095    22673122.288 3                      1684.935 3        21.167
C34        28.000                                                                                                                                    21359929.673 8 111227232.79408     -1220.014 8        49.467                                                                    21359930.014 7  90381011.57407      -991.174 7        42.402
R18        30.000    22093299.525 5 117935564.92115      3091.362 5        33.150                                                                    22093315.663 4                      2404.874 4        26.204
R16        33.000    21947506.289 6 117239550.20106      2902.324 6        37.282                                                                    21947505.195 7  91186404.83007      2257.331 7        42.169
C24        34.000                                                                                                                                    25032279.437 4                     -4154.074 4        29.735                                                                    25032272.305 4 105919691.38404     -3375.562 4        29.763
R14        35.000                                                                                                                                    20891074.338 6  86614309.70306     -3174.273 6        38.616
C05        36.000                                                                                                                                                                                                    39377590.551 5                      -616.571 5        30.415
S21        38.000    38402153.024 5 201804700.38005      -853.688 5        35.010
C44        39.000                                                                                                                                    24319296.364 5 126636958.92305     -3701.161 5        32.940                                                                    24319296.994 3                     -3005.928 3        20.857
R07        40.000    23734357.017 4 127051904.07014     -1337.025 4        29.820                                                                    23734344.668 5                     -1040.120 5        34.310
C25        41.000                                                                                                                                    21713618.463 8 113068532.68208     -2160.529 8        51.461                                                                    21713619.880 7  91877513.85307     -1755.489 7        45.318
C43        42.000                                                                                                                                    22835082.291 7 118908332.78707      1436.870 7        45.276                                                                    22835085.260 7  96622787.08107      1167.729 7        44.587
C12        43.000                                                                                                                                    22752299.289 7 118477398.63607     -2818.199 7        44.426    22752298.496 8  91614202.05608     -2179.242 8        50.589    22752296.736 7  96272516.16907     -2289.903 7        46.921
C11        44.000                                                                                                                                    21722747.929 7 113116062.76007       312.925 7        45.678    21722747.973 7  87468592.19507       241.938 7        42.317    21722746.289 7  91916146.88107       254.350 7        45.843
C13        45.000                                                                                                                                    38733942.930 6 201697805.77706       663.175 6        36.265    38733941.918 5 155965589.38605       512.816 5        34.462    38733939.655 5 163896002.93905       538.698 5        35.052
C08        46.000                                                                                                                                    38531775.335 6 200645085.20606       555.358 6        36.907    38531775.035 6 155151420.50306       429.424 6        36.979    38531770.429 5 163040565.89505       451.270 5        35.748
C37        48.000                                                                                                                                    27331076.850 3                      2410.271 3        23.143
C38        49.000                                                                                                                                    38828383.683 6 202189564.52206       -62.375 6        40.794                                                                    38828378.618 5 164295597.36505       -50.831 5        34.467
C23        55.000                                                                                                                                    23131021.601 7 120449282.32407      1009.883 7        46.451                                                                    23131019.391 6  97874948.99206       820.858 6        38.474
I02        57.000    37836456.777 5 148478420.44005     -1068.801 5        32.647
I06        58.000    38656173.865 5 151695178.10405      -681.421 5        34.433
> 2025 01 01 16 00 25.0000000  0 43
G18         1.000    22779445.513 6 119706791.39506      2478.344 6        40.582                                    22779447.199 3  93278037.84603      1931.181 3        21.619    22779450.116 6  93278197.89006      1931.209 6        41.614
G25         3.000    20829481.140 7 109460028.43207     -3107.844 7        43.570                                    20829481.397 5  85293473.98205     -2421.692 5        35.271    20829482.793 6  85293330.97106     -2421.722 6        37.388
G11         4.000                                                                                                                                                                    24300240.444 3                     -3125.370 3        22.324
G31         5.000    21705646.428 7 114063947.58807       -15.954 7        45.320                                    21705648.324 6  88881006.19406       -12.435 6        37.278    21705648.162 6  88881002.22406       -12.358 6        39.628
G28         6.000                                                                                                                                                                    21391326.109 6  87593945.23806     -1408.328 6        40.036
G12         7.000    24211637.670 5                     -4287.112 5        33.317                                                                                                    24211666.819 3                     -3341.444 3        22.743
G29         8.000    20313286.782 7 106747157.99307     -1119.135 7        45.762                                    20313285.578 7  83179795.12707      -872.059 7        44.971    20313285.839 7  83179597.13507      -872.110 7        45.056
E30         9.000    25135574.493 7 132088343.58207     -2760.691 7        42.004                                                                    25135578.139 6  98637490.80306     -2061.321 6        40.794    25135575.227 6 101210645.08206     -2115.180 6        36.442
E15        10.000    24023184.385 8 126242721.20808       737.951 8        50.748                                                                    24023187.266 8  94272229.34708       551.137 8        48.551    24023185.401 7  96731448.38307       565.450 7        46.714
G05        11.000    23799654.627 3                      1500.582 3        23.352
E34        12.000    24846391.610 7 130568706.84407     -2204.298 7        42.372                                                                    24846392.315 5  97502678.28405     -1645.745 5        33.533    24846391.169 5 100046205.60805     -1688.921 5        31.140
G04        13.000    25159183.998 3                      -189.466 3        20.738                                                                                                    25159167.295 4                      -149.243 4        28.284
E19        14.000                                                                                                                                                                                                    27128744.599 4                     -1741.663 4        27.545
E27        15.000    23399217.005 7 122963785.70107      -397.171 7        43.704                                                                    23399219.679 8  91823634.78308      -296.605 8        50.502    23399219.085 8  94219144.83008      -304.383 8        50.204
E13        16.000    27128165.528 3                      2412.773 3        23.086                                                                    27128184.400 5 106456910.86605      1801.597 5        32.317    27128180.700 5 109233991.70605      1848.651 5        32.581
R17        17.000    19231734.377 8 102912967.42308       336.644 8        49.988                                                                    19231736.649 6  80043429.90406       261.855 6        41.044
