     3.04           OBSERVATION DATA    M                   RINEX VERSION / TYPE
ssrcrin-15.6.1x                         20250101 183000 UTC PGM / RUN BY / DATE 
(00000000023479385599111004) Septentrio proprietary         COMMENT             
ract                                                        MARKER NAME         
01                                                          MARKER NUMBER       
geodetic                                                    MARKER TYPE         
NFB                 CLIMERS@TUW                             OBSERVER / AGENCY   
3296359             SEPT ASTERX SB3 PROB4.14.4              REC # / TYPE / VERS 
Unknown             Unknown                                 ANT # / TYPE        
  4127447.9432  1206914.3450  4695543.8740                  APPROX POSITION XYZ 
        0.0000        0.0000        0.0000                  ANTENNA: DELTA H/E/N
G   23 X1  C1C L1C D1C S1C C1W S1W C2W L2W D2W S2W C2L L2L  SYS / # / OBS TYPES 
       D2L S2L C5Q L5Q D5Q S5Q C1L L1L D1L S1L              SYS / # / OBS TYPES 
E   21 X1  C1C L1C D1C S1C C6C L6C D6C S6C C5Q L5Q D5Q S5Q  SYS / # / OBS TYPES 
       C7Q L7Q D7Q S7Q C8Q L8Q D8Q S8Q                      SYS / # / OBS TYPES 
S    9 X1  C1C L1C D1C S1C C5I L5I D5I S5I                  SYS / # / OBS TYPES 
R   17 X1  C1C L1C D1C S1C C2P L2P D2P S2P C2C L2C D2C S2C  SYS / # / OBS TYPES 
       C3Q L3Q D3Q S3Q                                      SYS / # / OBS TYPES 
C   25 X1  C1P L1P D1P S1P C5P L5P D5P S5P C2I L2I D2I S2I  SYS / # / OBS TYPES 
       C7I L7I D7I S7I C6I L6I D6I S6I C7D L7D D7D S7D      SYS / # / OBS TYPES 
J   17 X1  C1C L1C D1C S1C C2L L2L D2L S2L C5Q L5Q D5Q S5Q  SYS / # / OBS TYPES 
       C1L L1L D1L S1L                                      SYS / # / OBS TYPES 
I    5 X1  C5A L5A D5A S5A                                  SYS / # / OBS TYPES 
SEPTENTRIO RECEIVERS OUTPUT ALIGNED CARRIER PHASES.         COMMENT             
NO FURTHER PHASE SHIFT APPLIED IN THE RINEX ENCODER.        COMMENT             
G L1C                                                       SYS / PHASE SHIFT   
G L2W                                                       SYS / PHASE SHIFT   
G L2L  0.00000                                              SYS / PHASE SHIFT   
G L5Q  0.00000                                              SYS / PHASE SHIFT   
G L1L  0.00000                                              SYS / PHASE SHIFT   
E L1C  0.00000                                              SYS / PHASE SHIFT   
E L6C  0.00000                                              SYS / PHASE SHIFT   
E L5Q  0.00000                                              SYS / PHASE SHIFT   
E L7Q  0.00000                                              SYS / PHASE SHIFT   
E L8Q  0.00000                                              SYS / PHASE SHIFT   
S L1C                                                       SYS / PHASE SHIFT   
S L5I                                                       SYS / PHASE SHIFT   
R L1C                                                       SYS / PHASE SHIFT   
R L2P  0.00000                                              SYS / PHASE SHIFT   
R L2C                                                       SYS / PHASE SHIFT   
R L3Q  0.00000                                              SYS / PHASE SHIFT   
C L1P  0.00000                                              SYS / PHASE SHIFT   
C L5P  0.00000                                              SYS / PHASE SHIFT   
C L2I                                                       SYS / PHASE SHIFT   
C L7I                                                       SYS / PHASE SHIFT   
C L6I                                                       SYS / PHASE SHIFT   
C L7D                                                       SYS / PHASE SHIFT   
J L1C                                                       SYS / PHASE SHIFT   
J L2L  0.00000                                              SYS / PHASE SHIFT   
J L5Q  0.00000                                              SYS / PHASE SHIFT   
J L1L  0.00000                                              SYS / PHASE SHIFT   
I L5A                                                       SYS / PHASE SHIFT   
  2025     1     1    18    30    0.0000000     GPS         TIME OF FIRST OBS   
 C1C    0.000 C2C    0.000 C2P    0.000                     GLONASS COD/PHS/BIS 
DBHZ                                                        SIGNAL STRENGTH UNIT
    18                                                      LEAP SECONDS        
 24 R01  1 R02 -4 R03  5 R04  6 R05  1 R06 -4 R07  5 R08  6 GLONASS SLOT / FRQ #
    R09 -2 R10 -7 R11  0 R12 -1 R13 -2 R14 -7 R15  0 R16 -1 GLONASS SLOT / FRQ #
    R17  4 R18 -3 R19  3 R20  2 R21  4 R22 -3 R23  3 R24  2 GLONASS SLOT / FRQ #
                                                            END OF HEADER       
> 2025 01 01 18 30  0.0000000  0 33
G18         1.000    20700626.460 6 108782747.65406     -2060.166 6        39.670                                    20700622.362 3  84765653.75603     -1605.324 3        22.609    20700622.402 6  84765663.75706     -1605.375 6        40.269
G23         4.000    21841358.420 7 114777125.73107      1677.444 7        44.041                                    21841353.993 3  89436694.46203      1307.094 3        20.500    21841352.931 5  89436718.48405      1307.185 5        34.743
G27         7.000    22220738.017 5 116771157.13705      2000.779 5        35.919                                    22220725.940 3  90990216.37703      1559.055 3        18.567
G29         8.000    23381067.870 5 122868458.07905     -3790.255 5        31.872                                                                                                    23381079.998 3                     -2952.757 3        21.643
E15        10.000    24586942.109 4 129205277.32904     -2791.271 4        24.256                                                                    24586990.420 4  96484464.78704     -2083.355 4        29.355    24586947.005 6  99001441.20606     -2137.794 6        38.237
G05        11.000    24356999.604 4                     -3860.999 4        29.829                                                                                                    24357056.298 3                     -3008.382 3        23.086
E27        15.000    25037813.313 6 131574600.81906     -3295.379 6        37.236                                                                    25037813.453 6  98253755.21206     -2460.791 6        41.597    25037812.864 7 100817117.34607     -2524.903 7        42.743
E13        16.000    23291933.364 8 122400015.38708      -105.250 8        49.330                                                                    23291933.456 8  91402605.52808       -78.580 8        48.356    23291932.336 8  93786975.54308       -80.649 8        49.492
R17        17.000    21805918.610 5 116687854.45305     -4093.812 5        32.485                                                                    21805935.057 6  90757279.35606     -3184.093 6        39.778
G16        18.000    20577465.469 8 108135324.36708       113.597 8        48.200                                    20577456.181 4  84261194.54104        88.522 4        25.474
E26        19.000    26579279.407 4                      1852.589 4        26.922                                                                                                                                    26579242.449 5 107023623.40205      1419.624 5        33.563
R15        20.000    23392347.846 4                     -5467.758 4        29.043                                                                    23392387.949 3                     -4251.521 3        23.219
E21        22.000    23603554.663 7 124037619.36407      -648.699 7        47.102                                                                    23603553.372 7  92625430.05807      -484.402 7        47.426    23603553.453 8  95041771.91608      -497.035 8        51.301
S36        23.000    38134626.627 6 200398688.29106      -852.478 6        36.673
S23        24.000    38088827.200 6 200158127.55406      -854.295 6        40.119
G26        25.000    20736625.075 7 108971722.23207     -2272.646 7        46.992                                    20736623.433 7  84913044.18507     -1770.894 7        46.216    20736624.035 7  84913087.17907     -1770.851 7        43.943
R01        26.000    23273933.987 3                     -2638.842 3        21.405
R19        29.000    20319294.249 6 108694539.25806      1079.743 6        38.523                                                                    20319296.884 6  84540202.03306       839.840 6        41.790
R18        30.000    19324294.009 7 103154411.49407     -1745.889 7        46.062                                                                    19324293.443 6  80231191.34606     -1357.844 6        41.299
C21        31.000                                                                                                                                    25205249.807 4                      -711.969 4        27.138
R16        33.000    19949245.355 7 106565496.31707     -3305.676 7        47.921                                                                    19949243.365 7  82884178.03207     -2571.093 7        42.423
R09        34.000    20588689.626 7 109942460.79807      1143.534 7        46.359                                                                    20588687.558 7  85510809.67507       889.472 7        46.778
C37        36.000                                                                                                                                    23512323.468 6 122434702.29206      -589.835 6        38.607                                                                    23512329.546 6  99488352.84706      -479.322 6        36.004
C28        40.000                                                                                                                                    23251589.597 6 121077387.52806      1329.926 6        41.600                                                                    23251590.596 5  98385091.73205      1080.682 5        34.029
C43        42.000                                                                                                                                    21642646.942 8 112698969.87608     -1701.460 8        48.613                                                                    21642644.939 8  91577294.56708     -1382.632 8        50.766
C11        44.000                                                                                                                                    22703288.605 7 118221989.41207     -2755.231 7        47.402    22703280.718 6  91416866.75906     -2130.533 6        37.214    22703281.844 7  96065177.88007     -2238.873 7        44.023
C13        45.000                                                                                                                                    37611258.293 5 195851700.90905     -1084.283 5        34.924    37611255.591 6 151444957.75906      -838.389 6        38.420    37611253.394 4 159145570.19804      -880.770 4        28.521
C08        46.000                                                                                                                                    37774804.994 3                     -1362.538 3        20.071    37774741.484 7 152103215.74407     -1051.192 7        42.842    37774739.255 5 159837279.92005     -1104.972 5        33.174
C42        48.000                                                                                                                                    25007545.598 4                      1587.689 4        24.000                                                                    25007561.490 4 105815197.65304      1291.320 4        29.118
C38        49.000                                                                                                                                    38990122.810 5 203031780.75505     -1722.625 5        31.736                                                                    38990126.839 6 164979978.42806     -1399.930 6        36.197
I01        53.000   365880477.235 6 132652778.19906     -1695.309 6        39.246
C23        55.000                                                                                                                                    23732812.020 6 123582896.49406     -3391.917 6        41.809                                                                    23732801.765 6 100421346.71806     -2756.382 6        36.030
I06        58.000    38633756.012 7 151607314.19007      -607.257 7        43.382
> 2025 01 01 18 30  5.0000000  0 34
G18         1.000    20702588.595 6 108793054.28906     -2062.590 6        41.721                                    20702583.969 4  84773684.86804     -1607.209 4        24.226    20702583.340 6  84773694.87906     -1607.153 6        40.672
G23         4.000    21839762.974 7 114768744.60607      1674.897 7        44.238                                    21839758.434 3  89430163.74103      1305.080 3        20.476    21839758.309 5  89430187.76005      1304.992 5        34.024
G31         5.000                                                                                                                                                                    24715555.859 3                     -3277.857 3        19.731
G27         7.000    22218833.826 6 116761156.77606      1999.390 6        38.054                                    22218823.001 3  90982423.88303      1557.963 3        21.167    22218918.310 4  90982539.23414      1557.643 4        27.090
G29         8.000    23384671.711 5 122887412.31705     -3791.052 5        31.721                                    23384667.407 1  95756278.77611     -2954.240 1         2.000    23384688.204 3                     -2954.292 3        20.952
E15        10.000                                                                                                                                    24589646.980 4  96494884.85904     -2084.371 4        29.716    24589602.080 6  99012133.10706     -2138.943 6        39.126
G05        11.000    24360673.333 5                     -3863.344 5        30.053                                                                                                    24360733.667 3                     -3010.713 3        22.571
E27        15.000    25040949.405 6 131591080.59706     -3296.555 6        36.261                                                                    25040949.198 6  98266061.53006     -2461.886 6        41.461    25040949.079 7 100829744.70107     -2526.089 7        42.821
E13        16.000    23292034.312 8 122400546.28608      -107.227 8        49.457                                                                    23292034.530 8  91403001.98208       -80.049 8        48.619    23292033.319 8  93787382.33608       -82.113 8        49.641
R17        17.000    21809740.073 5 116708324.59805     -4094.474 5        30.830                                                                    21809763.132 6  90773200.57306     -3184.624 6        39.541
G16        18.000    20577358.543 7 108134764.24907       110.291 7        47.846                                    20577350.449 4  84260758.07704        85.942 4        26.515
E26        19.000                                                                                                                                                                                                    26577478.936 5 107016527.54705      1418.676 5        32.784
R15        20.000    23397461.982 4                     -5468.169 4        28.398                                                                    23397512.169 3                     -4253.471 3        23.543
E21        22.000    23604172.667 7 124040868.37907      -651.011 7        47.412                                                                    23604171.497 7  92627856.27307      -486.113 7        46.843    23604171.771 8  95044261.42608      -498.807 8        51.442
S36        23.000    38135436.420 6 200402949.70406      -852.422 6        36.340
S23        24.000    38089636.568 6 200162398.95806      -854.453 6        39.910
G26        25.000    20738789.200 7 108983092.87407     -2275.754 7        47.400                                    20738787.152 7  84921904.42307     -1773.313 7        46.271    20738788.164 7  84921947.41407     -1773.407 7        44.138
R01        26.000    23276411.230 3                     -2646.052 3        23.010
R02        27.000                                                                                                                                    22430513.035 4                       605.336 4        28.038
R19        29.000    20318287.468 6 108689146.02206      1077.362 6        38.994                                                                    20318288.692 6  84536007.27006       838.036 6        41.423
R18        30.000    19325930.794 7 103163146.66307     -1748.310 7        45.685                                                                    19325929.664 6  80237985.36106     -1359.845 6        41.006
R16        33.000    19952341.891 8 106582034.53908     -3309.693 8        48.935                                                                    19952338.801 6  82897041.05006     -2574.169 6        40.389
R09        34.000    20587620.486 7 109936753.12407      1139.458 7        45.988                                                                    20587618.414 7  85506370.38107       886.268 7        46.463
C37        36.000                                                                                                                                    23512892.092 6 122437658.38406      -593.021 6        38.919                                                                    23512897.264 5  99490754.92705      -481.660 5        35.576
C28        40.000                                                                                                                                    23250311.521 6 121070740.55906      1328.609 6        40.212                                                                    23250313.801 5  98379690.48605      1079.990 5        34.019
C43        42.000                                                                                                                                    21644281.441 8 112707480.76108     -1703.016 8        48.600                                                                    21644279.437 8  91584210.37508     -1383.766 8        50.888
C11        44.000                                                                                                                                    22705933.052 7 118235767.83807     -2756.350 7        46.592    22705928.223 6  91427521.09806     -2131.177 6        38.210    22705927.954 7  96076374.00107     -2239.742 7        44.263
C13        45.000                                                                                                                                    37612299.895 5 195857123.96805     -1085.078 5        34.843    37612297.238 6 151449151.20406      -839.062 6        38.928    37612294.618 4 159149976.88504      -881.757 4        29.270
C08        46.000                                                                                                                                                                                                    37776047.362 7 152108473.59007     -1051.997 7        42.741    37776045.101 5 159842805.13405     -1105.681 5        33.671
C42        48.000                                                                                                                                    25006026.516 4                      1587.873 4        28.199                                                                    25006036.759 4 105808744.26404      1290.126 4        28.929
C38        49.000                                                                                                                                    38991777.479 5 203040396.14505     -1723.424 5        30.340                                                                    38991781.902 6 164986979.15306     -1400.380 6        36.125
I01        53.000   365882637.136 6 132661254.77806     -1695.397 6        39.321
C23        55.000                                                                                                                                    23736068.007 6 123599860.39106     -3393.740 6        39.814                                                                    23736061.317 5 100435131.24705     -2757.530 5        35.248
I06        58.000    38634529.758 7 151610350.25407      -607.255 7        43.372
> 2025 01 01 18 30 10.0000000  0 35
G18         1.000    20704552.630 7 108803372.32807     -2064.907 7        43.754                                    20704547.790 4  84781724.88404     -1609.017 4        26.012    20704547.227 6  84781734.88806     -1608.930 6        41.335
G23         4.000    21838169.922 7 114760374.91907      1672.705 7        44.292                                    21838164.662 3  89423641.92603      1303.394 3        20.524    21838166.693 5  89423665.94705      1303.556 5        34.267
G31         5.000    24719615.606 4                     -4203.671 4        28.663                                                                                                    24719560.429 3                     -3275.354 3        21.571
G27         7.000    22216932.798 6 116751161.56906      1998.399 6        40.641                                    22216921.640 3  90974635.42303      1557.193 3        23.505
G29         8.000    23388281.821 5 122906370.32405     -3791.851 5        31.713                                                                                                    23388298.301 3                     -2954.558 3        20.333
E15        10.000                                                                                                                                    24592304.762 4  96505308.87304     -2085.501 4        28.948    24592258.532 6  99022829.02006     -2139.650 6        39.904
G05        11.000    24364347.602 4                     -3865.221 4        28.199                                                                                                    24364416.097 3                     -3013.072 3        20.262
E27        15.000    25044085.370 5 131607566.95405     -3297.895 5        35.295                                                                    25044086.204 6  98278372.75306     -2462.692 6        41.352    25044086.210 7 100842377.09607     -2527.015 7        42.474
E13        16.000    23292137.063 8 122401086.02008      -108.919 8        49.595                                                                    23292137.234 8  91403405.03908       -81.250 8        48.867    23292135.962 8  93787795.90808       -83.390 8        49.569
R17        17.000                                                                                                                                    21813584.573 6  90789124.10406     -3184.908 6        38.652
G16        18.000    20577254.899 7 108134219.65407       107.277 7        47.464                                    20577247.633 4  84260333.72404        83.582 4        27.150
E26        19.000    26575734.819 4                      1851.176 4        26.240                                                                                                                                    26575716.698 5 107009434.68605      1418.126 5        31.192
R15        20.000    23402579.177 4                     -5468.691 4        28.445                                                                    23402637.847 4                     -4253.534 4        24.617
E21        22.000    23604792.970 7 124044127.75307      -652.926 7        47.376                                                                    23604791.704 7  92630290.22207      -487.590 7        46.564    23604792.130 8  95046758.86908      -500.318 8        51.265
S36        23.000    38136248.382 6 200407211.06606      -852.218 6        36.355
S23        24.000    38090449.317 6 200166670.20806      -854.205 6        39.661
G26        25.000    20740956.039 8 108994477.92208     -2278.496 8        48.435                                    20740953.662 7  84930775.88607     -1775.451 7        46.373    20740954.888 7  84930818.88007     -1775.427 7        44.146
R01        26.000    23278891.970 4                     -2650.032 4        29.668
R02        27.000    22429774.198 4                       774.431 4        28.569                                                                    22429784.048 4                       602.211 4        28.209
C34        28.000                                                                                                                                                                                                                                                                    24408134.307 4                     -2824.497 4        28.057
R19        29.000    20317282.620 6 108683763.80306      1075.221 6        39.123                                                                    20317282.525 6  84531821.10206       836.247 6        41.938
R18        30.000    19327569.973 7 103171893.17107     -1750.511 7        45.704                                                                    19327568.396 6  80244788.20006     -1361.470 6        41.066
R16        33.000    19955441.874 8 106598591.89408     -3313.492 8        48.353                                                                    19955438.266 6  82909918.95806     -2577.130 6        37.951
R09        34.000    20586554.800 7 109931064.81907      1135.645 7        45.330                                                                    20586553.466 7  85501946.13107       883.337 7        46.660
C37        36.000                                                                                                                                    23513463.695 6 122440628.39306      -595.418 6        39.261                                                                    23513467.642 5  99493168.30305      -483.605 5        34.995
C28        40.000                                                                                                                                    23249034.676 6 121064098.42606      1327.952 6        40.014                                                                    23249037.616 5  98374293.21305      1079.051 5        33.575
C43        42.000                                                                                                                                    21645916.785 8 112715998.58208     -1704.282 8        48.719                                                                    21645915.242 8  91591131.79808     -1384.719 8        50.604
C11        44.000                                                                                                                                    22708578.767 7 118249550.72507     -2757.130 7        45.877    22708576.510 6  91438178.92006     -2131.997 6        40.005    22708575.216 7  96087573.72307     -2240.216 7        44.764
C13        45.000                                                                                                                                    37613342.329 5 195862551.02605     -1085.959 5        34.876    37613339.739 6 151453347.74106      -839.637 6        39.267    37613337.231 4 159154386.80604      -882.020 4        29.498
C08        46.000                                                                                                                                                                                                    37777353.732 7 152113734.53307     -1052.596 7        42.451    37777351.652 5 159848333.57205     -1105.967 5        33.006
C42        48.000                                                                                                                                    25004511.548 4                      1586.120 4        29.981                                                                    25004515.622 5 105802297.08405      1288.954 5        30.332
C38        49.000                                                                                                                                    38993432.435 4 203049014.45604     -1724.639 4        29.697                                                                    38993437.185 5 164993982.18005     -1400.673 5        35.695
I01        53.000   365884797.766 6 132669731.78406     -1695.523 6        39.517
C23        55.000                                                                                                                                    23739327.420 6 123616832.75806     -3395.261 6        38.165                                                                    23739320.636 5 100448922.65405     -2758.736 5        33.982
I06        58.000    38635303.461 7 151613385.92807      -607.116 7        43.238
> 2025 01 01 18 30 15.0000000  0 34
G18         1.000    20706517.601 7 108813701.44807     -2066.935 7        45.667                                    20706513.743 4  84789773.53304     -1610.595 4        28.114    20706513.450 7  84789783.54707     -1610.588 7        42.370
G23         4.000    21836579.328 7 114752016.34907      1670.602 7        44.001                                    21836573.167 3  89417128.77203      1301.760 3        20.833    21836576.064 5  89417152.77105      1301.731 5        34.643
G31         5.000    24723610.773 4                     -4203.541 4        29.630                                                                                                    24723561.521 4                     -3276.227 4        24.872
G27         7.000    22215034.880 6 116741171.16306      1997.644 6        41.228                                    22215021.634 4  90966850.67604      1556.609 4        25.008
G29         8.000    23391892.486 4 122925331.80404     -3792.432 4        29.450                                                                                                    23391906.758 3                     -2955.094 3        20.857
E15        10.000                                                                                                                                    24594962.823 4  96515736.60104     -2085.814 4        28.834    24594915.851 6  99033528.71706     -2140.263 6        40.601
G05        11.000    24368023.589 4                     -3866.832 4        27.569                                                                                                    24368017.403 3                     -3013.842 3        22.171
E27        15.000    25047222.956 5 131624059.56105     -3299.222 5        34.205                                                                    25047224.301 6  98290688.65106     -2463.555 6        41.094    25047224.530 6 100855014.28506     -2527.894 6        41.959
E13        16.000    23292241.438 8 122401634.22708      -110.502 8        49.771                                                                    23292241.556 8  91403814.42208       -82.517 8        49.172    23292240.317 8  93788215.97508       -84.709 8        49.502
R17        17.000                                                                                                                                    21817410.373 6  90805049.55416     -3185.355 6        37.633
G16        18.000    20577154.154 7 108133690.19907       104.353 7        46.320                                    20577147.746 4  84259921.15704        81.317 4        27.605
E26        19.000                                                                                                                                                                                                    26573954.656 4 107002344.46004      1418.018 4        29.678
R15        20.000    23407694.490 4                     -5468.435 4        28.616                                                                    23407764.468 4                     -4254.155 4        26.156
E21        22.000    23605415.184 7 124047397.17107      -654.898 7        47.148                                                                    23605413.735 7  92632731.67907      -489.046 7        46.206    23605414.326 8  95049264.00908      -501.797 8        51.108
S36        23.000    38137062.696 6 200411471.45806      -852.169 6        36.352
S23        24.000    38091261.364 6 200170941.06006      -854.105 6        39.793
G26        25.000    20743125.182 8 109005877.04908     -2281.229 8        48.907                                    20743122.842 7  84939658.31907     -1777.582 7        46.455    20743123.784 7  84939701.30907     -1777.575 7        44.301
R02        27.000    22429055.398 5                       770.446 5        30.694                                                                    22429059.042 4                       599.329 4        26.982
C34        28.000                                                                                                                                                                                                                                                                    24411477.422 4                     -2824.549 4        28.190
R19        29.000    20316277.774 6 108678392.32706      1073.148 6        39.207                                                                    20316278.651 7  84527643.28507       834.653 7        42.991
R18        30.000    19329210.400 7 103180650.74407     -1752.552 7        43.409                                                                    19329208.982 6  80251599.65106     -1363.214 6        40.803
R16        33.000    19958543.195 7 106615168.03007     -3317.130 7        46.424                                                                    19958541.986 6  82922811.46306     -2579.967 6        36.998
R09        34.000    20585493.580 7 109925395.61307      1131.926 7        45.768                                                                    20585491.365 7  85497536.76207       880.336 7        46.035
C37        36.000                                                                                                                                    23514037.245 6 122443612.02406      -597.989 6        39.210                                                                    23514040.173 5  99495592.77405      -486.134 5        34.776
C28        40.000                                                                                                                                    23247761.431 6 121057460.80806      1327.057 6        41.409                                                                    23247762.949 5  98368899.61805      1078.437 5        33.509
C43        42.000                                                                                                                                    21647553.662 8 112724523.00908     -1705.575 8        48.987                                                                    21647552.246 8  91598058.61608     -1385.901 8        50.610
C11        44.000                                                                                                                                    22711225.934 7 118263337.74607     -2757.903 7        44.802    22711224.797 6  91448839.94306     -2132.558 6        41.859    22711223.334 7  96098776.83407     -2240.911 7        45.648
C13        45.000                                                                                                                                    37614384.655 5 195867981.60905     -1086.559 5        34.338    37614382.494 6 151457547.01106      -840.057 6        39.589    37614380.400 4 159158799.62404      -883.158 4        29.488
C08        46.000                                                                                                                                                                                                    37778660.847 7 152118998.36907     -1053.051 7        42.131    37778659.089 5 159853865.08305     -1106.437 5        34.124
C42        48.000                                                                                                                                    25003003.780 4                      1584.639 4        29.526                                                                    25002999.254 5 105795855.95105      1287.517 5        32.305
C38        49.000                                                                                                                                    38995087.601 4 203057635.08504     -1724.072 4        29.592                                                                    38995092.646 5 165000987.18005     -1401.219 5        35.710
I01        53.000   365886958.045 6 132678208.90906     -1695.339 6        39.426
C23        55.000                                                                                                                                    23742588.535 6 123633813.26006     -3396.915 6        37.558                                                                    23742580.548 5 100462720.74205     -2760.196 5        32.102
I06        58.000    38636076.803 7 151616420.96607      -606.958 7        43.196
> 2025 01 01 18 30 20.0000000  0 36
G18         1.000    20708485.143 7 108824041.43007     -2069.164 7        47.463                                    20708481.700 4  84797830.64604     -1612.337 4        29.611    20708481.440 7  84797840.67307     -1612.424 7        43.060
G23         4.000    21834990.717 7 114743668.68107      1668.323 7        43.050                                    21834984.198 3  89410624.10403      1300.003 3        20.786    21834987.767 5  89410648.09805      1300.284 5        35.176
G31         5.000                                                                                                                                                                    24727562.478 4                     -3275.710 4        26.455
G27         7.000    22213132.835 6 116731185.35106      1996.657 6        39.405                                    22213122.393 4  90959069.52404      1555.830 4        25.955    22213110.391 5  90959184.66005      1555.693 5        32.036
G29         8.000    23395497.446 4 122944296.46704     -3793.348 4        27.006
E15        10.000                                                                                                                                    24597620.833 4  96526167.83104     -2086.586 4        27.425    24597574.133 6  99044231.98206     -2141.151 6        41.406
G05        11.000    24371701.485 4                     -3868.797 4        26.323                                                                                                    24371699.114 3                     -3015.835 3        23.219
E27        15.000    25050362.495 5 131640558.15305     -3300.240 5        32.287                                                                    25050363.485 6  98303009.06106     -2464.615 6        40.665    25050363.904 6 100867656.08406     -2528.974 6        41.147
E13        16.000    23292347.370 8 122402190.71908      -112.235 8        49.412                                                                    23292347.443 8  91404229.98508       -83.787 8        49.364    23292346.198 8  93788642.38508       -86.021 8        49.520
R17        17.000                                                                                                                                    21821240.193 6  90820976.74506     -3185.695 6        37.187
G16        18.000    20577056.376 7 108133175.71807       101.280 7        45.386                                    20577050.739 4  84259520.25904        78.923 4        27.629
E26        19.000    26572197.774 5                      1849.677 5        30.234                                                                                                                                    26572193.604 4 106995256.87704      1417.440 4        28.806
R15        20.000    23412809.355 4                     -5469.131 4        28.578                                                                    23412882.781 4                     -4253.808 4        26.347
E21        22.000    23606039.047 7 124050676.40207      -656.980 7        46.736                                                                    23606037.727 7  92635180.46307      -490.573 7        45.810    23606038.362 8  95051776.67208      -503.414 8        51.020
S36        23.000    38137867.910 5 200415730.49105      -851.947 5        35.876
S23        24.000    38092075.986 6 200175211.05406      -854.006 6        39.721
G26        25.000    20745296.619 8 109017290.01808     -2284.086 8        48.678                                    20745294.557 7  84948551.53707     -1779.806 7        46.318    20745295.455 7  84948594.52107     -1779.777 7        43.879
R01        26.000    23283865.944 5                     -2657.707 5        31.404
R02        27.000    22428335.123 5                       766.607 5        33.467                                                                    22428340.908 4                       595.974 4        28.218
C34        28.000                                                                                                                                                                                                                                                                    24414814.875 4                     -2824.790 4        28.104
R19        29.000    20315276.249 6 108673031.32606      1071.026 6        40.472                                                                    20315276.384 7  84523473.60407       833.079 7        43.613
R18        30.000    19330852.709 7 103189419.09207     -1754.926 7        42.167                                                                    19330851.029 6  80258419.46706     -1364.791 6        41.077
C21        31.000                                                                                                                                    25208051.444 4                      -722.755 4        25.368
R16        33.000    19961648.348 7 106631762.71807     -3321.005 7        44.700                                                                    19961649.083 6  82935718.44806     -2582.976 6        39.084
R09        34.000    20584436.005 7 109919745.35807      1128.082 7        46.476                                                                    20584433.246 7  85493142.10307       877.415 7        45.007
C37        36.000                                                                                                                                    23514612.594 6 122446609.01006      -600.701 6        39.366                                                                    23514616.159 5  99498028.05805      -488.344 5        34.386
C28        40.000                                                                                                                                    23246487.496 7 121050827.47207      1326.103 7        42.849                                                                    23246489.034 5  98363509.47505      1077.376 5        33.216
C43        42.000                                                                                                                                    21649192.074 8 112733053.82008     -1706.895 8        49.263                                                                    21649190.517 8  91604990.58208     -1387.146 8        50.403
C11        44.000                                                                                                                                    22713874.357 7 118277128.63807     -2758.684 7        43.627    22713872.928 7  91459503.96007     -2133.141 7        43.299    22713872.176 7  96109983.05807     -2241.717 7        46.110
C13        45.000                                                                                                                                    37615427.480 5 195873415.59205     -1087.118 5        34.019    37615425.904 6 151461748.92606      -840.725 6        40.250    37615424.093 4 159163215.17204      -883.687 4        29.308
C08        46.000                                                                                                                                    37779965.756 3                     -1362.002 3        22.781    37779968.840 6 152124264.90106     -1053.574 6        41.971    37779967.010 5 159859399.35805     -1107.126 5        34.086
C42        48.000                                                                                                                                    25001474.583 4                      1583.344 4        27.844                                                                    25001480.399 5 105789420.41205      1286.437 5        33.964
C38        49.000                                                                                                                                    38996742.893 4 203066258.10004     -1724.515 4        28.645                                                                    38996748.514 5 165007994.08505     -1401.819 5        35.257
I01        53.000   365889118.238 6 132686686.00006     -1695.472 6        39.598
C23        55.000                                                                                                                                    23745851.022 6 123650801.68706     -3398.693 6        38.784                                                                    23745840.224 4 100476525.27304     -2762.000 4        29.697
I06        58.000    38636849.869 7 151619455.19707      -606.842 7        43.270
> 2025 01 01 18 30 25.0000000  0 36
G18         1.000    20710455.104 8 108834393.74808     -2071.744 8        48.602                                    20710451.852 5  84805897.38505     -1614.345 5        31.170    20710450.659 7  84805907.39807     -1614.314 7        42.904
G23         4.000    21833403.831 6 114735333.38606      1665.842 6        41.633                                    21833397.761 3  89404129.09103      1298.067 3        20.810    21833402.404 6  89404153.10906      1297.904 6        36.057
G31         5.000    24731588.872 4                     -4204.072 4        29.014
G27         7.000    22211230.297 6 116721205.60506      1995.052 6        37.913                                    22211224.212 4  90951293.11004      1554.595 4        26.527
G29         8.000    23399107.397 4 122963265.82404     -3794.964 4        25.128                                                                                                    23399144.566 3                     -2958.228 3        22.438
E15        10.000    24600250.254 4 129275191.66014     -2795.663 4        28.493                                                                    24600278.885 4  96536603.60204     -2087.516 4        26.731    24600233.571 6  99054939.94406     -2141.997 6        41.871
G05        11.000    24375384.189 4                     -3871.372 4        26.539
E27        15.000    25053504.501 5 131657064.26605     -3302.164 5        31.706                                                                    25053504.111 6  98315335.04606     -2465.809 6        40.751    25053504.881 6 100880303.61506     -2530.153 6        40.417
E13        16.000    23292455.110 8 122402756.92508      -114.213 8        49.261                                                                    23292455.268 8  91404652.79508       -85.252 8        49.818    23292453.883 8  93789076.22908       -87.512 8        49.428
R17        17.000    21825138.387 5                     -4096.944 5        34.319                                                                    21825069.311 6  90836906.97606     -3186.311 6        36.858
G16        18.000    20576961.649 7 108132677.63907        97.919 7        44.671                                    20576956.759 4  84259132.13704        76.308 4        27.389
E26        19.000    26570443.262 5                      1848.507 5        31.155                                                                                                                                    26570433.550 4 106988172.94504      1416.514 4        27.473
R15        20.000    23417927.279 4                     -5469.584 4        29.934                                                                    23417997.486 4                     -4254.179 4        26.407
E21        22.000    23606665.185 7 124053966.90507      -659.253 7        46.472                                                                    23606663.869 7  92637637.66007      -492.378 7        45.467    23606664.567 8  95054297.96308      -505.087 8        50.868
S36        23.000    38138681.141 6 200419990.03306      -851.732 6        36.015
S23        24.000    38092887.961 6 200179481.54606      -854.275 6        39.619
G26        25.000    20747471.225 8 109028718.30808     -2287.259 8        48.392                                    20747469.067 7  84957456.69107     -1782.278 7        46.099    20747469.623 7  84957499.68007     -1782.205 7        42.713
R01        26.000    23286352.443 5                     -2661.280 5        30.106
R02        27.000    22427623.187 5 119678072.90715       762.788 5        34.767                                                                    22427629.348 4                       593.408 4        27.832
C34        28.000                                                                                                                                    24418209.917 4                     -3477.102 4        24.271                                                                    24418150.849 4                     -2825.129 4        28.133
R19        29.000    20314278.155 6 108667682.29406      1068.681 6        41.723                                                                    20314276.496 7  84519313.26307       831.160 7        43.471
R18        30.000    19332499.500 7 103198199.70407     -1757.342 7        43.778                                                                    19332496.237 6  80265248.84606     -1366.843 6        41.013
C21        31.000                                                                                                                                    25208745.851 3                      -725.949 3        23.257
R16        33.000    19964759.847 7 106648377.51207     -3324.940 7        44.158                                                                    19964760.195 7  82948641.07607     -2585.990 7        42.214
R09        34.000    20583381.460 7 109914115.64607      1123.845 7        47.170                                                                    20583378.993 7  85488763.44807       874.218 7        44.734
C37        36.000                                                                                                                                    23515191.741 6 122449620.84606      -603.931 6        40.124                                                                    23515194.773 5  99500475.47105      -490.776 5        34.490
C28        40.000                                                                                                                                    23245214.976 7 121044199.88907      1324.968 7        44.224                                                                    23245215.997 5  98358124.08705      1076.715 5        33.234
C43        42.000                                                                                                                                    21650832.027 8 112741592.46608     -1708.472 8        49.712                                                                    21650830.288 8  91611928.95708     -1388.325 8        50.214
C11        44.000                                                                                                                                    22716524.158 7 118290924.83807     -2759.798 7        42.772    22716522.316 7  91470172.05007     -2134.014 7        44.718    22716521.826 7  96121193.62607     -2242.596 7        46.597
C13        45.000                                                                                                                                    37616470.642 5 195878854.47705     -1088.498 5        33.467    37616470.282 6 151465954.59106      -841.617 6        40.448    37616468.213 4 159167634.65204      -883.810 4        29.213
C08        46.000                                                                                                                                    37781271.166 4                     -1363.702 4        24.842    37781277.804 6 152129535.23006     -1054.552 6        41.325    37781276.260 5 159864937.69805     -1108.021 5        33.820
C42        48.000                                                                                                                                                                                                                                                                    24999958.656 5 105782991.89605      1285.057 5        35.224
C38        49.000                                                                                                                                    38998399.587 4 203074884.81004     -1724.942 4        27.868                                                                    38998405.390 5 165015004.06705     -1402.135 5        34.686
I01        53.000   365891278.943 6 132695164.17006     -1695.754 6        39.631
C23        55.000                                                                                                                                    23749116.042 6 123667799.41906     -3400.481 6        40.543                                                                    23749102.554 4 100490337.33404     -2762.966 4        28.844
I06        58.000    38637623.333 7 151622489.69207      -606.959 7        43.202
> 2025 01 01 18 30 30.0000000  0 35
G18         1.000    20712427.035 8 108844757.92208     -2074.030 8        49.220                                    20712424.106 5  84813973.36305     -1616.129 5        32.347    20712422.970 7  84813983.36907     -1616.060 7        42.933
G23         4.000    21831819.709 6 114727010.03606      1663.500 6        40.813                                    21831813.930 3  89397643.36703      1296.227 3        20.833    21831817.693 6  89397667.39106      1296.110 6        37.440
G31         5.000    24735583.194 4                     -4204.379 4        28.133                                                                                                    24735582.079 4                     -3276.199 4        27.808
G27         7.000    22209333.619 6 116711231.45606      1994.333 6        37.932                                    22209327.211 4  90943521.03004      1554.040 4        27.030    22209333.222 5  90943636.00205      1553.866 5        34.624
G29         8.000                                                                                                                                                                    23402763.142 3                     -2957.655 3        23.067
E15        10.000                                                                                                                                                                                                    24602893.888 7  99065652.29507     -2142.898 7        42.148
G05        11.000    24379073.389 4                     -3874.002 4        25.414
E27        15.000    25056648.246 5 131673577.38805     -3303.457 5        31.034                                                                    25056646.316 6  98327666.28206     -2466.825 6        40.472    25056647.022 6 100892956.53406     -2531.063 6        39.670
E13        16.000    23292564.531 8 122403332.41808      -116.025 8        49.379                                                                    23292564.817 8  91405082.56208       -86.703 8        50.041    23292563.335 8  93789517.19908       -88.924 8        49.533
R17        17.000                                                                                                                                    21828895.938 6  90852839.72806     -3186.959 6        36.389
G16        18.000    20576870.593 7 108132195.52307        94.825 7        43.918                                    20576865.739 4  84258756.45504        73.889 4        27.593
E26        19.000    26568689.200 5                      1847.830 5        31.192                                                                                                                                    26568673.268 4 106981092.39804      1415.611 4        26.120
R15        20.000    23423046.491 4                     -5470.145 4        29.232                                                                    23423112.450 4                     -4254.376 4        25.248
E21        22.000    23607293.287 7 124057268.24907      -661.305 7        46.532                                                                    23607291.936 7  92640102.95507      -493.916 7        45.059    23607292.823 8  95056827.56508      -506.728 8        50.851
S36        23.000    38139489.418 6 200424250.72406      -852.249 6        36.363
S23        24.000    38093702.369 6 200183752.20906      -854.281 6        39.838
G26        25.000    20749648.789 8 109040161.44308     -2290.143 8        48.281                                    20749646.269 7  84966373.41407     -1784.523 7        45.887    20749647.751 6  84966416.40606     -1784.487 6        41.545
R02        27.000    22426912.870 5                       758.506 5        35.033
C34        28.000                                                                                                                                                                                                                                                                    24421488.293 4                     -2825.515 4        27.305
R19        29.000    20313281.744 7 108662344.74807      1066.314 7        42.500                                                                    20313278.659 7  84515161.81807       829.429 7        43.177
R18        30.000    19334147.247 7 103206992.18307     -1759.737 7        45.038                                                                    19334142.562 6  80272087.43306     -1368.632 6        41.971
C21        31.000                                                                                                                                    25209453.208 3                      -729.726 3        20.333
R16        33.000    19967874.965 7 106665011.90607     -3328.880 7        44.200                                                                    19967873.505 7  82961578.92807     -2589.115 7        43.841
R09        34.000    20582330.147 7 109908505.88207      1120.000 7        47.707                                                                    20582329.257 7  85484400.31107       871.141 7        44.989
