     3.04           OBSERVATION DATA    M                   RINEX VERSION / TYPE
ssrcrin-15.6.1x                         20250101 081500 UTC PGM / RUN BY / DATE 
(00000000023479385599111004) Septentrio proprietary         COMMENT             
ract                                                        MARKER NAME         
01                                                          MARKER NUMBER       
geodetic                                                    MARKER TYPE         
NFB                 CLIMERS@TUW                             OBSERVER / AGENCY   
3296359             SEPT ASTERX SB3 PROB4.14.4              REC # / TYPE / VERS 
Unknown             Unknown                                 ANT # / TYPE        
  4127446.2899  1206914.4476  4695543.6297                  APPROX POSITION XYZ 
        0.0000        0.0000        0.0000                  ANTENNA: DELTA H/E/N
G   23 X1  C1C L1C D1C S1C C1W S1W C2W L2W D2W S2W C2L L2L  SYS / # / OBS TYPES 
       D2L S2L C5Q L5Q D5Q S5Q C1L L1L D1L S1L              SYS / # / OBS TYPES 
E   21 X1  C1C L1C D1C S1C C6C L6C D6C S6C C5Q L5Q D5Q S5Q  SYS / # / OBS TYPES 
       C7Q L7Q D7Q S7Q C8Q L8Q D8Q S8Q                      SYS / # / OBS TYPES 
S    9 X1  C1C L1C D1C S1C C5I L5I D5I S5I                  SYS / # / OBS TYPES 
R   17 X1  C1C L1C D1C S1C C2P L2P D2P S2P C2C L2C D2C S2C  SYS / # / OBS TYPES 
       C3Q L3Q D3Q S3Q                                      SYS / # / OBS TYPES 
C   25 X1  C1P L1P D1P S1P C5P L5P D5P S5P C2I L2I D2I S2I  SYS / # / OBS TYPES 
       C7I L7I D7I S7I C6I L6I D6I S6I C7D L7D D7D S7D      SYS / # / OBS TYPES 
J   17 X1  C1C L1C D1C S1C C2L L2L D2L S2L C5Q L5Q D5Q S5Q  SYS / # / OBS TYPES 
       C1L L1L D1L S1L                                      SYS / # / OBS TYPES 
I    5 X1  C5A L5A D5A S5A                                  SYS / # / OBS TYPES 
SEPTENTRIO RECEIVERS OUTPUT ALIGNED CARRIER PHASES.         COMMENT             
NO FURTHER PHASE SHIFT APPLIED IN THE RINEX ENCODER.        COMMENT             
G L1C                                                       SYS / PHASE SHIFT   
G L2W                                                       SYS / PHASE SHIFT   
G L2L  0.00000                                              SYS / PHASE SHIFT   
G L5Q  0.00000                                              SYS / PHASE SHIFT   
G L1L  0.00000                                              SYS / PHASE SHIFT   
E L1C  0.00000                                              SYS / PHASE SHIFT   
E L6C  0.00000                                              SYS / PHASE SHIFT   
E L5Q  0.00000                                              SYS / PHASE SHIFT   
E L7Q  0.00000                                              SYS / PHASE SHIFT   
E L8Q  0.00000                                              SYS / PHASE SHIFT   
S L1C                                                       SYS / PHASE SHIFT   
S L5I                                                       SYS / PHASE SHIFT   
R L1C                                                       SYS / PHASE SHIFT   
R L2P  0.00000                                              SYS / PHASE SHIFT   
R L2C                                                       SYS / PHASE SHIFT   
R L3Q  0.00000                                              SYS / PHASE SHIFT   
C L1P  0.00000                                              SYS / PHASE SHIFT   
C L5P  0.00000                                              SYS / PHASE SHIFT   
C L2I                                                       SYS / PHASE SHIFT   
C L7I                                                       SYS / PHASE SHIFT   
C L6I                                                       SYS / PHASE SHIFT   
C L7D                                                       SYS / PHASE SHIFT   
J L1C                                                       SYS / PHASE SHIFT   
J L2L  0.00000                                              SYS / PHASE SHIFT   
J L5Q  0.00000                                              SYS / PHASE SHIFT   
J L1L  0.00000                                              SYS / PHASE SHIFT   
I L5A                                                       SYS / PHASE SHIFT   
  2025     1     1     8    15    0.0000000     GPS         TIME OF FIRST OBS   
 C1C    0.000 C2C    0.000 C2P    0.000                     GLONASS COD/PHS/BIS 
DBHZ                                                        SIGNAL STRENGTH UNIT
    18                                                      LEAP SECONDS        
 24 R01  1 R02 -4 R03  5 R04  6 R05  1 R06 -4 R07  5 R08  6 GLONASS SLOT / FRQ #
    R09 -2 R10 -7 R11  0 R12 -1 R13 -2 R14 -7 R15  0 R16 -1 GLONASS SLOT / FRQ #
    R17  4 R18 -3 R19  3 R20  2 R21  4 R22 -3 R23  3 R24  2 GLONASS SLOT / FRQ #
                                                            END OF HEADER       
> 2025 01 01 08 15  0.0000000  0 32
G18         1.000    25147715.977 5                     -1902.239 5        31.215                                                                                                    25147695.915 4                     -1482.240 4        27.748
G13         2.000    20127370.409 8 105770184.54008       400.935 8        48.751                                    20127366.057 5  82418199.38105       312.415 5        35.762
G30         3.000    21274017.874 7 111795813.53407     -2629.271 7        47.157                                    21274019.671 7  87113623.37607     -2048.774 7        42.330    21274021.797 6  87113555.37206     -2048.784 6        40.939
G14         4.000    20633026.199 7 108427261.82207        70.583 7        44.278                                    20633025.567 4  84488794.36204        55.005 4        27.856    20633025.609 7  84488781.35307        54.940 7        42.438
G07         5.000    23886874.299 6 125526367.10906     -3533.090 6        36.374
G15         6.000    22015172.662 7 115690501.17107      2248.156 7        42.499                                    22015166.890 5  90148400.48305      1751.802 5        30.875    22015170.953 5  90148448.45805      1751.692 5        32.844
G05         7.000    21527805.090 7 113129347.46307     -2657.159 7        46.791                                    21527803.421 6  88152728.17906     -2070.509 6        38.805    21527805.246 6  88152715.18606     -2070.661 6        39.051
G20        11.000    23037469.958 5                     -4183.697 5        31.464
E26        12.000                                                                                                                                    28194042.367 3                      -348.304 3        20.024
E02        13.000                                                                                                                                    26025830.261 6 102130985.66506      1633.148 6        36.306    26025827.329 5 104795278.64705      1676.110 5        33.713
E25        14.000    23768616.583 7 124904894.33807        35.654 7        42.709                                                                    23768616.815 6  93273259.12606        26.648 6        38.132    23768617.406 6  95706395.69106        27.250 6        38.907
E24        15.000    25929062.291 6 136258130.91506     -2736.849 6        41.836                                                                    25929066.991 6 101751144.99106     -2043.698 6        39.682    25929067.629 6 104405585.56006     -2097.065 6        40.942
E08        17.000    25279143.461 6 132842785.07206      1307.529 6        40.698                                                                    25279144.663 6  99200804.31906       976.439 6        40.427    25279145.240 6 101788622.64706      1001.872 6        40.124
E05        21.000    24245987.638 6 127413497.86906     -3087.318 6        36.681                                                                    24246050.557 4  95146436.03904     -2305.168 4        25.714    24245994.625 6  97628504.66306     -2365.522 6        38.790
E13        22.000    27666204.770 5 145387040.41505     -2695.383 5        30.709                                                                    27666211.724 5 108568140.98105     -2013.088 5        31.404    27666202.510 4                     -2065.873 4        25.233
S23        24.000    38145033.068 6 200453427.44606      -818.301 6        37.819
C05        25.000                                                                                                                                                                                                    39344430.819 5 158423719.99505      -675.619 5        34.933
E03        27.000    23255212.019 7 122206933.54107      -959.614 7        45.902                                                                    23255215.409 7  91258402.49507      -716.586 7        46.833    23255215.301 7  93639076.72907      -735.284 7        44.886
R11        28.000    19115114.075 7 102145427.88907      -987.338 7        43.215                                                                    19115114.729 7  79446395.91907      -767.844 7        43.742
R10        30.000    21676586.845 5 115548453.76605     -4464.286 5        33.509
R12        31.000    21756913.790 5 116221631.02305      2851.774 5        33.012
R08        35.000    21269685.783 6 113898097.22806     -4280.396 6        40.353                                                                    21269678.340 7  88587467.82707     -3329.275 7        42.123
C26        37.000                                                                                                                                    23811045.964 6 123990343.53306      1849.774 6        38.039
R01        38.000    19112143.205 7 102165313.68107      -380.949 7        47.342                                                                    19112145.757 6  79461937.56106      -296.358 6        39.288
R18        39.000    23851496.916 5 127320909.25705     -2301.175 5        35.957                                                                    23851492.679 5  99027397.05705     -1789.629 5        32.970
C42        41.000                                                                                                                                    23825822.691 7 124067259.55107      1562.079 7        45.679                                                                    23825831.780 7 100814861.21907      1269.289 7        46.868
C36        42.000                                                                                                                                    23870725.036 7 124301149.64307     -3443.018 7        42.461                                                                    23870734.590 6 101004820.74906     -2797.576 6        37.176
R02        43.000    21804563.963 7 116353338.15607      2855.657 7        45.637                                                                    21804566.154 6  90497031.43206      2221.135 6        40.594
C40        44.000                                                                                                                                    39133503.124 5                         7.160 5        31.072                                                                    39133534.060 4 165586689.54604         5.218 4        27.796
C21        47.000                                                                                                                                    21998396.707 8 114551364.06308     -1320.064 8        52.137                                                                    21998392.775 7  93082352.28807     -1072.646 7        47.286
C45        49.000                                                                                                                                    21581918.129 8 112382635.02908      -980.292 8        48.579                                                                    21581912.198 8  91320091.36108      -796.607 8        49.500
C22        50.000                                                                                                                                    24000110.487 7 124974621.18207     -3904.039 7        43.033                                                                    24000112.236 5 101552125.77605     -3172.602 5        30.928
> 2025 01 01 08 15  5.0000000  0 32
G18         1.000                                                                                                                                                                    25149506.064 3                     -1484.873 3        22.990
G13         2.000    20126990.016 8 105768185.55908       398.847 8        48.864                                    20126985.678 6  82416641.73806       310.791 6        36.287
G30         3.000    21276520.370 7 111808963.29607     -2630.525 7        47.488                                    21276522.054 7  87123869.93307     -2049.759 7        42.808    21276524.407 6  87123801.92606     -2049.675 6        40.932
G14         4.000    20632959.241 7 108426916.71307        67.729 7        42.263                                    20632959.463 4  84488525.43504        52.784 4        27.198    20632959.743 7  84488512.44407        52.679 7        42.080
G07         5.000    23890241.735 6 125544033.88206     -3533.371 6        36.450
G15         6.000    22013034.228 7 115679265.02607      2246.625 7        42.931                                    22013028.698 5  90139645.06805      1750.615 5        31.970    22013034.029 5  90139693.02905      1750.568 5        34.295
G05         7.000    21530334.568 7 113142641.11807     -2660.080 7        45.922                                    21530333.595 6  88163086.85406     -2072.781 6        38.817    21530334.762 6  88163073.84106     -2072.595 6        38.652
G20        11.000    23041453.047 5                     -4184.677 5        32.240
E26        12.000                                                                                                                                    28194486.126 3                      -349.546 3        20.071
E02        13.000    26023744.607 5 136755687.07715      2186.150 5        32.671                                                                    26023749.631 6 102122821.06906      1632.699 6        36.333    26023745.466 5 104786901.10905      1675.296 5        32.216
E25        14.000    23768583.148 7 124904722.23907        33.484 7        42.582                                                                    23768583.244 6  93273130.59106        24.934 6        37.754    23768584.567 6  95706263.81106        25.579 6        39.517
E24        15.000    25931667.082 6 136271819.49906     -2738.382 6        41.769                                                                    25931671.962 6 101761366.94406     -2044.785 6        40.324    25931672.517 6 104416074.18506     -2098.211 6        40.563
E08        17.000    25277899.792 6 132836249.38306      1307.064 6        40.391                                                                    25277900.761 6  99195923.75706       976.019 6        40.300    25277901.734 6 101783614.75406      1001.450 6        39.808
E05        21.000    24248925.952 6 127428936.98806     -3088.107 6        37.883                                                                    24248984.926 4  95157965.22704     -2306.226 4        25.910    24248932.212 6  97640334.61506     -2366.243 6        38.312
E13        22.000    27668768.968 4 145400522.23704     -2696.855 4        29.839                                                                    27668776.513 5 108578208.49805     -2013.559 5        31.140    27668770.501 4                     -2066.813 4        26.635
S23        24.000    38145808.706 6 200457518.97706      -818.059 6        37.486
C05        25.000                                                                                                                                                                                                    39345268.913 5 158427098.40805      -675.510 5        35.200
E03        27.000    23256125.678 7 122211735.39007      -960.943 7        45.983                                                                    23256129.132 7  91261988.28307      -717.588 7        46.275    23256129.123 7  93642756.05607      -736.194 7        45.029
R11        28.000    19116038.580 6 102150374.10206      -990.918 6        41.905                                                                    19116040.203 7  79450242.98907      -770.694 7        43.141
R10        30.000    21680776.681 5 115570778.53005     -4465.511 5        32.024
R12        31.000    21754247.234 4 116207376.93304      2849.884 4        28.948
R08        35.000    21273678.123 6 113919504.96006     -4282.588 6        40.281                                                                    21273674.363 6  88604118.26506     -3330.906 6        41.125
C26        37.000                                                                                                                                    23809270.584 6 123981098.23406      1848.592 6        38.219                                                                    23809325.839 4 100744852.07614      1502.098 4        27.401
R01        38.000    19112501.207 7 102167227.73607      -384.603 7        47.253                                                                    19112504.259 6  79463426.26006      -299.073 6        39.138
R18        39.000    23853660.962 6 127332424.93406     -2304.733 6        37.233                                                                    23853654.913 5  99036353.71605     -1792.621 5        32.671
C42        41.000                                                                                                                                    23824323.580 7 124059453.41907      1560.550 7        46.063                                                                    23824332.598 7 100808518.06907      1268.050 7        47.013
C36        42.000                                                                                                                                    23874029.293 6 124318366.85906     -3443.773 6        40.610                                                                    23874040.637 6 101018811.09106     -2798.514 6        37.096
R02        43.000    21801889.238 7 116339062.72907      2854.487 7        45.378                                                                    21801890.836 6  90485928.31006      2220.162 6        39.724
C40        44.000                                                                                                                                    39133496.618 5                         6.077 5        31.449                                                                    39133527.116 4 165586662.86104         4.402 4        26.922
C21        47.000                                                                                                                                    21999665.549 8 114557970.92008     -1322.541 8        52.468                                                                    21999661.566 7  93087720.87307     -1074.738 7        47.448
C45        49.000                                                                                                                                    21582859.879 8 112387542.27008      -982.434 8        48.244                                                                    21582854.507 8  91324078.88008      -798.364 8        49.405
C22        50.000                                                                                                                                    24003859.513 7 124994144.26307     -3905.062 7        43.826                                                                    24003864.573 5 101567989.86605     -3173.358 5        31.268
> 2025 01 01 08 15 10.0000000  0 32
G18         1.000    25151361.248 4                     -1907.343 4        24.722
G13         2.000    20126611.699 8 105766197.60108       396.257 8        49.356                                    20126607.500 6  82415092.68006       308.773 6        36.888
G30         3.000    21279024.642 8 111822120.31108     -2632.361 8        48.006                                    21279025.791 7  87134122.14207     -2051.189 7        42.980    21279027.813 6  87134054.13406     -2051.295 6        40.689
G14         4.000    20632896.311 6 108426586.84406        64.256 6        40.810                                    20632896.247 4  84488268.38604        50.066 4        25.925    20632897.156 6  84488255.40706        50.115 6        41.738
G07         5.000    23893606.869 6 125561702.70406     -3534.205 6        36.344
G15         6.000    22010897.257 7 115668036.58807      2244.711 7        43.490                                    22010892.448 5  90130895.64305      1749.126 5        33.317    22010898.378 5  90130943.56705      1749.124 5        35.657
G05         7.000    21532867.318 7 113155949.91007     -2663.635 7        45.750                                    21532866.666 6  88173457.32406     -2075.552 6        38.829    21532866.358 6  88173444.31606     -2075.449 6        38.486
G20        11.000    23045436.636 5                     -4185.922 5        33.521
E26        12.000                                                                                                                                    28194933.298 3                      -349.973 3        21.571    28194999.828 4 113529406.75914      -360.059 4        27.198
E02        13.000    26021665.671 5 136744757.77505      2185.462 5        30.981                                                                    26021670.346 6 102114659.62906      1631.735 6        36.204    26021663.903 5 104778526.81005      1674.390 5        30.883
E25        14.000    23768552.439 7 124904561.44707        30.743 7        42.140                                                                    23768552.295 6  93273010.50706        22.878 6        37.043    23768554.079 6  95706140.60006        23.649 6        40.310
E24        15.000    25934273.976 6 136285516.45606     -2740.319 6        41.547                                                                    25934278.692 6 101771595.18406     -2046.427 6        40.660    25934278.917 6 104426569.24106     -2099.877 6        39.973
E08        17.000    25276656.421 6 132829716.87606      1305.963 6        40.148                                                                    25276657.437 6  99191045.57106       975.073 6        40.026    25276658.641 6 101778609.30506      1000.672 6        39.778
E05        21.000    24251863.453 6 127444380.56806     -3089.471 6        38.192                                                                    24251921.544 4  95169497.79804     -2307.193 4        26.323    24251871.309 6  97652167.99406     -2367.210 6        38.297
E13        22.000    27671336.250 5 145414012.62605     -2699.165 5        30.936                                                                    27671343.184 5 108588282.45905     -2015.553 5        31.766    27671340.548 4                     -2068.236 4        28.379
S23        24.000    38146589.022 6 200461610.31506      -818.420 6        37.543
C05        25.000                                                                                                                                                                                                    39346107.677 5 158430476.71905      -675.818 5        35.010
E03        27.000    23257040.728 7 122216544.60607      -962.862 7        45.877                                                                    23257044.312 7  91265579.57407      -718.930 7        45.631    23257044.369 7  93646441.04207      -737.747 7        45.226
R11        28.000    19116966.920 6 102155339.09506      -995.225 6        41.700                                                                    19116969.572 7  79454104.63907      -774.037 7        44.050
R10        30.000    21684967.672 5 115593110.37605     -4467.383 5        30.792
R12        31.000    21751586.864 4 116193132.32204      2847.803 4        28.009                                                                    21751619.734 5  90372372.99115      2215.078 5        32.006
R08        35.000    21277673.002 6 113940924.15906     -4285.182 6        40.105                                                                    21277671.928 6  88620777.61906     -3332.952 6        40.060
C26        37.000                                                                                                                                    23807497.908 6 123971859.33506      1846.845 6        38.231
R01        38.000    19112863.286 7 102169160.99407      -388.901 7        47.429                                                                    19112865.538 6  79464929.90206      -302.324 6        38.844
R18        39.000    23855828.445 6 127343959.54006     -2308.930 6        36.276                                                                    23855819.823 5  99045325.09005     -1796.117 5        30.974
C42        41.000                                                                                                                                    23822825.689 7 124051655.35307      1558.562 7        46.228                                                                    23822834.917 7 100802181.51307      1266.461 7        47.197
C36        42.000                                                                                                                                    23877335.981 6 124335588.69006     -3444.928 6        39.084                                                                    23877347.777 6 101032805.22406     -2799.352 6        36.904
R02        43.000    21799215.712 7 116324793.97407      2852.900 7        46.276                                                                    21799216.965 6  90474830.37206      2218.676 6        37.864
C40        44.000                                                                                                                                    39133491.247 5                         4.923 5        32.006                                                                    39133522.465 4 165586640.11504         4.079 4        25.639
C21        47.000                                                                                                                                    22000936.924 8 114564590.96908     -1325.574 8        52.838                                                                    22000932.917 7  93093100.21207     -1077.176 7        47.614
C45        49.000                                                                                                                                    21583804.106 8 112392460.49908      -984.992 8        48.141                                                                    21583798.979 8  91328075.35808      -800.393 8        49.383
C22        50.000                                                                                                                                    24007609.369 7 125013673.47607     -3906.708 7        43.706                                                                    24007617.977 5 101583858.96205     -3174.319 5        32.635
> 2025 01 01 08 15 15.0000000  0 31
G18         1.000                                                                                                                                                                    25153132.121 3                     -1488.367 3        23.543
G13         2.000    20126235.972 8 105764220.87608       394.241 8        50.263                                    20126231.553 6  82413552.37506       307.198 6        37.406
G30         3.000    21281529.566 8 111835284.75108     -2633.580 8        48.088                                    21281530.937 7  87144380.13707     -2052.137 7        42.889    21281532.891 6  87144312.12206     -2052.062 6        40.072
G14         4.000    20632836.329 6 108426272.42106        61.484 6        38.691                                    20632836.180 4  84488023.38004        47.892 4        24.857    20632837.663 6  84488010.40106        47.799 6        41.731
G07         5.000    23896965.667 6 125579373.72906     -3534.662 6        36.718
G15         6.000    22008761.950 7 115656816.24107      2243.250 7        43.894                                    22008757.963 5  90122152.52405      1747.985 5        34.567    22008763.378 6  90122200.47306      1748.068 6        36.957
G05         7.000    21535403.569 7 113169274.02507     -2666.358 7        46.934                                    21535402.604 6  88183839.73506     -2077.679 6        39.063    21535402.775 6  88183826.74206     -2077.612 6        38.712
G20        11.000    23049423.505 5 121125519.07215     -4186.947 5        34.467
E26        12.000                                                                                                                                                                                                    28195445.862 4 113531211.67704      -362.347 4        26.970
E02        13.000    26019587.121 4 136733832.98404      2184.525 4        28.578                                                                    26019591.772 6 102106501.48306      1631.311 6        36.340    26019584.458 4 104770155.84304      1674.328 4        28.739
E25        14.000    23768523.771 6 124904412.17906        28.790 6        41.702                                                                    23768523.745 6  93272899.02306        21.627 6        36.609    23768525.607 6  95706026.24006        22.092 6        41.473
E24        15.000    25936882.644 6 136299222.03206     -2741.884 6        41.402                                                                    25936886.949 6 101781829.83106     -2047.544 6        41.194    25936886.947 6 104437070.87906     -2100.887 6        39.559
E08        17.000    25275413.779 6 132823187.74806      1305.591 6        39.934                                                                    25275415.248 6  99186169.90206       974.826 6        39.712    25275416.106 6 101773606.46406      1000.387 6        39.916
E05        21.000    24254802.605 6 127459828.84406     -3090.044 6        38.174                                                                    24254862.515 4  95181033.80704     -2307.154 4        26.024    24254811.416 6  97664004.95906     -2367.495 6        38.435
E13        22.000    27673905.229 5 145427511.70705     -2700.541 5        31.328                                                                    27673911.526 5 108598362.88205     -2016.511 5        31.894    27673911.896 4                     -2069.206 4        28.749
S23        24.000    38147369.517 6 200465701.81906      -818.274 6        37.626
C05        25.000                                                                                                                                                                                                    39346946.871 5 158433855.06605      -675.646 5        34.729
E03        27.000    23257957.422 7 122221361.39307      -964.097 7        45.509                                                                    23257960.904 7  91269176.53607      -719.896 7        44.999    23257960.918 7  93650131.82807      -738.665 7        45.476
R11        28.000    19117899.746 7 102160323.07107      -998.607 7        42.282                                                                    19117902.774 7  79457981.06507      -776.803 7        44.617
R10        30.000    21689159.523 5 115615449.49305     -4468.838 5        30.377
R08        35.000    21281672.060 6 113962354.91906     -4287.250 6        38.991                                                                    21281673.440 6  88637445.97706     -3334.622 6        39.901
C26        37.000                                                                                                                                    23805726.731 6 123962627.08706      1845.897 6        38.378
R01        38.000    19113228.632 7 102171113.54307      -392.363 7        47.038                                                                    19113231.276 6  79466448.55406      -305.231 6        39.303
R18        39.000    23857993.017 5 127355513.31505     -2312.451 5        31.834                                                                    23857981.154 4  99054311.28904     -1798.799 4        29.488
C42        41.000                                                                                                                                    23821329.123 7 124043865.59007      1557.208 7        46.366                                                                    23821338.835 7 100795851.67907      1265.222 7        47.084
C36        42.000                                                                                                                                    23880645.012 6 124352815.33806     -3445.797 6        37.414                                                                    23880656.223 6 101046803.25906     -2800.037 6        37.066
R02        43.000    21796543.783 7 116310531.75607      2851.793 7        46.108                                                                    21796544.631 6  90463737.54306      2217.999 6        36.060
C40        44.000                                                                                                                                    39133486.660 5                         4.311 5        32.138                                                                    39133517.632 4 165586621.46504         4.555 4        25.669
C21        47.000                                                                                                                                    22002210.650 8 114571224.41608     -1328.025 8        53.003                                                                    22002206.789 7  93098490.40707     -1079.269 7        47.566
C45        49.000                                                                                                                                    21584750.605 8 112397389.92608      -987.015 8        48.154                                                                    21584745.696 8  91332080.92008      -802.077 8        49.435
C22        50.000                                                                                                                                    24011359.212 7 125033209.02207     -3907.731 7        43.037                                                                    24011372.937 5 101599733.19405     -3175.388 5        33.395
> 2025 01 01 08 15 20.0000000  0 31
G18         1.000    25154941.792 4                     -1913.739 4        25.895                                                                                                    25154945.247 3                     -1491.198 3        23.257
G13         2.000    20125862.147 8 105762255.41208       391.980 8        50.911                                    20125857.765 6  82412020.84506       305.438 6        38.018
G30         3.000    21284035.942 7 111848456.66307     -2635.190 7        47.707                                    21284037.563 7  87154643.95507     -2053.391 7        42.991    21284039.705 6  87154575.94006     -2053.367 6        40.088
G14         4.000    20632778.997 6 108425973.45606        58.324 6        37.505                                    20632779.073 4  84487790.43004        45.442 4        24.346    20632781.431 7  84487777.44607        45.487 7        42.626
G07         5.000    23900322.489 6 125597046.97206     -3534.743 6        37.043
G15         6.000    22006628.282 7 115645603.99007      2241.647 7        44.572                                    22006625.093 5  90113415.70305      1746.739 5        35.929    22006629.867 6  90113463.65306      1746.753 6        38.411
G05         7.000    21537941.807 7 113182613.43607     -2669.373 7        47.439                                    21537941.408 6  88194234.06306     -2080.033 6        39.595    21537941.694 6  88194221.07506     -2080.146 6        39.628
G20        11.000    23053406.642 5 121146457.42905     -4188.259 5        35.076
E26        12.000                                                                                                                                    28195864.799 4                      -354.781 4        29.147    28195896.437 4 113533025.93404      -363.183 4        24.797
E02        13.000    26017507.321 4 136722912.60304      2184.608 4        24.617                                                                    26017514.419 6 102098346.64706      1630.714 6        36.405    26017506.536 4 104761788.29304      1673.279 4        26.156
E25        14.000    23768496.822 6 124904274.48406        26.236 6        40.577                                                                    23768497.650 6  93272796.19806        19.614 6        36.397    23768499.486 7  95705920.72707        20.144 7        42.474
E24        15.000    25939492.651 6 136312936.21306     -2743.688 6        41.280                                                                    25939497.029 6 101792070.91006     -2048.846 6        41.719    25939496.481 6 104447579.11806     -2102.228 6        38.913
E08        17.000    25274171.759 6 132816662.05906      1304.877 6        39.526                                                                    25274173.574 6  99181296.82206       974.254 6        39.501    25274174.353 6 101768606.25306       999.759 6        39.664
E05        21.000    24257742.364 6 127475281.83806     -3090.960 6        37.928                                                                    24257806.283 4  95192573.37004     -2309.253 4        24.075    24257752.951 6  97675845.57006     -2368.558 6        39.024
E13        22.000    27676476.175 5 145441019.52805     -2702.304 5        31.147                                                                    27676481.733 5 108608449.91105     -2017.981 5        32.545    27676483.482 5                     -2070.696 5        30.974
S23        24.000    38148144.923 6 200469793.54306      -818.384 6        37.361
C05        25.000                                                                                                                                                                                                    39347785.439 5 158437233.44805      -675.512 5        34.876
E03        27.000    23258875.676 7 122226185.81607      -965.651 7        44.959                                                                    23258878.937 7  91272779.17407      -721.041 7        44.445    23258878.980 7  93653828.45007      -739.815 7        45.654
R11        28.000    19118836.029 7 102165325.95507     -1002.306 7        42.366                                                                    19118838.950 7  79461872.19407      -779.634 7        45.090
R12        31.000    21746281.310 4                      2843.697 4        27.581
R08        35.000    21285675.751 6 113983797.35006     -4289.655 6        36.896                                                                    21285678.839 6  88654123.41106     -3336.440 6        40.293
C26        37.000                                                                                                                                    23803954.362 6 123953401.49706      1844.467 6        38.297
R01        38.000    19113596.387 7 102173085.54307      -396.409 7        45.786                                                                    19113600.331 6  79467982.32706      -308.303 6        40.751
R18        39.000                                                                                                                                    23860146.752 5  99063312.24705     -1801.485 5        31.034
C42        41.000                                                                                                                                    23819834.480 7 124036084.13907      1555.501 7        46.537                                                                    23819844.406 7 100789528.58707      1264.008 7        47.235
C36        42.000                                                                                                                                    23883956.075 6 124370046.79406     -3446.779 6        37.127                                                                    23883965.693 6 101060805.19506     -2800.647 6        37.505
R02        43.000    21793871.578 7 116296276.20307      2850.424 7        45.716                                                                    21793872.792 5  90452649.90205      2216.917 5        35.776
C40        44.000                                                                                                                                    39133483.869 5                         3.006 5        32.222                                                                    39133514.542 3                         3.646 3        23.733
C21        47.000                                                                                                                                    22003486.748 8 114577871.27908     -1330.694 8        52.993                                                                    22003483.112 7  93103891.49107     -1081.270 7        47.705
C45        49.000                                                                                                                                    21585699.025 8 112402330.56808      -989.198 8        48.035                                                                    21585694.538 8  91336095.57708      -803.792 8        49.658
C22        50.000                                                                                                                                    24015109.975 7 125052750.90007     -3908.976 7        42.262                                                                    24015129.808 5 101615612.52705     -3176.456 5        34.690
> 2025 01 01 08 15 25.0000000  0 31
G18         1.000    25156770.480 3                     -1914.833 3        22.152
G13         2.000    20125490.088 8 105760301.15408       389.816 8        50.677                                    20125486.124 6  82410498.05106       303.752 6        38.408
G30         3.000    21286543.926 7 111861635.99707     -2636.546 7        47.028                                    21286545.723 7  87164913.55407     -2054.451 7        42.946    21286547.658 6  87164845.53706     -2054.485 6        40.384
G14         4.000    20632726.638 6 108425689.91906        55.278 6        36.926                                    20632725.114 4  84487569.50304        43.069 4        24.015    20632727.123 7  84487556.52307        43.090 7        43.179
G07         5.000    23903684.202 6 125614722.44706     -3535.152 6        36.688
G15         6.000    22004496.046 7 115634399.63907      2240.182 7        44.724                                    22004493.717 6  90104685.03706      1745.597 6        36.824    22004497.863 6  90104732.97106      1745.622 6        39.477
G05         7.000    21540482.557 7 113195968.13407     -2672.368 7        47.439                                    21540483.069 6  88204640.30406     -2082.367 6        39.841    21540482.474 6  88204627.30306     -2082.333 6        39.946
G20        11.000    23057391.321 5 121167401.62705     -4189.386 5        35.152
E26        12.000                                                                                                                                    28196312.820 5                      -356.390 5        30.453    28196355.718 3 113534849.59603      -365.130 3        22.686
E02        13.000    26015421.765 3                      2180.839 3        21.976                                                                    26015438.023 6 102090195.09406      1630.085 6        36.250
E25        14.000    23768472.821 6 124904148.25106        24.186 6        39.646                                                                    23768473.902 5  93272701.95805        17.806 5        35.981    23768476.082 7  95705824.00907        18.550 7        43.217
E24        15.000    25942103.690 6 136326658.91006     -2745.343 6        41.492                                                                    25942108.522 7 101802318.35907     -2050.047 7        42.021    25942107.632 6 104458093.90306     -2103.771 6        38.393
E08        17.000    25272931.067 6 132810139.74006      1304.191 6        39.300                                                                    25272932.384 6  99176426.25206       973.923 6        39.297    25272933.094 6 101763608.61306       999.428 6        39.177
E05        21.000    24260684.196 6 127490739.47906     -3091.783 6        37.607                                                                                                                                    24260695.260 6  97687689.71706     -2369.042 6        39.474
E13        22.000    27679047.200 5 145454536.05805     -2704.047 5        31.706                                                                    27679053.828 5 108618543.35405     -2019.363 5        32.946    27679056.431 5                     -2071.961 5        31.525
S23        24.000    38148924.198 6 200473885.44406      -818.517 6        37.539
C05        25.000                                                                                                                                                                                                    39348624.691 5 158440611.86805      -675.541 5        35.267
E03        27.000    23259795.340 7 122231017.79207      -967.052 7        44.766                                                                    23259798.410 7  91276387.46707      -722.148 7        44.126    23259798.399 7  93657530.87107      -741.023 7        45.725
R11        28.000    19119775.679 7 102170347.73807     -1006.170 7        42.883                                                                    19119778.509 7  79465778.02907      -782.558 7        45.285
R12        31.000                                                                                                                                    21743582.462 5  90339181.41015      2210.927 5        32.533
R08        35.000    21289683.395 5 114005251.25805     -4291.962 5        34.924                                                                    21289686.877 6  88670809.79106     -3338.133 6        40.889
C26        37.000                                                                                                                                    23802182.082 6 123944182.49506      1843.256 6        37.996
R01        38.000    19113967.846 7 102175076.79307      -400.003 7        44.161                                                                    19113973.605 6  79469531.07206      -311.180 6        41.435
R18        39.000    23862312.293 5 127378677.72605     -2320.257 5        33.623                                                                    23862327.692 5  99072328.07905     -1804.499 5        34.290
C42        41.000                                                                                                                                    23818341.809 7 124028310.95807      1553.875 7        46.805                                                                    23818351.562 7 100783212.21507      1262.886 7        47.182
C36        42.000                                                                                                                                    23887267.234 6 124387283.02006     -3447.605 6        36.745                                                                    23887276.237 6 101074811.00406     -2801.347 6        38.078
R02        43.000    21791200.865 7 116282027.26007      2849.259 7        46.067                                                                    21791202.996 6  90441567.35906      2216.043 6        37.456
C40        44.000                                                                                                                                    39133481.334 5                         2.236 5        32.365                                                                    39133511.689 3                        -0.463 3        21.262
C21        47.000                                                                                                                                    22004765.490 8 114584531.49808     -1333.300 8        53.056                                                                    22004762.059 7  93109303.42307     -1083.200 7        47.627
C45        49.000                                                                                                                                    21586649.521 7 112407282.36407      -991.383 7        47.818                                                                    21586645.513 8  91340119.28808      -805.342 8        49.770
C22        50.000                                                                                                                                    24018862.353 6 125072299.06306     -3910.221 6        41.211                                                                    24018885.738 5 101631496.96205     -3177.078 5        35.067
> 2025 01 01 08 15 30.0000000  0 31
G18         1.000                                                                                                                                                                    25158566.533 4                     -1495.027 4        25.684
G13         2.000    20125119.774 8 105758358.31308       387.313 8        50.358                                    20125116.697 6  82408984.15006       301.804 6        38.544
G30         3.000    21289053.352 7 111874822.91207     -2638.349 7        46.525                                    21289055.426 7  87175189.05807     -2055.854 7        42.707    21289057.065 6  87175121.04106     -2055.858 6        41.046
G14         4.000    20632674.735 6 108425422.02606        51.810 6        36.578                                    20632674.102 4  84487360.76204        40.378 4        24.105    20632675.783 7  84487347.74407        40.397 7        43.678
G07         5.000    23907049.218 6 125632400.34106     -3536.036 6        36.144
G15         6.000    22002365.068 7 115623203.52907      2238.284 7        44.391                                    22002363.825 6  90095960.78706      1744.117 6        37.267    22002367.305 6  90096008.74206      1744.109 6        40.322
G05         7.000    21543026.880 7 113209338.20307     -2675.620 7        47.209                                    21543027.534 6  88215058.52606     -2084.895 6        39.387    21543027.049 6  88215045.52406     -2084.906 6        39.679
G20        11.000    23061378.194 5 121188351.84405     -4190.736 5        34.919
E26        12.000                                                                                                                                    28196768.617 5                      -358.104 5        30.551    28196813.701 3                      -369.180 3        20.357
E02        13.000                                                                                                                                    26013363.467 5 102082046.95005      1629.149 5        35.238    26013352.948 3 104745063.43103      1671.601 3        23.600
E25        14.000    23768450.332 6 124904033.71106        21.679 6        38.577                                                                    23768451.901 5  93272616.40905        16.097 5        35.886    23768455.323 7  95705736.25007        16.612 7        44.208
E24        15.000    25944716.492 6 136340390.32306     -2747.238 6        41.728                                                                    25944721.774 7 101812572.31207     -2051.557 7        42.299    25944720.316 6 104468615.34606     -2105.298 6        37.936
E08        17.000    25271690.769 6 132803621.00306      1303.292 6        39.273                                                                    25271692.090 6  99171558.34306       973.243 6        38.943    25271692.774 6 101758613.72006       998.557 6        39.201
E05        21.000    24263627.113 6 127506201.96106     -3093.030 6        36.983                                                                    24263641.642 6  95215741.36216     -2309.600 6        38.883    24263638.250 6  97699537.58006     -2369.941 6        39.826
E13        22.000    27681621.138 5 145468061.38505     -2706.049 5        32.365                                                                    27681627.925 5 108628643.40705     -2020.600 5        32.713    27681632.121 5                     -2073.158 5        32.126
S23        24.000    38149701.263 6 200477977.52306      -818.538 6        37.301
C05        25.000                                                                                                                                                                                                    39349464.354 5 158443990.43005      -675.819 5        35.229
E03        27.000    23260716.541 7 122235857.51407      -968.823 7        44.746                                                                    23260719.282 7  91280001.53707      -723.465 7        43.763    23260719.345 7  93661239.22507      -742.392 7        45.854
R11        28.000    19120719.557 7 102175388.66807     -1010.190 7        44.006                                                                    19120722.752 7  79469698.74507      -785.644 7        46.252
R12        31.000                                                                                                                                    21740933.244 5  90328132.89815      2208.715 5        35.181
R08        35.000    21293693.392 5 114026716.86805     -4294.205 5        35.971                                                                    21293695.043 6  88687505.27606     -3340.100 6        41.430
C26        37.000                                                                                                                                    23800412.380 6 123934970.28506      1841.556 6        38.405
R01        38.000    19114344.275 7 102177087.54507      -404.160 7        43.945                                                                    19114348.832 6  79471094.99806      -314.453 6        41.280
R18        39.000    23864488.791 5 127390288.70805     -2324.210 5        32.539                                                                    23864505.473 5  99081358.82305     -1808.059 5        33.814
C42        41.000                                                                                                                                    23816850.999 7 124020546.24307      1551.945 7        46.864                                                                    23816860.438 7 100776902.78407      1261.098 7        47.372
C36        42.000                                                                                                                                    23890579.170 6 124404524.21606     -3448.901 6        36.072                                                                    23890587.897 6 101088820.87206     -2802.251 6        38.847
R02        43.000    21788532.566 7 116267785.17007      2847.713 7        45.088                                                                    21788535.083 6  90430490.19006      2214.726 6        39.640
C40        44.000                                                                                                                                    39133480.229 5                         1.180 5        33.144                                                                    39133509.869 3                         0.555 3        21.381
C21        47.000                                                                                                                                    22006046.995 8 114591205.25208     -1336.221 8        53.277                                                                    22006043.677 7  93114726.42707     -1085.769 7        47.786
C45        49.000                                                                                                                                    21587602.454 7 112412245.49007      -993.914 7        47.663                                                                    21587598.654 8  91344152.27108      -807.646 8        50.035
C22        50.000                                                                                                                                    24022616.339 6 125091853.64906     -3911.581 6        40.405                                                                    24022641.543 5 101647386.69305     -3178.590 5        35.471
> 2025 01 01 08 15 35.0000000  0 32
G18         1.000    25160441.969 4                     -1921.389 4        27.772                                                                                                    25160402.093 4                     -1497.900 4        26.898
G13         2.000    20124752.076 8 105756426.38208       385.109 8        49.898                                    20124749.362 6  82407478.75206       300.084 6        38.700
G30         3.000    21291564.460 7 111888016.86407     -2639.691 7        46.524                                    21291566.510 7  87185470.04407     -2056.900 7        42.497    21291567.656 6  87185402.02906     -2056.946 6        40.937
G14         4.000    20632626.095 6 108425169.11606        48.951 6        37.369                                    20632626.094 4  84487163.71304        38.128 4        24.391    20632628.165 7  84487150.70607        38.063 7        44.316
G07         5.000    23910415.089 5 125650080.09305     -3536.295 5        35.824
G15         6.000    22000235.316 7 115612015.15907      2236.830 7        43.898                                    22000235.252 6  90087242.56606      1742.989 6        37.459    22000237.154 6  90087290.53206      1742.889 6        40.467
G05         7.000    21545573.991 7 113222723.04707     -2678.607 7        46.647                                    21545574.544 6  88225488.26606     -2087.224 6        38.790    21545573.817 6  88225475.25706     -2087.190 6        38.919
G20        11.000    23065364.139 5 121209307.53605     -4191.750 5        34.352
E26        12.000                                                                                                                                    28197227.549 5                      -360.208 5        30.181    28197268.532 3                      -370.762 3        20.500
E02        13.000                                                                                                                                    26011290.517 5 102073901.83205      1628.182 5        34.000
E25        14.000    23768429.656 6 124903930.32706        19.266 6        37.588                                                                    23768431.926 5  93272539.21105        14.368 5        35.633    23768436.344 7  95705657.03207        14.848 7        44.802
