     3.04           OBSERVATION DATA    M                   RINEX VERSION / TYPE
ssrcrin-15.6.1x                         20250101 030000 UTC PGM / RUN BY / DATE 
(00000000023479385599111004) Septentrio proprietary         COMMENT             
ract                                                        MARKER NAME         
01                                                          MARKER NUMBER       
geodetic                                                    MARKER TYPE         
NFB                 CLIMERS@TUW                             OBSERVER / AGENCY   
3296359             SEPT ASTERX SB3 PROB4.14.4              REC # / TYPE / VERS 
Unknown             Unknown                                 ANT # / TYPE        
  4127446.1327  1206914.3767  4695543.2435                  APPROX POSITION XYZ 
        0.0000        0.0000        0.0000                  ANTENNA: DELTA H/E/N
G   23 X1  C1C L1C D1C S1C C1W S1W C2W L2W D2W S2W C2L L2L  SYS / # / OBS TYPES 
       D2L S2L C5Q L5Q D5Q S5Q C1L L1L D1L S1L              SYS / # / OBS TYPES 
E   21 X1  C1C L1C D1C S1C C6C L6C D6C S6C C5Q L5Q D5Q S5Q  SYS / # / OBS TYPES 
       C7Q L7Q D7Q S7Q C8Q L8Q D8Q S8Q                      SYS / # / OBS TYPES 
S    9 X1  C1C L1C D1C S1C C5I L5I D5I S5I                  SYS / # / OBS TYPES 
R   17 X1  C1C L1C D1C S1C C2P L2P D2P S2P C2C L2C D2C S2C  SYS / # / OBS TYPES 
       C3Q L3Q D3Q S3Q                                      SYS / # / OBS TYPES 
C   25 X1  C1P L1P D1P S1P C5P L5P D5P S5P C2I L2I D2I S2I  SYS / # / OBS TYPES 
       C7I L7I D7I S7I C6I L6I D6I S6I C7D L7D D7D S7D      SYS / # / OBS TYPES 
J   17 X1  C1C L1C D1C S1C C2L L2L D2L S2L C5Q L5Q D5Q S5Q  SYS / # / OBS TYPES 
       C1L L1L D1L S1L                                      SYS / # / OBS TYPES 
I    5 X1  C5A L5A D5A S5A                                  SYS / # / OBS TYPES 
SEPTENTRIO RECEIVERS OUTPUT ALIGNED CARRIER PHASES.         COMMENT             
NO FURTHER PHASE SHIFT APPLIED IN THE RINEX ENCODER.        COMMENT             
G L1C                                                       SYS / PHASE SHIFT   
G L2W                                                       SYS / PHASE SHIFT   
G L2L  0.00000                                              SYS / PHASE SHIFT   
G L5Q  0.00000                                              SYS / PHASE SHIFT   
G L1L  0.00000                                              SYS / PHASE SHIFT   
E L1C  0.00000                                              SYS / PHASE SHIFT   
E L6C  0.00000                                              SYS / PHASE SHIFT   
E L5Q  0.00000                                              SYS / PHASE SHIFT   
E L7Q  0.00000                                              SYS / PHASE SHIFT   
E L8Q  0.00000                                              SYS / PHASE SHIFT   
S L1C                                                       SYS / PHASE SHIFT   
S L5I                                                       SYS / PHASE SHIFT   
R L1C                                                       SYS / PHASE SHIFT   
R L2P  0.00000                                              SYS / PHASE SHIFT   
R L2C                                                       SYS / PHASE SHIFT   
R L3Q  0.00000                                              SYS / PHASE SHIFT   
C L1P  0.00000                                              SYS / PHASE SHIFT   
C L5P  0.00000                                              SYS / PHASE SHIFT   
C L2I                                                       SYS / PHASE SHIFT   
C L7I                                                       SYS / PHASE SHIFT   
C L6I                                                       SYS / PHASE SHIFT   
C L7D                                                       SYS / PHASE SHIFT   
J L1C                                                       SYS / PHASE SHIFT   
J L2L  0.00000                                              SYS / PHASE SHIFT   
J L5Q  0.00000                                              SYS / PHASE SHIFT   
J L1L  0.00000                                              SYS / PHASE SHIFT   
I L5A                                                       SYS / PHASE SHIFT   
  2025     1     1     3     0    0.0000000     GPS         TIME OF FIRST OBS   
 C1C    0.000 C2C    0.000 C2P    0.000                     GLONASS COD/PHS/BIS 
DBHZ                                                        SIGNAL STRENGTH UNIT
    18                                                      LEAP SECONDS        
 24 R01  1 R02 -4 R03  5 R04  6 R05  1 R06 -4 R07  5 R08  6 GLONASS SLOT / FRQ #
    R09 -2 R10 -7 R11  0 R12 -1 R13 -2 R14 -7 R15  0 R16 -1 GLONASS SLOT / FRQ #
    R17  4 R18 -3 R19  3 R20  2 R21  4 R22 -3 R23  3 R24  2 GLONASS SLOT / FRQ #
                                                            END OF HEADER       
> 2025 01 01 03 00  0.0000000  0 40
G19         3.000    23083338.184 5 121303756.95305     -2997.570 5        33.401
G31         4.000    23152070.463 3                     -3285.026 3        20.548
E34         6.000    24661499.531 6 129597061.31906       750.515 6        37.637                                                                    24661498.873 7  96777074.76607       560.441 7        43.890    24661499.455 7  99301662.36307       575.070 7        42.631
E04         7.000    26325195.893 4 138339942.84904     -3325.970 4        27.018                                                                    26325195.997 6 103305706.32206     -2483.827 6        38.718
G03         8.000    21031513.274 7 110521326.15407     -2872.998 7        45.956                                    21031510.121 6  86120497.71206     -2238.694 6        41.850    21031510.439 6  86120536.69306     -2238.704 6        40.956
G09         9.000    20544308.799 8 107961059.37908       787.806 8        50.828                                    20544305.012 8  84125510.73908       613.876 8        51.771    20544305.880 7  84125501.72707       613.861 7        45.481
R14        10.000    24503346.159 4                     -3877.082 4        29.460                                                                    24503343.941 3                     -3016.620 3        22.038
G04        11.000    20103035.647 8 105642190.29908     -1080.460 8        48.764                                    20103030.886 6  82318536.46506      -841.914 6        37.006    20103031.971 7  82318555.46007      -841.931 7        45.958
E09        12.000    23562456.838 7 123821649.41707     -1417.588 7        46.036                                                                    23562454.343 6  92464211.86606     -1058.581 6        39.541    23562455.952 6  94876298.53606     -1086.463 6        38.955
E06        14.000    24349179.706 6 127955850.21206     -2528.473 6        40.546                                                                    24349181.228 7  95551430.88007     -1888.216 7        44.223    24349180.436 7  98044045.18707     -1937.557 7        46.298
E11        15.000    26819541.746 4                     -3929.938 4        28.768                                                                    26819534.632 5 105245602.33105     -2934.989 5        33.521
G06        19.000    21771738.729 5 114411370.64005      1057.888 5        32.874                                    21771731.956 3  89151613.50603       824.327 3        21.000    21771734.630 4                       824.622 4        27.689
E36        20.000    23840298.503 6 125281758.66406     -2187.446 6        39.291                                                                    23840301.855 7  93554441.03407     -1633.507 7        46.367    23840301.588 7  95995022.94507     -1676.113 7        43.537
E05        21.000    23289788.646 6 122388687.71406      1155.826 6        40.334                                                                    23289788.148 8  91394178.90208       862.973 8        48.826    23289788.656 8  93778362.31208       885.539 8        49.448
G17        22.000    24348059.265 4                     -3648.604 4        26.335                                                                                                    24348054.523 4                     -2842.914 4        29.602
R07        23.000    20716879.863 7 110899138.66207      1338.751 7        44.027                                                                    20716882.572 4                      1041.326 4        28.919
S23        24.000    38192738.729 6 200704110.49106      -820.496 6        40.572
S36        25.000    38247780.808 6 200993419.82106      -825.174 6        36.378
G11        26.000                                                                                                                                                                    24831768.579 5 101681967.96505      2043.911 5        32.515
R15        28.000    22280789.428 5                      -960.348 5        34.848
R06        29.000    19570268.791 6 104430715.08406     -1585.629 6        38.402
C19        33.000                                                                                                                                    22008232.125 7 114602640.45507      -355.277 7        46.428                                                                    22008227.473 7  93123999.08207      -288.642 7        44.096
R21        34.000    20999117.675 6 112370624.90106     -4416.512 6        41.900                                                                    20999118.336 6  87399307.24806     -3435.017 6        40.400
R05        36.000    23378061.508 4                     -4276.708 4        29.403                                                                    23378031.726 3                     -3326.893 3        22.343
R22        37.000    20218598.616 6 107928230.42306       -77.187 6        41.647                                                                    20218599.950 5  83944140.84105       -60.130 5        35.862
C39        38.000                                                                                                                                    39601856.265 5 206217270.28605     -1773.684 5        32.856
R16        39.000                                                                                                                                    22494017.702 5  93457056.36905      1854.598 5        31.208
C06        41.000                                                                                                                                                                                                    38489127.950 4                     -1045.260 4        26.611    38489067.163 5 162859839.43505     -1098.144 5        33.599
C29        43.000                                                                                                                                    25613079.563 5 133374032.77705     -4207.249 5        33.383                                                                    25613074.512 5                     -3418.624 5        30.566
R23        44.000    22984344.781 5 122950692.96005      2919.701 5        32.234
C16        45.000                                                                                                                                                                                                    39025712.706 5 157140373.20405     -1103.227 5        32.748    39025698.749 5 165130430.14205     -1158.783 5        31.411
C09        46.000                                                                                                                                    38501724.529 6 200488602.99406      -857.253 6        39.084    38501722.296 7 155030507.88207      -663.077 7        42.590    38501721.162 6 162913385.51706      -696.545 6        40.687
C44        48.000                                                                                                                                    24328320.291 8 126684066.24908       308.284 8        48.403                                                                    24328318.775 7 102941081.11307       250.585 7        43.507
C37        49.000                                                                                                                                    24788220.485 4                      -368.798 4        29.782                                                                    24788223.286 5 104887095.91605      -299.580 5        32.449
C22        50.000                                                                                                                                    24638851.327 6 128300902.84806      1733.844 6        39.745                                                                    24638849.852 5 104254982.16905      1409.106 5        33.850
C35        51.000                                                                                                                                                                                                                                                                    23399648.426 6  99011632.21106     -1882.974 6        37.728
C20        55.000                                                                                                                                    23228973.774 8 120959344.94708     -2756.969 8        48.543                                                                    23228966.238 7  98289454.28707     -2240.179 7        43.393
C12        56.000                                                                                                                                    25994465.235 5 135360108.54405      1588.135 5        33.904    25994491.022 4                      1228.719 4        25.564    25994458.985 6 109991086.07606      1290.260 6        40.498
C23        57.000                                                                                                                                    26903514.896 3                     -2737.233 3        22.838
I09        58.000    37491348.851 6 147124103.09006      -885.147 6        39.369
> 2025 01 01 03 00  5.0000000  0 40
G02         1.000    24813609.015 3                     -4374.087 3        20.667
G19         3.000    23086190.897 5 121318749.19305     -2999.404 5        32.186
G31         4.000    23155162.639 4                     -3285.687 4        26.778                                                                                                    23155159.762 3                     -2559.690 3        19.582
E34         6.000    24660786.862 6 129593312.99506       748.619 6        36.922                                                                    24660785.523 7  96774275.69007       559.101 7        43.934    24660786.206 7  99298790.27507       573.737 7        43.134
E04         7.000    26328361.000 4 138356575.35804     -3325.777 4        24.767                                                                    26328361.173 6 103318126.70506     -2484.024 6        38.126    26328387.613 5 106013381.08915     -2549.035 5        32.910
G03         8.000    21034247.454 7 110535694.79307     -2874.610 7        45.314                                    21034244.393 6  86131694.04606     -2239.954 6        41.125    21034244.613 6  86131733.02506     -2239.803 6        40.486
G09         9.000    20543560.249 8 107957125.55208       785.715 8        50.751                                    20543556.655 8  84122445.42108       612.246 8        52.193    20543557.210 7  84122436.41407       612.157 7        45.886
R14        10.000    24506987.996 4                     -3879.875 4        29.602                                                                    24506978.020 3                     -3013.058 3        21.643
G04        11.000    20104064.355 7 105647598.14607     -1082.725 7        47.444                                    20104059.842 6  82322750.37606      -843.682 6        36.798    20104060.767 7  82322769.38307      -843.706 7        46.410
E09        12.000    23563806.106 7 123828740.49107     -1418.936 7        45.646                                                                    23563804.454 6  92469507.14906     -1059.906 6        40.365    23563804.918 6  94881731.94706     -1087.429 6        38.306
E06        14.000    24351585.544 6 127968495.34306     -2529.541 6        39.544                                                                    24351587.734 7  95560873.69307     -1888.987 7        44.767    24351586.680 7  98053734.33507     -1938.244 7        45.506
E11        15.000    26823280.376 4                     -3930.666 4        28.303                                                                    26823273.728 5 105260277.66105     -2935.237 5        34.024
G06        19.000    21770730.275 5 114406086.30405      1055.801 5        31.962                                    21770725.809 2  89147495.87402       822.703 2        17.283    21770730.634 4                       822.503 4        29.896
E36        20.000    23842381.062 6 125292700.54206     -2189.415 6        37.611                                                                    23842383.922 7  93562611.91407     -1634.884 7        46.355    23842384.247 7  96003406.98207     -1677.580 7        42.588
E05        21.000    23288689.693 6 122382911.73906      1154.625 6        40.300                                                                    23288689.109 8  91389865.67508       862.133 8        49.160    23288689.448 8  93773936.58108       884.659 8        49.424
G17        22.000    24351530.420 4                     -3649.429 4        24.887                                                                                                    24351522.834 4                     -2843.546 4        29.166
R07        23.000    20715631.112 7 110892448.72007      1337.027 7        43.736                                                                    20715634.698 5                      1040.008 5        32.952
S23        24.000    38193520.740 6 200708214.00306      -820.665 6        40.918
S36        25.000    38248561.245 5 200997546.41205      -825.237 5        35.329
G11        26.000    24829275.054 4                      2621.570 4        27.880                                                                                                    24829274.154 5 101671750.50105      2042.784 5        31.940
R15        28.000    22281683.111 5                      -965.142 5        33.018                                                                    22281637.620 4                      -750.676 4        27.186
R06        29.000    19571756.416 6 104438647.91406     -1587.510 6        39.447
C19        33.000                                                                                                                                    22008574.292 7 114604419.93807      -356.634 7        47.408                                                                    22008569.207 7  93125445.06507      -289.798 7        44.480
R21        34.000    21003247.770 7 112392714.17507     -4419.217 7        43.513                                                                    21003245.325 6  87416487.77906     -3437.212 6        39.369
R05        36.000    23382057.712 4                     -4276.764 4        25.459                                                                    23382028.252 3                     -3330.868 3        19.970
R22        37.000    20218672.867 7 107928627.25707       -81.693 7        42.396                                                                    20218674.704 5  83944449.47805       -63.674 5        35.486
C39        38.000                                                                                                                                    39603561.225 5 206226139.08205     -1773.818 5        32.725
R16        39.000    22491781.725 6 120147079.03516      2381.963 6        36.767                                                                    22491786.136 5  93447788.84605      1852.589 5        31.426
C06        41.000                                                                                                                                                                                                                                                                    38490365.130 5 162865332.01505     -1098.804 5        33.443
C29        43.000                                                                                                                                    25617119.395 5 133395069.70305     -4207.424 5        32.485
C16        45.000                                                                                                                                    39027067.398 5                     -1426.389 5        31.464    39027083.806 5 157145887.84605     -1102.972 5        30.853    39027066.688 5 165136225.22805     -1159.290 5        32.365
C09        46.000                                                                                                                                    38502548.740 6 200492890.88106      -857.956 6        39.453    38502545.707 7 155033823.52707      -663.346 7        42.269    38502544.614 6 162916869.78806      -697.246 6        40.653
C44        48.000                                                                                                                                    24328025.126 8 126682530.42608       305.861 8        48.515                                                                    24328023.810 7 102939833.13507       248.430 7        43.501
C37        49.000                                                                                                                                    24788576.588 5                      -371.525 5        30.113                                                                    24788578.698 5 104888599.89405      -301.880 5        32.126
C22        50.000                                                                                                                                    24637183.470 6 128292233.46906      1733.550 6        40.987                                                                    24637179.330 5 104247937.58005      1408.603 5        34.124
C35        51.000                                                                                                                                                                                                                                                                    23401875.829 6  99021053.42406     -1885.281 6        38.979
C20        55.000                                                                                                                                    23231620.466 8 120973131.45608     -2757.773 8        48.805                                                                    23231613.394 7  98300656.95907     -2241.047 7        43.276
C12        56.000                                                                                                                                    25992945.211 5 135352173.71605      1586.099 5        35.743    25992964.375 4                      1226.859 4        29.545    25992935.474 6 109984638.39906      1288.542 6        40.944
C23        57.000                                                                                                                                    26906142.976 3                     -2741.376 3        21.476
I09        58.000    37492476.212 6 147128528.46006      -885.059 6        39.523
> 2025 01 01 03 00 10.0000000  0 40
G02         1.000    24817780.565 3                     -4375.458 3        20.500
G19         3.000    23089048.128 5 121333753.58005     -3001.787 5        33.479
G31         4.000    23158295.426 3                     -3287.180 3        22.971                                                                                                    23158291.400 3                     -2561.858 3        20.500
E34         6.000    24660074.702 6 129589573.90306       746.971 6        36.011                                                                    24660073.966 7  96771483.49807       557.751 7        43.818    24660074.247 7  99295925.23907       572.359 7        43.896
E04         7.000    26331528.010 4 138373210.12804     -3327.394 4        26.216                                                                    26331526.842 6 103330548.72006     -2484.633 6        37.758
G03         8.000    21036982.448 7 110550072.04807     -2876.249 7        45.174                                    21036980.181 6  86142897.09406     -2241.237 6        40.365    21036980.330 6  86142936.09206     -2241.253 6        39.622
G09         9.000    20542813.788 8 107953203.00708       783.473 8        50.785                                    20542810.484 8  84119388.89208       610.500 8        52.480    20542810.864 7  84119379.88007       610.486 7        45.923
R14        10.000                                                                                                                                    24510633.857 3                     -3019.072 3        20.714
G04        11.000    20105095.694 7 105653018.33607     -1085.201 7        47.570                                    20105091.236 6  82326973.89106      -845.612 6        36.711    20105092.146 7  82326992.89907      -845.588 7        47.072
E09        12.000    23565157.089 7 123835839.34107     -1420.435 7        44.813                                                                    23565155.926 6  92474808.20206     -1060.620 6        40.329    23565155.478 6  94887171.32706     -1088.412 6        38.538
E06        14.000    24353993.037 6 127981146.04806     -2530.535 6        38.904                                                                    24353995.181 7  95570320.64907     -1889.743 7        45.326    24353993.936 7  98063427.73007     -1938.947 7        45.476
E11        15.000    26827018.303 4                     -3931.221 4        28.749                                                                    26827013.945 5 105274955.55005     -2935.812 5        34.352    26827009.837 4                     -3013.036 4        24.902
G06        19.000                                                                                                                                                                    21769730.247 5                       820.452 5        31.487
E36        20.000    23844465.507 5 125303653.07305     -2191.576 5        35.348                                                                    23844467.985 7  93570790.74307     -1636.478 7        46.515    23844468.930 6  96011799.18806     -1679.289 6        41.604
E05        21.000    23287592.383 6 122377142.10306      1153.286 6        40.031                                                                    23287591.423 8  91385557.16308       861.345 8        49.520    23287591.334 8  93769515.67908       883.740 8        49.166
G17        22.000    24354999.558 4                     -3650.046 4        27.425
R07        23.000    20714384.059 7 110885767.84307      1335.411 7        43.236                                                                    20714384.603 5  86244454.61615      1038.752 5        33.293
S23        24.000    38194304.303 6 200712317.62406      -820.424 6        40.415
S36        25.000    38249346.032 5 201001671.84405      -825.120 5        35.000
G11        26.000    24826783.600 4                      2621.587 4        27.377                                                                                                    24826780.204 5 101661536.80405      2042.461 5        31.389
R15        28.000                                                                                                                                    22282544.018 4                      -753.383 4        28.559
R06        29.000    19573245.434 6 104446591.52606     -1589.826 6        40.422
C19        33.000                                                                                                                                    22008917.588 7 114606206.67707      -357.991 7        47.270                                                                    22008912.208 7  93126896.93907      -290.880 7        44.164
R21        34.000    21007382.859 7 112414817.69607     -4422.089 7        42.093                                                                    21007375.689 6  87433679.37606     -3439.445 6        38.541
R05        36.000    23386064.474 3                     -4276.857 3        23.105                                                                    23386029.504 3                     -3328.226 3        19.731
R22        37.000    20218753.534 7 107929046.65807       -86.083 7        44.149                                                                    20218749.690 5  83944775.58605       -66.482 5        32.395
C39        38.000                                                                                                                                    39605265.826 5 206235010.11005     -1774.349 5        32.904
R16        39.000    22489556.956 5 120135175.88705      2379.589 5        33.078                                                                    22489560.112 5  93438530.84505      1850.717 5        32.365
C06        41.000                                                                                                                                                                                                                                                                    38491663.628 5 162870827.14905     -1099.347 5        32.904
C29        43.000                                                                                                                                    25621159.512 5 133416107.23905     -4207.191 5        33.581
C16        45.000                                                                                                                                    39028431.373 5                     -1427.061 5        31.509    39028454.292 5 157151404.74605     -1103.589 5        31.887    39028435.429 5 165142022.63205     -1159.483 5        32.509
C09        46.000                                                                                                                                    38503372.457 6 200497182.35906      -858.582 6        39.294    38503370.043 7 155037141.97007      -663.760 7        42.271    38503368.683 6 162920356.96106      -697.573 6        40.560
C44        48.000                                                                                                                                    24327732.574 8 126681007.87508       303.257 8        48.413                                                                    24327731.355 7 102938595.92607       246.415 7        43.500
C37        49.000                                                                                                                                    24788934.286 4                      -374.120 4        29.668                                                                    24788935.615 5 104890114.94305      -304.173 5        31.502
C22        50.000                                                                                                                                    24635520.444 6 128283567.16206      1733.068 6        39.892                                                                    24635510.876 5 104240895.49205      1408.092 5        34.233
C35        51.000                                                                                                                                                                                                                                                                    23404105.095 6  99030484.64806     -1887.204 6        38.204
C20        55.000                                                                                                                                    23234268.674 8 120986922.57708     -2758.631 8        48.502                                                                    23234261.825 7  98311863.35507     -2241.520 7        42.984
C12        56.000                                                                                                                                    25991425.763 5 135344248.36405      1584.211 5        34.838    25991439.390 5                      1224.986 5        30.943    25991413.871 6 109978198.39306      1287.307 6        41.335
C23        57.000                                                                                                                                    26908768.377 3                     -2741.545 3        20.857
I09        58.000    37493604.656 6 147132954.38706      -885.167 6        39.607
> 2025 01 01 03 00 15.0000000  0 40
G02         1.000    24821952.195 3                     -4379.141 3        20.381
G19         3.000    23091906.318 5 121348769.82105     -3004.533 5        35.748
G31         4.000    23161429.408 4                     -3291.081 4        25.188                                                                                                    23161421.236 3                     -2565.718 3        20.500
E34         6.000    24659363.884 6 129585843.62206       745.271 6        36.038                                                                    24659364.329 7  96768697.91207       556.463 7        44.149    24659363.949 7  99293066.97907       570.954 7        43.456
E04         7.000    26334699.704 5 138389846.52405     -3327.349 5        30.415                                                                    26334692.703 6 103342972.05006     -2484.765 6        37.474    26334698.089 5 106038874.58705     -2549.484 5        35.143
G03         8.000    21039719.511 7 110564457.45007     -2877.892 7        44.301                                    21039717.427 6  86154106.50206     -2242.514 6        39.219    21039718.180 6  86154145.49506     -2242.498 6        39.321
G09         9.000    20542069.441 8 107949291.33508       781.213 8        51.491                                    20542066.339 8  84116340.83908       608.737 8        52.669    20542066.418 7  84116331.83207       608.788 7        45.514
R14        10.000    24514283.032 4                     -3884.762 4        28.540
G04        11.000    20106129.489 7 105658450.42207     -1087.583 7        47.432                                    20106124.936 6  82331206.68706      -847.468 6        36.541    20106125.463 7  82331225.68907      -847.454 7        47.007
E09        12.000    23566509.615 7 123842945.57207     -1421.981 7        44.585                                                                    23566508.475 6  92480114.81106     -1061.882 6        40.563    23566507.235 6  94892616.35706     -1089.668 6        38.628
E06        14.000    24356401.300 6 127993801.89906     -2531.772 6        38.910                                                                    24356403.461 7  95579771.44307     -1890.501 7        45.023    24356402.085 7  98073125.07307     -1939.854 7        45.159
E11        15.000    26830756.057 4                     -3932.780 4        27.078                                                                    26830755.230 5 105289635.67205     -2936.363 5        34.395    26830751.450 4                     -3012.335 4        24.797
G06        19.000                                                                                                                                                                    21768729.494 5                       818.371 5        33.784
E36        20.000    23846550.943 4 125314615.78804     -2193.315 4        28.967                                                                    23846554.035 7  93578977.21207     -1638.039 7        46.414    23846555.160 6  96020199.22406     -1680.899 6        39.063
E05        21.000    23286496.025 6 122371378.37106      1152.188 6        39.541                                                                    23286494.645 8  91381253.07408       860.428 8        49.286    23286494.291 8  93765099.30908       882.830 8        48.919
G17        22.000                                                                                                                                                                    24358445.138 4                     -2844.705 4        26.251
R07        23.000    20713138.989 7 110879095.24107      1333.687 7        45.740                                                                    20713138.454 5  86239264.65805      1037.543 5        32.251
S23        24.000    38195082.351 6 200716420.66506      -820.461 6        39.784
S36        25.000    38250135.113 5 201005796.60305      -824.635 5        35.852
G11        26.000    24824291.605 4                      2619.914 4        26.683                                                                                                    24824287.822 5 101651326.57205      2041.308 5        31.472
R15        28.000    22283498.247 4 119076247.49014      -973.130 4        28.332                                                                    22283463.075 5                      -757.315 5        33.898
R06        29.000    19574735.150 6 104454545.27706     -1591.726 6        39.793
C19        33.000                                                                                                                                    22009262.058 7 114608000.27907      -359.406 7        47.505                                                                    22009256.562 7  93128354.38507      -292.028 7        44.054
R21        34.000    21011515.287 6 112436935.06106     -4424.856 6        41.802                                                                    21011508.365 6  87450881.76306     -3441.403 6        37.932
R05        36.000    23390043.279 3                     -4275.236 3        22.743                                                                    23390045.679 3                     -3326.816 3        20.714
R22        37.000    20218836.999 7 107929488.28307       -90.551 7        44.400                                                                    20218831.019 5  83945119.10505       -70.536 5        33.527
C39        38.000                                                                                                                                    39606969.033 5 206243882.93805     -1774.601 5        31.517
R16        39.000    22487334.066 5 120123284.79405      2377.090 5        30.785                                                                    22487332.756 5  93429282.21905      1848.875 5        31.381
C06        41.000                                                                                                                                    38493037.998 3                     -1352.723 3        22.648                                                                    38492962.830 5 162876324.57505     -1099.787 5        33.527
C29        43.000                                                                                                                                    25625200.141 5 133437144.93205     -4207.709 5        33.084
C16        45.000                                                                                                                                    39029800.436 5                     -1427.659 5        32.737    39029822.869 5 157156923.56105     -1104.060 5        33.395    39029805.400 5 165147822.12705     -1160.171 5        32.257
C09        46.000                                                                                                                                    38504197.581 6 200501476.94406      -859.389 6        39.480    38504194.318 6 155040462.82306      -664.404 6        41.333    38504193.320 6 162923846.65806      -698.105 6        40.482
C44        48.000                                                                                                                                    24327442.447 8 126679498.19808       300.665 8        48.157                                                                    24327441.300 7 102937369.18607       244.281 7        43.410
C37        49.000                                                                                                                                    24789293.071 5                      -376.691 5        31.230                                                                    24789295.488 5 104891640.63505      -306.055 5        31.675
C22        50.000                                                                                                                                    24633858.422 6 128274903.49406      1732.548 6        38.438                                                                    24633845.595 5 104233855.52305      1408.003 5        34.167
C35        51.000                                                                                                                                                                                                                                                                    23406335.722 6  99039925.56606     -1888.996 6        36.673
C20        55.000                                                                                                                                    23236917.566 8 121000717.89608     -2759.465 8        48.625                                                                    23236911.241 7  98323073.16807     -2242.200 7        42.811
C12        56.000                                                                                                                                    25989905.458 5 135336332.02905      1582.583 5        34.338    25989916.606 5 104650620.96715      1223.727 5        35.381    25989893.588 7 109971765.68107      1285.892 7        42.021
C23        57.000                                                                                                                                    26911397.114 3                     -2745.742 3        22.248
I09        58.000    37494732.350 6 147137380.62406      -885.322 6        40.153
> 2025 01 01 03 00 20.0000000  0 41
G02         1.000    24826129.710 3                     -4376.234 3        19.940
G19         3.000    23094766.317 5 121363798.69005     -3006.943 5        35.505
G31         4.000    23164565.576 4                     -3293.730 4        29.431                                                                                                    23164558.249 4                     -2566.894 4        26.563
E34         6.000    24658655.522 6 129582123.27306       743.143 6        36.563                                                                    24658656.284 7  96765919.69207       554.966 7        44.333    24658655.707 7  99290216.29407       569.440 7        43.833
E04         7.000    26337865.112 5 138406485.74505     -3328.341 5        30.453                                                                    26337859.408 6 103355397.45306     -2485.220 6        37.584    26337868.000 5 106051624.10705     -2549.905 5        35.990
G03         8.000    21042457.731 7 110578852.10807     -2879.811 7        43.649                                    21042456.385 6  86165323.11506     -2244.010 6        38.715    21042457.944 6  86165362.11106     -2243.966 6        39.811
G09         9.000    20541327.554 8 107945391.57708       778.835 8        52.565                                    20541324.354 8  84113302.07008       606.880 8        52.975    20541324.234 7  84113293.06607       606.804 7        45.511
G04        11.000    20107165.723 8 105663895.44808     -1090.200 8        48.236                                    20107161.141 6  82335449.55606      -849.501 6        36.612    20107161.582 7  82335468.57507      -849.503 7        47.586
E09        12.000    23567863.463 7 123850060.18607     -1423.663 7        44.278                                                                    23567862.264 6  92485427.67506     -1063.120 6        40.343    23567861.351 6  94898067.82106     -1090.986 6        39.592
E06        14.000    24358811.928 6 128006463.91506     -2532.933 6        39.661                                                                    24358812.516 7  95589226.84807     -1891.494 7        44.674    24358811.590 7  98082827.14107     -1940.911 7        45.430
E11        15.000    26834494.709 4                     -3933.679 4        26.503                                                                    26834496.699 5 105304318.80805     -2937.028 5        34.505    26834496.326 4                     -3013.463 4        24.526
G28        17.000                                                                                                                                                                    25497155.407 3                     -3230.727 3        20.024
G06        19.000    21767734.344 3 114390314.13603      1046.735 3        22.800                                    21767724.783 3  89135205.90403       815.658 3        18.687    21767731.013 5  89135221.86115       816.169 5        33.431
E36        20.000    23848638.761 4 125325589.79104     -2195.713 4        29.336                                                                    23848642.396 7  93587172.06907     -1639.808 7        45.716    23848642.420 5  96028607.78405     -1682.521 5        34.719
E05        21.000    23285401.062 6 122365621.59406      1150.661 6        40.799                                                                    23285399.077 8  91376954.17108       859.243 8        48.967    23285398.774 8  93760688.25808       881.724 8        48.760
G17        22.000    24361913.380 4                     -3651.639 4        29.791                                                                                                    24361916.920 4                     -2846.273 4        24.030
R07        23.000    20711894.746 7 110872432.22707      1331.715 7        45.702                                                                    20711891.433 5  86234082.33205      1035.808 5        33.030
S23        24.000    38195861.921 6 200720524.13406      -820.639 6        39.012
S36        25.000    38250924.855 6 201009920.75506      -824.686 6        36.333
G11        26.000    24821797.397 4                      2618.966 4        28.123                                                                                                    24821794.963 5 101641120.63205      2040.922 5        32.683
R15        28.000    22284418.570 5                      -978.194 5        31.177                                                                    22284374.444 5  92618517.75415      -760.756 5        33.629
R06        29.000    19576227.788 6 104462510.41406     -1594.095 6        38.796
C19        33.000                                                                                                                                    22009608.368 7 114609801.75307      -361.034 7        46.548                                                                    22009602.668 7  93129818.21807      -293.294 7        43.843
R21        34.000    21015645.377 6 112459067.22306     -4427.759 6        39.799                                                                    21015645.016 6  87468095.72506     -3443.965 6        38.483
R05        36.000    23394041.911 4                     -4276.708 4        28.872
R22        37.000    20218923.246 7 107929953.13007       -95.221 7        45.117                                                                    20218921.987 5  83945480.61205       -74.048 5        33.180
C39        38.000                                                                                                                                    39608672.642 5 206252758.67405     -1775.710 5        31.992                                                                    39608672.768 4                     -1442.504 4        28.038
R16        39.000    22485108.272 6 120111406.46106      2374.569 6        36.287                                                                    22485112.145 5  93420043.48805      1846.797 5        31.087
C06        41.000                                                                                                                                    38494330.337 5                     -1353.997 5        30.038    38494257.840 4                     -1047.319 4        29.573    38494262.470 5 162881825.01205     -1100.193 5        32.162
C29        43.000                                                                                                                                    25629240.061 5 133458183.85305     -4207.974 5        34.895
R23        44.000    22973437.447 5                      2910.420 5        32.635
C16        45.000                                                                                                                                    39031172.701 5                     -1428.350 5        32.317    39031192.063 5 157162445.04905     -1104.578 5        31.283    39031173.925 5 165153624.47205     -1160.938 5        31.600
C09        46.000                                                                                                                                    38505022.940 6 200505775.74006      -860.130 6        39.673    38505019.611 6 155043786.92806      -664.948 6        41.597    38505018.951 6 162927339.78606      -698.852 6        40.977
C44        48.000                                                                                                                                    24327155.264 7 126678002.41507       297.822 7        47.596                                                                    24327153.857 7 102936153.72007       242.095 7        43.071
C37        49.000                                                                                                                                    24789660.853 5                      -379.569 5        35.109                                                                    24789659.847 5 104893177.96705      -308.459 5        31.192
C22        50.000                                                                                                                                    24632193.007 6 128266243.49106      1731.635 6        36.703                                                                    24632183.729 5 104226818.50405      1407.223 5        33.988
C35        51.000                                                                                                                                                                                                                                                                    23408568.195 5  99049377.01005     -1891.178 5        34.943
C20        55.000                                                                                                                                    23239568.156 7 121014518.44407     -2760.565 7        47.596                                                                    23239561.909 7  98334287.24707     -2243.125 7        43.285
C12        56.000                                                                                                                                    25988381.105 5 135328425.79405      1580.018 5        34.195    25988394.871 6 104644507.37506      1221.914 6        37.206    25988375.405 7 109965341.19707      1284.118 7        42.557
C23        57.000                                                                                                                                    26914025.038 3                     -2750.386 3        20.143
I09        58.000    37495861.071 6 147141807.84206      -885.464 6        40.613
> 2025 01 01 03 00 25.0000000  0 42
G02         1.000    24830292.661 3                     -4375.862 3        20.310
G19         3.000    23097630.558 5 121378839.67805     -3009.535 5        35.648
G31         4.000                                                                                                                                                                    23167703.996 3                     -2568.744 3        19.164
E34         6.000    24657948.422 5 129578412.10305       741.406 5        33.174                                                                    24657950.489 7  96763148.37707       553.502 7        44.745    24657949.098 7  99287372.68107       568.053 7        42.893
E04         7.000    26341031.698 5 138423127.15905     -3328.688 5        33.060                                                                    26341025.808 6 103367824.45606     -2485.394 6        36.597    26341040.737 6 106064375.29206     -2550.327 6        36.314
G03         8.000    21045198.760 6 110593255.33306     -2881.380 6        41.647                                    21045197.047 6  86176546.40506     -2245.232 6        37.792    21045198.814 6  86176585.40506     -2245.360 6        38.988
G09         9.000    20540587.548 8 107941503.11008       776.540 8        53.176                                    20540584.416 8  84110272.09308       605.098 8        52.993    20540584.629 7  84110263.09407       605.086 7        45.694
R14        10.000                                                                                                                                    24521555.085 4                     -3025.906 4        24.211
G04        11.000    20108204.196 8 105669352.78608     -1092.679 8        49.353                                    20108199.693 6  82339702.03506      -851.437 6        37.183    20108199.823 7  82339721.04007      -851.454 7        47.143
E09        12.000    23569219.161 7 123857182.55907     -1425.235 7        43.735                                                                    23569217.397 6  92490746.33106     -1064.338 6        39.486    23569216.710 6  94903525.21506     -1092.087 6        39.477
E06        14.000    24361222.641 6 128019131.47406     -2534.014 6        41.781                                                                    24361223.251 7  95598686.36907     -1892.320 7        44.620    24361222.455 7  98092533.42607     -1941.635 7        46.088
E11        15.000                                                                                                                                    26838237.995 5 105319004.42605     -2937.391 5        34.567    26838245.876 4                     -3013.486 4        24.842
G28        17.000                                                                                                                                                                    25501103.162 3                     -3235.314 3        18.060
G06        19.000    21766736.064 6 114384957.25216      1044.630 6        36.106                                    21766730.222 3                       813.856 3        23.371    21766736.303 5  89131146.49205       814.154 5        34.676
E36        20.000    23850730.649 5 125336574.46805     -2198.220 5        32.713                                                                    23850732.507 7  93595374.86907     -1641.361 7        45.535    23850728.146 4  96037024.37904     -1683.191 4        27.485
E05        21.000    23284305.896 6 122359871.08006      1149.579 6        40.601                                                                    23284304.784 8  91372659.97408       858.372 8        49.453    23284304.565 8  93756282.04108       880.745 8        49.044
G17        22.000    24365393.581 5 128040980.99515     -3652.128 5        31.072                                                                                                    24365388.813 3                     -2843.234 3        19.164
R07        23.000    20710650.076 7 110865778.10907      1330.005 7        46.334                                                                    20710650.092 6  86228906.98106      1034.408 6        36.529
S23        24.000    38196632.337 6 200724627.54606      -820.555 6        38.790
S36        25.000    38251718.935 6 201014044.94106      -824.889 6        38.465
G11        26.000    24819306.936 4                      2617.663 4        27.497                                                                                                    24819302.600 4 101630918.49304      2040.147 4        29.934
R15        28.000                                                                                                                                    22285292.024 6  92622330.13906      -764.195 6        36.888
R06        29.000    19577721.636 6 104470486.27906     -1596.297 6        38.952
C19        33.000                                                                                                                                    22009956.100 7 114611610.47907      -362.481 7        47.211                                                                    22009950.228 7  93131287.98207      -294.598 7        44.161
R21        34.000    21019784.841 6 112481213.51506     -4430.549 6        37.089                                                                    21019783.813 6  87485320.70106     -3446.254 6        39.697
R05        36.000                                                                                                                                    23398040.774 3                     -3326.184 3        20.286
R22        37.000    20219013.648 7 107930440.57907       -99.814 7        44.504                                                                    20219009.463 5  83945859.68705       -77.499 5        30.649
C39        38.000                                                                                                                                    39610371.478 4                     -1775.892 4        28.834                                                                    39610376.613 4                     -1442.161 4        25.158
R16        39.000    22482887.761 6 120099540.68206      2371.900 6        37.856                                                                    22482899.467 4  93410814.46904      1845.180 4        29.934
C06        41.000                                                                                                                                                                                                    38495563.197 5                     -1047.595 5        30.083    38495562.513 5 162887328.14205     -1100.723 5        30.415
C29        43.000                                                                                                                                    25633281.539 5 133479223.25805     -4207.941 5        34.043
R23        44.000    22970715.508 5 122877845.13115      2908.137 5        35.876
C16        45.000                                                                                                                                    39032548.565 4                     -1428.109 4        28.142    39032563.108 5 157167968.88705     -1104.771 5        32.521    39032546.377 5 165159429.20105     -1161.135 5        31.223
