     3.04           OBSERVATION DATA    M                   RINEX VERSION / TYPE
ssrcrin-15.6.1x                         20250101 154500 UTC PGM / RUN BY / DATE 
(00000000023479385599111004) Septentrio proprietary         COMMENT             
ract                                                        MARKER NAME         
01                                                          MARKER NUMBER       
geodetic                                                    MARKER TYPE         
NFB                 CLIMERS@TUW                             OBSERVER / AGENCY   
3296359             SEPT ASTERX SB3 PROB4.14.4              REC # / TYPE / VERS 
Unknown             Unknown                                 ANT # / TYPE        
  4127446.6807  1206915.9303  4695542.6564                  APPROX POSITION XYZ 
        0.0000        0.0000        0.0000                  ANTENNA: DELTA H/E/N
G   23 X1  C1C L1C D1C S1C C1W S1W C2W L2W D2W S2W C2L L2L  SYS / # / OBS TYPES 
       D2L S2L C5Q L5Q D5Q S5Q C1L L1L D1L S1L              SYS / # / OBS TYPES 
E   21 X1  C1C L1C D1C S1C C6C L6C D6C S6C C5Q L5Q D5Q S5Q  SYS / # / OBS TYPES 
       C7Q L7Q D7Q S7Q C8Q L8Q D8Q S8Q                      SYS / # / OBS TYPES 
S    9 X1  C1C L1C D1C S1C C5I L5I D5I S5I                  SYS / # / OBS TYPES 
R   17 X1  C1C L1C D1C S1C C2P L2P D2P S2P C2C L2C D2C S2C  SYS / # / OBS TYPES 
       C3Q L3Q D3Q S3Q                                      SYS / # / OBS TYPES 
C   25 X1  C1P L1P D1P S1P C5P L5P D5P S5P C2I L2I D2I S2I  SYS / # / OBS TYPES 
       C7I L7I D7I S7I C6I L6I D6I S6I C7D L7D D7D S7D      SYS / # / OBS TYPES 
J   17 X1  C1C L1C D1C S1C C2L L2L D2L S2L C5Q L5Q D5Q S5Q  SYS / # / OBS TYPES 
       C1L L1L D1L S1L                                      SYS / # / OBS TYPES 
I    5 X1  C5A L5A D5A S5A                                  SYS / # / OBS TYPES 
SEPTENTRIO RECEIVERS OUTPUT ALIGNED CARRIER PHASES.         COMMENT             
NO FURTHER PHASE SHIFT APPLIED IN THE RINEX ENCODER.        COMMENT             
G L1C                                                       SYS / PHASE SHIFT   
G L2W                                                       SYS / PHASE SHIFT   
G L2L  0.00000                                              SYS / PHASE SHIFT   
G L5Q  0.00000                                              SYS / PHASE SHIFT   
G L1L  0.00000                                              SYS / PHASE SHIFT   
E L1C  0.00000                                              SYS / PHASE SHIFT   
E L6C  0.00000                                              SYS / PHASE SHIFT   
E L5Q  0.00000                                              SYS / PHASE SHIFT   
E L7Q  0.00000                                              SYS / PHASE SHIFT   
E L8Q  0.00000                                              SYS / PHASE SHIFT   
S L1C                                                       SYS / PHASE SHIFT   
S L5I                                                       SYS / PHASE SHIFT   
R L1C                                                       SYS / PHASE SHIFT   
R L2P  0.00000                                              SYS / PHASE SHIFT   
R L2C                                                       SYS / PHASE SHIFT   
R L3Q  0.00000                                              SYS / PHASE SHIFT   
C L1P  0.00000                                              SYS / PHASE SHIFT   
C L5P  0.00000                                              SYS / PHASE SHIFT   
C L2I                                                       SYS / PHASE SHIFT   
C L7I                                                       SYS / PHASE SHIFT   
C L6I                                                       SYS / PHASE SHIFT   
C L7D                                                       SYS / PHASE SHIFT   
J L1C                                                       SYS / PHASE SHIFT   
J L2L  0.00000                                              SYS / PHASE SHIFT   
J L5Q  0.00000                                              SYS / PHASE SHIFT   
J L1L  0.00000                                              SYS / PHASE SHIFT   
I L5A                                                       SYS / PHASE SHIFT   
  2025     1     1    15    45    0.0000000     GPS         TIME OF FIRST OBS   
 C1C    0.000 C2C    0.000 C2P    0.000                     GLONASS COD/PHS/BIS 
DBHZ                                                        SIGNAL STRENGTH UNIT
    18                                                      LEAP SECONDS        
 24 R01  1 R02 -4 R03  5 R04  6 R05  1 R06 -4 R07  5 R08  6 GLONASS SLOT / FRQ #
    R09 -2 R10 -7 R11  0 R12 -1 R13 -2 R14 -7 R15  0 R16 -1 GLONASS SLOT / FRQ #
    R17  4 R18 -3 R19  3 R20  2 R21  4 R22 -3 R23  3 R24  2 GLONASS SLOT / FRQ #
                                                            END OF HEADER       
> 2025 01 01 15 45  0.0000000  0 40
G18         1.000    23537538.132 5 123690663.95605      2716.207 5        35.976                                    23537543.036 3  96382431.67003      2116.519 3        22.705    23537543.564 6  96382448.70106      2116.371 6        41.395
G20         2.000    23780325.715 4 124966424.44304      -175.331 4        29.280
G25         3.000    20616564.180 7 108341135.52207     -2713.146 7        46.839                                    20616565.972 7  84421608.27807     -2114.141 7        43.420    20616566.066 7  84421465.26607     -2114.135 7        42.072
G11         4.000    23920848.400 5 125704910.98105     -3691.571 5        33.952                                                                                                    23920837.877 3                     -2873.778 3        18.090
G31         5.000                                                                                                                                                                    22056322.670 6  90316950.38606       457.607 6        36.907
G28         6.000    21427585.655 8 112602751.89308     -1183.366 8        51.864                                    21427585.990 6  87742414.55406      -922.104 6        38.222    21427587.224 7  87742416.52407      -922.070 7        45.175
G12         7.000                                                                                                                                                                    23769473.854 4                     -3223.871 4        26.539
G29         8.000    20453008.682 8 107481383.22908      -696.058 8        49.092                                    20453006.203 8  83751915.41208      -542.385 8        48.291    20453007.609 7  83751717.42007      -542.417 7        44.640
E30         9.000    24967099.244 7 131202978.96407     -2559.248 7        44.703                                                                    24967100.299 7  97976346.27807     -1911.127 7        44.006    24967100.166 7 100532253.49107     -1960.940 7        46.999
E15        10.000    24487353.707 7 128681933.27507      1124.417 7        46.909                                                                    24487358.715 8  96093714.16108       839.666 8        50.283    24487356.291 7  98600450.77907       861.473 7        47.292
E34        12.000    24793972.649 7 130293220.25607     -1791.440 7        42.804                                                                    24793975.112 7  97296953.34907     -1337.762 7        47.145    24793974.726 7  99835114.60107     -1372.672 7        45.701
E19        14.000    27061627.104 4                     -1889.427 4        26.898                                                                    27061634.592 4                     -1410.179 4        26.671    27061641.309 5 108966023.86905     -1447.516 5        30.219
E27        15.000    23650558.550 7 124284575.17007      -156.874 7        45.192                                                                    23650561.558 7  92809935.05307      -117.159 7        46.693    23650559.314 7  95231174.89407      -120.177 7        43.452
R17        17.000    19650750.650 7 105155195.23707      1038.825 7        43.898                                                                    19650752.898 6  81787380.94106       807.822 6        37.403
R15        20.000    19387002.804 8 103598558.44108       284.736 8        50.260                                                                    19387004.242 7  80576713.95007       221.511 7        46.805
R24        21.000    20228533.092 8 108171075.14808     -3276.635 8        52.224                                                                    20228534.884 7  84133100.36507     -2548.554 7        46.047
E21        22.000    26947892.628 5 141612118.29405      1612.410 5        35.905                                                                    26947900.521 6 105749415.44306      1204.096 6        36.979    26947905.420 6 108508172.80406      1235.566 6        37.645
S36        23.000    38324842.869 6 201398245.97706      -852.648 6        36.340
S23        24.000    38273128.599 6 201126631.03006      -856.652 6        36.442
G26        25.000    23367183.655 4                      2334.197 4        25.398                                                                                                    23367206.525 4                      1819.855 4        27.066
E29        26.000    27810145.789 4                     -3369.863 4        28.114                                                                    27810155.283 4 109133013.60004     -2516.002 4        28.626
C34        28.000                                                                                                                                    21481061.538 7 111857991.73607      -798.655 7        45.115                                                                    21481063.529 7  90893552.36807      -648.961 7        45.589
R18        30.000    22950946.877 6 122513844.73306      3367.642 6        38.435                                                                    22950960.975 6  95288502.49906      2619.272 6        40.431
R16        33.000    22762334.446 5                      3063.048 5        34.295                                                                    22762337.265 5                      2382.053 5        31.011
C24        34.000                                                                                                                                    24610500.765 7 128153366.53807     -4006.336 7        46.074                                                                    24610501.962 7 104135076.20507     -3255.509 7        43.718
R14        35.000    20527219.190 7 109421639.78607     -3600.100 7        46.250                                                                    20527213.916 3                     -2801.909 3        21.571
C05        36.000                                                                                                                                                                                                    39536238.774 5 159196050.48005      -618.709 5        33.707
R06        37.000    24391031.388 3                     -3331.359 3        22.514
S21        38.000    38552556.800 5 202595042.61605      -852.988 5        34.829
C44        39.000                                                                                                                                    23978533.480 6 124862515.05706     -3541.180 6        38.568                                                                    23978533.476 6 101461094.82106     -2877.463 6        37.255
R07        40.000                                                                                                                                    23869757.183 5  99381830.34605      -446.558 5        34.043
C25        41.000                                                                                                                                    21671376.684 8 112848549.96508     -1709.651 8        52.619                                                                    21671375.596 7  91698758.91707     -1389.269 7        43.372
C43        42.000                                                                                                                                    23414963.696 7 121927833.27107      1728.842 7        42.298                                                                    23414964.634 7  99076412.41707      1404.702 7        42.728
C12        43.000                                                                                                                                    22582085.509 7 117590892.32507     -2493.606 7        44.704    22582085.249 8  90928807.65708     -1928.206 8        49.831    22582082.588 7  95552205.14307     -2026.371 7        43.934
C11        44.000                                                                                                                                    22114004.576 7 115153412.40107       720.637 7        42.034    22114002.792 7  89043996.06207       557.304 7        46.564    22114000.953 7  93571657.18407       585.684 7        42.074
C13        45.000                                                                                                                                    39164885.548 4 203941818.69404       819.092 4        26.731    39164907.332 4                       633.539 4        26.108
C08        46.000                                                                                                                                    38946155.917 4                       740.023 4        24.782    38946150.124 6 156819994.26706       571.623 6        36.567
C38        49.000                                                                                                                                    39134287.294 6 203782392.73106       130.404 6        36.272                                                                    39134267.893 5                       105.956 5        31.125
C23        55.000                                                                                                                                    23639462.758 6 123097304.08506      1342.644 6        40.298                                                                    23639459.209 6 100026580.70606      1090.860 6        39.955
I06        58.000    38795448.065 5 152241715.50105      -688.209 5        32.808
> 2025 01 01 15 45  5.0000000  0 39
G18         1.000    23534955.412 6 123677085.98806      2715.190 6        37.482                                    23534958.965 3  96371851.49303      2115.710 3        22.267    23534959.606 6  96371868.50906      2115.656 6        41.762
G25         3.000    20619147.127 7 108354706.85207     -2715.366 7        46.245                                    20619148.821 7  84432183.35207     -2115.876 7        42.754    20619148.393 7  84432040.33307     -2115.801 7        42.235
G11         4.000    23924361.057 5 125723375.19205     -3693.530 5        32.671
G31         5.000    22055757.054 5 115903887.17215       584.080 5        35.795                                    22055769.383 4  90314720.35014       455.123 4        25.519    22055763.684 5  90314668.43005       455.141 5        35.881
G28         6.000    21428713.123 8 112608677.76308     -1186.808 8        51.086                                    21428713.917 6  87747032.12206      -924.789 6        38.285    21428714.683 7  87747034.10207      -924.815 7        45.452
G12         7.000                                                                                                                                                                    23773412.320 4                     -3224.690 4        25.519
G29         8.000    20453672.072 8 107484869.93008      -698.402 8        48.865                                    20453669.805 8  83754632.33708      -544.210 8        48.181    20453670.746 7  83754434.33907      -544.288 7        44.879
E30         9.000    24969534.668 7 131215778.43407     -2560.310 7        44.382                                                                    24969535.742 7  97985904.33607     -1912.004 7        43.729    24969536.064 7 100542060.89107     -1961.826 7        47.341
E15        10.000    24486285.005 7 128676317.01707      1122.319 7        46.624                                                                    24486289.839 8  96089520.22508       838.105 8        50.005    24486287.583 7  98596147.42907       859.932 7        47.255
E34        12.000    24795677.970 7 130302183.61707     -1793.737 7        43.850                                                                    24795680.654 7  97303646.79007     -1339.508 7        47.017    24795680.065 7  99841982.63307     -1374.503 7        45.028
E19        14.000    27063426.901 4                     -1891.270 4        26.910                                                                    27063436.342 4                     -1412.791 4        27.042    27063438.248 4 108973266.10404     -1449.028 4        29.886
E27        15.000    23650708.146 7 124285363.25507      -158.116 7        45.493                                                                    23650711.488 7  92810523.57307      -118.097 7        46.825    23650708.713 7  95231778.77607      -121.239 7        43.071
R17        17.000    19649781.664 7 105150010.85307      1035.146 7        43.340                                                                    19649784.317 6  81783348.71006       804.915 6        37.890
R15        20.000    19386738.382 8 103597143.34308       281.426 8        50.240                                                                    19386739.150 7  80575613.33907       218.811 7        46.094
R24        21.000    20231598.642 8 108187466.35408     -3279.701 8        52.251                                                                    20231600.214 7  84145849.09107     -2550.933 7        46.334
E21        22.000    26946357.737 6 141604057.09306      1612.240 6        36.465                                                                    26946366.975 6 105743395.81806      1203.956 6        37.319    26946370.539 6 108501996.14606      1235.212 6        37.505
S36        23.000    38325652.952 5 201402510.18305      -852.729 5        35.867
S23        24.000    38273948.180 6 201130915.65706      -856.899 6        36.575
G26        25.000    23364968.435 5                      2335.168 5        30.241                                                                                                    23364994.096 4                      1819.498 4        26.862
E29        26.000    27813355.873 4                     -3370.615 4        28.218                                                                    27813364.926 4 109145597.20004     -2516.681 4        27.665
C34        28.000                                                                                                                                    21481829.368 7 111861991.16707      -801.013 7        46.173                                                                    21481831.261 7  90896802.24107      -650.819 7        45.052
R18        30.000    22947792.294 6 122497010.06106      3366.404 6        37.743                                                                    22947806.348 6  95275409.01206      2618.222 6        39.462
R16        33.000    22759467.662 6 121576993.74116      3062.079 6        39.504                                                                    22759475.655 5  94559880.50415      2381.552 5        32.647
C24        34.000                                                                                                                                    24614348.083 7 128173400.89907     -4007.254 7        46.263                                                                    24614349.325 7 104151355.73307     -3256.118 7        44.120
R14        35.000    20530598.070 7 109439647.59507     -3602.807 7        46.620
C05        36.000                                                                                                                                                                                                    39537008.175 5 159199144.86905      -618.945 5        33.377
R06        37.000    24394157.303 3                     -3334.356 3        22.362
S21        38.000    38553361.925 5 202599308.55505      -853.221 5        34.486
C44        39.000                                                                                                                                    23981940.476 6 124880223.31606     -3542.052 6        38.775                                                                    23981933.315 6 101475484.22506     -2878.284 6        37.452
R07        40.000                                                                                                                                    23870293.720 5  99384072.05905      -449.766 5        32.790
C25        41.000                                                                                                                                    21673019.838 8 112857105.10808     -1712.196 8        52.838                                                                    21673018.461 7  91705710.67107     -1391.195 7        43.225
C43        42.000                                                                                                                                    23413302.952 7 121919193.38407      1727.287 7        43.342                                                                    23413305.777 7  99069391.83007      1403.555 7        43.481
C12        43.000                                                                                                                                    22584480.102 7 117603365.63907     -2495.547 7        44.578    22584480.561 8  90938452.83708     -1929.762 8        49.362    22584478.235 7  95562340.72907     -2027.823 7        44.405
C11        44.000                                                                                                                                    22113313.881 7 115149814.74607       718.501 7        43.009    22113312.486 7  89041214.16507       555.599 7        46.876    22113309.796 7  93568733.81507       583.816 7        42.241
C13        45.000                                                                                                                                    39164101.771 3                       817.793 3        23.314    39164117.885 4                       632.907 4        25.850
C08        46.000                                                                                                                                    38945444.249 4                       738.727 4        24.376    38945440.212 6 156817137.62106       570.966 6        36.257
C38        49.000                                                                                                                                    39134161.637 5 203781744.03905       129.199 5        35.533                                                                    39134142.581 5                       104.969 5        31.645
C23        55.000                                                                                                                                    23638173.657 6 123090595.90906      1340.974 6        39.571                                                                    23638171.347 6 100021129.74006      1089.657 6        40.582
I06        58.000    38796325.729 5 152245155.42105      -688.045 5        33.168
> 2025 01 01 15 45 10.0000000  0 40
G18         1.000    23532374.186 6 123663513.35906      2713.860 6        39.796                                    23532375.946 3  96361275.48203      2114.677 3        22.819    23532376.561 7  96361292.50707      2114.621 7        42.157
G20         2.000    23780647.865 4                      -182.554 4        28.265
G25         3.000    20621731.449 7 108368289.15807     -2717.562 7        45.598                                    20621733.674 7  84442766.98207     -2117.587 7        42.112    20621732.934 7  84442623.95507     -2117.540 7        42.301
G11         4.000    23927876.925 5 125741849.07005     -3695.577 5        31.011
G31         5.000    22055205.374 5 115900974.32605       580.836 5        35.681                                    22055213.623 3  90312450.62903       452.615 3        21.738    22055208.906 5  90312398.74505       452.532 5        34.843
G28         6.000    21429844.058 8 112614620.68908     -1190.338 8        50.447                                    21429845.103 6  87751662.97906      -927.539 6        38.462    21429845.306 7  87751664.95007      -927.543 7        45.768
G12         7.000    23777355.475 4                     -4139.724 4        24.917                                                                                                    23777348.855 3                     -3225.137 3        23.257
G29         8.000    20454337.868 8 107488368.28008      -700.936 8        49.370                                    20454335.656 8  83757358.33508      -546.185 8        48.313    20454336.545 7  83757160.33007      -546.146 7        45.067
E30         9.000    24971970.598 7 131228583.36607     -2561.535 7        44.296                                                                    24971972.071 7  97995466.46207     -1912.892 7        43.407    24971972.905 7 100551872.47507     -1962.769 7        47.518
E15        10.000    24485217.752 7 128670710.69407      1120.230 7        46.183                                                                    24485222.764 8  96085333.71008       836.535 8        49.532    24485220.811 7  98591851.70307       858.292 7        47.225
E34        12.000    24797385.892 7 130311158.56507     -1796.154 7        44.820                                                                    24797388.469 7  97310348.89707     -1341.331 7        46.697    24797387.743 7  99848859.54607     -1376.336 7        44.605
E19        14.000    27065231.071 4                     -1893.883 4        28.066                                                                    27065236.873 4                     -1414.267 4        27.042    27065237.381 4 108980516.62904     -1451.156 4        28.777
E27        15.000    23650858.814 7 124286157.49307      -159.477 7        45.872                                                                    23650862.614 7  92811116.69607      -119.096 7        46.753    23650859.288 7  95232387.37507      -122.160 7        42.535
R17        17.000    19648815.078 7 105144844.91507      1031.248 7        42.772                                                                    19648820.202 6  81779330.77506       802.052 6        37.595
R15        20.000    19386475.803 8 103595744.74508       278.035 8        49.481                                                                    19386476.946 7  80574525.56007       216.239 7        45.059
R24        21.000    20234666.259 8 108203872.79608     -3282.796 8        52.316                                                                    20234668.417 7  84158609.68007     -2553.230 7        46.721
E21        22.000    26944824.711 6 141595996.99406      1611.763 6        37.233                                                                    26944833.414 6 105737376.99406      1203.758 6        37.648    26944835.955 6 108495820.27206      1234.911 6        37.909
S36        23.000    38326468.120 5 201406775.32705      -853.110 5        35.829
S23        24.000    38274759.770 6 201135199.98006      -856.959 6        36.461
G26        25.000    23362751.047 5                      2334.548 5        34.876                                                                                                    23362774.705 5                      1818.748 5        30.045
E29        26.000    27816562.867 4                     -3371.575 4        28.417                                                                    27816575.556 4 109158183.66704     -2518.150 4        26.850
C34        28.000                                                                                                                                    21482599.682 7 111866002.29907      -803.412 7        47.009                                                                    21482601.283 7  90900061.64707      -652.794 7        44.500
R18        30.000    22944640.169 6 122480181.70806      3364.973 6        37.195                                                                    22944654.024 6  95262320.38706      2617.384 6        38.529
R16        33.000    22756603.579 7 121561685.59307      3061.281 7        42.948                                                                    22756607.192 5  94547974.23705      2380.765 5        34.929
C24        34.000                                                                                                                                    24618196.357 7 128193439.82207     -4008.319 7        46.314                                                                    24618197.805 7 104167638.99107     -3257.011 7        44.275
R14        35.000    20533978.458 7 109457669.17507     -3605.710 7        45.651                                                                    20533981.359 5                     -2804.308 5        33.790
C05        36.000                                                                                                                                                                                                    39537775.470 5 159202239.14805      -619.004 5        33.892
R06        37.000    24397292.188 3                     -3335.647 3        21.262
S21        38.000    38554179.073 5 202603574.68805      -853.375 5        34.429
C44        39.000                                                                                                                                    23985346.450 6 124897936.63706     -3543.277 6        38.685                                                                    23985334.189 6 101489877.73406     -2879.102 6        37.210
R07        40.000                                                                                                                                    23870835.004 5  99386329.82315      -453.145 5        31.223
C25        41.000                                                                                                                                    21674665.209 8 112865672.57708     -1714.791 8        52.957                                                                    21674663.630 7  91712672.45107     -1393.346 7        42.997
C43        42.000                                                                                                                                    23411643.242 7 121910560.99907      1725.662 7        44.250                                                                    23411647.872 7  99062377.34307      1402.364 7        43.759
C12        43.000                                                                                                                                    22586877.626 7 117615848.42907     -2497.580 7        44.485    22586877.779 8  90948105.33708     -1931.260 8        49.031    22586875.635 7  95572484.03307     -2029.354 7        44.718
C11        44.000                                                                                                                                    22112625.605 7 115146227.99007       716.208 7        43.894    22112623.622 7  89038440.69407       553.842 7        46.864    22112621.106 7  93565819.31407       582.076 7        42.305
C13        45.000                                                                                                                                    39163316.849 3                       817.537 3        19.761    39163328.871 4                       632.263 4        26.539
C08        46.000                                                                                                                                    38944732.080 3                       737.980 3        22.914    38944731.348 6 156814284.66606       570.104 6        36.181
C38        49.000                                                                                                                                    39134037.125 5 203781100.47405       128.154 5        34.919                                                                    39134018.229 5                       104.505 5        31.358
C23        55.000                                                                                                                                    23636886.779 6 123083895.96606      1339.261 6        39.363                                                                    23636885.036 6 100015685.52606      1088.132 6        40.701
I06        58.000    38797201.803 5 152248595.16805      -687.642 5        33.275
> 2025 01 01 15 45 15.0000000  0 39
G18         1.000    23529791.979 6 123649946.16306      2712.989 6        41.404                                    23529794.206 3  96350703.70803      2114.000 3        23.619    23529794.452 7  96350720.73107      2114.004 7        42.447
G20         2.000    23780826.811 4                      -184.632 4        27.808
G25         3.000    20624317.870 7 108381882.52607     -2719.745 7        44.883                                    20624320.526 6  84453359.23306     -2119.283 6        41.080    20624319.359 7  84453216.21307     -2119.240 7        42.025
G11         4.000    23931395.822 4 125760332.70804     -3697.181 4        28.844
G31         5.000                                                                                                                                                                    22054656.947 5  90310141.33605       450.282 5        33.916
G28         6.000    21430978.411 8 112620580.75708     -1193.680 8        50.307                                    21430979.536 6  87756307.19206      -930.139 6        38.589    21430979.288 7  87756309.17607      -930.153 7        46.152
G12         7.000    23781296.459 4                     -4139.816 4        25.940                                                                                                    23781290.152 3                     -3226.346 3        22.819
G29         8.000    20455006.198 8 107491878.36408      -703.114 8        49.293                                    20455003.730 8  83760093.47708      -547.881 8        48.437    20455004.541 7  83759895.46807      -547.885 7        45.041
E30         9.000    24974407.854 7 131241393.84507     -2562.645 7        43.735                                                                    24974409.664 7  98005032.72907     -1913.588 7        43.134    24974410.609 7 100561688.29607     -1963.508 7        47.466
E15        10.000    24484152.295 7 128665114.41407      1118.302 7        45.285                                                                    24484157.681 8  96081154.69108       835.130 8        49.264    24484156.014 7  98587563.66507       856.848 7        47.195
E34        12.000    24799096.005 7 130320145.19907     -1798.344 7        45.460                                                                    24799098.522 7  97317059.72507     -1343.014 7        46.642    24799097.785 7  99855745.41307     -1377.972 7        44.226
E19        14.000    27067034.870 4                     -1895.513 4        29.697                                                                    27067039.826 4                     -1415.594 4        28.104    27067038.824 4 108987775.61004     -1452.950 4        28.114
E27        15.000    23651011.237 7 124286957.99407      -160.735 7        46.087                                                                    23651014.879 7  92811714.49307      -119.929 7        46.722    23651010.996 7  95233000.78007      -123.036 7        42.161
R17        17.000    19647853.591 7 105139697.70807      1027.652 7        43.911                                                                    19647859.523 6  81775327.42306       799.176 6        37.603
R15        20.000    19386216.683 8 103594362.62308       274.777 8        49.228                                                                    19386218.268 7  80573450.59507       213.717 7        44.736
R24        21.000    20237737.216 8 108220294.43108     -3285.775 8        52.491                                                                    20237739.469 7  84171382.08807     -2555.689 7        47.675
E21        22.000    26943291.192 6 141587938.06606      1611.686 6        38.093                                                                    26943300.102 6 105731359.03406      1203.578 6        38.000    26943302.048 6 108489645.28906      1235.025 6        38.444
S36        23.000    38327277.828 5 201411040.45305      -853.003 5        35.776
S23        24.000    38275579.271 6 201139484.49606      -856.744 6        36.431
G26        25.000    23360532.547 6 122760414.40816      2333.653 6        36.964                                    23360552.505 3  95657556.90213      1818.449 3        18.507    23360557.411 5                      1818.135 5        30.053
E29        26.000    27819770.890 4                     -3372.435 4        28.436                                                                    27819789.614 4 109170773.03604     -2517.659 4        25.910
C34        28.000                                                                                                                                    21483372.073 7 111870025.23307      -805.731 7        47.644                                                                    21483373.472 7  90903330.64107      -654.768 7        43.606
R18        30.000    22941490.186 6 122463359.72606      3363.625 6        36.900                                                                    22941503.099 6  95249236.76806      2616.295 6        37.490
R16        33.000    22753744.575 7 121546380.59007      3060.785 7        44.193                                                                    22753742.242 5  94536070.33205      2380.434 5        34.662
C24        34.000                                                                                                                                    24622045.154 7 128213483.41307     -4009.100 7        46.216                                                                    24622047.075 7 104183926.04607     -3257.724 7        44.376
R14        35.000    20537361.237 7 109475704.45407     -3608.332 7        45.851                                                                    20537363.199 5  85147776.59615     -2806.532 5        35.433
C05        36.000                                                                                                                                                                                                    39538543.784 5 159205333.39405      -618.910 5        33.725
S21        38.000    38554988.263 5 202607840.70605      -853.179 5        34.376
C44        39.000                                                                                                                                    23988750.471 6 124915655.03106     -3543.991 6        38.294                                                                    23988736.052 6 101504275.39206     -2879.889 6        36.975
R07        40.000                                                                                                                                    23871381.548 5  99388603.71005      -456.576 5        30.475
C25        41.000                                                                                                                                    21676312.954 8 112874252.44908     -1717.150 8        52.771                                                                    21676311.099 7  91719644.32407     -1395.354 7        42.567
C43        42.000                                                                                                                                    23409986.661 7 121901936.19007      1724.286 7        44.787                                                                    23409991.389 7  99055369.03307      1400.985 7        43.617
C12        43.000                                                                                                                                    22589277.209 7 117628340.81107     -2499.277 7        44.480    22589276.873 8  90957765.27208     -1932.671 8        48.750    22589274.933 7  95582635.15507     -2031.072 7        44.906
C11        44.000                                                                                                                                    22111939.820 7 115142652.19607       714.117 7        44.056    22111936.728 7  89035675.68407       552.142 7        46.637    22111934.416 7  93562913.70607       580.287 7        42.527
C13        45.000                                                                                                                                                                                                    39162542.268 4                       631.490 4        26.251
C08        46.000                                                                                                                                    38944024.249 3                       738.288 3        21.738    38944023.882 6 156811435.46006       569.601 6        36.147
C38        49.000                                                                                                                                    39133911.458 5 203780462.09105       127.312 5        33.850                                                                    39133895.421 5                       103.311 5        30.951
C23        55.000                                                                                                                                    23635601.485 6 123077204.34506      1337.426 6        39.081                                                                    23635600.217 6 100010248.03206      1086.913 6        40.591
I06        58.000    38798078.451 5 152252034.77705      -687.892 5        33.180
> 2025 01 01 15 45 20.0000000  0 38
G18         1.000    23527210.971 7 123636384.67607      2711.800 7        42.402                                    23527213.525 4  96340136.37904      2113.075 4        24.286    23527213.794 7  96340153.40107      2113.063 7        42.510
G20         2.000    23781010.921 4                      -187.265 4        25.218
G25         3.000    20626906.997 7 108395487.22107     -2722.056 7        42.900                                    20626909.412 6  84463960.32506     -2121.083 6        39.850    20626907.673 6  84463817.28206     -2121.176 6        41.185
G31         5.000                                                                                                                                                                    22054107.715 5  90307896.45905       447.811 5        31.464
G28         6.000    21432116.097 8 112626558.19908     -1197.178 8        50.723                                    21432117.197 6  87760964.94006      -932.864 6        38.625    21432116.547 7  87760966.93007      -932.847 7        46.360
G12         7.000    23785232.882 4                     -4140.890 4        26.108                                                                                                    23785233.314 3                     -3228.206 3        21.024
G29         8.000    20455676.118 8 107495400.42608      -705.574 8        49.235                                    20455674.035 8  83762837.95208      -549.802 8        48.534    20455674.469 7  83762639.94407      -549.758 7        45.223
E30         9.000    24976846.647 7 131254210.07807     -2563.771 7        42.984                                                                    24976848.388 7  98014603.29507     -1914.417 7        43.050    24976849.360 7 100571508.54507     -1964.491 7        47.402
E15        10.000    24483089.024 7 128659528.41907      1116.242 7        43.860                                                                    24483094.597 8  96076983.35908       833.528 8        49.059    24483093.155 7  98583283.51407       855.211 7        47.322
E34        12.000    24800808.056 7 130329143.74507     -1800.817 7        45.494                                                                    24800811.034 7  97323779.45107     -1344.889 7        46.827    24800809.949 7  99862640.41307     -1379.937 7        43.905
E19        14.000    27068839.402 5                     -1897.937 5        30.966                                                                    27068845.061 4                     -1417.078 4        29.507    27068842.806 4 108995043.06104     -1454.149 4        27.737
E27        15.000    23651164.941 7 124287764.99107      -161.999 7        46.320                                                                    23651168.274 7  92812317.14207      -121.007 7        46.830    23651164.314 6  95233619.15706      -124.030 6        41.757
R17        17.000    19646897.462 7 105134569.40707      1023.812 7        46.098                                                                    19646901.810 6  81771338.74806       796.249 6        40.524
R15        20.000    19385961.460 8 103592997.39708       271.424 8        49.577                                                                    19385963.059 7  80572388.76207       211.092 7        45.115
R24        21.000    20240811.093 8 108236731.51808     -3288.944 8        52.327                                                                    20240813.759 8  84184166.50008     -2558.041 8        48.081
E21        22.000    26941758.124 6 141579880.51606      1611.339 6        38.814                                                                    26941766.561 6 105725342.10906      1203.230 6        38.501    26941768.345 6 108483471.37706      1234.604 6        38.700
S36        23.000    38328089.173 5 201415306.53305      -853.300 5        35.867
S23        24.000    38276391.993 6 201143769.34206      -856.964 6        36.503
G26        25.000    23358311.672 6 122748749.57106      2332.522 6        36.983                                    23358333.132 2  95648467.42302      1817.539 2        17.774    23358338.484 5                      1817.298 5        30.128
E29        26.000    27822978.890 4                     -3372.813 4        26.683                                                                    27823003.567 4 109183365.66304     -2519.161 4        26.168
C34        28.000                                                                                                                                    21484146.597 8 111874060.19408      -808.183 8        48.237                                                                    21484148.075 7  90906609.38607      -656.697 7        42.821
R18        30.000    22938339.142 6 122446544.40506      3362.745 6        37.425                                                                    22938353.136 6  95236158.32206      2614.983 6        36.658
R16        33.000    22750886.238 7 121531079.00807      3060.025 7        43.918                                                                    22750877.035 5  94524169.08505      2380.025 5        35.943
C24        34.000                                                                                                                                    24625894.984 7 128233531.90107     -4010.145 7        46.244                                                                    24625897.224 7 104200217.06907     -3258.595 7        44.640
R14        35.000    20540747.972 7 109493753.92907     -3611.401 7        46.220                                                                    20540748.567 6  85161815.00406     -2808.729 6        36.325
C05        36.000                                                                                                                                                                                                    39539312.125 5 159208427.80805      -618.983 5        34.186
S21        38.000    38555799.071 5 202612106.73405      -852.999 5        34.200
C44        39.000                                                                                                                                    23992152.939 6 124933378.77306     -3545.390 6        38.156                                                                    23992139.428 6 101518677.35706     -2880.774 6        37.006
R07        40.000                                                                                                                                    23871932.410 5                      -460.110 5        30.928
C25        41.000                                                                                                                                    21677962.852 8 112882844.98608     -1719.744 8        52.583                                                                    21677961.218 7  91726626.46307     -1397.520 7        42.436
C43        42.000                                                                                                                                    23408331.959 7 121893319.22407      1722.667 7        45.290                                                                    23408336.403 7  99048367.06507      1399.685 7        43.575
C12        43.000                                                                                                                                    22591678.068 7 117640842.97307     -2501.432 7        44.840    22591677.908 8  90967432.75008     -1934.227 8        48.548    22591675.923 7  95592794.19407     -2032.658 7        45.102
C11        44.000                                                                                                                                    22111254.030 7 115139087.63807       711.797 7        43.467    22111252.428 7  89032919.36107       550.416 7        46.747    22111250.156 7  93560017.23207       578.309 7        42.933
C13        45.000                                                                                                                                                                                                    39161757.534 4                       630.956 4        26.503
C08        46.000                                                                                                                                    38943318.207 3                       735.033 3        20.762    38943317.785 5 156808590.22605       568.533 5        35.429
C38        49.000                                                                                                                                    39133786.857 5 203779829.19505       125.931 5        32.844                                                                    39133773.667 5                       102.432 5        31.140
C23        55.000                                                                                                                                    23634318.117 6 123070521.31206      1335.908 6        38.763                                                                    23634317.071 6 100004817.53706      1085.427 6        40.863
I06        58.000    38798954.142 5 152255474.40405      -687.958 5        33.473
> 2025 01 01 15 45 25.0000000  0 38
G18         1.000    23524630.598 7 123622828.49707      2710.712 7        43.249                                    23524633.855 4  96329573.18304      2112.227 4        25.203    23524633.792 7  96329590.19207      2112.292 7        42.343
G25         3.000    20629497.042 7 108409102.77107     -2724.240 7        42.140                                    20629500.310 6  84474569.86006     -2122.786 6        38.634    20629498.998 6  84474426.81606     -2122.889 6        40.141
G31         5.000                                                                                                                                                                    22053559.439 5  90305663.71605       445.357 5        30.362
G28         6.000    21433256.776 8 112632552.60908     -1200.612 8        51.703                                    21433257.939 6  87765635.91406      -935.545 6        38.826    21433256.893 7  87765637.90907      -935.511 7        46.200
G12         7.000    23789171.666 4                     -4141.282 4        26.371
G29         8.000    20456348.806 8 107498934.07808      -707.919 8        50.115                                    20456346.478 8  83765591.45808      -551.630 8        48.795    20456346.908 7  83765393.45707      -551.599 7        45.351
E30         9.000    24979286.586 6 131267031.66306     -2564.787 6        41.957                                                                    24979288.315 7  98024177.87907     -1915.409 7        42.891    24979289.148 7 100581332.89807     -1965.328 7        47.344
E15        10.000    24482027.797 6 128653952.31206      1114.171 6        41.897                                                                    24482033.543 8  96072819.40208       832.025 8        48.821    24482032.184 7  98579010.92507       853.719 7        47.296
E34        12.000    24802522.366 7 130338153.80207     -1803.181 7        45.196                                                                    24802525.621 7  97330507.76707     -1346.582 7        46.760    24802524.457 7  99869544.23007     -1381.630 7        43.772
E19        14.000    27070648.232 5                     -1900.172 5        31.275                                                                    27070653.828 4                     -1418.862 4        29.668    27070648.520 4 109002318.82704     -1456.579 4        25.789
E27        15.000    23651319.504 7 124288578.08407      -163.251 7        46.395                                                                    23651322.726 7  92812924.34507      -121.921 7        46.782    23651319.236 6  95234242.20806      -125.144 6        41.542
R17        17.000    19645943.848 7 105129459.59107      1020.096 7        47.574                                                                    19645946.547 7  81767364.46107       793.390 7        42.961
R15        20.000    19385709.563 8 103591648.73808       268.070 8        50.435                                                                    19385710.475 7  80571339.83007       208.422 7        45.451
R24        21.000    20243887.499 8 108253183.68108     -3291.992 8        52.135                                                                    20243890.315 8  84196962.64008     -2560.418 8        48.053
E21        22.000    26940225.958 6 141571823.94906      1610.953 6        38.874                                                                    26940232.914 6 105719325.92306      1203.216 6        38.544    26940234.907 6 108477298.22706      1234.602 6        39.204
S36        23.000    38328900.084 5 201419572.01805      -853.248 5        35.633
S23        24.000    38277205.305 6 201148053.90106      -856.961 6        36.416
G26        25.000    23356092.831 6 122737088.67606      2331.568 6        36.370                                    23356114.129 2  95639381.06702      1816.821 2        16.075    23356116.101 5                      1817.225 5        30.136
E29        26.000    27826184.761 3                     -3374.486 3        22.362                                                                    27826217.275 4 109195960.87304     -2518.897 4        26.431
C34        28.000                                                                                                                                    21484923.467 8 111878106.76908      -810.526 8        48.153                                                                    21484925.078 7  90909897.58007      -658.634 7        42.178
R18        30.000    22935192.171 6 122429735.38306      3361.125 6        38.970                                                                    22935203.656 6  95223084.76606      2614.148 6        36.688
R16        33.000    22748017.535 7 121515780.34407      3059.386 7        43.388                                                                    22748014.142 6  94512270.11506      2379.376 6        38.532
C24        34.000                                                                                                                                    24629745.799 7 128253584.87807     -4011.090 7        46.265                                                                    24629748.221 7 104216511.74907     -3259.323 7        45.007
R14        35.000    20544136.910 7 109511817.04007     -3614.112 7        46.175                                                                    20544137.587 6  85175864.09106     -2811.126 6        36.745
C05        36.000                                                                                                                                                                                                    39540081.096 5 159211522.08905      -618.978 5        33.665
R06        37.000    24406670.763 3                     -3345.570 3        23.695
S21        38.000    38556607.858 5 202616372.48605      -853.051 5        34.419
C44        39.000                                                                                                                                    23995557.586 6 124951107.42506     -3546.283 6        37.614                                                                    23995543.760 6 101533083.33606     -2881.459 6        36.934
R07        40.000                                                                                                                                    23872488.486 5  99393200.64115      -462.776 5        31.532
C25        41.000                                                                                                                                    21679615.159 8 112891449.76808     -1722.203 8        52.203                                                                    21679613.716 7  91733618.55607     -1399.434 7        42.582
C43        42.000                                                                                                                                    23406679.291 7 121884709.69307      1721.186 7        45.682                                                                    23406682.937 7  99041371.13207      1398.581 7        43.670
C12        43.000                                                                                                                                    22594081.284 7 117653354.54507     -2503.276 7        45.232    22594080.592 8  90977107.52008     -1935.700 8        48.211    22594078.721 7  95602960.89107     -2034.079 7        45.321
C11        44.000                                                                                                                                    22110570.095 7 115135533.89507       709.593 7        42.883    22110570.719 7  89030171.40707       548.675 7        47.513    22110567.804 7  93557129.54007       576.616 7        43.609
