     3.04           OBSERVATION DATA    M                   RINEX VERSION / TYPE
ssrcrin-15.6.1x                         20250101 084500 UTC PGM / RUN BY / DATE 
(00000000023479385599111004) Septentrio proprietary         COMMENT             
ract                                                        MARKER NAME         
01                                                          MARKER NUMBER       
geodetic                                                    MARKER TYPE         
NFB                 CLIMERS@TUW                             OBSERVER / AGENCY   
3296359             SEPT ASTERX SB3 PROB4.14.4              REC # / TYPE / VERS 
Unknown             Unknown                                 ANT # / TYPE        
  4127446.2216  1206915.4125  4695541.3837                  APPROX POSITION XYZ 
        0.0000        0.0000        0.0000                  ANTENNA: DELTA H/E/N
G   23 X1  C1C L1C D1C S1C C1W S1W C2W L2W D2W S2W C2L L2L  SYS / # / OBS TYPES 
       D2L S2L C5Q L5Q D5Q S5Q C1L L1L D1L S1L              SYS / # / OBS TYPES 
E   21 X1  C1C L1C D1C S1C C6C L6C D6C S6C C5Q L5Q D5Q S5Q  SYS / # / OBS TYPES 
       C7Q L7Q D7Q S7Q C8Q L8Q D8Q S8Q                      SYS / # / OBS TYPES 
S    9 X1  C1C L1C D1C S1C C5I L5I D5I S5I                  SYS / # / OBS TYPES 
R   17 X1  C1C L1C D1C S1C C2P L2P D2P S2P C2C L2C D2C S2C  SYS / # / OBS TYPES 
       C3Q L3Q D3Q S3Q                                      SYS / # / OBS TYPES 
C   25 X1  C1P L1P D1P S1P C5P L5P D5P S5P C2I L2I D2I S2I  SYS / # / OBS TYPES 
       C7I L7I D7I S7I C6I L6I D6I S6I C7D L7D D7D S7D      SYS / # / OBS TYPES 
J   17 X1  C1C L1C D1C S1C C2L L2L D2L S2L C5Q L5Q D5Q S5Q  SYS / # / OBS TYPES 
       C1L L1L D1L S1L                                      SYS / # / OBS TYPES 
I    5 X1  C5A L5A D5A S5A                                  SYS / # / OBS TYPES 
SEPTENTRIO RECEIVERS OUTPUT ALIGNED CARRIER PHASES.         COMMENT             
NO FURTHER PHASE SHIFT APPLIED IN THE RINEX ENCODER.        COMMENT             
G L1C                                                       SYS / PHASE SHIFT   
G L2W                                                       SYS / PHASE SHIFT   
G L2L  0.00000                                              SYS / PHASE SHIFT   
G L5Q  0.00000                                              SYS / PHASE SHIFT   
G L1L  0.00000                                              SYS / PHASE SHIFT   
E L1C  0.00000                                              SYS / PHASE SHIFT   
E L6C  0.00000                                              SYS / PHASE SHIFT   
E L5Q  0.00000                                              SYS / PHASE SHIFT   
E L7Q  0.00000                                              SYS / PHASE SHIFT   
E L8Q  0.00000                                              SYS / PHASE SHIFT   
S L1C                                                       SYS / PHASE SHIFT   
S L5I                                                       SYS / PHASE SHIFT   
R L1C                                                       SYS / PHASE SHIFT   
R L2P  0.00000                                              SYS / PHASE SHIFT   
R L2C                                                       SYS / PHASE SHIFT   
R L3Q  0.00000                                              SYS / PHASE SHIFT   
C L1P  0.00000                                              SYS / PHASE SHIFT   
C L5P  0.00000                                              SYS / PHASE SHIFT   
C L2I                                                       SYS / PHASE SHIFT   
C L7I                                                       SYS / PHASE SHIFT   
C L6I                                                       SYS / PHASE SHIFT   
C L7D                                                       SYS / PHASE SHIFT   
J L1C                                                       SYS / PHASE SHIFT   
J L2L  0.00000                                              SYS / PHASE SHIFT   
J L5Q  0.00000                                              SYS / PHASE SHIFT   
J L1L  0.00000                                              SYS / PHASE SHIFT   
I L5A                                                       SYS / PHASE SHIFT   
  2025     1     1     8    45    0.0000000     GPS         TIME OF FIRST OBS   
 C1C    0.000 C2C    0.000 C2P    0.000                     GLONASS COD/PHS/BIS 
DBHZ                                                        SIGNAL STRENGTH UNIT
    18                                                      LEAP SECONDS        
 24 R01  1 R02 -4 R03  5 R04  6 R05  1 R06 -4 R07  5 R08  6 GLONASS SLOT / FRQ #
    R09 -2 R10 -7 R11  0 R12 -1 R13 -2 R14 -7 R15  0 R16 -1 GLONASS SLOT / FRQ #
    R17  4 R18 -3 R19  3 R20  2 R21  4 R22 -3 R23  3 R24  2 GLONASS SLOT / FRQ #
                                                            END OF HEADER       
> 2025 01 01 08 45  0.0000000  0 35
G13         2.000    19836786.770 7 104243157.13207      -478.647 7        44.421                                    19836786.572 5  81228306.77805      -372.970 5        34.238
G30         3.000    21959410.035 8 115397544.07208     -3104.390 8        49.417                                    21959415.169 6  89920160.13406     -2419.008 6        41.097    21959413.357 6  89920092.15406     -2419.047 6        36.548
G14         4.000    20500983.441 7 107733367.15007     -1050.389 7        46.771                                    20500982.167 5  83948078.46905      -818.484 5        32.024    20500982.698 7  83948087.45407      -818.495 7        42.180
G15         6.000    21060522.541 6 110673169.14306      1525.808 6        39.228                                    21060578.682 1  86239528.82401      1188.948 1         5.571    21060520.737 5  86239305.76005      1188.956 5        34.538
G05         7.000    22310975.767 6 117245041.71006     -3615.200 6        36.181                                    22310983.761 4  91359707.18304     -2817.040 4        25.203    22310983.432 6  91359729.23306     -2817.131 6        40.567
G23        10.000    24439470.201 5                      2005.768 5        34.143                                                                                                    24439469.560 6 100075540.34906      1562.908 6        39.742
G20        11.000    24223237.319 3                     -4428.859 3        19.284
E26        12.000                                                                                                                                    28205063.954 5 110682796.80805     -1005.646 5        34.452    28205070.440 6 113570096.91006     -1031.902 6        37.561
E02        13.000    25040577.374 7 131589127.28007      1786.704 7        42.216                                                                    25040581.679 6  98264694.97306      1334.142 6        40.977    25040582.496 6 100828126.62506      1368.973 6        41.187
E25        14.000    23599123.285 7 124014212.99307      -795.993 7        44.328                                                                    23599127.493 7  92608140.31907      -594.436 7        47.387    23599124.593 7  95023925.94407      -609.814 7        44.427
E24        15.000                                                                                                                                    26661653.421 6 104626039.93206     -2434.306 6        36.711    26661649.783 5 107355367.73905     -2497.782 5        30.868
G24        16.000    24368207.827 4                      2652.066 4        24.120                                                                                                    24368227.762 4  99783798.45904      2067.408 4        29.355
E08        17.000    24579899.708 6 129168236.80206      1002.554 6        39.024                                                                    24579903.903 6  96456823.54106       748.624 6        41.790    24579900.447 7  98973058.95807       768.199 7        43.554
E05        21.000    25058713.456 4                     -3400.445 4        25.820                                                                    25058701.883 5  98335682.11305     -2539.611 5        35.019    25058697.679 4 100900979.44704     -2606.227 4        29.336
E13        22.000    28384098.555 4 149159309.10404     -3207.949 4        24.286                                                                    28384110.929 4                     -2395.411 4        26.299    28384120.791 4                     -2458.229 4        27.425
S23        24.000    38126217.468 6 200354563.67506      -823.159 6        37.781
R19        25.000                                                                                                                                    23754809.233 4                      -905.763 4        27.138
E03        27.000    23380428.295 7 122864937.78807     -1531.060 7        44.144                                                                    23380433.366 8  91749766.50708     -1143.400 8        48.730    23380431.708 7  94143259.30007     -1173.164 7        47.971
R11        28.000    19366212.842 7 103487216.86307     -2244.331 7        45.038                                                                    19366214.506 6  80490007.59506     -1745.516 6        41.507
R10        30.000    22950580.663 3                     -4799.418 3        23.638
R12        31.000    20628144.869 7 110191952.68607      2028.712 7        45.038                                                                    20628153.242 7  85705035.99507      1577.920 7        44.897
R08        35.000    22532871.313 4 120662646.79404     -4969.748 4        24.692                                                                    22532885.807 5  93848682.59305     -3865.205 5        33.748
C26        37.000                                                                                                                                    22959434.229 8 119555784.22708      1327.479 8        49.954                                                                    22959436.652 7  97148972.83807      1078.719 7        46.363
R01        38.000    19182608.147 7 102541978.94007     -1833.880 7        45.690                                                                    19182611.446 6  79754896.92906     -1426.361 6        37.130
R18        39.000    24540135.435 5                     -3499.217 5        33.880                                                                    24540172.035 5                     -2721.396 5        30.008
C42        41.000                                                                                                                                    23102059.135 5 120298407.80705       852.253 5        35.581                                                                    23102066.949 6  97752358.99706       692.579 6        40.014
C36        42.000                                                                                                                                    24810305.265 5 129193769.82905     -3699.590 5        34.848                                                                    24810356.289 4 104980557.91204     -3006.166 4        29.953
R02        43.000    20645041.458 8 110165906.68408      2169.021 8        48.675                                                                    20645044.616 6  85684596.61906      1686.871 6        39.405
C40        44.000                                                                                                                                    38894457.922 6 202533688.75706      -360.354 6        40.641                                                                    38894460.271 6 164575181.81906      -292.968 6        38.153
C21        47.000                                                                                                                                    22320436.328 8 116228287.35708     -2271.924 8        48.224                                                                    22320431.421 7  94444986.98307     -1846.076 7        45.886
C14        48.000                                                                                                                                    25018032.375 6 130275459.55306      1996.466 6        40.276    25018035.714 8 100737238.93008      1543.824 8        48.939    25018030.465 7 105859472.31007      1622.336 7        44.160
C45        49.000                                                                                                                                    21753917.171 7 113278272.91407     -1730.687 7        47.802                                                                    21753911.596 7  92047869.00807     -1406.320 7        43.416
C22        50.000                                                                                                                                    25116870.553 3                     -4258.984 3        21.595                                                                    25116877.606 5 106277728.82705     -3460.389 5        34.952
I02        53.000    37478060.318 5 147071969.20105      -129.553 5        35.386
I06        56.000    38058790.291 4 149350899.97304      -692.656 4        28.427
> 2025 01 01 08 45  5.0000000  0 34
G13         2.000    19837243.279 7 104245556.54307      -481.190 7        44.808                                    19837243.210 5  81230176.43405      -374.946 5        34.238
G30         3.000    21962364.144 8 115413068.52508     -3105.416 8        50.228                                    21962368.640 6  89932257.09906     -2419.803 6        40.415    21962367.890 6  89932189.10406     -2419.813 6        36.064
G14         4.000    20501983.691 7 107738626.22907     -1053.334 7        47.496                                    20501982.576 5  83952176.44205      -820.778 5        32.449    20501984.068 6  83952185.43406      -820.732 6        41.959
G15         6.000    21059072.225 6 110665545.57806      1523.709 6        38.679                                    21059127.367 1  86233588.19801      1187.361 1         4.571    21059070.487 5  86233365.31405      1187.070 5        35.186
G05         7.000    22314416.982 6 117263123.24006     -3617.271 6        36.873                                    22314425.300 4  91373796.68104     -2818.656 4        27.856    22314424.558 6  91373818.71706     -2818.797 6        40.443
G23        10.000    24437560.708 5 128420259.20815      2003.566 5        32.946                                                                                                    24437561.719 6 100067729.73106      1561.299 6        40.052
E26        12.000                                                                                                                                    28206347.307 5 110687829.32305     -1007.467 5        35.219    28206356.454 6 113575260.74906     -1033.653 6        37.486
E02        13.000    25038878.094 6 131580196.82906      1785.527 6        41.333                                                                    25038882.542 6  98258026.13306      1333.444 6        40.810    25038883.633 6 100821283.81806      1368.097 6        41.526
E25        14.000    23599881.352 7 124018198.02507      -798.042 7        45.378                                                                    23599885.802 7  92611116.14507      -595.958 7        47.381    23599883.139 7  95026979.41507      -611.542 7        44.719
E24        15.000                                                                                                                                    26664755.559 6 104638213.19706     -2435.081 6        36.832    26664751.603 5 107367858.54605     -2498.418 5        30.355
G24        16.000    24365688.104 4                      2652.566 4        27.449                                                                                                    24365699.209 4  99773462.85204      2067.396 4        28.559
E08        17.000    24578945.985 6 129163225.89306      1001.612 6        39.120                                                                    24578950.335 6  96453081.60906       748.110 6        41.485    24578946.934 7  98969219.41807       767.513 7        43.230
E05        21.000    25061940.760 4                     -3401.729 4        28.806                                                                    25061937.386 5  98348380.87805     -2540.003 5        33.982    25061933.656 4 100914009.50104     -2606.040 4        29.649
E13        22.000    28387152.771 3                     -3208.246 3        21.476                                                                    28387168.397 4                     -2396.014 4        25.669    28387176.577 4                     -2459.098 4        28.104
S23        24.000    38126997.865 6 200358679.22506      -823.035 6        37.871
R19        25.000                                                                                                                                    23755900.050 4                      -908.238 4        26.802
E03        27.000    23381885.754 7 122872597.19307     -1532.667 7        44.527                                                                    23381890.818 8  91755486.17108     -1144.550 8        48.510    23381889.391 7  94149128.17507     -1174.397 7        47.915
R11        28.000    19368313.163 7 103498445.57907     -2247.140 7        46.149                                                                    19368316.066 6  80498741.03406     -1747.789 6        40.102
R10        30.000    22955083.081 3                     -4800.761 3        21.976
R12        31.000    20626247.305 7 110181815.23607      2026.331 7        43.287                                                                    20626254.403 7  85697151.32307      1576.051 7        43.604
R08        35.000    22537510.187 3                     -4970.194 3        19.761                                                                    22537525.523 5  93868010.68105     -3866.075 5        33.096
C26        37.000                                                                                                                                    22958160.090 8 119549150.18208      1326.081 8        49.556                                                                    22958162.638 7  97143582.12807      1077.589 7        46.393
R01        38.000    19184325.502 7 102551158.22607     -1837.822 7        46.540                                                                    19184328.393 6  79762036.35806     -1429.526 6        37.006
R18        39.000                                                                                                                                    24543453.249 5                     -2723.451 5        31.653
C42        41.000                                                                                                                                    23101240.273 6 120294151.33606       849.995 6        36.881                                                                    23101249.695 6  97748900.29706       690.648 6        40.486
C36        42.000                                                                                                                                    24813857.520 6 129212268.56506     -3700.063 6        36.004                                                                    24813906.253 5 104995589.62105     -3006.661 5        31.494
R02        43.000    20643009.608 7 110155067.55007      2166.629 7        47.395                                                                    20643012.939 6  85676166.18306      1685.024 6        39.910
C40        44.000                                                                                                                                    38894804.331 6 202535492.62906      -361.303 6        41.159                                                                    38894806.431 6 164576647.59706      -293.562 6        38.216
C21        47.000                                                                                                                                    22322617.910 8 116239652.51408     -2274.212 8        49.646                                                                    22322614.095 7  94454222.10207     -1847.995 7        46.056
C14        48.000                                                                                                                                    25016115.912 6 130265479.77606      1995.397 6        40.167    25016118.932 8 100729521.90108      1542.984 8        48.963    25016113.791 7 105851362.90607      1621.328 7        44.065
C45        49.000                                                                                                                                    21755579.820 8 113286930.82208     -1732.503 8        48.273                                                                    21755574.433 7  92054904.26707     -1407.835 7        44.447
C22        50.000                                                                                                                                    25120956.873 3                     -4256.831 3        22.571                                                                    25120967.450 5 106295032.59605     -3460.814 5        35.362
I02        53.000    37478225.983 5 147072618.52305      -130.040 5        34.738
I06        56.000    38059672.484 4 149354362.82504      -692.951 4        27.497
> 2025 01 01 08 45 10.0000000  0 34
G13         2.000    19837702.685 7 104247968.56007      -483.815 7        45.400                                    19837702.097 5  81232055.91605      -376.996 5        34.200
G30         3.000    21965319.170 8 115428598.32108     -3106.676 8        50.468                                    21965323.131 6  89944358.22506     -2420.784 6        39.868    21965322.188 5  89944290.21405     -2420.897 5        35.624
G14         4.000    20502987.362 7 107743900.22007     -1056.440 7        47.596                                    20502985.919 5  83956286.03705      -823.195 5        32.671    20502988.027 7  83956295.01907      -823.085 7        42.690
G15         6.000    21057625.508 6 110657933.61406      1521.022 6        37.274                                    21057678.208 1  86227656.67701      1185.200 1         9.429    21057622.637 6  86227433.88606      1185.405 6        36.178
G05         7.000    22317861.430 6 117281215.39406     -3619.732 6        38.784                                    22317868.794 4  91387894.45304     -2820.571 4        29.763    22317867.783 6  91387916.45706     -2820.429 6        40.501
G23        10.000    24435654.531 5 128410245.56305      2001.588 5        30.309                                                                                                    24435656.528 6 100059926.87006      1559.718 6        40.088
E26        12.000                                                                                                                                    28207631.792 5 110692870.37505     -1009.243 5        35.576    28207643.636 6 113580433.35806     -1035.537 6        37.036
E02        13.000    25037180.249 6 131571272.60106      1783.932 6        40.269                                                                    25037184.419 6  98251361.93806      1332.305 6        40.663    25037185.592 6 100814445.77106      1367.044 6        41.974
E25        14.000    23600641.721 7 124022193.99107      -800.381 7        46.166                                                                    23600646.237 7  92614100.13607      -597.691 7        47.519    23600643.969 7  95030041.25907      -613.295 7        45.257
E24        15.000                                                                                                                                    26667858.756 6 104650390.53206     -2436.011 6        36.541    26667854.397 4 107380353.55104     -2499.479 4        29.943
G24        16.000    24363166.498 4                      2652.119 4        28.085                                                                                                    24363174.835 4  99763128.85604      2067.067 4        29.204
E08        17.000    24577993.230 6 129158219.68506      1000.685 6        39.508                                                                    24577997.771 6  96449343.18806       747.245 6        41.051    24577994.301 7  98965383.46807       766.699 7        42.781
E05        21.000    25065170.702 5                     -3402.133 5        31.042                                                                    25065173.206 5  98361082.26205     -2540.488 5        32.647    25065171.351 5 100927042.25005     -2607.072 5        30.815
E13        22.000    28390201.559 3                     -3209.248 3        21.333                                                                    28390222.113 4                     -2397.277 4        25.534    28390233.472 4                     -2459.510 4        29.763
S23        24.000    38127782.594 6 200362794.25206      -823.275 6        38.051
R19        25.000                                                                                                                                    23756998.812 3                      -911.652 3        23.810
E03        27.000    23383345.350 7 122880264.37707     -1534.420 7        45.117                                                                    23383349.701 8  91761211.64608     -1145.795 8        48.256    23383348.581 8  94155003.00408     -1175.663 8        48.113
R11        28.000    19370418.894 8 103509689.44108     -2250.452 8        48.933                                                                    19370420.641 6  80507486.23806     -1750.387 6        39.757
R10        30.000    22959580.715 3                     -4798.826 3        22.210
R12        31.000    20624352.904 7 110171690.29607      2023.563 7        42.957                                                                    20624357.904 6  85689276.35406      1573.908 6        41.950
R08        35.000                                                                                                                                    22542168.440 5  93887344.11205     -3867.108 5        32.186
C26        37.000                                                                                                                                    22956887.370 8 119542523.52008      1324.457 8        48.673                                                                    22956890.045 7  97138197.41607      1076.218 7        46.251
R01        38.000    19186046.608 7 102560357.48507     -1841.981 7        46.862                                                                    19186048.587 6  79769191.30506     -1432.535 6        36.767
R18        39.000    24546714.111 4 131031911.84914     -3504.335 4        29.972                                                                    24546732.644 5                     -2725.480 5        32.982
C42        41.000                                                                                                                                    23100424.672 6 120289905.78606       847.908 6        38.736                                                                    23100434.094 6  97745450.47806       688.862 6        40.610
C36        42.000                                                                                                                                    24817410.446 6 129230769.22906     -3700.566 6        36.336                                                                    24817458.745 5 105010622.89805     -3007.218 5        32.180
R02        43.000    20640979.995 7 110144240.53207      2164.068 7        45.490                                                                    20640984.209 6  85667745.18006      1683.007 6        40.892
C40        44.000                                                                                                                                    38895151.135 6 202537301.16106      -362.277 6        40.830                                                                    38895153.646 6 164578117.18206      -294.401 6        38.420
C21        47.000                                                                                                                                    22324802.738 8 116251030.03508     -2276.826 8        50.000                                                                    22324799.247 7  94463467.26507     -1850.201 7        46.176
C14        48.000                                                                                                                                    25014199.798 6 130255506.15206      1994.138 6        39.441    25014203.561 8 100721809.64708      1541.855 8        48.994    25014198.497 7 105843258.50407      1620.183 7        43.822
C45        49.000                                                                                                                                    21757244.302 8 113295597.83308     -1734.439 8        48.387                                                                    21757239.133 7  92061946.91807     -1409.345 7        45.327
C22        50.000                                                                                                                                    25125052.321 3                     -4261.151 3        23.257                                                                    25125057.235 5 106312338.85505     -3461.546 5        35.081
I02        53.000    37478391.020 5 147073268.88405      -130.391 5        34.286
I06        56.000    38060554.275 4 149357825.52404      -692.494 4        27.377
> 2025 01 01 08 45 15.0000000  0 35
G18         1.000    25662557.421 4                     -2770.162 4        27.880
G13         2.000    19838164.458 7 104250393.83307      -486.380 7        46.065                                    19838163.407 5  81233945.72305      -378.998 5        34.248
G30         3.000    21968275.496 8 115444134.04108     -3107.758 8        50.377                                    21968278.793 6  89956463.96406     -2421.626 6        39.480    21968278.126 5  89956395.95805     -2421.540 5        35.271
G14         4.000    20503993.944 7 107749189.72907     -1059.474 7        47.107                                    20503992.427 5  83960407.71605      -825.563 5        32.701    20503994.112 7  83960416.70007      -825.589 7        42.965
G15         6.000    21056180.618 6 110650333.83306      1518.660 6        36.726                                    21056231.625 2  86221734.79902      1183.357 2        12.909    21056176.442 6  86221511.99206      1183.439 6        36.499
G05         7.000    22321307.047 6 117299318.64306     -3621.704 6        39.396                                    22321314.219 5  91402000.88305     -2822.112 5        31.328    22321312.662 6  91402022.88306     -2822.101 6        40.181
G23        10.000    24433751.358 4 128400242.53204      1999.566 4        25.820                                                                                                    24433752.940 6 100052132.26906      1558.053 6        40.451
E26        12.000                                                                                                                                    28208918.643 5 110697920.49505     -1010.878 5        35.652    28208931.360 6 113585615.25106     -1037.203 6        36.306
E02        13.000    25035483.248 6 131562355.17406      1782.847 6        39.306                                                                    25035487.549 6  98244702.85506      1331.159 6        40.555    25035488.977 7 100807612.96007      1365.961 7        42.449
E25        14.000    23601404.048 7 124026201.49407      -802.713 7        46.194                                                                    23601408.850 7  92617092.73507      -599.441 7        47.452    23601406.950 7  95033111.93307      -615.072 7        46.043
E24        15.000                                                                                                                                    26670963.175 6 104662572.35006     -2436.944 6        36.488    26670958.323 4 107392853.19904     -2501.010 4        29.280
G24        16.000    24360640.746 4                      2651.559 4        27.689                                                                                                    24360656.149 4  99752796.94604      2065.599 4        28.872
E08        17.000    24577041.491 6 129153218.73506       999.815 6        39.691                                                                    24577046.054 6  96445608.70706       746.549 6        40.620    24577042.554 7  98961551.57807       765.923 7        42.599
E05        21.000    25068407.486 5                     -3403.002 5        32.473                                                                    25068409.866 5  98373786.70205     -2541.177 5        31.366    25068410.799 5 100940078.11005     -2607.325 5        30.853
E13        22.000    28393255.042 3                     -3212.451 3        22.419                                                                    28393275.439 4                     -2397.741 4        26.395    28393288.793 5                     -2460.222 5        30.264
S23        24.000    38128567.404 6 200366909.58606      -823.271 6        38.033
R19        25.000                                                                                                                                    23758095.675 3                      -913.443 3        20.429
E03        27.000    23384806.049 7 122887939.94207     -1536.042 7        45.624                                                                    23384810.036 7  91766943.37607     -1147.008 7        47.910    23384809.368 8  94160884.26808     -1176.959 8        48.218
R11        28.000    19372529.286 8 103520949.08108     -2253.585 8        49.924                                                                    19372528.125 6  80516243.71506     -1752.805 6        39.709
R10        30.000    22964079.261 3                     -4798.015 3        22.686
R12        31.000    20622461.258 7 110161578.44907      2021.010 7        43.600                                                                    20622465.777 6  85681411.59606      1571.960 6        40.927
R08        35.000                                                                                                                                    22546812.179 5  93906683.39805     -3868.216 5        31.343
C26        37.000                                                                                                                                    22955616.413 8 119535904.79108      1322.918 8        48.302                                                                    22955618.885 7  97132819.16107      1075.011 7        46.111
R01        38.000    19187771.502 7 102569577.37607     -1846.124 7        46.923                                                                    19187773.876 6  79776362.33006     -1435.760 6        36.658
R18        39.000    24549997.013 4 131049440.52514     -3506.970 4        27.808                                                                    24550012.360 5                     -2727.703 5        33.102
C42        41.000                                                                                                                                    23099613.049 6 120285671.80406       845.601 6        40.536                                                                    23099621.023 6  97742010.04506       687.236 6        40.779
C36        42.000                                                                                                                                    24820964.497 6 129249272.40206     -3700.903 6        37.134                                                                    24821011.899 5 105025658.19105     -3007.032 5        31.336
R02        43.000    20638953.993 7 110133426.35407      2161.476 7        46.024                                                                    20638958.326 6  85659334.13406      1681.149 6        41.297
C40        44.000                                                                                                                                    38895499.741 6 202539114.95206      -363.371 6        40.729                                                                    38895502.095 6 164579591.03206      -295.223 6        38.465
C21        47.000                                                                                                                                    22326989.528 8 116262420.50608     -2279.401 8        49.284                                                                    22326986.857 7  94472722.94307     -1852.219 7        46.355
C14        48.000                                                                                                                                    25012285.792 6 130245539.29706      1992.720 6        38.850    25012289.462 8 100714102.60808      1540.869 8        49.033    25012284.449 7 105835159.59807      1619.165 7        43.492
C45        49.000                                                                                                                                    21758910.952 8 113304274.52008     -1736.307 8        48.676                                                                    21758905.591 7  92068997.44607     -1410.906 7        46.060
C22        50.000                                                                                                                                    25129141.879 4                     -4260.487 4        25.609                                                                    25129147.748 5 106329648.02505     -3461.970 5        34.614
I02        53.000    37478556.854 5 147073920.09305      -130.485 5        34.195
I06        56.000    38061439.424 4 149361288.46604      -692.142 4        28.114
> 2025 01 01 08 45 20.0000000  0 34
G18         1.000    25665199.680 4                     -2772.653 4        28.284
G13         2.000    19838628.120 7 104252832.13507      -489.010 7        46.433                                    19838627.177 5  81235845.69505      -381.049 5        34.686
G30         3.000    21971232.820 8 115459675.47108     -3108.924 8        50.822                                    21971235.550 6  89968574.15006     -2422.531 6        39.270    21971235.820 5  89968506.16105     -2422.660 5        35.062
G14         4.000    20505002.970 7 107754494.51307     -1062.602 7        46.340                                    20505002.030 5  83964541.29905      -828.000 5        32.808    20505003.450 7  83964550.27707      -827.937 7        43.520
G15         6.000    21054738.653 6 110642746.02906      1516.201 6        36.193                                    21054787.394 2  86215822.23802      1181.459 2        14.286    21054730.851 5  86215599.43905      1181.550 5        34.676
G05         7.000    22324754.811 6 117317432.87206     -3624.030 6        39.219                                    22324761.599 5  91416115.84905     -2823.918 5        32.431    22324760.769 6  91416137.85006     -2823.896 6        40.222
G23        10.000                                                                                                                                                                    24431851.917 6 100044345.72706      1556.602 6        40.179
E26        12.000                                                                                                                                    28210207.849 5 110702979.51805     -1012.797 5        35.695    28210219.860 5 113590806.24405     -1039.200 5        35.429
E02        13.000    25033786.799 6 131553444.35406      1781.541 6        38.399                                                                    25033792.159 6  98238048.68406      1330.300 6        40.551    25033793.509 7 100800785.20207      1365.048 7        43.027
E25        14.000    23602168.575 7 124030220.29607      -804.887 7        46.008                                                                    23602173.351 7  92620093.78007      -601.075 7        47.260    23602172.126 7  95036191.27607      -616.829 7        46.701
E24        15.000                                                                                                                                    26674068.516 6 104674758.53606     -2437.808 6        36.208    26674063.923 4 107405357.25104     -2501.037 4        28.910
G24        16.000    24358116.676 4                      2651.120 4        28.616                                                                                                    24358142.605 4  99742466.72604      2065.963 4        28.844
E08        17.000    24576090.500 6 129148222.92206       998.700 6        40.529                                                                    24576095.339 6  96441878.03206       745.692 6        39.676    24576092.048 7  98957723.57207       765.124 7        42.354
E05        21.000    25071646.631 5                     -3404.059 5        32.293                                                                    25071647.122 4  98386494.04504     -2541.833 4        29.573    25071650.270 5 100953117.00605     -2608.225 5        31.389
E13        22.000    28396311.745 3                     -3209.171 3        20.857                                                                    28396328.793 4                     -2398.751 4        26.383    28396343.881 5                     -2461.088 5        30.370
S23        24.000    38129352.371 6 200371024.89206      -823.094 6        38.306
E03        27.000    23386268.469 7 122895623.66207     -1537.636 7        46.304                                                                    23386271.993 7  91772681.20807     -1148.179 7        47.443    23386271.633 8  94166771.78108     -1178.190 8        48.399
R11        28.000    19374639.288 8 103532224.20408     -2256.638 8        49.248                                                                    19374638.258 6  80525013.26106     -1755.163 6        40.667
R10        30.000    22968574.780 4                     -4798.802 4        24.677
R12        31.000    20620571.223 7 110151479.47407      2018.443 7        44.612                                                                    20620575.416 6  85673556.85406      1569.838 6        40.074
R08        35.000                                                                                                                                    22551457.414 5                     -3869.832 5        30.015
C26        37.000                                                                                                                                    22954347.131 7 119529293.79307      1321.354 7        47.907                                                                    22954349.212 7  97127447.18107      1073.758 7        46.080
R01        38.000    19189499.753 7 102578817.71107     -1850.210 7        46.390                                                                    19189501.905 6  79783549.22706     -1439.073 6        36.783
R18        39.000    24553282.238 4 131066982.73204     -3508.786 4        25.038                                                                    24553294.826 5                     -2729.935 5        31.132
C42        41.000                                                                                                                                    23098805.530 6 120281449.16906       843.280 6        41.468                                                                    23098810.066 6  97738578.82906       685.162 6        40.501
C36        42.000                                                                                                                                    24824518.771 6 129267777.85206     -3701.198 6        37.860                                                                    24824566.742 5 105040695.38605     -3007.760 5        31.366
R02        43.000    20636930.559 7 110122624.66507      2159.021 7        46.351                                                                    20636934.189 7  85650932.82807      1679.302 7        42.066
C40        44.000                                                                                                                                    38895848.757 6 202540933.77206      -364.395 6        40.856                                                                    38895851.271 6 164581068.95406      -296.180 6        38.396
C21        47.000                                                                                                                                    22329178.701 7 116273823.70807     -2281.968 7        47.941                                                                    22329176.979 7  94481988.93307     -1854.314 7        46.693
C14        48.000                                                                                                                                    25010372.416 6 130235579.01606      1991.490 6        38.571    25010376.467 8 100706400.65708      1539.832 8        48.803    25010371.655 7 105827066.03207      1618.105 7        43.518
C45        49.000                                                                                                                                    21760579.354 8 113312960.67208     -1738.189 8        48.997                                                                    21760573.664 7  92076055.64707     -1412.459 7        46.701
C22        50.000                                                                                                                                    25133235.041 4                     -4261.604 4        25.128                                                                    25133239.104 5 106346959.92005     -3462.798 5        33.832
I02        53.000    37478722.937 5 147074572.76305      -130.539 5        33.850
I06        56.000    38062321.147 4 149364751.58504      -692.941 4        28.398
> 2025 01 01 08 45 25.0000000  0 36
G18         1.000    25667847.363 5                     -2774.069 5        31.781
G13         2.000    19839094.419 7 104255283.36207      -491.492 7        46.617                                    19839093.433 5  81237755.73805      -382.981 5        35.062
G30         3.000    21974191.342 8 115475222.47008     -3109.873 8        51.039                                    21974193.390 6  89980688.67406     -2423.276 6        38.982    21974193.448 5  89980620.65005     -2423.339 5        34.281
G14         4.000    20506014.663 7 107759814.45107     -1065.442 7        44.144                                    20506014.562 5  83968686.68205      -830.214 5        32.341    20506015.858 7  83968695.66507      -830.167 7        43.412
G15         6.000    21053297.763 6 110635170.08206      1513.976 6        37.043                                    21053345.166 2  86209918.89302      1179.763 2        14.095    21053288.229 5  86209696.20305      1179.885 5        33.144
G05         7.000    22328204.520 6 117335557.89106     -3625.983 6        38.450                                    22328211.022 5  91430239.22405     -2825.432 5        32.533    22328210.227 6  91430261.20106     -2825.413 6        40.281
G23        10.000                                                                                                                                                                    24429951.882 6 100036567.20306      1555.007 6        39.240
G20        11.000    24244355.164 3                     -4433.911 3        22.705
E26        12.000                                                                                                                                    28211498.982 5 110708047.27105     -1014.410 5        35.557    28211511.429 5 113596006.18605     -1040.738 5        33.748
E02        13.000    25032091.576 6 131544540.03506      1780.504 6        36.911                                                                    25032097.633 6  98231399.36706      1329.407 6        40.253    25032098.991 7 100793962.42607      1364.145 7        43.405
E25        14.000    23602935.422 7 124034250.29407      -807.031 7        45.648                                                                    23602939.811 7  92623103.17507      -602.635 7        47.027    23602939.328 7  95039279.18407      -618.286 7        47.074
E24        15.000                                                                                                                                    26677174.917 5 104686948.94205     -2438.651 5        35.533    26677169.728 4 107417865.68004     -2501.674 4        27.533
G24        16.000    24355599.376 4                      2650.764 4        27.904                                                                                                    24355626.950 4  99732138.42404      2065.774 4        28.218
E08        17.000    24575140.636 6 129143232.03606       997.758 6        41.061                                                                    24575145.120 6  96438151.06206       745.167 6        38.985    24575142.374 7  98953899.39207       764.428 7        42.057
E05        21.000    25074884.573 5                     -3404.478 5        32.527                                                                    25074885.342 4  98399204.16604     -2542.513 4        28.427    25074888.842 5 100966158.71005     -2608.839 5        30.332
E13        22.000                                                                                                                                    28399387.445 4                     -2399.426 4        25.293    28399401.827 4                     -2461.724 4        29.649
S23        24.000    38130137.266 6 200375140.07606      -822.966 6        38.006
R19        25.000                                                                                                                                    23760327.220 4                      -921.353 4        25.820
E03        27.000    23387732.448 7 122903315.43607     -1539.046 7        46.426                                                                    23387735.410 7  91778425.04807     -1149.261 7        46.924    23387735.475 8  94172665.46408     -1179.298 8        48.569
R11        28.000    19376748.444 8 103543514.69608     -2259.568 8        48.045                                                                    19376751.217 6  80533794.77506     -1757.446 6        40.837
R10        30.000    22973082.207 4                     -4799.699 4        27.341
R12        31.000    20618683.196 7 110141393.26407      2016.051 7        46.085                                                                    20618687.848 6  85665712.02706      1568.089 6        40.329
R08        35.000    22556136.888 5                     -4976.488 5        30.521                                                                    22556102.105 4  93945378.67914     -3870.244 4        29.772
C26        37.000                                                                                                                                    22953078.872 7 119522690.42607      1320.049 7        46.802                                                                    22953081.123 7  97122081.42807      1072.566 7        46.090
R01        38.000    19191231.835 7 102588078.33607     -1854.060 7        45.991                                                                    19191234.307 6  79790751.93606     -1442.156 6        36.359
R18        39.000    24556564.239 3                     -3512.391 3        23.219                                                                    24556574.528 4                     -2732.037 4        27.509
C42        41.000                                                                                                                                    23098001.225 6 120277237.75306       841.287 6        41.526                                                                    23098000.885 6  97735156.74806       683.511 6        40.167
C36        42.000                                                                                                                                    24828072.943 6 129286285.52006     -3701.758 6        37.656                                                                    24828121.924 5 105055734.33305     -3007.825 5        31.374
R02        43.000    20634908.978 7 110111835.36707      2156.647 7        46.336                                                                    20634912.710 7  85642541.14807      1677.366 7        42.925
C40        44.000                                                                                                                                    38896199.009 6 202542757.50906      -365.183 6        40.610                                                                    38896201.572 6 164582550.89406      -296.722 6        38.441
C21        47.000                                                                                                                                    22331370.919 7 116285239.48507     -2284.333 7        46.399                                                                    22331369.390 7  94491265.18007     -1856.253 7        47.053
C14        48.000                                                                                                                                    25008461.494 6 130225625.18906      1990.224 6        38.646    25008465.050 8 100698703.68808      1538.985 8        48.837    25008460.075 7 105818977.73907      1617.078 7        43.772
C45        49.000                                                                                                                                    21762248.837 8 113321656.17308     -1739.994 8        48.859                                                                    21762243.450 7  92083121.47107     -1413.902 7        47.256
C22        50.000                                                                                                                                    25137328.293 4                     -4260.639 4        25.128                                                                    25137330.827 5 106364274.45805     -3462.900 5        33.479
I02        53.000    37478890.383 5 147075226.63205      -130.706 5        33.210
I06        56.000    38063202.115 4 149368214.74704      -693.375 4        27.545
> 2025 01 01 08 45 30.0000000  0 35
G18         1.000    25670491.389 5                     -2776.317 5        32.515                                                                                                    25670509.730 4                     -2162.979 4        24.932
G13         2.000    19839563.551 7 104257748.10207      -494.108 7        46.867                                    19839562.292 5  81239676.31705      -385.023 5        35.471
G30         3.000    21977151.126 8 115490775.62408     -3110.974 8        51.531                                    21977152.290 6  89992807.99706     -2424.133 6        38.565    21977152.985 5  89992740.02105     -2424.378 5        33.754
G14         4.000    20507030.193 7 107765150.14807     -1068.529 7        43.238                                    20507030.162 5  83972844.34205      -832.616 5        31.675    20507031.206 7  83972853.33107      -832.650 7        43.843
G15         6.000    21051858.344 6 110627606.67006      1511.710 6        37.909                                    21051906.019 2  86204025.33802      1177.948 2        13.212    21051850.252 5  86203802.67205      1178.109 5        30.860
G05         7.000    22331655.717 6 117353694.31906     -3628.244 6        38.673                                    22331662.556 5  91444371.47805     -2827.185 5        32.263    22331660.603 6  91444393.44706     -2827.142 6        39.766
G23        10.000    24428050.965 3                      1992.875 3        23.505                                                                                                    24428053.482 6 100028797.11706      1553.434 6        37.429
G20        11.000    24248569.163 3                     -4431.732 3        22.762
E26        12.000                                                                                                                                    28212792.845 5 110713124.24905     -1016.343 5        35.010    28212807.734 5 113601215.64405     -1042.857 5        31.570
E02        13.000    25030398.042 6 131535642.80306      1779.030 6        36.408                                                                    25030404.372 6  98224755.33706      1328.557 6        39.967    25030405.882 7 100787145.08107      1363.102 7        43.871
E25        14.000    23603704.327 7 124038292.06107      -809.349 7        45.097                                                                    23603708.630 7  92626121.36507      -604.353 7        46.775    23603708.658 7  95042376.11807      -620.095 7        47.437
E24        15.000                                                                                                                                    26680282.494 5 104699144.02705     -2439.261 5        35.367    26680277.707 4 107430378.89304     -2502.823 4        27.329
E08        17.000    24574191.598 7 129138246.71307       996.609 7        42.038                                                                    24574196.444 6  96434428.24606       744.230 6        38.030    24574193.724 6  98950079.45806       763.766 6        41.762
E05        21.000    25078123.267 5                     -3405.150 5        32.778                                                                    25078124.353 4  98411917.53004     -2543.371 4        27.473    25078127.940 4 100979203.73904     -2609.079 4        28.815
E13        22.000    28402426.698 3                     -3207.547 3        19.522                                                                    28402447.931 4                     -2400.356 4        24.150    28402459.339 5                     -2462.735 5        30.325
S23        24.000    38130918.226 6 200379255.79206      -822.959 6        38.267
R19        25.000                                                                                                                                    23761440.775 3                      -925.459 3        22.686
E03        27.000    23389198.148 7 122911015.85307     -1540.642 7        46.553                                                                    23389200.516 7  91784175.34407     -1150.490 7        46.377    23389200.987 8  94178565.77208     -1180.531 8        48.632
R11        28.000    19378863.548 8 103554821.12508     -2262.665 8        48.147                                                                    19378866.861 6  80542588.66606     -1759.945 6        40.636
R10        30.000    22977590.479 5                     -4799.850 5        30.128
R12        31.000    20616797.757 7 110131320.36207      2013.455 7        47.891                                                                    20616802.367 6  85657877.54806      1566.006 6        40.911
