     3.04           OBSERVATION DATA    M                   RINEX VERSION / TYPE
ssrcrin-15.6.1x                         20250101 104500 UTC PGM / RUN BY / DATE 
(00000000023479385599111004) Septentrio proprietary         COMMENT             
ract                                                        MARKER NAME         
01                                                          MARKER NUMBER       
geodetic                                                    MARKER TYPE         
NFB                 CLIMERS@TUW                             OBSERVER / AGENCY   
3296359             SEPT ASTERX SB3 PROB4.14.4              REC # / TYPE / VERS 
Unknown             Unknown                                 ANT # / TYPE        
  4127447.9066  1206914.5672  4695544.1428                  APPROX POSITION XYZ 
        0.0000        0.0000        0.0000                  ANTENNA: DELTA H/E/N
G   23 X1  C1C L1C D1C S1C C1W S1W C2W L2W D2W S2W C2L L2L  SYS / # / OBS TYPES 
       D2L S2L C5Q L5Q D5Q S5Q C1L L1L D1L S1L              SYS / # / OBS TYPES 
E   21 X1  C1C L1C D1C S1C C6C L6C D6C S6C C5Q L5Q D5Q S5Q  SYS / # / OBS TYPES 
       C7Q L7Q D7Q S7Q C8Q L8Q D8Q S8Q                      SYS / # / OBS TYPES 
S    9 X1  C1C L1C D1C S1C C5I L5I D5I S5I                  SYS / # / OBS TYPES 
R   17 X1  C1C L1C D1C S1C C2P L2P D2P S2P C2C L2C D2C S2C  SYS / # / OBS TYPES 
       C3Q L3Q D3Q S3Q                                      SYS / # / OBS TYPES 
C   25 X1  C1P L1P D1P S1P C5P L5P D5P S5P C2I L2I D2I S2I  SYS / # / OBS TYPES 
       C7I L7I D7I S7I C6I L6I D6I S6I C7D L7D D7D S7D      SYS / # / OBS TYPES 
J   17 X1  C1C L1C D1C S1C C2L L2L D2L S2L C5Q L5Q D5Q S5Q  SYS / # / OBS TYPES 
       C1L L1L D1L S1L                                      SYS / # / OBS TYPES 
I    5 X1  C5A L5A D5A S5A                                  SYS / # / OBS TYPES 
SEPTENTRIO RECEIVERS OUTPUT ALIGNED CARRIER PHASES.         COMMENT             
NO FURTHER PHASE SHIFT APPLIED IN THE RINEX ENCODER.        COMMENT             
G L1C                                                       SYS / PHASE SHIFT   
G L2W                                                       SYS / PHASE SHIFT   
G L2L  0.00000                                              SYS / PHASE SHIFT   
G L5Q  0.00000                                              SYS / PHASE SHIFT   
G L1L  0.00000                                              SYS / PHASE SHIFT   
E L1C  0.00000                                              SYS / PHASE SHIFT   
E L6C  0.00000                                              SYS / PHASE SHIFT   
E L5Q  0.00000                                              SYS / PHASE SHIFT   
E L7Q  0.00000                                              SYS / PHASE SHIFT   
E L8Q  0.00000                                              SYS / PHASE SHIFT   
S L1C                                                       SYS / PHASE SHIFT   
S L5I                                                       SYS / PHASE SHIFT   
R L1C                                                       SYS / PHASE SHIFT   
R L2P  0.00000                                              SYS / PHASE SHIFT   
R L2C                                                       SYS / PHASE SHIFT   
R L3Q  0.00000                                              SYS / PHASE SHIFT   
C L1P  0.00000                                              SYS / PHASE SHIFT   
C L5P  0.00000                                              SYS / PHASE SHIFT   
C L2I                                                       SYS / PHASE SHIFT   
C L7I                                                       SYS / PHASE SHIFT   
C L6I                                                       SYS / PHASE SHIFT   
C L7D                                                       SYS / PHASE SHIFT   
J L1C                                                       SYS / PHASE SHIFT   
J L2L  0.00000                                              SYS / PHASE SHIFT   
J L5Q  0.00000                                              SYS / PHASE SHIFT   
J L1L  0.00000                                              SYS / PHASE SHIFT   
I L5A                                                       SYS / PHASE SHIFT   
  2025     1     1    10    45    0.0000000     GPS         TIME OF FIRST OBS   
 C1C    0.000 C2C    0.000 C2P    0.000                     GLONASS COD/PHS/BIS 
DBHZ                                                        SIGNAL STRENGTH UNIT
    18                                                      LEAP SECONDS        
 24 R01  1 R02 -4 R03  5 R04  6 R05  1 R06 -4 R07  5 R08  6 GLONASS SLOT / FRQ #
    R09 -2 R10 -7 R11  0 R12 -1 R13 -2 R14 -7 R15  0 R16 -1 GLONASS SLOT / FRQ #
    R17  4 R18 -3 R19  3 R20  2 R21  4 R22 -3 R23  3 R24  2 GLONASS SLOT / FRQ #
                                                            END OF HEADER       
> 2025 01 01 10 45  0.0000000  0 38
G19         1.000    21692371.401 7 113994286.45307      1086.823 7        44.138                                    21692369.545 2  88826673.77502       846.846 2        14.524
G13         2.000    21921372.274 6 115197607.84106     -4091.525 6        41.692                                    21921374.343 1  89764375.63001     -3188.195 1        11.259
G14         4.000    23136882.612 5 121585127.88205     -3961.680 5        34.805                                    23136912.589 1  94741781.38901     -3087.008 1         7.125
G17         5.000    21964107.770 7 115422205.67407     -1453.649 7        46.273                                    21964107.150 6  89939387.98906     -1132.708 6        38.312    21964111.488 6  89939363.00906     -1132.729 6        39.928
G15         6.000    20837595.490 6 109502282.07806     -3090.033 6        36.658                                    20837593.068 4  85326761.05304     -2407.823 4        27.090    20837593.285 5  85326437.07605     -2407.847 5        35.919
G12         7.000    22826311.577 6 119953063.28906      2482.908 6        38.625                                    22826306.275 3  93469877.95203      1934.710 3        18.030    22826309.576 4                      1934.033 4        25.669
G23        10.000    23334062.356 4 122621319.78004     -2338.141 4        29.232                                    23334085.232 1  95549213.19901     -1821.906 1         5.714    23334085.986 6  95549229.17206     -1821.974 6        38.192
E30        11.000    25811701.790 6 135641413.26406      1576.833 6        38.826                                                                    25811707.653 4 101290709.24104      1177.218 4        29.280    25811736.269 5 103933061.90805      1208.353 5        31.283
G10        12.000    24388280.395 5 128161263.83905       101.788 5        34.667                                    24388280.416 2  99865972.46902        79.315 2        16.453
E02        13.000    23051055.875 7 121134151.63207      -742.073 7        44.578                                                                    23051060.185 8  90457414.19408      -554.093 8        48.463    23051058.630 8  92817177.82108      -568.597 8        49.297
E25        14.000    25333001.431 6 133125816.09506     -3109.775 6        40.513                                                                    25333010.458 7  99412182.35407     -2322.278 7        44.656    25333008.610 7 102005467.02707     -2382.830 7        44.023
G24        16.000    20503508.853 7 107746806.70207       832.136 7        47.906                                    20503511.799 7  83958552.95607       648.417 7        44.152    20503511.688 7  83958465.99007       648.360 7        42.224
E08        17.000    23509923.487 8 123545472.87408     -1497.609 8        48.089                                                                    23509927.788 8  92257995.39908     -1118.339 8        49.522    23509926.292 8  94664763.62408     -1147.494 8        48.833
E07        18.000    25333863.711 6 133130368.73206      1230.160 6        40.203                                                                    25333873.953 7  99415579.61907       918.605 7        43.973    25333870.767 7 102009029.66807       942.597 7        44.068
S36        23.000    38124520.809 5 200345694.60205      -831.949 5        34.114
S23        24.000    38058494.816 5 199998757.37705      -834.522 5        35.714
R04        25.000                                                                                                                                    23750910.920 5  98921788.92305      2560.175 5        30.498
E03        27.000    25854714.092 6 135867436.80406     -3679.294 6        36.839                                                                    25854722.728 5 101459534.01305     -2747.533 5        33.162    25854721.612 5 104106105.78305     -2819.200 5        35.833
R11        28.000    23078901.121 3                     -4309.275 3        21.048                                                                    23078985.257 4                     -3351.917 4        25.594
R13        29.000    20273829.394 4                      1149.525 4        25.940
R21        30.000    22226776.036 4 118940028.45904      -129.713 4        26.850                                                                    22226778.279 5  92508935.13905      -100.843 5        35.695
R12        31.000    19423004.098 8 103754200.83708     -1903.710 8        50.809                                                                    19423006.282 6  80697716.31706     -1480.594 6        38.000
C10        32.000                                                                                                                                    38432212.804 6 200126610.14206     -1018.237 6        36.620    38432220.826 7 154750629.77007      -787.369 7        43.642    38432214.265 6 162619271.91906      -827.297 6        39.709
R03        33.000    20352637.790 8 108949307.08908       754.766 8        48.537                                                                    20352641.034 6  84738374.22106       587.093 6        41.480
C24        34.000                                                                                                                                    23105143.364 7 120314672.71007      1364.424 7        42.938                                                                    23105145.072 7  97765449.23107      1108.883 7        44.266
C26        37.000                                                                                                                                    21573129.264 6 112337034.25906     -1053.081 6        41.716                                                                    21573131.246 7  91283069.69207      -855.639 7        42.872
C29        39.000                                                                                                                                    24480902.793 5                      -629.260 5        35.310                                                                    24480860.940 4                      -511.794 4        26.144
C35        40.000                                                                                                                                                                                                                                                                    24811285.957 6 104984685.87006      1582.382 6        36.684
C42        41.000                                                                                                                                    23392245.668 7 121810014.19807     -2996.386 7        44.916                                                                    23392257.961 7  98980264.26607     -2434.805 7        43.636
R02        43.000    20148267.644 6 107515003.54806     -3552.394 6        41.828                                                                    20148274.893 6  83622818.19306     -2762.891 6        41.404
C40        44.000                                                                                                                                    39121390.066 4                     -1609.585 4        24.632                                                                    39121380.364 4                     -1308.416 4        26.611
C33        46.000                                                                                                                                    24030080.177 7 125131063.45907        96.690 7        42.627                                                                    24030099.523 5 101679220.06405        78.553 5        34.238
C21        47.000                                                                                                                                    26135667.048 4                     -4356.492 4        24.226                                                                    26135645.049 4                     -3539.927 4        24.075
C14        48.000                                                                                                                                    23186399.330 7 120737643.68707     -1497.777 7        45.339    23186403.561 7  93362184.62107     -1158.178 7        46.747    23186400.164 7  98109230.95807     -1217.010 7        47.534
C45        49.000                                                                                                                                    24321374.864 5 126647806.55505     -3381.110 5        32.844                                                                    24321377.214 5 102911714.78705     -2747.407 5        32.689
C07        53.000                                                                                                                                    38972343.743 5 202939333.70805     -1383.936 5        30.121    38972361.335 5 156925545.50305     -1069.829 5        32.479
I02        56.000    36854728.207 6 144625880.16006      -497.591 6        38.153
I06        57.000    38162734.999 4 149758780.90204      -728.101 4        27.305
> 2025 01 01 10 45  5.0000000  0 39
G19         1.000    21691337.644 7 113988860.27907      1083.825 7        42.709                                    21691336.265 1  88822445.50801       844.521 1        10.963
G13         2.000    21925265.854 6 115218070.64606     -4093.511 6        41.459                                    21925267.848 2  89780320.65702     -3189.760 2        14.238
G14         4.000    23140653.457 5 121604939.46105     -3962.532 5        32.838                                    23140683.124 1  94757219.01001     -3087.596 1         5.000    23140689.523 3                     -3089.179 3        20.310
G17         5.000    21965492.452 7 115429482.74707     -1457.036 7        45.991                                    21965492.516 6  89945058.41206     -1135.349 6        38.868    21965495.875 6  89945033.41706     -1135.294 6        40.982
G15         6.000    20840535.804 6 109517740.27606     -3093.062 6        36.616                                    20840534.353 4  85338806.39304     -2410.178 4        26.683    20840533.676 5  85338482.41205     -2410.192 5        35.514
G12         7.000    22823949.654 6 119940653.28106      2481.309 6        37.399                                    22823945.688 3  93460207.84803      1933.456 3        18.298    22823951.921 4                      1933.829 4        27.677
G23        10.000    23336290.718 4 122633018.08904     -2340.865 4        28.275                                    23336311.362 1  95558328.67501     -1824.286 1         3.800    23336307.719 6  95558344.72506     -1824.299 6        37.429
E30        11.000    25810202.660 6 135633533.04606      1575.535 6        39.399                                                                    25810207.233 4 101284824.67004      1176.236 4        25.880    25810238.706 5 103927023.89505      1206.969 5        30.181
G10        12.000    24388183.535 5 128160764.07205        98.302 5        34.524                                    24388184.692 2  99865583.05302        76.615 2        17.283
E02        13.000    23051762.780 7 121137867.11207      -744.046 7        45.416                                                                    23051767.163 8  90460188.74208      -555.598 8        48.792    23051765.901 8  92820024.74508      -570.072 8        49.268
E25        14.000    25335961.398 6 133141368.33706     -3110.758 6        39.823                                                                    25335969.962 7  99423796.01307     -2323.072 7        44.817    25335968.310 7 102017383.65707     -2383.643 7        43.767
G24        16.000    20502718.087 7 107742652.22007       829.815 7        47.806                                    20502721.328 7  83955315.70007       646.606 7        44.068    20502720.981 7  83955228.71807       646.534 7        42.351
E08        17.000    23511349.606 7 123552967.08507     -1500.027 7        47.628                                                                    23511353.815 8  92263591.71408     -1120.089 8        49.540    23511352.407 8  94670505.93608     -1149.370 8        48.644
E07        18.000    25332693.958 6 133124222.48806      1228.470 6        40.577                                                                    25332704.215 7  99410989.90207       917.324 7        44.063    25332701.091 7 102004320.22207       941.287 7        43.666
S36        23.000    38125308.803 5 200349855.83305      -832.132 5        34.005
S23        24.000    38059287.814 5 200002930.72405      -834.934 5        35.419
R04        25.000    23747810.942 4 127168693.49614      3289.696 4        28.227                                                                    23747839.526 5  98908991.97405      2559.022 5        30.755
E03        27.000    25858215.859 6 135885837.42806     -3680.656 6        37.516                                                                    25858224.219 5 101473274.72105     -2748.426 5        33.479    25858223.316 5 104120204.91905     -2820.215 5        35.800
R11        28.000    23082930.724 3                     -4312.582 3        21.119
R13        29.000    20272749.498 4                      1148.278 4        28.190
R21        30.000    22226885.930 5 118940689.85305      -134.659 5        32.677                                                                    22226904.214 5  92509449.74405      -104.750 5        34.900
R12        31.000    19424787.609 8 103763725.80708     -1906.133 8        50.884                                                                    19424789.364 6  80705124.59906     -1482.566 6        36.809
C10        32.000                                                                                                                                    38433190.258 6 200131703.76706     -1018.818 6        36.367    38433198.789 7 154754568.48107      -787.986 7        43.627    38433192.536 6 162623410.92206      -828.014 6        39.778
R03        33.000    20351934.735 8 108945544.73608       750.304 8        48.253                                                                    20351938.545 6  84735447.94406       583.551 6        41.137
C24        34.000                                                                                                                                    23103833.451 7 120307853.53707      1363.225 7        43.456                                                                    23103835.530 7  97759908.11407      1107.817 7        44.402
C26        37.000                                                                                                                                    21574141.793 7 112342304.02907     -1054.787 7        42.106                                                                    21574143.094 7  91287351.83507      -857.119 7        42.044
R01        38.000    23584651.040 3                     -5493.726 3        22.571                                                                    23584663.447 3                     -4270.208 3        20.000
C29        39.000                                                                                                                                    24481501.746 6 127481644.89116      -632.544 6        36.412                                                                    24481465.182 4                      -514.438 4        24.722
C35        40.000                                                                                                                                                                                                                                                                    24809417.281 6 104976777.39806      1581.147 6        36.582
C42        41.000                                                                                                                                    23395125.170 7 121825002.64107     -2998.867 7        45.574                                                                    23395135.899 7  98992443.60207     -2436.870 7        42.597
R02        43.000    20151597.281 6 107532775.84506     -3556.400 6        41.630                                                                    20151605.480 6  83636641.06906     -2766.070 6        41.499
C40        44.000                                                                                                                                    39122934.855 4                     -1611.133 4        26.060                                                                    39122926.803 4                     -1308.453 4        25.714
C33        46.000                                                                                                                                    24029989.283 7 125130588.37607        93.545 7        42.271                                                                    24030007.266 5 101678834.08305        75.446 5        32.623
C21        47.000                                                                                                                                    26139851.360 4                     -4356.995 4        24.120                                                                    26139829.880 3                     -3538.774 3        23.238
C14        48.000                                                                                                                                    23187840.374 7 120745140.75907     -1500.907 7        46.292    23187843.702 7  93367981.83707     -1160.661 7        47.114    23187839.767 7  98115322.95107     -1219.666 7        47.429
C45        49.000                                                                                                                                    24324626.955 5 126664713.17305     -3381.811 5        32.545                                                                    24324624.560 5 102925452.74505     -2748.181 5        32.904
C07        53.000                                                                                                                                    38973671.975 4 202946255.19704     -1384.412 4        29.735    38973691.858 5 156930897.67505     -1070.596 5        32.192
I02        56.000    36855362.360 6 144628369.08706      -497.896 6        38.363
I06        57.000    38163662.325 4 149762422.71904      -728.422 4        26.503
> 2025 01 01 10 45 10.0000000  0 38
G19         1.000    21690307.021 6 113983448.38306      1081.205 6        41.702                                    21690305.824 1  88818228.41101       842.456 1        10.444
G13         2.000    21929159.998 6 115238542.43806     -4094.986 6        40.043                                    21929163.364 2  89796272.65102     -3190.861 2        15.667
G14         4.000    23144426.037 5 121624755.36905     -3963.455 5        31.540                                    23144454.433 1  94772659.87901     -3088.199 1         4.571    23144458.824 3                     -3089.590 3        20.143
G17         5.000    21966880.143 7 115436776.10507     -1460.163 7        45.440                                    21966881.112 6  89950741.52406     -1137.785 6        39.495    21966884.197 7  89950716.52207     -1137.767 7        42.064
G15         6.000    20843479.787 6 109533213.41506     -3095.823 6        36.620                                    20843478.295 4  85350863.38904     -2412.344 4        25.789    20843477.293 5  85350539.40605     -2412.354 5        34.300
G12         7.000    22821589.127 6 119928250.52506      2480.077 6        36.087                                    22821586.375 3  93450543.37703      1932.529 3        18.985    22821592.027 4                      1932.300 4        29.441
G23        10.000    23338523.462 4 122644730.84004     -2343.851 4        25.970                                    23338540.149 1  95567455.47701     -1826.255 1         5.714    23338534.454 6  95567471.53706     -1826.211 6        36.125
E30        11.000    25808704.347 6 135625658.70206      1574.643 6        40.064                                                                                                                                    25808743.176 4 103920990.31004      1206.253 4        27.976
G10        12.000    24388090.592 5 128160280.21305        95.577 5        34.943                                    24388091.762 3  99865205.96203        74.462 3        18.090
E02        13.000    23052471.815 7 121141591.91607      -745.643 7        46.056                                                                    23052475.961 8  90462970.25408      -556.817 8        48.888    23052474.906 8  92822878.82008      -571.279 8        49.395
E25        14.000    25338922.350 6 133156924.96706     -3111.553 6        38.805                                                                    25338930.328 7  99435412.94107     -2323.521 7        44.783    25338928.855 7 102029303.64907     -2384.167 7        43.636
G24        16.000    20501929.130 7 107738508.96907       827.693 7        47.622                                    20501932.945 7  83952087.19707       644.952 7        43.818    20501933.024 7  83952000.21807       644.849 7        42.309
E08        17.000    23512778.027 7 123560472.80407     -1502.098 7        46.539                                                                    23512781.964 8  92269196.63008     -1121.667 8        49.424    23512780.726 8  94676257.06408     -1150.896 8        48.745
E07        18.000    25331526.281 6 133118083.90006      1227.119 6        41.027                                                                    25331535.872 7  99406405.89407       916.456 7        44.080    25331533.069 7 101999616.64107       940.302 7        43.613
S36        23.000    38126101.528 5 200354017.52805      -832.211 5        34.057
S23        24.000    38060079.877 5 200007104.50505      -834.732 5        35.529
R04        25.000                                                                                                                                    23744769.207 5  98896200.83705      2558.114 5        30.830
R20        26.000                                                                                                                                    23840031.400 3                     -2581.530 3        22.838
E03        27.000    25861718.109 6 135904243.52106     -3681.416 6        37.319                                                                    25861727.383 5 101487019.46105     -2749.045 5        33.401    25861725.913 5 104134308.26105     -2820.900 5        35.733
R21        30.000    22227017.242 6 118941373.91106      -138.863 6        36.144                                                                    22227032.795 5  92509981.78305      -108.062 5        32.485
R12        31.000    19426573.009 8 103773262.14208     -1908.147 8        50.556                                                                    19426575.142 6  80712541.76506     -1484.137 6        37.875
C10        32.000                                                                                                                                    38434169.298 6 200136800.78806     -1019.492 6        36.457    38434177.293 7 154758509.76807      -788.339 7        43.594    38434171.193 6 162627552.60406      -828.344 6        39.742
R03        33.000    20351236.053 7 108941804.30407       746.053 7        47.452                                                                    20351241.364 6  84732538.73306       580.339 6        41.793
C24        34.000                                                                                                                                    23102524.953 7 120301039.87207      1362.364 7        43.801                                                                    23102527.227 7  97754371.45307      1107.103 7        44.447
C26        37.000                                                                                                                                    21575156.027 7 112347582.09607     -1056.177 7        42.724                                                                    21575156.639 6  91291640.68506      -858.178 6        41.228
R01        38.000    23589788.867 3                     -5491.382 3        23.029
C29        39.000                                                                                                                                                                                                                                                                    24482073.014 4                      -516.646 4        24.797
C35        40.000                                                                                                                                    24807569.663 5                      1944.873 5        31.947                                                                    24807549.677 6 104968873.79906      1580.573 6        36.219
C42        41.000                                                                                                                                    23398006.159 7 121840002.54207     -3000.906 7        45.810                                                                    23398016.151 6  99004632.21306     -2438.360 6        41.406
R02        43.000    20154932.012 7 107550566.98707     -3559.855 7        42.163                                                                    20154939.197 6  83650478.63206     -2768.874 6        41.640
C40        44.000                                                                                                                                    39124479.903 4                     -1611.182 4        25.940                                                                    39124474.857 4                     -1308.516 4        26.623
C33        46.000                                                                                                                                    24029899.194 6 125130128.03706        90.766 6        40.179                                                                    24029917.567 5 101678460.01305        73.853 5        30.279
C21        47.000                                                                                                                                    26144033.275 4                     -4355.542 4        25.684                                                                    26144013.083 3                     -3538.996 3        23.048
C14        48.000                                                                                                                                    23189283.404 7 120752652.81807     -1503.667 7        46.971    23189286.472 7  93373790.63807     -1162.740 7        47.458    23189282.188 7  98121427.09207     -1221.734 7        47.454
C45        49.000                                                                                                                                                                                                                                                                    24327872.438 5 102939193.21605     -2748.054 5        33.216
C07        53.000                                                                                                                                    38975002.144 4 202953179.72304     -1384.860 4        29.507    38975021.364 5 156936252.13005     -1070.635 5        32.473
I02        56.000    36855997.038 6 144630859.72406      -498.144 6        38.048
I06        57.000    38164589.448 4 149766065.08704      -728.307 4        26.719
> 2025 01 01 10 45 15.0000000  0 39
G19         1.000    21689280.828 7 113978050.26907      1078.215 7        42.252                                    21689278.097 1  88814022.05301       840.192 1         9.810
G13         2.000    21933057.465 6 115259022.68106     -4096.819 6        39.498                                    21933061.175 2  89812231.26902     -3192.338 2        15.476
G14         4.000    23148197.054 5 121644575.04005     -3964.197 5        30.574                                    23148225.888 1  94788103.78701     -3089.220 1         6.125    23148232.261 3                     -3089.731 3        22.438
G17         5.000    21968271.172 7 115444085.27707     -1463.435 7        45.004                                    21968272.752 6  89956436.96206     -1140.335 6        40.005    21968274.778 7  89956411.96907     -1140.374 7        42.559
G15         6.000    20846425.335 6 109548700.93406     -3098.829 6        36.510                                    20846424.495 4  85362931.59904     -2414.681 4        24.120    20846424.157 5  85362607.61605     -2414.683 5        33.060
G12         7.000    22819229.720 5 119915854.45705      2478.568 5        35.471                                    22819228.877 3  93440884.14303      1931.350 3        20.262    22819234.650 5                      1931.433 5        30.513
G23        10.000    23340743.761 3                     -2346.693 3        21.071                                                                                                    23340766.336 5  95576609.13505     -1828.591 5        34.938
E30        11.000    25807207.060 6 135617789.65906      1573.246 6        41.151                                                                    25807223.960 4 101273067.82604      1174.555 4        26.180    25807248.311 4 103914960.80304      1205.056 4        25.895
G10        12.000    24388001.987 5 128159811.60905        92.258 5        35.805                                    24388002.562 3  99864840.78903        71.894 3        18.209    24388016.255 3                        72.841 3        23.886
E02        13.000    23053182.514 7 121145325.50307      -747.519 7        46.911                                                                    23053186.369 8  90465758.32008      -558.192 8        49.031    23053185.619 8  92825739.61608      -572.740 8        49.841
E25        14.000    25341883.418 6 133172485.39706     -3112.513 6        37.936                                                                    25341891.488 7  99447032.71807     -2324.221 7        44.752    25341890.069 7 102041226.55607     -2384.772 7        43.488
G24        16.000    20501141.855 7 107734376.39207       825.531 7        47.688                                    20501146.534 7  83948867.01507       643.267 7        43.249    20501146.515 6  83948780.03306       643.310 6        41.762
E08        17.000    23514208.428 7 123567989.49007     -1504.447 7        45.576                                                                    23514212.225 8  92274809.73508     -1123.435 8        49.184    23514211.052 8  94682016.59408     -1152.683 8        48.978
E07        18.000    25330359.642 6 133111952.40306      1225.611 6        41.783                                                                    25330368.979 7  99401827.19307       915.358 7        43.954    25330366.311 7 101994918.50107       939.144 7        43.738
S36        23.000    38126891.507 5 200358179.17305      -832.276 5        33.868
S23        24.000    38060872.619 5 200011278.22105      -834.554 5        35.590
R04        25.000    23741697.452 5 127135808.95405      3287.199 5        30.928                                                                    23741700.113 5  98883415.10605      2556.513 5        32.479
R20        26.000                                                                                                                                    23843129.805 3                     -2584.866 3        23.848
E03        27.000    25865221.168 6 135922654.55306     -3682.608 6        37.474                                                                    25865231.034 5 101500767.93405     -2750.171 5        34.281    25865229.669 5 104148415.37305     -2821.872 5        35.371
R11        28.000                                                                                                                                    23091024.725 5                     -3352.338 5        31.034
R13        29.000    20270576.392 5 108243732.56315      1143.888 5        34.176
R21        30.000                                                                                                                                    22227168.986 5  92510530.83605      -111.190 5        33.024
R12        31.000    19428359.503 8 103782809.39608     -1910.450 8        49.916                                                                    19428361.625 6  80719967.40006     -1485.916 6        39.733
C10        32.000                                                                                                                                    38435148.598 6 200141900.50706     -1020.043 6        36.181    38435156.864 7 154762453.20207      -788.865 7        43.460    38435150.734 6 162631696.57306      -829.191 6        40.036
R03        33.000    20350541.466 7 108938085.10707       741.810 7        46.742                                                                    20350547.498 7  84729646.04807       577.005 7        43.452
C24        34.000                                                                                                                                    23101217.950 7 120294231.15907      1361.348 7        43.917                                                                    23101219.705 7  97748838.84907      1105.987 7        44.629
C26        37.000                                                                                                                                    21576170.971 7 112352867.88307     -1057.979 7        43.046                                                                    21576171.420 6  91295935.86206      -859.821 6        40.362
C29        39.000                                                                                                                                    24482705.911 5 127487998.07405      -638.264 5        34.319                                                                    24482683.346 3                      -518.550 3        23.867
C35        40.000                                                                                                                                    24805703.395 5                      1943.749 5        32.210                                                                    24805682.671 5 104960974.72305      1579.365 5        35.348
C42        41.000                                                                                                                                    23400888.816 7 121855013.33007     -3003.219 7        46.108                                                                    23400898.401 6  99016829.71706     -2440.511 6        40.503
R02        43.000    20158270.747 7 107568376.87107     -3563.635 7        43.137                                                                    20158277.187 7  83664330.75207     -2771.772 7        42.406
C40        44.000                                                                                                                                    39126028.171 4                     -1611.569 4        26.527                                                                    39126020.992 4                     -1309.279 4        25.925
C33        46.000                                                                                                                                    24029812.414 6 125129681.91406        87.896 6        37.508                                                                    24029830.659 4 101678097.52904        71.382 4        29.299
C21        47.000                                                                                                                                    26148214.636 4                     -4356.290 4        24.662                                                                    26148194.882 3                     -3537.716 3        21.548
C14        48.000                                                                                                                                    23190728.793 7 120760179.32507     -1506.713 7        47.478    23190731.775 7  93379610.59807     -1165.081 7        47.580    23190727.441 7  98127543.01007     -1224.542 7        47.486
C45        49.000                                                                                                                                                                                                                                                                    24331120.531 5 102952935.83705     -2748.935 5        33.515
C07        53.000                                                                                                                                    38976329.810 4 202960106.76404     -1385.728 4        29.479    38976352.401 5 156941608.53505     -1071.106 5        32.766
I02        56.000    36856632.275 6 144633351.27006      -498.308 6        38.138
I06        57.000    38165518.972 4 149769707.42404      -728.549 4        26.371
> 2025 01 01 10 45 20.0000000  0 39
G19         1.000    21688258.623 7 113972665.40507      1075.563 7        42.334                                    21688252.991 1  88809826.05901       838.166 1        10.741
G13         2.000    21936956.829 6 115279510.77906     -4098.276 6        39.102                                    21936960.247 2  89828195.95702     -3193.475 2        15.571
G14         4.000    23151971.156 4 121664397.88004     -3964.745 4        29.725                                    23151998.024 1  94803550.25101     -3089.408 1         3.600    23151999.151 3                     -3089.867 3        23.105
G17         5.000    21969665.191 7 115451409.70507     -1466.460 7        45.207                                    21969667.268 6  89962144.28406     -1142.695 6        40.422    21969668.596 7  89962119.29507     -1142.596 7        42.341
G15         6.000    20849374.078 5 109564202.31205     -3101.601 5        35.962                                    20849372.743 3  85375010.59203     -2416.836 3        21.738    20849373.459 5  85374686.57105     -2416.820 5        30.075
G12         7.000    22816871.592 5 119903464.57905      2477.583 5        35.129                                    22816872.686 3  93431229.72003      1930.586 3        21.786    22816877.783 5                      1930.391 5        32.126
G23        10.000                                                                                                                                                                    23342998.842 5  95585757.07805     -1830.543 5        32.138
E30        11.000    25805709.834 6 135609925.37206      1572.393 6        41.669                                                                    25805726.557 4 101267195.06104      1174.440 4        28.493    25805756.058 4 103908934.91004      1205.361 4        24.481
G10        12.000    24387916.119 6 128159357.84706        89.328 6        37.225                                    24387916.251 3  99864487.15503        69.616 3        18.448    24387920.155 4                        69.690 4        25.143
E02        13.000    23053894.272 7 121149067.31707      -749.179 7        47.277                                                                    23053898.380 8  90468552.52108      -559.407 8        49.273    23053897.707 8  92828606.71608      -574.054 8        50.038
E25        14.000    25344844.689 6 133188049.07306     -3112.999 6        37.134                                                                    25344853.044 7  99458654.92907     -2324.692 7        44.790    25344851.928 7 102053151.97107     -2385.339 7        43.143
G24        16.000    20500357.306 7 107730253.98207       823.434 7        47.185                                    20500361.939 7  83945654.76107       641.632 7        42.311    20500361.011 6  83945567.78906       641.639 6        40.970
E08        17.000    23515640.624 7 123575516.59707     -1506.521 7        44.799                                                                    23515644.497 8  92280430.61408     -1124.969 8        49.073    23515643.475 8  94687784.10808     -1154.274 8        48.972
E07        18.000    25329194.043 7 133105827.50107      1224.253 7        42.161                                                                    25329203.410 7  99397253.40707       914.263 7        43.964    25329200.878 7 101990225.39307       938.141 7        43.721
S36        23.000    38127684.075 5 200362340.26005      -831.916 5        33.958
S23        24.000    38061669.051 5 200015451.35405      -834.538 5        35.486
R04        25.000    23738632.767 5 127119376.58505      3286.027 5        34.095                                                                    23738632.875 5  98870634.30705      2555.464 5        34.143
R20        26.000                                                                                                                                    23846223.533 3                     -2589.471 3        20.810
E03        27.000    25868726.106 6 135941069.98506     -3683.685 6        37.369                                                                    25868735.757 5 101514519.63905     -2750.624 5        34.800    25868734.677 5 104162525.86405     -2822.471 5        34.805
R11        28.000                                                                                                                                    23095054.180 5                     -3352.497 5        30.589
R13        29.000    20269508.428 6 108238018.07406      1142.001 6        36.681
R21        30.000    22227302.805 6 118942806.99406      -147.691 6        37.758
R12        31.000    19430148.004 8 103792366.82808     -1912.535 8        48.793                                                                    19430151.833 6  80727400.97206     -1487.654 6        39.742
C10        32.000                                                                                                                                    38436127.724 5 200147002.49505     -1020.739 5        35.890    38436136.661 7 154766398.37007      -789.313 7        43.143    38436130.561 6 162635842.34006      -829.332 6        39.886
R03        33.000    20349850.030 7 108934386.61007       737.556 7        46.326                                                                    20349857.231 7  84726769.46607       573.629 7        45.397
C24        34.000                                                                                                                                    23099912.047 7 120287426.87807      1360.443 7        44.594                                                                    23099912.924 7  97743309.81507      1105.416 7        44.673
C26        37.000                                                                                                                                    21577186.782 7 112358160.86807     -1059.268 7        43.441                                                                    21577187.709 6  91300236.83906      -860.732 6        39.459
C29        39.000                                                                                                                                    24483325.862 5 127491194.91905      -640.436 5        31.275                                                                    24483299.933 4                      -521.887 4        25.038
C35        40.000                                                                                                                                    24803834.829 5                      1942.559 5        30.128                                                                    24803815.762 5 104953079.67405      1578.258 5        34.238
C42        41.000                                                                                                                                    23403773.562 7 121870034.47607     -3005.262 7        46.325                                                                    23403783.018 6  99029035.60706     -2442.053 6        39.550
R02        43.000    20161612.471 7 107586204.57507     -3567.309 7        43.500                                                                    20161618.191 7  83678196.71107     -2774.501 7        42.597
C40        44.000                                                                                                                                    39127576.690 4                     -1612.363 4        27.401                                                                    39127568.705 4                     -1310.201 4        25.308
C33        46.000                                                                                                                                    24029729.818 5 125129249.45805        85.025 5        35.029                                                                    24029746.437 4 101677746.09904        68.992 4        28.085
C21        47.000                                                                                                                                    26152394.248 3                     -4354.869 3        23.676                                                                    26152378.111 3                     -3539.652 3        22.971
C14        48.000                                                                                                                                    23192176.762 8 120767719.71808     -1509.565 8        48.088    23192179.621 7  93385441.30007     -1167.254 7        47.462    23192175.344 7  98133670.18907     -1226.591 7        47.364
C45        49.000                                                                                                                                                                                                                                                                    24334368.910 5 102966680.05105     -2749.117 5        34.109
C07        53.000                                                                                                                                    38977659.461 4 202967035.71204     -1386.094 4        28.635    38977683.435 5 156946966.51605     -1072.118 5        32.946
I02        56.000    36857267.444 6 144635843.78806      -498.511 6        38.201
I06        57.000    38166447.605 4 149773349.43704      -728.080 4        26.431
> 2025 01 01 10 45 25.0000000  0 38
G19         1.000    21687236.587 6 113967294.43806      1072.684 6        41.025                                    21687230.622 1  88805640.85301       835.849 1        10.370
G13         2.000    21940858.089 6 115300007.37006     -4100.278 6        37.856                                    21940860.955 2  89844167.33202     -3195.028 2        15.524
G14         4.000    23155742.276 4 121684224.56704     -3966.127 4        29.991                                    23155771.591 1  94818999.46101     -3090.539 1         3.800    23155769.918 4                     -3090.459 4        24.752
G17         5.000    21971062.799 7 115458749.91107     -1469.818 7        46.099                                    21971064.722 6  89967863.91006     -1145.309 6        41.051    21971064.990 6  89967838.91506     -1145.230 6        41.719
G15         6.000    20852325.219 5 109579718.13805     -3105.031 5        35.895                                    20852323.728 3  85387100.82203     -2419.504 3        19.552    20852327.869 4  85386776.85704     -2420.094 4        27.389
G12         7.000    22814515.811 5 119891081.55705      2475.847 5        35.471                                    22814517.741 3  93421580.63403      1929.216 3        23.295    22814521.998 5                      1929.352 5        32.832
G23        10.000                                                                                                                                                                    23345231.579 4  95594915.84704     -1832.898 4        29.384
E30        11.000    25804213.528 6 135602066.46906      1570.932 6        41.912                                                                    25804231.610 5 101261326.36705      1173.507 5        31.683    25804260.633 3                      1205.542 3        21.500
G10        12.000    24387832.010 6 128158919.47206        85.904 6        37.633                                    24387833.401 3  99864145.54703        66.954 3        18.955    24387833.772 4                        67.231 4        26.311
E02        13.000    23054607.825 7 121152817.98707      -751.281 7        47.809                                                                    23054612.170 8  90471353.34108      -560.954 8        49.599    23054611.601 8  92831480.60408      -575.632 8        50.336
E25        14.000    25347805.879 6 133203616.67106     -3113.799 6        36.873                                                                    25347815.346 7  99470280.05507     -2325.468 7        44.853    25347814.400 7 102065080.37007     -2386.123 7        43.115
G24        16.000    20499574.750 7 107726142.37407       821.026 7        45.804                                    20499579.306 6  83942450.91906       639.756 6        41.201    20499578.258 6  83942363.94806       639.789 6        40.291
E08        17.000    23517075.008 7 123583054.73307     -1508.949 7        44.378                                                                    23517078.912 8  92286059.73808     -1126.785 8        48.913    23517077.885 8  94693560.08408     -1156.145 8        49.206
E07        18.000    25328029.716 7 133099709.77907      1222.562 7        42.828                                                                    25328039.294 7  99392684.99607       912.982 7        43.858    25328036.892 7 101985537.80107       936.871 7        43.888
S36        23.000    38128475.119 5 200366500.79005      -832.195 5        33.946
S23        24.000    38062462.353 5 200019624.49005      -834.839 5        35.743
R04        25.000    23735566.304 6 127102951.20106      3284.180 6        36.340                                                                    23735564.801 5  98857858.94205      2554.263 5        35.438
E03        27.000    25872231.604 6 135959490.40606     -3684.778 6        37.728                                                                    25872241.006 5 101528275.11205     -2751.721 5        35.100    25872240.486 5 104176640.20405     -2823.643 5        34.114
R11        28.000    23099112.605 3                     -4312.821 3        23.314                                                                    23099088.630 5                     -3352.480 5        30.091
R13        29.000    20268441.868 6 108232313.90106      1139.691 6        36.832
R21        30.000    22227440.880 6 118943556.30306      -152.179 6        38.132                                                                    22227457.013 5  92511679.16105      -118.348 5        30.219
R12        31.000    19431938.883 8 103801935.20008     -1914.936 8        48.421                                                                    19431941.398 6  80734843.01706     -1489.439 6        39.102
C10        32.000                                                                                                                                    38437109.000 5 200152107.35705     -1021.666 5        35.971    38437117.063 7 154770345.74507      -789.890 7        42.912    38437111.058 6 162639990.45406      -830.012 6        39.781
R03        33.000    20349163.352 7 108930709.57007       733.079 7        45.782                                                                    20349170.057 7  84723909.54207       570.128 7        45.902
C24        34.000                                                                                                                                    23098608.040 7 120280627.64607      1359.167 7        45.269                                                                    23098607.129 7  97737784.90507      1104.365 7        44.713
C26        37.000                                                                                                                                    21578205.037 7 112363461.66107     -1061.131 7        43.642                                                                    21578205.310 6  91304544.17806      -862.130 6        38.255
C29        39.000                                                                                                                                    24483945.304 4 127494405.68704      -643.770 4        25.714                                                                    24483918.238 4                      -523.213 4        24.947
C35        40.000                                                                                                                                    24801966.407 4                      1941.498 4        28.114                                                                    24801948.319 5 104945189.17805      1577.213 5        33.162
C42        41.000                                                                                                                                    23406660.124 7 121885066.58807     -3007.729 7        46.747                                                                    23406669.950 6  99041250.41706     -2444.051 6        39.150
R02        43.000    20164956.002 7 107604050.89607     -3571.321 7        42.853                                                                    20164962.899 7  83692077.15907     -2777.688 7        42.681
C40        44.000                                                                                                                                    39129123.129 4                     -1612.680 4        27.976                                                                    39129115.739 4                     -1311.002 4        25.218
C33        46.000                                                                                                                                    24029646.771 5 125128831.27705        81.954 5        33.060                                                                    24029666.665 4 101677406.29904        66.326 4        27.653
