     3.04           OBSERVATION DATA    M                   RINEX VERSION / TYPE
ssrcrin-15.6.1x                         20250101 231500 UTC PGM / RUN BY / DATE 
(00000000023479385599111004) Septentrio proprietary         COMMENT             
ract                                                        MARKER NAME         
01                                                          MARKER NUMBER       
geodetic                                                    MARKER TYPE         
NFB                 CLIMERS@TUW                             OBSERVER / AGENCY   
3296359             SEPT ASTERX SB3 PROB4.14.4              REC # / TYPE / VERS 
Unknown             Unknown                                 ANT # / TYPE        
  4127446.1090  1206915.1588  4695541.8246                  APPROX POSITION XYZ 
        0.0000        0.0000        0.0000                  ANTENNA: DELTA H/E/N
G   23 X1  C1C L1C D1C S1C C1W S1W C2W L2W D2W S2W C2L L2L  SYS / # / OBS TYPES 
       D2L S2L C5Q L5Q D5Q S5Q C1L L1L D1L S1L              SYS / # / OBS TYPES 
E   21 X1  C1C L1C D1C S1C C6C L6C D6C S6C C5Q L5Q D5Q S5Q  SYS / # / OBS TYPES 
       C7Q L7Q D7Q S7Q C8Q L8Q D8Q S8Q                      SYS / # / OBS TYPES 
S    9 X1  C1C L1C D1C S1C C5I L5I D5I S5I                  SYS / # / OBS TYPES 
R   17 X1  C1C L1C D1C S1C C2P L2P D2P S2P C2C L2C D2C S2C  SYS / # / OBS TYPES 
       C3Q L3Q D3Q S3Q                                      SYS / # / OBS TYPES 
C   25 X1  C1P L1P D1P S1P C5P L5P D5P S5P C2I L2I D2I S2I  SYS / # / OBS TYPES 
       C7I L7I D7I S7I C6I L6I D6I S6I C7D L7D D7D S7D      SYS / # / OBS TYPES 
J   17 X1  C1C L1C D1C S1C C2L L2L D2L S2L C5Q L5Q D5Q S5Q  SYS / # / OBS TYPES 
       C1L L1L D1L S1L                                      SYS / # / OBS TYPES 
I    5 X1  C5A L5A D5A S5A                                  SYS / # / OBS TYPES 
SEPTENTRIO RECEIVERS OUTPUT ALIGNED CARRIER PHASES.         COMMENT             
NO FURTHER PHASE SHIFT APPLIED IN THE RINEX ENCODER.        COMMENT             
G L1C                                                       SYS / PHASE SHIFT   
G L2W                                                       SYS / PHASE SHIFT   
G L2L  0.00000                                              SYS / PHASE SHIFT   
G L5Q  0.00000                                              SYS / PHASE SHIFT   
G L1L  0.00000                                              SYS / PHASE SHIFT   
E L1C  0.00000                                              SYS / PHASE SHIFT   
E L6C  0.00000                                              SYS / PHASE SHIFT   
E L5Q  0.00000                                              SYS / PHASE SHIFT   
E L7Q  0.00000                                              SYS / PHASE SHIFT   
E L8Q  0.00000                                              SYS / PHASE SHIFT   
S L1C                                                       SYS / PHASE SHIFT   
S L5I                                                       SYS / PHASE SHIFT   
R L1C                                                       SYS / PHASE SHIFT   
R L2P  0.00000                                              SYS / PHASE SHIFT   
R L2C                                                       SYS / PHASE SHIFT   
R L3Q  0.00000                                              SYS / PHASE SHIFT   
C L1P  0.00000                                              SYS / PHASE SHIFT   
C L5P  0.00000                                              SYS / PHASE SHIFT   
C L2I                                                       SYS / PHASE SHIFT   
C L7I                                                       SYS / PHASE SHIFT   
C L6I                                                       SYS / PHASE SHIFT   
C L7D                                                       SYS / PHASE SHIFT   
J L1C                                                       SYS / PHASE SHIFT   
J L2L  0.00000                                              SYS / PHASE SHIFT   
J L5Q  0.00000                                              SYS / PHASE SHIFT   
J L1L  0.00000                                              SYS / PHASE SHIFT   
I L5A                                                       SYS / PHASE SHIFT   
  2025     1     1    23    15    0.0000000     GPS         TIME OF FIRST OBS   
 C1C    0.000 C2C    0.000 C2P    0.000                     GLONASS COD/PHS/BIS 
DBHZ                                                        SIGNAL STRENGTH UNIT
    18                                                      LEAP SECONDS        
 24 R01  1 R02 -4 R03  5 R04  6 R05  1 R06 -4 R07  5 R08  6 GLONASS SLOT / FRQ #
    R09 -2 R10 -7 R11  0 R12 -1 R13 -2 R14 -7 R15  0 R16 -1 GLONASS SLOT / FRQ #
    R17  4 R18 -3 R19  3 R20  2 R21  4 R22 -3 R23  3 R24  2 GLONASS SLOT / FRQ #
                                                            END OF HEADER       
> 2025 01 01 23 15  0.0000000  0 36
G03         1.000    22278005.171 6 117071704.66906      2117.260 6        36.136                                    22278008.596 3  91224661.51103      1649.810 3        22.609    22278007.255 4  91224709.54104      1650.106 4        29.194
G10         2.000    23631603.508 6 124184959.21306     -3840.638 6        37.652                                                                                                    23631612.472 5                     -2992.706 5        31.125
G32         3.000    21954316.880 7 115370907.83707     -1725.555 7        43.829                                    21954313.828 6  89899367.80006     -1344.592 6        37.399    21954316.077 6  89899255.80906     -1344.498 6        36.087
G14         4.000    23966419.331 5 125944325.04305     -1678.043 5        35.157                                    23966402.435 1  98138431.88401     -1307.596 1         9.048
E07         5.000    24447643.933 5 128473325.16205      -583.468 5        35.657                                                                    24447643.032 7  95937886.39607      -435.821 7        43.164    24447641.802 7  98440572.31307      -447.215 7        42.360
G08         6.000    21997368.156 6 115596940.80006     -3856.062 6        41.990                                    21997372.747 2  90075544.76802     -3004.698 2        13.455
G27         7.000    24585035.349 4                     -4728.949 4        27.665                                                                                                    24585030.608 4                     -3684.701 4        25.338
G21         8.000    20634977.104 7 108437522.32207     -1196.854 7        43.666                                    20634970.121 5  84496745.51305      -932.618 5        30.868
G02         9.000    21022529.363 7 110474352.80607       293.686 7        46.637                                    21022519.577 5  86083743.66905       228.850 5        32.826
G17        11.000    24535249.019 5 128933495.39805      2262.286 5        30.830                                    24535221.338 3 100467677.05703      1762.810 3        19.642    24535223.449 5                      1762.650 5        32.826
E08        12.000    27142976.844 3                     -3105.026 3        20.333                                                                    27142963.280 5 106514805.34705     -2320.270 5        31.789    27142960.191 5                     -2380.648 5        30.347
E29        14.000    25567521.465 5 134358296.79205      1927.099 5        32.683                                                                    25567520.220 7 100332445.24707      1438.975 7        42.042    25567520.621 6 102949883.93206      1476.501 6        37.796
E24        15.000    27773686.475 5 145951676.44505      -555.654 5        33.898                                                                    27773674.540 6 108989872.50306      -414.564 6        37.319    27773680.587 5 111833151.73905      -425.902 5        33.748
E13        16.000    27509043.700 4                     -3287.192 4        27.090
E31        17.000    26827271.240 5 140978243.43305     -2810.561 5        35.348                                                                    26827248.494 5                     -2098.708 5        33.695    26827256.862 6 108022270.48806     -2153.524 6        36.654
E26        19.000    23762898.331 7 124874863.31707     -1820.298 7        44.819                                                                    23762895.849 6  93250784.05706     -1359.391 6        41.797    23762895.133 6  95683346.89906     -1394.771 6        40.594
R06        21.000    20807996.519 4                      2520.476 4        28.882
S36        23.000    38209500.155 6 200792187.62306      -854.042 6        37.267
S23        24.000    38162677.827 6 200546162.71706      -851.673 6        41.311
R12        25.000    23633402.598 6 126245627.34106     -2544.343 6        39.970                                                                    23633400.148 5  98190854.47005     -1978.529 5        30.309
R20        26.000    19866671.266 5 106236018.42305     -2575.331 5        34.657                                                                    19866672.635 7  82628013.41507     -2003.067 7        43.124
R05        27.000    19570858.207 8 104617432.32408     -2366.017 8        48.561                                                                    19570856.851 6  81369118.00606     -1840.186 6        41.683
E33        28.000    23932168.395 7 125764373.26907       476.643 7        42.392                                                                    23932164.597 7  93915000.18507       355.890 7        42.180    23932167.287 7  96364911.27007       365.139 7        43.632
R21        30.000    19887290.208 7 106421159.88907      1304.236 7        46.061                                                                    19887289.847 6  82771846.07806      1014.332 6        40.367
R04        31.000    22996980.907 6 123147739.20706     -5005.985 6        38.568
R13        32.000    23868589.112 3                        72.497 3        23.886
R22        35.000    24075519.303 5 128516802.01505      3058.149 5        34.486                                                                    24075527.062 4                      2378.309 4        24.135
C32        36.000                                                                                                                                    23717302.108 6 123502062.37706      1911.856 6        36.507                                                                    23717301.324 5 100355668.88705      1553.045 5        34.190
C33        37.000                                                                                                                                    24593086.009 6 128062641.90706     -3642.460 6        41.881                                                                    24593099.675 4 104061463.16204     -2959.840 4        29.384
C30        38.000                                                                                                                                    22879683.963 7 119140503.22907      1203.120 7        42.195                                                                    22879682.049 7  96811443.50407       977.544 7        44.769
C28        40.000                                                                                                                                    23969853.623 4                     -3731.605 4        29.374                                                                    23969862.760 4                     -3032.335 4        25.278
I01        44.000   372421505.148 6 158321215.20806     -2614.122 6        41.771
C41        49.000                                                                                                                                    21959805.633 7 114350542.33607     -1106.147 7        44.728                                                                    21959808.377 7  92919177.13107      -898.790 7        43.164
C27        52.000                                                                                                                                    21522567.397 7 112073645.21607     -1668.504 7        47.308                                                                    21522567.037 8  91069030.45208     -1355.905 8        50.185
I06        58.000    38360807.805 4 150536226.24704      -530.480 4        27.461
I09        60.000    37219300.923 6 146056525.60606      -448.872 6        40.825
> 2025 01 01 23 15  5.0000000  0 34
G03         1.000    22275992.068 6 117061120.93106      2116.396 6        36.469                                    22275994.264 3  91216414.45903      1649.148 3        20.762    22275993.874 4  91216462.52204      1648.832 4        27.713
G10         2.000    23635259.162 6 124204162.99506     -3840.934 6        37.384                                                                                                    23635266.007 4                     -2992.930 4        29.791
G32         3.000    21955960.804 7 115379542.23507     -1728.270 7        43.464                                    21955956.322 6  89906095.90906     -1346.703 6        36.922    21955959.888 5  89905983.93705     -1346.659 5        35.290
E07         5.000    24448200.535 6 128476248.78506      -585.707 6        36.529                                                                    24448199.686 7  95940069.61307      -437.457 7        43.645    24448197.648 7  98442812.46707      -448.792 7        42.068
G08         6.000    22001036.544 6 115616224.34906     -3857.427 6        41.981                                    22001040.600 3  90090570.76803     -3005.762 3        18.925    22001034.179 4                     -3005.936 4        27.198
G27         7.000    24589527.805 4                     -4728.653 4        27.581                                                                                                    24589528.519 4                     -3684.955 4        26.275
G21         8.000    20636116.240 7 108443510.44507     -1198.219 7        43.960                                    20636109.276 5  84501411.58905      -933.680 5        31.094
G02         9.000    21022250.632 7 110472887.44607       292.536 7        46.975                                    21022240.771 5  86082601.82505       227.953 5        32.826
G17        11.000    24533098.936 5 128922186.99805      2261.247 5        31.691                                    24533069.549 3 100458865.46603      1761.995 3        18.657    24533071.485 5 100458823.55115      1762.328 5        34.238
E08        12.000                                                                                                                                    27145918.836 5 106526409.06705     -2321.117 5        32.323    27145916.327 5                     -2381.863 5        30.438
E29        14.000    25565687.721 5 134348663.94405      1926.223 5        31.608                                                                    25565687.101 6 100325251.85706      1438.566 6        41.340    25565687.492 6 102942502.89306      1476.040 6        38.024
E24        15.000    27774217.014 5 145954459.53905      -557.613 5        33.186                                                                    27774203.969 6 108991950.82006      -416.382 6        37.183    27774212.650 5 111835284.20905      -427.361 5        33.659
E13        16.000    27512170.044 4                     -3287.490 4        26.611
E31        17.000    26829944.912 6 140992299.26406     -2811.739 6        36.582                                                                    26829923.830 5 105286384.52115     -2099.737 5        34.071    26829930.796 6 108033040.55606     -2154.306 6        37.009
E26        19.000    23764631.161 7 124883966.84607     -1821.096 7        44.763                                                                    23764628.222 6  93257582.15306     -1359.852 6        41.228    23764627.445 6  95690322.34506     -1395.396 6        40.303
S36        23.000    38210312.895 6 200796456.75106      -853.600 6        36.749
S23        24.000    38163489.913 6 200550420.51006      -851.216 6        41.590
R12        25.000    23635785.645 6 126258356.67506     -2547.322 6        40.412                                                                    23635785.718 5  98200755.14105     -1981.393 5        32.557
R20        26.000    19869080.460 5 106248901.33305     -2577.746 5        35.490                                                                    19869081.795 7  82638033.44107     -2005.005 7        42.954
R05        27.000    19573072.039 8 104629271.58708     -2369.547 8        48.293                                                                    19573071.102 6  81378326.32906     -1843.020 6        41.881
E33        28.000    23931715.093 6 125761991.50506       476.222 6        41.750                                                                    23931711.449 7  93913221.59807       355.521 7        42.353    23931713.531 7  96363086.27307       364.871 7        43.281
R21        30.000    19886071.745 7 106414643.95907      1302.210 7        44.203                                                                    19886071.801 6  82766778.12606      1012.888 6        40.729
R04        31.000    23001655.130 6 123172770.51606     -5006.602 6        38.171
R13        32.000    23868524.703 3                        67.753 3        20.690
R22        35.000    24072659.414 5 128501509.75205      3058.899 5        35.095                                                                    24072658.757 4                      2378.612 4        25.023
C32        36.000                                                                                                                                    23715465.017 5 123492506.41705      1910.561 5        33.150                                                                    23715464.229 5 100347903.85105      1552.574 5        32.868
C33        37.000                                                                                                                                    24596583.373 6 128080856.06706     -3643.178 6        41.979                                                                    24596597.481 4 104076263.71504     -2960.388 4        29.090
C30        38.000                                                                                                                                    22878528.936 7 119134490.87607      1201.965 7        42.148                                                                    22878527.225 7  96806557.97407       976.618 7        44.367
C28        40.000                                                                                                                                    23973437.360 5                     -3732.513 5        30.891                                                                    23973445.397 3                     -3034.215 3        21.024
I01        44.000   372424835.651 7 158334285.82607     -2614.059 7        42.021
C41        49.000                                                                                                                                    21960868.719 7 114356078.45107     -1108.268 7        44.584                                                                    21960871.885 7  92923675.68307      -900.508 7        43.714
C27        52.000                                                                                                                                    21524170.172 7 112081992.99507     -1670.468 7        47.815                                                                    21524170.138 8  91075813.72908     -1357.460 8        49.991
I06        58.000    38361481.496 4 150538877.38904      -530.267 4        26.754
I09        60.000    37219873.453 6 146058770.06106      -448.758 6        40.937
> 2025 01 01 23 15 10.0000000  0 37
G03         1.000    22273981.409 6 117050544.43006      2114.594 6        36.994                                    22273981.180 3  91208173.02503      1647.742 3        18.896    22273978.291 4  91208221.07404      1647.438 4        27.737
G10         2.000    23638913.989 6 124223369.41606     -3841.778 6        36.008                                                                                                    23638918.182 4                     -2993.432 4        28.635
G32         3.000    21957607.335 7 115388191.95107     -1731.429 7        44.567                                    21957601.700 6  89912835.94606     -1349.167 6        36.590    21957605.363 5  89912723.96005     -1349.209 5        34.776
G14         4.000                                                                                                                                                                    23969600.514 5  98151453.14415     -1311.935 5        34.538
E07         5.000    24448760.849 6 128479184.67106      -588.615 6        38.622                                                                    24448758.195 7  95942261.96807      -439.395 7        44.041    24448756.244 7  98445062.01707      -450.904 7        42.070
G08         6.000    22004707.306 6 115635516.96906     -3859.626 6        41.447                                    22004710.908 3  90105603.92403     -3007.490 3        23.524    22004710.791 5                     -3007.402 5        32.018
G27         7.000    24594029.226 4                     -4728.812 4        27.545                                                                                                    24594030.741 4                     -3684.990 4        27.928
G21         8.000    20637257.382 7 108449507.52907     -1200.369 7        43.725                                    20637250.152 5  84506084.65105      -935.356 5        31.170
G02         9.000    21021973.114 7 110471430.21407       290.547 7        47.166                                    21021963.580 5  86081466.31605       226.400 5        33.138
G17        11.000    24530947.734 5 128910883.80405      2259.774 5        35.476                                    24530918.900 3 100450057.91403      1760.851 3        19.343    24530919.946 5 100450015.88405      1760.929 5        35.143
E08        12.000    27148891.813 3                     -3111.660 3        19.881                                                                    27148876.511 5 106538018.53805     -2322.382 5        32.353    27148873.447 5                     -2383.116 5        30.249
E29        14.000    25563855.013 5 134339036.78105      1924.787 5        31.351                                                                    25563854.961 6 100318062.74906      1437.360 6        40.872    25563855.492 6 102935126.22706      1474.860 6        38.592
E24        15.000    27774747.297 5 145957254.68905      -560.155 5        33.006                                                                    27774735.641 6 108994038.10906      -418.245 6        36.423    27774744.710 5 111837425.95405      -429.527 5        33.084
E13        16.000    27515297.326 4                     -3288.090 4        26.180
E31        17.000    26832623.407 6 141006363.24906     -2813.723 6        36.904                                                                    26832602.389 5 105296886.88505     -2101.401 5        34.443    26832606.399 6 108043816.85006     -2156.044 6        37.781
E26        19.000    23766364.361 7 124893076.20907     -1822.553 7        44.420                                                                    23766361.840 6  93264384.59006     -1360.839 6        40.975    23766361.322 6  95697302.25006     -1396.558 6        40.422
R06        21.000    20803293.150 4                      2514.870 4        29.820
S36        23.000    38211122.706 6 200800726.22406      -853.910 6        36.696
S23        24.000    38164302.747 6 200554678.13906      -851.461 6        41.919
R12        25.000    23638170.217 6 126271103.80906     -2551.241 6        40.884                                                                    23638170.326 5  98210669.57805     -1984.092 5        32.222
R20        26.000    19871493.767 6 106261798.88306     -2581.043 6        36.159                                                                    19871493.129 7  82648064.85307     -2007.506 7        43.052
R05        27.000    19575290.775 8 104641130.37108     -2373.805 8        48.211                                                                    19575289.536 7  81387549.82607     -1846.266 7        42.447
E33        28.000    23931262.991 6 125759614.22806       474.870 6        40.639                                                                    23931259.201 7  93911446.34007       354.674 7        42.582    23931260.685 7  96361264.70407       363.910 7        42.864
R21        30.000    19884857.979 7 106408140.20207      1299.464 7        44.349                                                                    19884856.264 6  82761719.61406      1010.789 6        39.940
R04        31.000    23006330.056 6 123197806.79706     -5007.759 6        36.775
R13        32.000    23868460.678 3                        66.093 3        21.333
R22        35.000    24069796.742 6 128486216.52106      3058.892 6        36.412                                                                    24069794.093 4                      2378.805 4        25.368
C32        36.000                                                                                                                                    23713630.210 5 123482958.22605      1908.642 5        30.400                                                                    23713630.090 5 100340145.07405      1550.750 5        31.811
C33        37.000                                                                                                                                    24600081.739 7 128099075.76507     -3644.555 7        42.315                                                                    24600096.218 4 104091068.72704     -2961.810 4        28.929
C30        38.000                                                                                                                                    22877375.549 6 119128486.87606      1199.868 6        41.974                                                                    22877374.212 7  96801679.21307       974.905 7        44.110
C28        40.000                                                                                                                                    23977022.090 5                     -3733.912 5        32.808                                                                    23977022.450 3                     -3035.029 3        20.929
C39        42.000                                                                                                                                    39713778.624 3                       432.489 3        23.714
I01        44.000   372428167.152 7 158347357.70707     -2614.640 7        42.176
C41        49.000                                                                                                                                    21961934.213 7 114361627.07607     -1111.001 7        44.564                                                                    21961937.614 7  92928184.39207      -903.017 7        44.290
C27        52.000                                                                                                                                    21525775.415 7 112090352.52507     -1673.143 7        47.701                                                                    21525775.452 8  91082606.51808     -1359.693 8        49.742
I06        58.000    38362158.410 4 150541528.47804      -530.359 4        28.057
I09        60.000    37220445.603 6 146061015.73906      -449.327 6        40.756
> 2025 01 01 23 15 15.0000000  0 37
G03         1.000    22271974.499 6 117039975.03906      2113.194 6        37.059                                    22271970.247 2  91199937.12202      1646.662 2        16.943
G10         2.000    23642567.847 5 124242578.40605     -3841.895 5        33.940                                                                                                    23642574.020 4                     -2993.705 4        28.569
G32         3.000    21959256.765 7 115396856.94707     -1734.594 7        46.006                                    21959250.155 6  89919587.89406     -1351.633 6        36.548    21959253.035 5  89919475.88305     -1351.668 5        34.157
G14         4.000    23971257.062 5 125969556.60705     -1686.374 5        30.679                                    23971204.900 1  98158092.80501     -1313.860 1         3.400    23971205.579 5  98158017.80105     -1314.221 5        34.686
E07         5.000    24449321.273 6 128482132.73306      -590.906 6        38.949                                                                    24449319.047 7  95944463.44407      -441.264 7        44.223    24449317.354 7  98447320.90807      -452.638 7        42.133
G08         6.000    22008380.473 6 115654818.54506     -3861.268 6        41.230                                    22008384.225 4  90120644.07704     -3008.775 4        26.491    22008387.489 5  90120657.04915     -3008.614 5        35.448
G27         7.000    24598529.915 4                     -4729.237 4        26.539                                                                                                    24598532.350 4                     -3685.878 4        27.856
G21         8.000    20638399.801 7 108455513.56107     -1202.141 7        44.006                                    20638392.906 5  84510764.68405      -936.739 5        31.479
G02         9.000    21021697.228 8 110469981.05608       288.933 8        48.138                                    21021687.873 5  86080337.09605       225.143 5        33.126
G17        11.000    24528790.515 6 128899585.86406      2259.121 6        37.811                                    24528769.391 3 100441254.40403      1760.337 3        21.714    24528770.127 6 100441212.39706      1760.298 6        36.057
E08        12.000    27151845.418 3                     -3113.747 3        21.810                                                                    27151834.728 5 106549633.71505     -2323.651 5        32.766    27151832.565 4                     -2384.349 4        29.649
E29        14.000    25562021.725 4 134329415.38104      1923.919 4        29.289                                                                    25562023.776 6 100310877.88406      1436.408 6        40.219    25562024.206 6 102927753.93206      1474.031 6        38.775
E24        15.000    27775281.969 5 145960061.86505      -562.649 5        32.204                                                                    27775269.298 5 108996134.38405      -420.082 5        35.667    27775279.530 5 111839576.87605      -431.413 5        32.174
E13        16.000    27518427.140 4                     -3288.575 4        25.669
E31        17.000    26835301.478 6 141020435.29006     -2815.440 6        36.953                                                                    26835280.554 5 105307395.17505     -2102.391 5        34.776    26835284.089 6 108054599.28906     -2157.166 6        38.375
E26        19.000    23768099.064 7 124902191.36607     -1823.687 7        43.820                                                                    23768096.441 6  93271191.37106     -1361.822 6        40.501    23768095.875 6  95704286.58706     -1397.273 6        40.846
R06        21.000    20800936.475 4                      2511.748 4        25.850
S36        23.000    38211935.244 6 200804995.57606      -853.963 6        37.554
S23        24.000    38165111.927 7 200558935.61007      -851.617 7        42.226
R12        25.000    23640559.644 6 126283868.70906     -2554.751 6        41.149                                                                    23640561.083 5  98220597.87305     -1986.961 5        34.243
R20        26.000    19873909.245 5 106274710.96605     -2583.647 5        35.767                                                                    19873909.238 7  82658107.59907     -2009.692 7        43.879
R05        27.000    19577513.702 7 104653008.51307     -2377.634 7        47.943                                                                    19577511.601 7  81396788.36707     -1849.325 7        42.017
E33        28.000    23930811.917 6 125757241.35906       474.047 6        39.610                                                                    23930807.666 7  93909674.38207       353.913 7        42.811    23930808.628 7  96359446.51907       363.225 7        42.569
R21        30.000    19883646.423 7 106401648.27307      1297.040 7        44.916                                                                    19883642.029 6  82756670.35906      1008.761 6        40.005
R04        31.000    23011003.593 5 123222847.96705     -5008.723 5        35.167
R13        32.000    23868402.730 3                        60.761 3        22.114
R22        35.000    24066932.421 6 128470922.14616      3058.883 6        37.225                                                                    24066932.089 4                      2378.236 4        26.024
C32        36.000                                                                                                                                    23711796.305 4 123473417.85004      1907.363 4        24.737                                                                    23711798.700 5 100332392.55005      1549.612 5        32.036
C33        37.000                                                                                                                                    24603581.755 7 128117300.95807     -3645.679 7        42.648                                                                    24603596.313 4 104105878.20904     -2962.704 4        27.928
C30        38.000                                                                                                                                    22876222.814 7 119122491.16407      1198.220 7        42.036                                                                    22876222.852 7  96796807.18907       973.751 7        44.117
C28        40.000                                                                                                                                    23980610.885 5 124873329.29115     -3735.404 5        34.076                                                                    23980599.779 4                     -3035.477 4        24.421
C39        42.000                                                                                                                                    39713363.809 4                       431.624 4        26.287
I01        44.000   372431498.831 7 158360430.76407     -2614.625 7        42.059
C41        49.000                                                                                                                                    21963001.764 7 114367188.16807     -1113.472 7        44.567                                                                    21963005.625 7  92932703.22107      -904.816 7        45.261
C27        52.000                                                                                                                                    21527383.318 7 112098723.69707     -1675.475 7        47.424                                                                    21527382.981 8  91089408.78108     -1361.411 8        49.656
I06        58.000    38362833.567 4 150544179.64604      -530.602 4        26.874
I09        60.000    37221017.948 6 146063262.58006      -449.558 6        40.613
> 2025 01 01 23 15 20.0000000  0 37
G03         1.000    22269965.341 6 117029413.05806      2111.802 6        36.423                                    22269961.044 2  91191706.99802      1645.582 2        15.429    22269971.438 4  91191754.97304      1645.173 4        27.066
G10         2.000    23646223.272 5 124261790.23205     -3842.812 5        33.820                                                                                                    23646233.752 4                     -2994.377 4        27.952
G32         3.000    21960908.058 7 115405537.40307     -1737.565 7        46.789                                    21960901.798 6  89926351.89206     -1353.944 6        37.138    21960905.541 6  89926239.86706     -1353.765 6        36.042
G14         4.000    23972864.048 4 125977995.46704     -1688.794 4        28.009                                    23972810.525 1  98164668.58601     -1315.908 1         3.000    23972813.524 5  98164593.70905     -1316.275 5        33.036
E07         5.000    24449884.081 6 128485093.23106      -593.160 6        39.712                                                                    24449882.528 7  95946674.21007      -442.940 7        44.385    24449880.756 6  98449589.34706      -454.503 6        41.921
G08         6.000    22012056.369 6 115674129.30806     -3862.876 6        41.716                                    22012059.818 4  90135691.40004     -3010.023 4        28.929    22012061.464 6  90135704.46906     -3009.887 6        36.911
G27         7.000    24603026.569 3                     -4731.154 3        23.505                                                                                                    24603034.259 4                     -3685.622 4        28.711
G21         8.000    20639544.983 7 108461528.81807     -1203.822 7        44.161                                    20639537.588 5  84515451.90905      -938.039 5        31.698
G02         9.000    21021423.200 8 110468540.17208       287.489 8        48.414                                    21021413.749 5  86079214.33005       224.016 5        33.222
G17        11.000    24526633.365 6 128888293.46506      2257.996 6        39.021                                    24526621.008 3 100432455.21103      1759.462 3        23.448    24526620.562 6 100432413.22706      1759.562 6        36.590
E08        12.000    27154804.993 3                     -3114.233 3        23.467                                                                    27154794.759 5 106561254.75905     -2324.817 5        32.910    27154791.666 4                     -2385.379 4        28.531
E29        14.000    25560191.447 4 134319799.89204      1922.819 4        28.540                                                                    25560193.678 6 100303697.42406      1435.878 6        39.231    25560194.331 6 102920386.17406      1473.267 6        39.562
E24        15.000    27775821.167 4 145962881.28104      -564.594 4        29.905                                                                    27775805.966 5 108998239.77905      -421.738 5        35.024    27775816.420 5 111841737.16505      -432.972 5        32.802
E13        16.000    27521555.894 3                     -3288.892 3        22.400
E31        17.000    26837978.197 6 141034515.57606     -2817.079 6        36.416                                                                    26837960.056 5 105317909.65405     -2103.419 5        34.686    26837962.969 6 108065388.08706     -2158.386 6        38.363
E26        19.000    23769834.792 7 124911312.53007     -1824.692 7        43.537                                                                    23769832.273 6  93278002.62606     -1362.599 6        40.105    23769831.844 6  95711275.53406     -1398.051 6        40.868
R06        21.000    20798580.444 4                      2509.163 4        24.586
S36        23.000    38212751.083 6 200809264.80106      -853.599 6        37.474
S23        24.000    38165922.566 6 200563193.16206      -851.330 6        41.874
R12        25.000    23642952.488 6 126296651.57206     -2558.431 6        38.432                                                                    23642954.291 5  98230540.11105     -1989.669 5        35.733
R20        26.000    19876324.485 5 106287637.95405     -2586.735 5        34.176                                                                    19876326.968 7  82668161.89207     -2011.901 7        43.884
R05        27.000    19579739.496 7 104664906.50107     -2381.476 7        46.970                                                                    19579737.102 6  81406042.34306     -1852.270 6        41.440
E33        28.000    23930361.238 6 125754873.15506       473.365 6        38.613                                                                    23930356.854 7  93907905.89207       353.411 7        42.853    23930357.642 7  96357631.90407       362.616 7        42.089
R21        30.000    19882433.890 7 106395168.76907      1294.836 7        45.085                                                                    19882431.831 6  82751630.71906      1007.401 6        39.321
R04        31.000    23015675.319 5 123247894.50305     -5009.828 5        35.633
R13        32.000    23868356.198 3                        56.263 3        21.024
R22        35.000    24064067.779 6                      3059.094 6        38.234                                                                    24064068.314 4                      2379.564 4        28.455
C32        36.000                                                                                                                                    23709964.711 4 123463885.10804      1905.832 4        28.408                                                                    23709969.053 5 100324646.50805      1548.784 5        34.076
C33        37.000                                                                                                                                    24607082.905 7 128135531.81507     -3646.552 7        42.758                                                                    24607097.800 4 104120692.29104     -2963.328 4        28.332
C30        38.000                                                                                                                                    22875073.428 7 119116503.99607      1196.627 7        43.196                                                                    22875073.000 7  96791942.16207       972.401 7        43.831
C28        40.000                                                                                                                                    23984195.637 6 124892007.79906     -3736.091 6        36.060                                                                    23984189.365 4                     -3036.250 4        26.240
C39        42.000                                                                                                                                    39712951.351 4                       430.762 4        24.406
I01        44.000   372434830.270 7 158373505.16107     -2614.835 7        42.307
C41        49.000                                                                                                                                    21964072.437 7 114372761.93507     -1115.865 7        45.159                                                                    21964076.085 7  92937232.40007      -906.768 7        46.103
C27        52.000                                                                                                                                    21528993.668 7 112107106.79407     -1677.728 7        47.102                                                                    21528992.806 8  91096220.75508     -1363.250 8        49.640
I06        58.000    38363510.253 4 150546830.85204      -529.923 4        27.222
I09        60.000    37221590.710 6 146065510.77406      -449.707 6        40.799
> 2025 01 01 23 15 25.0000000  0 36
G03         1.000    22267958.648 6 117018857.93506      2109.951 6        36.926                                    22267953.160 2  91183482.21402      1644.050 2        13.879    22267959.058 4                      1643.883 4        24.150
G10         2.000    23649882.933 5 124281004.27205     -3843.256 5        31.743                                                                                                    23649890.958 4                     -2994.996 4        27.832
G32         3.000    21962562.577 8 115414232.79208     -1741.022 8        48.014                                    21962556.580 6  89933127.52606     -1356.640 6        38.219    21962560.589 6  89933015.51606     -1356.676 6        38.712
G14         4.000                                                                                                                                                                    23974429.223 5  98171180.32705     -1318.382 5        31.774
E07         5.000    24450450.161 6 128488065.61806      -596.001 6        40.088                                                                    24450448.429 7  95948893.85007      -445.134 7        44.576    24450446.489 7  98451866.87807      -456.603 7        42.332
G08         6.000    22015733.218 7 115693448.70807     -3865.054 7        42.662                                    22015737.307 5  90150745.45505     -3011.730 5        30.589    22015738.331 6  90150758.55106     -3011.745 6        37.554
G27         7.000    24607519.924 3                     -4732.287 3        23.486                                                                                                    24607535.296 4                     -3685.510 4        28.806
G21         8.000    20640691.353 7 108467552.74307     -1205.968 7        44.137                                    20640683.956 5  84520145.88405      -939.714 5        31.796
G02         9.000    21021150.321 7 110467107.06607       285.531 7        47.763                                    21021140.989 5  86078097.62405       222.493 5        33.389
G17        11.000    24524482.135 6 128877006.08106      2256.640 6        40.186                                    24524473.467 4 100423659.90104      1758.421 4        24.346    24524473.231 6 100423617.89406      1758.499 6        36.567
E08        12.000                                                                                                                                    27157756.664 5 106572881.26305     -2326.245 5        33.802    27157752.081 4                     -2386.952 4        27.737
E29        14.000    25558364.229 5 134310189.67805      1921.389 5        30.098                                                                    25558364.844 6 100296521.00606      1434.616 6        38.450    25558365.314 6 102913022.53306      1471.936 6        40.222
E24        15.000                                                                                                                                    27776344.554 5 109000353.96405      -424.075 5        34.219    27776355.190 5 111843906.48405      -435.102 5        31.555
E13        16.000    27524681.313 3                     -3286.854 3        20.857
E31        17.000    26840655.664 5 141048603.53605     -2818.333 5        34.324                                                                    26840640.271 5 105328429.93605     -2105.162 5        33.796    26840642.308 6 108076182.78906     -2159.704 6        38.441
E26        19.000    23771572.054 7 124920439.16407     -1826.219 7        43.278                                                                    23771568.891 6  93284817.97306     -1363.569 6        39.736    23771568.677 6  95718268.67906     -1399.340 6        41.321
R06        21.000    20796236.254 3                      2507.860 3        22.990
S36        23.000    38213554.043 6 200813534.53306      -854.193 6        37.350
S23        24.000    38166730.324 6 200567450.31306      -851.743 6        41.335
R12        25.000    23645349.519 5 126309451.85505     -2562.350 5        34.776                                                                    23645349.527 5  98240495.87205     -1992.767 5        35.957
R20        26.000    19878744.981 5 106300579.16705     -2589.778 5        33.036                                                                    19878746.381 7  82678227.30407     -2014.382 7        43.645
R05        27.000    19581967.895 7 104676823.44907     -2385.614 7        47.212                                                                    19581966.089 6  81415311.07806     -1855.462 6        41.089
E33        28.000    23929911.315 6 125752509.04706       471.963 6        37.308                                                                    23929906.927 7  93906140.47607       352.597 7        42.938    23929907.461 6  96355820.43606       361.656 6        41.692
R21        30.000    19881223.257 7 106388700.93907      1292.117 7        43.517                                                                    19881222.620 6  82746600.18906      1005.001 6        38.135
R04        31.000    23020353.122 5 123272945.55305     -5010.898 5        32.838                                                                    23020344.738 4                     -3897.275 4        25.203
R22        35.000    24061201.649 6 128440330.30016      3058.969 6        37.849                                                                    24061207.983 5                      2379.484 5        30.966
C32        36.000                                                                                                                                                                                                                                                                    23708141.951 6 100316906.43406      1547.171 6        36.223
C33        37.000                                                                                                                                    24610584.799 7 128153767.85507     -3648.073 7        43.164                                                                    24610601.033 4 104135510.57404     -2964.896 4        27.521
C30        38.000                                                                                                                                    22873925.540 7 119110524.83707      1194.622 7        44.510                                                                    22873924.929 7  96787083.59307       970.812 7        43.598
C28        40.000                                                                                                                                    23987785.925 6 124910692.06306     -3737.767 6        38.066                                                                    23987778.012 4                     -3037.128 4        28.019
C39        42.000                                                                                                                                    39712546.678 3                       428.954 3        23.924
I01        44.000   372438161.873 7 158386580.53007     -2615.418 7        42.299
C41        49.000                                                                                                                                    21965144.962 7 114378347.85407     -1118.809 7        45.803                                                                    21965148.761 7  92941771.41307      -909.119 7        46.757
C27        52.000                                                                                                                                    21530605.910 7 112115501.24307     -1680.320 7        47.567                                                                    21530604.915 8  91103041.92008     -1365.358 8        49.696
I06        58.000    38364184.904 4 150549481.90104      -530.586 4        26.144
I09        60.000    37222163.747 6 146067759.91306      -450.279 6        40.665
> 2025 01 01 23 15 30.0000000  0 35
G03         1.000    22265960.456 5 117008310.46805      2108.327 5        34.452                                    22265946.640 2  91175263.37002      1642.854 2        13.758    22265952.994 3                      1644.137 3        21.190
G10         2.000    23653540.690 4 124300221.40704     -3842.976 4        28.626                                                                                                    23653547.690 4                     -2995.790 4        28.607
G32         3.000    21964220.477 8 115422943.92208     -1743.946 8        48.299                                    21964214.474 6  89939915.42706     -1358.918 6        38.976    21964216.948 6  89939803.40806     -1358.838 6        39.949
G14         4.000    23976035.358 5                     -1695.237 5        35.609                                                                                                    23976038.177 5  98177778.45005     -1321.172 5        30.483
E07         5.000    24451017.823 6 128491050.73706      -598.427 6        39.646                                                                    24451016.423 7  95951122.98307      -446.903 7        44.680    24451014.547 7  98454154.17007      -458.524 7        42.243
G08         6.000    22019411.782 7 115712777.60307     -3866.933 7        42.688                                    22019416.344 5  90165806.92705     -3013.190 5        31.117    22019415.187 6  90165820.00806     -3012.941 6        36.053
G27         7.000    24612022.226 4                     -4735.013 4        24.015                                                                                                    24612039.060 4                     -3685.814 4        28.389
G21         8.000    20641839.237 7 108473586.17807     -1207.736 7        43.782                                    20641832.273 5  84524847.26705      -941.092 5        32.132
G02         9.000    21020878.916 7 110465682.57307       283.936 7        47.005                                    21020869.897 5  86076987.61905       221.249 5        33.293
G17        11.000    24522335.970 6 128865724.48306      2255.619 6        41.533                                    24522326.860 4 100414869.08004      1757.615 4        25.083    24522327.250 6 100414827.07706      1757.537 6        36.896
E08        12.000    27160719.536 4                     -3116.761 4        24.030                                                                    27160721.183 5 106584513.85705     -2327.320 5        34.419    27160714.849 4                     -2388.121 4        26.994
E29        14.000    25556537.313 5 134300585.70305      1920.195 5        31.660                                                                    25556536.947 6 100289349.24306      1433.710 6        37.868    25556537.894 6 102905663.65506      1471.168 6        40.739
E24        15.000    27776886.070 5 145968556.09505      -570.010 5        31.125                                                                    27776885.563 5 109002477.42605      -425.827 5        34.524    27776896.365 5 111846085.36205      -436.609 5        30.294
E13        16.000    27527809.137 3                     -3290.144 3        19.672
E31        17.000    26843335.810 5 141062700.12705     -2820.240 5        33.856                                                                    26843321.556 5 105338956.57105     -2105.816 5        33.371    26843324.405 6 108086984.03406     -2161.003 6        38.592
E26        19.000    23773309.698 7 124929572.10307     -1827.468 7        43.295                                                                    23773306.574 6  93291638.02206     -1364.681 6        39.039    23773306.963 6  95725266.64506     -1400.298 6        41.652
S36        23.000    38214375.042 6 200817804.73506      -854.224 6        36.775
S23        24.000    38167535.404 6 200571708.05106      -851.665 6        41.044
R12        25.000    23647746.336 5 126322270.23105     -2565.744 5        30.438                                                                    23647750.795 6  98250465.75706     -1995.448 6        37.864
R20        26.000    19881166.649 5 106313535.52305     -2592.745 5        32.024                                                                    19881168.709 7  82688304.42807     -2016.723 7        43.024
R05        27.000    19584201.907 8 104688760.48108     -2389.586 8        48.764                                                                    19584198.855 6  81424595.42706     -1858.654 6        41.175
E33        28.000    23929461.939 5 125750149.84005       471.194 5        35.333                                                                    23929458.045 7  93904378.73607       351.782 7        43.145    23929458.257 6  96354012.74006       361.037 6        41.661
R21        30.000    19880017.190 6 106382245.67806      1289.687 6        39.838                                                                    19880015.678 6  82741579.50606      1002.907 6        37.845
R04        31.000    23025033.283 4 123298001.92814     -5012.038 4        27.174
R22        35.000    24058335.386 5 128425033.11105      3059.380 5        35.729                                                                    24058344.763 5                      2379.524 5        30.279
C32        36.000                                                                                                                                                                                                                                                                    23706316.396 6 100309173.04006      1545.822 6        37.338
C33        37.000                                                                                                                                    24614088.093 7 128172009.84107     -3649.227 7        42.781                                                                    24614104.412 4 104150333.62604     -2964.485 4        25.714
C30        38.000                                                                                                                                    22872778.742 7 119104554.51307      1193.028 7        45.896                                                                    22872778.330 7  96782232.23707       969.489 7        43.704
C28        40.000                                                                                                                                    23991380.318 6 124929382.80006     -3739.216 6        38.634                                                                    23991367.281 4                     -3037.987 4        29.336
C39        42.000                                                                                                                                    39712133.545 4                       428.842 4        27.329
I01        44.000   372441494.879 7 158399657.49907     -2615.770 7        42.624
C41        49.000                                                                                                                                    21966219.862 7 114383946.71907     -1121.186 7        45.758                                                                    21966224.010 7  92946320.95807      -911.085 7        47.169
C27        52.000                                                                                                                                    21532220.914 8 112123907.86408     -1682.732 8        48.031                                                                    21532219.426 8  91109872.98708     -1367.286 8        49.812
I06        58.000    38364859.440 4 150552133.31204      -530.890 4        27.713
