     3.04           OBSERVATION DATA    M                   RINEX VERSION / TYPE
ssrcrin-15.6.1x                         20250101 094500 UTC PGM / RUN BY / DATE 
(00000000023479385599111004) Septentrio proprietary         COMMENT             
ract                                                        MARKER NAME         
01                                                          MARKER NUMBER       
geodetic                                                    MARKER TYPE         
NFB                 CLIMERS@TUW                             OBSERVER / AGENCY   
3296359             SEPT ASTERX SB3 PROB4.14.4              REC # / TYPE / VERS 
Unknown             Unknown                                 ANT # / TYPE        
  4127446.7362  1206914.5203  4695542.4524                  APPROX POSITION XYZ 
        0.0000        0.0000        0.0000                  ANTENNA: DELTA H/E/N
G   23 X1  C1C L1C D1C S1C C1W S1W C2W L2W D2W S2W C2L L2L  SYS / # / OBS TYPES 
       D2L S2L C5Q L5Q D5Q S5Q C1L L1L D1L S1L              SYS / # / OBS TYPES 
E   21 X1  C1C L1C D1C S1C C6C L6C D6C S6C C5Q L5Q D5Q S5Q  SYS / # / OBS TYPES 
       C7Q L7Q D7Q S7Q C8Q L8Q D8Q S8Q                      SYS / # / OBS TYPES 
S    9 X1  C1C L1C D1C S1C C5I L5I D5I S5I                  SYS / # / OBS TYPES 
R   17 X1  C1C L1C D1C S1C C2P L2P D2P S2P C2C L2C D2C S2C  SYS / # / OBS TYPES 
       C3Q L3Q D3Q S3Q                                      SYS / # / OBS TYPES 
C   25 X1  C1P L1P D1P S1P C5P L5P D5P S5P C2I L2I D2I S2I  SYS / # / OBS TYPES 
       C7I L7I D7I S7I C6I L6I D6I S6I C7D L7D D7D S7D      SYS / # / OBS TYPES 
J   17 X1  C1C L1C D1C S1C C2L L2L D2L S2L C5Q L5Q D5Q S5Q  SYS / # / OBS TYPES 
       C1L L1L D1L S1L                                      SYS / # / OBS TYPES 
I    5 X1  C5A L5A D5A S5A                                  SYS / # / OBS TYPES 
SEPTENTRIO RECEIVERS OUTPUT ALIGNED CARRIER PHASES.         COMMENT             
NO FURTHER PHASE SHIFT APPLIED IN THE RINEX ENCODER.        COMMENT             
G L1C                                                       SYS / PHASE SHIFT   
G L2W                                                       SYS / PHASE SHIFT   
G L2L  0.00000                                              SYS / PHASE SHIFT   
G L5Q  0.00000                                              SYS / PHASE SHIFT   
G L1L  0.00000                                              SYS / PHASE SHIFT   
E L1C  0.00000                                              SYS / PHASE SHIFT   
E L6C  0.00000                                              SYS / PHASE SHIFT   
E L5Q  0.00000                                              SYS / PHASE SHIFT   
E L7Q  0.00000                                              SYS / PHASE SHIFT   
E L8Q  0.00000                                              SYS / PHASE SHIFT   
S L1C                                                       SYS / PHASE SHIFT   
S L5I                                                       SYS / PHASE SHIFT   
R L1C                                                       SYS / PHASE SHIFT   
R L2P  0.00000                                              SYS / PHASE SHIFT   
R L2C                                                       SYS / PHASE SHIFT   
R L3Q  0.00000                                              SYS / PHASE SHIFT   
C L1P  0.00000                                              SYS / PHASE SHIFT   
C L5P  0.00000                                              SYS / PHASE SHIFT   
C L2I                                                       SYS / PHASE SHIFT   
C L7I                                                       SYS / PHASE SHIFT   
C L6I                                                       SYS / PHASE SHIFT   
C L7D                                                       SYS / PHASE SHIFT   
J L1C                                                       SYS / PHASE SHIFT   
J L2L  0.00000                                              SYS / PHASE SHIFT   
J L5Q  0.00000                                              SYS / PHASE SHIFT   
J L1L  0.00000                                              SYS / PHASE SHIFT   
I L5A                                                       SYS / PHASE SHIFT   
  2025     1     1     9    45    0.0000000     GPS         TIME OF FIRST OBS   
 C1C    0.000 C2C    0.000 C2P    0.000                     GLONASS COD/PHS/BIS 
DBHZ                                                        SIGNAL STRENGTH UNIT
    18                                                      LEAP SECONDS        
 24 R01  1 R02 -4 R03  5 R04  6 R05  1 R06 -4 R07  5 R08  6 GLONASS SLOT / FRQ #
    R09 -2 R10 -7 R11  0 R12 -1 R13 -2 R14 -7 R15  0 R16 -1 GLONASS SLOT / FRQ #
    R17  4 R18 -3 R19  3 R20  2 R21  4 R22 -3 R23  3 R24  2 GLONASS SLOT / FRQ #
                                                            END OF HEADER       
> 2025 01 01 09 45  0.0000000  0 31
G19         1.000    23575687.750 4                      2436.212 4        29.886
G13         2.000    20237128.507 8 106346815.87608     -2453.553 8        50.785                                    20237128.688 6  82867664.35206     -1911.858 6        36.877
G14         4.000    21313406.530 6 112002689.74706     -2952.371 6        39.276                                    21313409.695 3  87274793.37303     -2300.541 3        22.210    21313407.461 6  87274798.35006     -2300.494 6        40.315
G17         5.000    22345250.415 7 117425058.97707       758.667 7        43.634                                    22345250.430 5  91500103.94105       591.160 5        33.222    22345251.617 5  91500074.94805       591.250 5        33.353
G15         6.000    20121659.059 7 105740054.05507      -673.435 7        44.316                                    20121657.052 6  82395160.57806      -524.756 6        40.398    20121658.314 6  82394821.58006      -524.751 6        41.206
G05         7.000    24558636.394 5 129056505.69005     -4448.010 5        33.311                                    24558641.191 1 100563520.23401     -3465.939 1        10.889    24558644.148 4 100563500.24204     -3466.330 4        26.240
G23        10.000    23104325.695 7 121414082.96607       -14.702 7        42.790                                    23104328.558 4  94608383.86104       -11.462 4        25.038    23104328.166 6  94608336.87506       -11.455 6        38.793
E30        11.000    27717143.399 4                      2171.518 4        25.970                                                                    27717135.601 5 108767998.80505      1621.646 5        34.762    27717132.178 5                      1663.516 5        32.335
E02        13.000    23598685.634 8 124011961.82308       604.576 8        49.183                                                                    23598688.551 6  92606428.38506       451.483 6        41.511    23598689.741 7  95022253.27307       463.277 7        47.027
E25        14.000    24064002.181 7 126457154.50107     -2238.083 7        46.966                                                                    24064008.092 8  94432409.87108     -1671.285 8        48.263    24064005.999 7  96895785.74207     -1714.899 7        47.179
G24        16.000    22126982.199 7 116278217.96707      2048.301 7        44.188                                    22126982.822 4  90606408.22604      1596.075 4        29.953    22126985.170 5  90606324.23005      1595.978 5        35.957
E08        17.000    23608301.401 7 124062465.59907       -13.411 7        44.828                                                                    23608305.520 7  92644064.44807       -10.090 7        42.912    23608305.695 7  95060903.65907       -10.321 7        43.361
E07        18.000    27044633.891 4 142120631.43504      1896.808 4        28.464                                                                    27044607.743 7 106128849.90807      1416.246 7        42.025    27044608.116 7 108897429.24307      1453.250 7        44.953
S23        24.000    38089842.683 6 200163468.52806      -823.918 6        36.212
E03        27.000    24238097.889 6 127372025.55206     -2718.852 6        41.943                                                                    24238103.998 7  95115418.98907     -2030.300 7        47.369    24238102.122 7  97596712.23907     -2083.243 7        45.859
R11        28.000    20886889.634 7 111613348.32907     -3833.837 7        42.554                                                                    20886896.184 6  86810218.33106     -2981.950 6        41.723
R12        31.000    19340188.860 8 103311936.10508       -28.875 8        49.059                                                                    19340194.042 6  80353916.26206       -22.539 6        41.082
C10        32.000                                                                                                                                    38482661.264 5 200389326.31505      -551.648 5        34.519    38482667.854 7 154953756.77207      -426.470 7        44.841    38482662.340 6 162832745.91106      -448.238 6        40.372
R03        33.000    22316743.580 7 119463128.03607      3005.850 7        42.070                                                                    22316745.241 6  92915905.92806      2337.695 6        40.558
C24        34.000                                                                                                                                    24874084.355 4                      1982.699 4        28.692                                                                    24874047.380 5 105250299.81505      1611.304 5        33.659
C26        37.000                                                                                                                                    21847982.230 8 113768150.06208       133.311 8        49.614                                                                    21847984.243 7  92446073.57907       108.502 7        45.956
R01        38.000    20742307.668 6 110879582.88406     -4412.554 6        40.739
C42        41.000                                                                                                                                    22552637.712 8 117437482.16508     -1078.280 8        50.080                                                                    22552647.305 6  95427693.28206      -876.025 6        38.312
R02        43.000    19375567.991 6 103391759.89706      -424.567 6        41.101                                                                    19375572.689 7  80415830.60107      -330.279 7        43.003
C40        44.000                                                                                                                                    38788274.331 5 201980706.40605     -1054.542 5        33.257                                                                    38788287.461 5 164125885.26905      -856.702 5        35.262
C33        46.000                                                                                                                                    25329421.305 7 131897183.51607      1791.360 7        42.008                                                                    25329436.431 5 107177077.13705      1455.757 5        35.862
C21        47.000                                                                                                                                    23857727.200 5 124233730.98705     -3787.330 5        32.904                                                                    23857726.214 6 100949722.01806     -3077.197 6        41.020
C14        48.000                                                                                                                                    23477183.303 6 122251767.95906       568.489 6        37.558    23477172.033 7  94533090.48807       439.358 7        44.074    23477171.086 6  99339562.46406       462.202 6        37.365
C45        49.000                                                                                                                                    22756320.873 6 118498019.15806     -2809.488 6        40.365                                                                    22756316.185 7  96289333.88707     -2282.867 7        44.593
C07        53.000                                                                                                                                    38759973.902 6 201833336.56106      -939.306 6        40.188    38759983.221 5 156070343.13905      -726.382 5        33.437    38759969.396 5 164006106.29905      -763.123 5        34.386
I06        57.000    38101966.507 6 149520313.66706      -709.894 6        37.338
> 2025 01 01 09 45  5.0000000  0 31
G19         1.000    23573373.690 4                      2435.181 4        29.896
G13         2.000    20239464.360 8 106359089.97508     -2456.252 8        50.691                                    20239464.663 6  82877228.57806     -1913.959 6        37.191
G14         4.000    21316216.166 6 112017455.72206     -2954.488 6        39.351                                    21316219.099 3  87286299.32703     -2302.211 3        20.167    21316217.111 6  87286304.29206     -2302.090 6        38.976
G17         5.000    22344529.381 7 117421272.23807       755.913 7        43.611                                    22344529.059 5  91497153.26705       589.021 5        33.257    22344530.924 5  91497124.26905       588.904 5        30.815
G15         6.000    20122301.191 7 105743429.62607      -676.947 7        44.889                                    20122299.043 6  82397790.88906      -527.489 6        40.107    20122300.441 6  82397451.90406      -527.647 6        40.343
G05         7.000    24562868.797 5 129078746.50705     -4448.114 5        31.789                                    24562873.363 1 100580850.69701     -3466.049 1        10.963    24562874.814 4 100580830.72604     -3466.027 4        26.671
G23        10.000    23104341.442 6 121414164.38706       -17.984 6        41.697                                    23104343.846 4  94608447.30604       -14.010 4        24.887    23104344.649 6  94608400.30606       -14.077 6        38.715
E30        11.000                                                                                                                                    27715069.948 5 108759892.67805      1621.215 5        35.119    27715067.035 5                      1663.318 5        32.695
E02        13.000    23598111.359 8 124008943.17108       602.690 8        49.103                                                                    23598114.054 6  92604174.20106       450.143 6        41.557    23598115.210 7  95019940.28307       461.804 7        46.818
E25        14.000    24066132.323 7 126468348.82107     -2239.769 7        46.465                                                                    24066138.397 8  94440769.24608     -1672.571 8        48.580    24066136.356 7  96904363.18607     -1716.166 7        47.567
G24        16.000    22125034.177 7 116267979.42807      2047.136 7        44.358                                    22125034.782 4  90598430.15304      1595.172 4        29.972    22125036.919 5  90598346.13905      1595.121 5        35.438
E08        17.000    23608315.325 7 124062537.19007       -15.254 7        45.037                                                                    23608319.006 7  92644117.91207       -11.507 7        42.893    23608319.155 7  95060958.51107       -11.651 7        43.689
E07        18.000    27042830.165 4 142111149.57104      1896.188 4        28.398                                                                    27042803.619 7 106121769.29507      1415.815 7        42.235    27042803.710 7 108890163.91707      1452.745 7        45.010
S23        24.000    38090627.189 6 200167587.44006      -823.833 6        36.140
E03        27.000    24240686.125 6 127385623.46106     -2720.455 6        41.173                                                                    24240691.590 7  95125573.26507     -2031.498 7        47.420    24240689.372 7  97607131.40707     -2084.524 7        45.422
R11        28.000    20890481.581 7 111632520.45807     -3835.108 7        42.313                                                                    20890483.796 6  86825129.95106     -2982.936 6        41.194
R12        31.000    19340217.588 8 103312087.43908       -31.801 8        48.953                                                                    19340223.303 6  80354033.96806       -24.763 6        40.965
C10        32.000                                                                                                                                    38483189.845 5 200392085.93205      -552.371 5        34.281    38483197.700 7 154955890.64607      -427.194 7        45.305    38483192.305 6 162834988.29506      -448.818 6        40.341
R03        33.000    22313935.104 7 119448103.76407      3003.750 7        42.849                                                                    22313938.421 6  92904220.37706      2336.411 6        40.582
C24        34.000                                                                                                                                                                                                                                                                    24872143.746 5 105242245.07405      1610.648 5        34.067
C26        37.000                                                                                                                                    21847854.968 8 113767487.56908       131.521 8        48.707                                                                    21847856.988 7  92445535.26007       106.807 7        45.794
R01        38.000    20746431.627 6 110901652.63616     -4415.420 6        39.018
C42        41.000                                                                                                                                    22553674.575 8 117442880.65808     -1081.225 8        50.770                                                                    22553683.875 6  95432080.00406      -878.731 6        39.231
R02        43.000    19375968.137 6 103393893.74306      -429.284 6        38.135                                                                    19375973.051 7  80417490.28707      -333.824 7        42.946
C40        44.000                                                                                                                                    38789287.673 5 201985981.23305     -1055.188 5        32.784                                                                    38789299.424 5 164130171.52705      -857.758 5        35.114
C33        46.000                                                                                                                                    25327701.734 6 131888230.78806      1789.743 6        40.720                                                                    25327716.410 5 107169802.32305      1454.264 5        35.438
C21        47.000                                                                                                                                    23861355.679 4 124252670.39404     -3788.684 4        28.891                                                                    23861363.392 6 100965111.77006     -3078.740 6        41.070
C14        48.000                                                                                                                                    23476636.486 5 122248932.80305       565.525 5        35.481    23476628.180 7  94530898.16107       437.444 7        44.861    23476624.488 6  99337258.64706       459.602 6        36.892
C45        49.000                                                                                                                                    22759018.787 6 118512069.36506     -2810.667 6        40.572                                                                    22759014.454 7  96300750.82307     -2283.983 7        44.575
C07        53.000                                                                                                                                    38760876.359 6 201838034.45306      -940.168 6        40.222    38760883.063 5 156073975.83605      -726.805 5        33.275    38760871.731 5 164009923.71205      -763.857 5        34.767
I06        57.000    38102871.876 6 149523862.28106      -709.763 6        37.429
> 2025 01 01 09 45 10.0000000  0 33
G19         1.000    23571057.072 4                      2434.555 4        27.832
G13         2.000    20241802.708 8 106371377.67008     -2458.808 8        50.371                                    20241803.228 6  82886803.40006     -1915.951 6        37.187
G30         3.000    23730326.542 3                     -3738.050 3        22.343
G14         4.000    21319029.440 6 112032232.12806     -2956.168 6        38.195                                    21319030.650 2  87297813.43202     -2303.515 2        17.698    21319028.193 6  87297818.39906     -2303.410 6        37.149
G17         5.000    22343811.504 7 117417498.96207       753.485 7        44.020                                    22343810.201 5  91494213.07705       587.128 5        33.132    22343811.529 4  91494184.09804       586.711 4        29.763
G15         6.000    20122946.759 7 105746822.87007      -680.403 7        45.049                                    20122944.406 6  82400434.97506      -530.180 6        39.694    20122946.053 6  82400095.97706      -530.046 6        40.007
G05         7.000    24567100.672 4 129100988.03604     -4447.670 4        29.981                                    24567105.821 1 100598181.74301     -3465.727 1         9.524    24567108.320 4 100598161.72104     -3466.079 4        26.479
G23        10.000    23104360.843 6 121414262.57406       -21.245 6        41.368                                    23104362.596 4  94608523.80804       -16.531 4        24.842    23104364.226 6  94608476.79006       -16.629 6        39.246
E30        11.000                                                                                                                                    27713005.109 5 108751788.57605      1620.779 5        34.605    27713001.892 5                      1662.850 5        33.018
E02        13.000    23597538.564 8 124005933.96908       600.936 8        49.105                                                                    23597541.394 6  92601927.09206       448.622 6        41.456    23597542.392 7  95017634.52607       460.483 7        46.555
E25        14.000    24068264.119 7 126479551.47807     -2241.286 7        45.788                                                                    24068270.282 8  94449134.85508     -1673.661 8        48.692    24068268.263 8  96912947.03408     -1717.317 8        48.077
G24        16.000    22123086.778 7 116257747.18907      2045.908 7        43.824                                    22123087.838 4  90590456.99504      1594.207 4        29.905    22123090.140 5  90590372.99105      1594.271 5        35.114
E08        17.000    23608331.010 7 124062617.90107       -16.943 7        45.323                                                                    23608334.504 7  92644178.17207       -12.653 7        42.872    23608334.318 7  95061020.35307       -12.996 7        43.778
E07        18.000    27041026.753 4 142101670.04504      1895.804 4        27.784                                                                    27040999.738 7 106114690.41407      1415.703 7        42.354    27040999.761 7 108882900.37107      1452.528 7        45.087
S23        24.000    38091408.400 6 200171706.34906      -823.799 6        36.098
R20        26.000                                                                                                                                    23166891.721 5  96354057.12315      -276.106 5        32.042
E03        27.000    24243275.670 6 127399229.39006     -2721.909 6        41.626                                                                    24243280.800 7  95135733.52507     -2032.529 7        47.505    24243278.333 7  97617556.71407     -2085.629 7        44.906
R11        28.000    20894068.992 6 111651699.30606     -3836.333 6        41.936                                                                    20894072.126 6  86840046.79106     -2983.751 6        40.129
R12        31.000    19340248.864 8 103312253.54308       -34.666 8        48.849                                                                    19340254.137 6  80354163.14706       -26.983 6        41.097
C10        32.000                                                                                                                                    38483720.942 5 200394849.16405      -552.999 5        34.210    38483728.548 7 154958027.34407      -427.546 7        45.559    38483723.127 6 162837233.65806      -449.306 6        40.329
R03        33.000    22311128.548 7 119433088.72107      3002.052 7        42.381                                                                    22311134.026 6  92892542.03306      2335.058 6        40.429
C24        34.000                                                                                                                                                                                                                                                                    24870241.178 5 105234193.19905      1610.090 5        33.886
C26        37.000                                                                                                                                    21847730.112 8 113766833.70108       129.974 8        48.380                                                                    21847731.446 7  92445003.94807       105.519 7        45.392
R01        38.000    20750561.274 6 110923736.11906     -4418.030 6        36.733
C42        41.000                                                                                                                                    22554714.211 8 117448293.80608     -1084.033 8        51.611                                                                    22554723.616 6  95436478.60906      -880.806 6        39.730
R02        43.000    19376373.327 6 103396049.81706      -433.260 6        37.263                                                                    19376377.554 7  80419167.26607      -337.143 7        43.532
C40        44.000                                                                                                                                    38790301.465 5 201991260.69805     -1056.448 5        32.683                                                                    38790313.522 5 164134461.51505      -858.336 5        34.729
C33        46.000                                                                                                                                    25325983.964 6 131879286.77306      1788.092 6        38.934                                                                    25325998.394 5 107162534.58605      1452.788 5        34.538
C21        47.000                                                                                                                                                                                                                                                                    23865001.907 6 100980507.79406     -3079.886 6        40.424
C14        48.000                                                                                                                                    23476090.025 5 122246110.76905       562.999 5        33.653    23476086.246 7  94528715.97907       435.498 7        45.594    23476081.052 6  99334965.47806       457.642 6        36.911
C45        49.000                                                                                                                                    22761717.487 6 118526125.23006     -2811.738 6        41.754                                                                    22761713.790 7  96312172.34007     -2284.723 7        44.175
C07        53.000                                                                                                                                    38761778.819 6 201842735.97506      -940.583 6        40.594    38761785.794 5 156077611.33005      -727.355 5        32.509    38761774.639 5 164013744.07105      -764.293 5        34.633
I06        57.000    38103775.873 6 149527411.12906      -709.768 6        37.168
> 2025 01 01 09 45 15.0000000  0 34
G19         1.000    23568741.299 3                      2433.185 3        23.657
G13         2.000    20244143.257 8 106383678.42308     -2461.410 8        49.656                                    20244144.225 6  82896388.39406     -1917.978 6        37.176
G30         3.000    23733890.872 4                     -3739.561 4        25.368
G14         4.000    21321840.199 5 112047018.46705     -2958.209 5        35.138                                    21321844.315 2  87309335.30302     -2305.064 2        14.952    21321842.020 5  87309340.25305     -2305.070 5        34.824
G17         5.000    22343096.337 7 117413738.68307       750.798 7        45.219                                    22343093.834 5  91491283.01705       585.030 5        33.024    22343095.202 4  91491254.02904       585.102 4        28.919
G15         6.000    20123595.454 7 105750233.24807      -683.742 7        43.759                                    20123593.073 6  82403092.41006      -532.790 6        39.336    20123595.290 6  82402753.42506      -532.742 6        40.117
G05         7.000    24571333.701 4 129123229.81204     -4447.950 4        28.825                                    24571337.715 1 100615512.87601     -3465.958 1         6.625    24571343.739 4 100615492.95504     -3465.996 4        25.925
G23        10.000    23104383.285 7 121414377.00807       -24.434 7        42.373                                    23104384.471 4  94608612.96804       -19.036 4        24.782    23104386.648 6  94608565.94406       -19.025 6        40.210
E30        11.000    27710915.958 4                      2170.088 4        24.812                                                                    27710939.773 5 108743686.15405      1620.460 5        34.290    27710937.510 5                      1662.421 5        33.120
E02        13.000    23596967.509 8 124002933.68908       599.225 8        49.064                                                                    23596970.102 6  92599686.62806       447.535 6        40.992    23596971.336 7  95015335.61307       459.105 7        46.276
E25        14.000    24070397.580 7 126490761.96207     -2242.844 7        45.136                                                                    24070403.518 8  94457506.30108     -1674.837 8        48.872    24070401.718 8  96921536.86408     -1718.531 8        48.514
G24        16.000    22121139.916 7 116247520.72407      2044.752 7        42.610                                    22121142.101 4  90582488.32204      1593.299 4        29.905    22121144.467 5  90582404.32205      1593.272 5        35.233
E08        17.000    23608348.378 7 124062707.20907       -18.644 7        45.296                                                                    23608351.392 7  92644244.87107       -14.005 7        42.963    23608350.856 7  95061088.78407       -14.279 7        43.934
E07        18.000    27039221.928 4 142092192.34704      1894.321 4        27.150                                                                    27039196.434 7 106107612.90407      1415.441 7        42.419    27039196.290 7 108875638.22407      1452.346 7        45.180
S23        24.000    38092194.175 6 200175824.81206      -823.625 6        36.193
R20        26.000                                                                                                                                    23167225.580 5  96355445.80805      -279.308 5        32.048
E03        27.000    24245866.643 7 127412842.83307     -2723.406 7        42.087                                                                    24245871.326 7  95145899.39207     -2033.739 7        47.780    24245868.785 7  97627987.77107     -2086.748 7        44.471
R11        28.000    20897657.981 7 111670884.33007     -3837.641 7        42.263                                                                    20897661.745 6  86854968.41306     -2984.617 6        38.231
R13        29.000    22108521.641 5 118058248.25415      2471.087 5        35.857
R12        31.000    19340282.660 8 103312433.68608       -37.428 8        48.427                                                                    19340287.681 7  80354303.26407       -29.097 7        42.150
C10        32.000                                                                                                                                    38484252.830 5 200397615.51205      -553.343 5        34.310    38484259.750 7 154960166.45707      -428.031 7        45.559    38484254.257 6 162839481.51506      -449.804 6        40.114
R03        33.000    22308324.949 7 119418082.42907      3000.485 7        42.444                                                                    22308328.949 6  92880870.48006      2333.601 6        40.045
C24        34.000                                                                                                                                    24868333.415 5                      1981.124 5        34.381                                                                    24868339.259 5 105226143.80705      1609.764 5        33.850
C26        37.000                                                                                                                                    21847606.810 8 113766187.95008       128.376 8        48.306                                                                    21847607.440 7  92444479.20707       104.259 7        45.397
R01        38.000    20754693.713 5                     -4420.346 5        33.611                                                                    20754752.657 3                     -3440.090 3        23.714
C42        41.000                                                                                                                                    22555756.469 8 117453721.09108     -1086.818 8        52.092                                                                    22555765.917 6  95440888.71206      -883.126 6        40.863
R02        43.000    19376782.172 6 103398227.67306      -437.684 6        38.174                                                                    19376786.068 7  80420861.13207      -340.521 7        43.541
C40        44.000                                                                                                                                    38791315.902 5 201996544.16605     -1057.026 5        32.198                                                                    38791327.981 5 164138754.73205      -858.876 5        34.467
C33        46.000                                                                                                                                    25324268.037 6 131870350.98306      1786.211 6        36.098                                                                    25324281.737 5 107155273.47305      1451.515 5        34.210
C21        47.000                                                                                                                                    23868647.168 5 124290571.62605     -3791.776 5        34.286                                                                    23868641.570 6 100995909.63606     -3080.889 6        39.559
C14        48.000                                                                                                                                    23475548.384 5 122243301.25105       560.550 5        34.324    23475546.724 7  94526543.49107       433.488 7        46.220    23475540.788 6  99332682.50206       455.723 6        37.036
C45        49.000                                                                                                                                    22764417.628 7 118540186.21607     -2812.764 7        42.811                                                                    22764413.962 7  96323598.01607     -2285.617 7        44.251
C07        53.000                                                                                                                                    38762682.267 6 201847440.68106      -941.158 6        40.875    38762689.630 5 156081249.28105      -727.925 5        31.736    38762678.291 5 164017567.01405      -764.977 5        34.614
I06        57.000    38104680.772 6 149530959.77006      -709.736 6        37.372
> 2025 01 01 09 45 20.0000000  0 33
G13         2.000    20246486.574 8 106395993.53008     -2464.479 8        49.107                                    20246487.874 6  82905984.57106     -1920.374 6        36.972
G30         3.000    23737454.523 4                     -3740.593 4        29.185                                                                                                    23737489.212 3                     -2913.433 3        21.619
G14         4.000    21324652.229 4 112061816.09004     -2960.373 4        29.659                                    21324660.203 1  87320865.88601     -2306.749 1        11.926    21324657.818 5  87320870.82205     -2307.138 5        32.910
G17         5.000    22342383.827 7 117409992.70007       747.761 7        46.360                                    22342380.252 5  91488364.08905       582.668 5        32.677    22342382.868 4  91488335.08304       582.831 4        27.437
G15         6.000    20124248.474 7 105753662.06007      -687.638 7        43.143                                    20124245.295 6  82405764.20906      -535.816 6        38.919    20124247.504 6  82405425.22306      -535.758 6        40.708
G05         7.000    24575566.794 4 129145473.07804     -4448.778 4        28.190                                    24575570.500 1 100632845.28901     -3466.572 1         6.500    24575578.982 4 100632825.35404     -3466.842 4        26.647
G23        10.000    23104408.280 7 121414508.98707       -28.104 7        43.027                                    23104409.946 4  94608715.80204       -21.912 4        25.248    23104411.038 6  94608668.79506       -21.894 6        41.600
E30        11.000    27708856.231 4                      2169.080 4        25.850                                                                    27708875.391 5 108735586.34005      1619.763 5        33.335    27708873.534 5                      1662.008 5        33.240
E02        13.000    23596398.764 8 123999943.63708       597.010 8        49.145                                                                    23596400.775 6  92597453.80506       445.711 6        40.794    23596402.128 7  95013044.52307       457.444 7        45.914
E25        14.000    24072532.859 7 126501981.56107     -2244.802 7        44.609                                                                    24072538.570 8  94465884.54908     -1676.331 8        49.085    24072536.960 8  96930133.68608     -1720.085 8        48.959
G24        16.000    22119194.758 6 116237301.34106      2043.183 6        40.791                                    22119197.544 4  90574525.18004      1592.089 4        29.308    22119199.706 5  90574441.17405      1592.060 5        34.924
E08        17.000    23608367.475 7 124062806.42907       -20.850 7        45.502                                                                    23608370.255 7  92644318.95007       -15.490 7        43.185    23608369.490 7  95061164.80507       -15.942 7        44.122
E07        18.000    27037416.290 4 142082717.68304      1895.319 4        26.946                                                                    27037393.558 7 106100537.73207      1414.775 7        42.654    27037393.345 7 108868378.47907      1451.661 7        45.201
S23        24.000    38092983.649 6 200179944.17606      -824.234 6        36.518
R20        26.000                                                                                                                                    23167563.034 5  96356851.79005      -282.862 5        31.789
E03        27.000    24248458.735 7 127426465.05307     -2725.351 7        42.974                                                                    24248463.636 8  95156071.81708     -2035.127 8        48.082    24248460.945 7  97638425.56007     -2088.230 7        44.089
R11        28.000    20901249.659 6 111690076.81806     -3839.260 6        41.280                                                                    20901253.865 5  86869895.87105     -2986.093 5        35.448
R13        29.000    22106203.210 5 118045897.14405      2469.493 5        33.982
R12        31.000    19340319.686 8 103312629.37108       -40.716 8        48.136                                                                    19340324.632 7  80354455.47607       -31.731 7        42.897
C10        32.000                                                                                                                                    38484784.018 5 200400386.29105      -554.811 5        33.964    38484791.898 7 154962308.97307      -428.834 7        45.792    38484786.308 6 162841732.99206      -450.588 6        39.934
R03        33.000    22305524.114 7 119403086.37607      2998.222 7        42.339                                                                    22305527.715 6  92869206.86506      2332.043 6        39.063
C24        34.000                                                                                                                                    24866431.030 5                      1979.826 5        34.662                                                                    24866437.347 5 105218097.99905      1608.576 5        32.862
C26        37.000                                                                                                                                    21847484.977 8 113765551.60108       126.303 8        48.337                                                                    21847485.096 7  92443962.14007       102.724 7        45.037
R01        38.000    20758831.026 5 110967943.77615     -4423.804 5        32.539
C42        41.000                                                                                                                                    22556801.762 8 117459163.80208     -1090.069 8        51.968                                                                    22556811.269 6  95445311.34906      -885.677 6        41.397
R02        43.000    19377194.241 6 103400428.68706      -442.460 6        41.244                                                                    19377198.533 7  80422573.03207      -344.065 7        43.742
C40        44.000                                                                                                                                    38792332.275 5 202001832.98605     -1058.253 5        32.485                                                                    38792342.855 5 164143052.32905      -859.878 5        34.471
C33        46.000                                                                                                                                    25322551.713 5 131861424.68505      1784.378 5        32.748                                                                    25322567.269 5 107148020.09805      1449.746 5        33.198
C21        47.000                                                                                                                                    23872287.701 5 124309534.30505     -3793.348 5        35.390                                                                    23872282.851 6 101011318.38506     -3082.517 6        37.879
C14        48.000                                                                                                                                    23475014.336 5 122240505.59105       557.745 5        35.609    23475010.331 7  94524381.73507       431.276 7        46.782    23475004.186 6  99330410.83806       453.240 6        37.308
C45        49.000                                                                                                                                    22767119.519 7 118554253.60007     -2814.193 7        43.486                                                                    22767115.377 7  96335028.90107     -2286.617 7        44.069
C07        53.000                                                                                                                                    38763587.275 6 201852149.75306      -942.248 6        40.853    38763590.927 5 156084890.59105      -728.638 5        31.215    38763582.406 5 164021393.51605      -765.347 5        34.609
I06        57.000    38105585.739 6 149534509.22606      -709.808 6        37.418
> 2025 01 01 09 45 25.0000000  0 34
G19         1.000    23564095.440 4                      2431.198 4        26.850
G13         2.000    20248832.949 8 106408322.10508     -2466.867 8        49.287                                    20248833.929 6  82915591.24506     -1922.230 6        36.234
G30         3.000    23741015.133 5                     -3740.759 5        30.981                                                                                                    23741041.822 3                     -2916.069 3        19.015
G14         4.000    21327470.580 3 112076623.91503     -2961.135 3        23.486                                    21327477.742 1  87332404.46101     -2307.413 1         8.762    21327474.369 4  87332409.40104     -2308.826 4        28.825
G17         5.000    22341673.701 7 117406260.12807       745.344 7        46.600                                    22341669.354 5  91485455.61105       580.793 5        32.180    22341672.001 4  91485426.62404       580.077 4        26.275
G15         6.000    20124904.608 7 105757108.39107      -690.805 7        44.289                                    20124900.897 6  82408449.66306      -538.289 6        38.994    20124902.957 6  82408110.67806      -538.321 6        40.477
G05         7.000    24579800.907 4 129167716.86304     -4448.714 4        29.100                                    24579802.899 1 100650178.05901     -3466.660 1         5.429    24579813.345 4 100650158.02104     -3466.006 4        25.353
G23        10.000    23104436.281 7 121414657.63707       -31.189 7        44.099                                    23104438.707 4  94608831.64304       -24.306 4        25.383    23104439.822 6  94608784.63106       -24.273 6        41.707
E30        11.000    27706794.213 4                      2168.559 4        25.293                                                                    27706811.446 5 108727488.50205      1619.499 5        32.581    27706809.402 5                      1661.620 5        33.653
E02        13.000    23595831.702 8 123996962.92608       595.361 8        49.527                                                                    23595833.761 6  92595227.94506       444.651 6        40.150    23595834.785 7  95010760.60107       456.234 7        45.296
E25        14.000    24074669.789 7 126513209.36307     -2246.177 7        44.032                                                                    24074675.157 8  94474268.94008     -1677.374 8        49.193    24074673.668 8  96938736.79808     -1721.127 8        48.919
G24        16.000    22117251.326 6 116227088.16806      2042.123 6        38.883                                    22117254.105 4  90566566.87004      1591.271 4        28.635    22117255.888 5  90566482.85605      1591.033 5        34.871
E08        17.000    23608388.390 7 124062914.65007       -22.432 7        45.848                                                                    23608390.897 7  92644399.77507       -16.636 7        43.395    23608389.848 7  95061247.73707       -17.161 7        44.015
E07        18.000    27035609.773 4 142073245.40904      1894.013 4        27.126                                                                    27035591.039 7 106093464.22807      1414.781 7        42.715    27035590.831 7 108861120.44807      1451.600 7        45.011
S23        24.000    38093762.159 6 200184063.54806      -823.875 6        36.439
R20        26.000                                                                                                                                    23167904.718 5  96358274.42205      -286.047 5        30.815
E03        27.000    24251052.712 7 127440095.16807     -2726.640 7        43.763                                                                    24251057.409 8  95166250.13508     -2036.104 8        48.277    24251054.591 7  97648869.40507     -2089.197 7        43.336
R11        28.000    20904841.770 6 111709275.92506     -3840.286 6        41.428                                                                    20904846.329 5  86884828.46705     -2987.013 5        33.401
R13        29.000    22103886.227 5 118033553.79205      2467.862 5        34.148
R12        31.000    19340358.908 7 103312839.60907       -43.362 7        47.615                                                                    19340363.376 7  80354618.98807       -33.661 7        42.692
C10        32.000                                                                                                                                    38485317.296 5 200403160.64005      -555.160 5        34.067    38485324.653 7 154964454.25607      -429.148 7        45.911    38485318.988 6 162843987.35606      -451.074 6        39.604
R03        33.000    22302725.523 7 119388099.30707      2996.677 7        43.786                                                                    22302727.997 6  92857550.26906      2330.751 6        38.583
C24        34.000                                                                                                                                    24864529.945 5 129476115.62215      1979.464 5        35.224                                                                    24864535.065 5 105210054.97805      1608.316 5        32.048
C26        37.000                                                                                                                                    21847364.481 8 113764923.75708       124.897 8        48.476                                                                    21847364.433 7  92443451.96107       101.476 7        44.688
R01        38.000    20762969.672 5 110990068.30905     -4426.316 5        30.204
C42        41.000                                                                                                                                    22557849.748 8 117464621.04308     -1092.734 8        51.607                                                                    22557859.334 6  95449745.78206      -887.885 6        41.928
R02        43.000    19377613.532 7 103402651.94207      -446.780 7        42.741                                                                    19377614.355 7  80424302.21807      -347.460 7        42.734
C40        44.000                                                                                                                                    38793349.261 5 202007126.28905     -1059.013 5        32.725                                                                    38793358.531 5 164147353.50805      -860.268 5        34.252
C33        46.000                                                                                                                                    25320836.305 5 131852506.98805      1782.911 5        31.608                                                                    25320854.522 5 107140773.70405      1448.691 5        32.030
C21        47.000                                                                                                                                    23875928.357 6 124328504.61406     -3794.542 6        36.435                                                                    23875925.368 5 101026733.27805     -3083.504 5        35.676
C14        48.000                                                                                                                                    23474485.274 6 122237722.90006       555.503 6        36.786    23474476.952 7  94522230.02407       429.424 7        47.112    23474469.788 6  99328149.68506       451.270 6        37.622
C45        49.000                                                                                                                                    22769822.255 7 118568326.49807     -2814.950 7        44.181                                                                    22769817.900 7  96346464.26607     -2287.378 7        43.907
C07        53.000                                                                                                                                    38764491.924 6 201856862.38406      -942.659 6        41.099    38764493.922 5 156088534.63305      -728.659 5        30.800    38764487.338 5 164025222.90505      -766.054 5        34.362
I06        57.000    38106489.964 6 149538058.81806      -709.940 6        37.221
> 2025 01 01 09 45 30.0000000  0 34
G19         1.000    23561790.027 5                      2430.716 5        31.962
G13         2.000    20251181.744 8 106420664.33008     -2469.823 8        49.889                                    20251182.349 5  82925208.55405     -1924.536 5        35.433
G30         3.000    23744572.344 5                     -3741.646 5        30.853
G14         4.000    21330293.640 4                     -2964.863 4        27.760
G17         5.000    22340965.874 7 117402541.17807       742.400 7        46.067                                    22340961.219 5  91482557.74805       578.493 5        31.396    22340966.236 4  91482528.76604       578.323 4        28.370
G15         6.000    20125563.975 7 105760572.48107      -694.600 7        46.008                                    20125559.952 6  82411148.95806      -541.248 6        39.360    20125562.268 6  82410809.98806      -541.313 6        40.543
G05         7.000    24584032.150 4 129189961.38404     -4448.671 4        29.867                                    24584035.876 1 100667511.41601     -3466.519 1         5.714    24584053.521 4 100667491.39304     -3466.445 4        24.662
G23        10.000    23104467.702 7 121414823.13907       -34.783 7        44.339                                    23104470.742 4  94608960.59904       -27.109 4        26.108    23104470.719 7  94608913.59707       -27.037 7        42.188
E30        11.000    27704734.758 4                      2167.949 4        26.168                                                                    27704748.599 5 108719392.75005      1618.880 5        31.887    27704746.423 5                      1661.234 5        33.293
E02        13.000    23595266.373 8 123993991.73008       593.307 8        49.744                                                                    23595269.109 6  92593009.21406       442.934 6        39.508    23595269.297 7  95008483.97107       454.597 7        45.023
E25        14.000    24076807.998 7 126524445.55607     -2248.095 7        43.981                                                                    24076813.306 8  94482659.59308     -1678.731 8        49.221    24076812.012 8  96947346.33608     -1722.509 8        49.215
G24        16.000    22115310.301 6 116216881.33806      2040.805 6        37.130                                    22115311.731 4  90558613.49504      1590.240 4        27.713    22115315.262 5  90558529.48105      1590.008 5        35.405
E08        17.000    23608410.949 7 124063032.06207       -24.440 7        46.236                                                                    23608413.176 7  92644487.46607       -18.226 7        43.458    23608412.075 7  95061337.71307       -18.719 7        44.328
E07        18.000    27033803.845 4 142063775.50704      1893.661 4        28.133                                                                    27033788.939 7 106086392.56007      1414.166 7        42.781    27033788.757 7 108853864.29807      1451.060 7        45.108
S23        24.000    38094549.276 6 200188183.18506      -823.932 6        36.348
R20        26.000                                                                                                                                    23168249.841 4  96359713.88104      -288.856 4        25.910
E03        27.000    24253647.917 7 127453733.34607     -2728.393 7        44.846                                                                    24253652.710 8  95176434.48608     -2037.458 8        48.530    24253649.894 7  97659319.44407     -2090.657 7        43.107
R11        28.000    20908436.087 7 111728481.78807     -3841.892 7        42.717                                                                    20908439.743 5  86899766.26805     -2988.059 5        34.162
R13        29.000    22101575.909 5 118021218.23705      2466.156 5        33.802
R12        31.000    19340401.163 7 103313064.61307       -46.480 7        47.310                                                                    19340405.469 7  80354794.00307       -36.142 7        42.508
C10        32.000                                                                                                                                    38485851.596 5 200405938.67505      -556.002 5        34.576    38485858.038 7 154966602.40007      -429.915 7        45.986    38485852.437 6 162846244.72606      -451.841 6        39.553
R03        33.000    22299928.539 7 119373121.79307      2994.530 7        45.181                                                                    22299930.629 6  92845901.08706      2329.040 6        37.981
C24        34.000                                                                                                                                    24862630.464 5 129466221.11605      1978.677 5        35.852                                                                    24862632.473 5 105202014.91805      1607.903 5        30.098
C26        37.000                                                                                                                                    21847245.142 8 113764304.62408       122.986 8        48.480                                                                    21847245.425 7  92442948.85407        99.941 7        44.509
R01        38.000    20767109.294 5 111012206.58005     -4428.941 5        34.133
C42        41.000                                                                                                                                    22558900.739 8 117470093.02208     -1095.856 8        50.942                                                                    22558910.112 7  95454192.18507      -890.546 7        42.186
R02        43.000    19378033.377 6 103404897.62006      -451.414 6        41.509                                                                    19378035.435 7  80426048.89707      -351.102 7        42.728
