     3.04           OBSERVATION DATA    M                   RINEX VERSION / TYPE
ssrcrin-15.6.1x                         20250101 181500 UTC PGM / RUN BY / DATE 
(00000000023479385599111004) Septentrio proprietary         COMMENT             
ract                                                        MARKER NAME         
01                                                          MARKER NUMBER       
geodetic                                                    MARKER TYPE         
NFB                 CLIMERS@TUW                             OBSERVER / AGENCY   
3296359             SEPT ASTERX SB3 PROB4.14.4              REC # / TYPE / VERS 
Unknown             Unknown                                 ANT # / TYPE        
  4127446.9951  1206914.3480  4695543.9457                  APPROX POSITION XYZ 
        0.0000        0.0000        0.0000                  ANTENNA: DELTA H/E/N
G   23 X1  C1C L1C D1C S1C C1W S1W C2W L2W D2W S2W C2L L2L  SYS / # / OBS TYPES 
       D2L S2L C5Q L5Q D5Q S5Q C1L L1L D1L S1L              SYS / # / OBS TYPES 
E   21 X1  C1C L1C D1C S1C C6C L6C D6C S6C C5Q L5Q D5Q S5Q  SYS / # / OBS TYPES 
       C7Q L7Q D7Q S7Q C8Q L8Q D8Q S8Q                      SYS / # / OBS TYPES 
S    9 X1  C1C L1C D1C S1C C5I L5I D5I S5I                  SYS / # / OBS TYPES 
R   17 X1  C1C L1C D1C S1C C2P L2P D2P S2P C2C L2C D2C S2C  SYS / # / OBS TYPES 
       C3Q L3Q D3Q S3Q                                      SYS / # / OBS TYPES 
C   25 X1  C1P L1P D1P S1P C5P L5P D5P S5P C2I L2I D2I S2I  SYS / # / OBS TYPES 
       C7I L7I D7I S7I C6I L6I D6I S6I C7D L7D D7D S7D      SYS / # / OBS TYPES 
J   17 X1  C1C L1C D1C S1C C2L L2L D2L S2L C5Q L5Q D5Q S5Q  SYS / # / OBS TYPES 
       C1L L1L D1L S1L                                      SYS / # / OBS TYPES 
I    5 X1  C5A L5A D5A S5A                                  SYS / # / OBS TYPES 
SEPTENTRIO RECEIVERS OUTPUT ALIGNED CARRIER PHASES.         COMMENT             
NO FURTHER PHASE SHIFT APPLIED IN THE RINEX ENCODER.        COMMENT             
G L1C                                                       SYS / PHASE SHIFT   
G L2W                                                       SYS / PHASE SHIFT   
G L2L  0.00000                                              SYS / PHASE SHIFT   
G L5Q  0.00000                                              SYS / PHASE SHIFT   
G L1L  0.00000                                              SYS / PHASE SHIFT   
E L1C  0.00000                                              SYS / PHASE SHIFT   
E L6C  0.00000                                              SYS / PHASE SHIFT   
E L5Q  0.00000                                              SYS / PHASE SHIFT   
E L7Q  0.00000                                              SYS / PHASE SHIFT   
E L8Q  0.00000                                              SYS / PHASE SHIFT   
S L1C                                                       SYS / PHASE SHIFT   
S L5I                                                       SYS / PHASE SHIFT   
R L1C                                                       SYS / PHASE SHIFT   
R L2P  0.00000                                              SYS / PHASE SHIFT   
R L2C                                                       SYS / PHASE SHIFT   
R L3Q  0.00000                                              SYS / PHASE SHIFT   
C L1P  0.00000                                              SYS / PHASE SHIFT   
C L5P  0.00000                                              SYS / PHASE SHIFT   
C L2I                                                       SYS / PHASE SHIFT   
C L7I                                                       SYS / PHASE SHIFT   
C L6I                                                       SYS / PHASE SHIFT   
C L7D                                                       SYS / PHASE SHIFT   
J L1C                                                       SYS / PHASE SHIFT   
J L2L  0.00000                                              SYS / PHASE SHIFT   
J L5Q  0.00000                                              SYS / PHASE SHIFT   
J L1L  0.00000                                              SYS / PHASE SHIFT   
I L5A                                                       SYS / PHASE SHIFT   
  2025     1     1    18    15    0.0000000     GPS         TIME OF FIRST OBS   
 C1C    0.000 C2C    0.000 C2P    0.000                     GLONASS COD/PHS/BIS 
DBHZ                                                        SIGNAL STRENGTH UNIT
    18                                                      LEAP SECONDS        
 24 R01  1 R02 -4 R03  5 R04  6 R05  1 R06 -4 R07  5 R08  6 GLONASS SLOT / FRQ #
    R09 -2 R10 -7 R11  0 R12 -1 R13 -2 R14 -7 R15  0 R16 -1 GLONASS SLOT / FRQ #
    R17  4 R18 -3 R19  3 R20  2 R21  4 R22 -3 R23  3 R24  2 GLONASS SLOT / FRQ #
                                                            END OF HEADER       
> 2025 01 01 18 15  0.0000000  0 37
G18         1.000    20684643.387 7 108698761.45907     -1619.792 7        43.879                                    20684640.669 4  84700209.89604     -1262.175 4        28.417    20684640.818 6  84700219.87206     -1262.212 6        41.673
G23         4.000    22461942.477 6 118038316.10506      2055.793 6        40.496                                    22461937.486 3  91977880.76903      1601.914 3        18.507    22461940.630 6  91977904.72806      1602.001 6        36.767
G31         5.000    24296437.592 5                     -4129.345 5        35.662                                                                                                    24296428.467 4                     -3218.030 4        26.240
G28         6.000                                                                                                                                                                    25721527.325 3                     -3330.337 3        22.571
G27         7.000    22878500.716 4                      2174.161 4        25.534                                                                                                    22878491.997 4  93683618.56804      1694.084 4        25.444
G29         8.000    23044534.996 6 121099792.38806     -3636.220 6        37.981                                    23044521.836 2  94363469.96102     -2833.406 2        15.429    23044521.407 4                     -2833.502 4        28.133
E15        10.000    24426809.950 6 128363849.88506     -2573.489 6        38.105                                                                    24426810.860 8  95856048.65808     -1921.639 8        49.446    24426809.928 7  98356631.93807     -1971.813 7        47.567
G05        11.000                                                                                                                                                                    24028627.961 4                     -2695.937 4        25.008
E27        15.000    24794907.669 6 130298128.53006     -3037.249 6        40.074                                                                    24794908.948 7  97300546.94407     -2268.118 7        42.296    24794905.519 6  99839042.62106     -2327.185 6        37.327
E13        16.000    23601645.531 6 124027563.79006       222.506 6        36.783                                                                    23601646.021 6  92617982.33806       166.063 6        41.509    23601645.088 6  95034057.84106       170.483 6        36.870
R17        17.000    21427946.937 7 114665105.75407     -3956.306 7        42.108                                                                    21427936.718 4                     -3077.183 4        28.142
G16        18.000    20943772.795 6 110060235.72906       655.674 6        38.811                                    20943757.185 2  85761216.90602       510.904 2        12.485
E26        19.000    27208186.471 4 142980021.52704      1987.425 4        27.952                                                                    27208214.257 4                      1484.604 4        26.575
R15        20.000    22780686.063 5 121733111.72805     -5337.127 5        34.490                                                                    22780709.449 4                     -4150.677 4        25.925
E21        22.000    23824114.316 7 125196670.10507      -279.823 7        42.931                                                                    23824113.536 8  93490954.80608      -208.978 8        50.189    23824113.227 8  95929875.57108      -214.458 8        51.632
S36        23.000    38288166.509 6 201205530.64406      -854.683 6        36.578
S23        24.000    38242009.848 6 200963125.26406      -857.213 6        39.766
G26        25.000    20693060.066 7 108742780.80107     -1732.116 7        47.346                                    20693056.259 8  84734648.52208     -1349.701 8        49.310    20693057.736 7  84734691.53107     -1349.708 7        46.787
R01        26.000    23189170.514 3                     -1916.019 3        22.438
R02        27.000    22918165.586 4 122295703.30304      1421.072 4        28.379
C34        28.000                                                                                                                                    24107536.201 6 125534328.68606     -3391.242 6        36.597                                                                    24107534.687 6 102007069.94006     -2755.894 6        37.376
R19        29.000    20834420.491 5 111450157.66405      1478.352 5        32.503                                                                    20834420.856 6  86683422.34606      1150.064 6        37.013
R18        30.000    19366165.662 7 103377927.14007     -1305.457 7        46.519                                                                    19366164.381 7  80405036.75307     -1015.367 7        43.831
C21        31.000                                                                                                                                    25425541.746 5 132397462.92705      -210.438 5        30.702                                                                    25425572.717 4                      -170.621 4        27.509
R16        33.000    19753004.073 7 105517229.97307     -2569.841 7        45.831                                                                    19753003.870 7  82068760.35807     -1998.697 7        44.573
R09        34.000    21138096.986 8 112876258.34608      1802.563 8        49.946                                                                    21138094.408 6  87792651.55506      1402.011 6        41.921
C37        36.000                                                                                                                                    23753725.146 6 123691728.08106       -87.912 6        38.147                                                                    23753736.385 5 100509789.77505       -71.452 5        35.429
S21        38.000    38517022.546 5 202408502.45605      -856.031 5        33.587
C28        40.000                                                                                                                                    23796563.593 6 123914926.29706      1505.875 6        40.367                                                                    23796564.876 6 100691039.45206      1223.718 6        39.556
C43        42.000                                                                                                                                    21671023.020 8 112846732.20908     -1435.857 8        49.136                                                                    21671021.116 8  91697363.53908     -1166.790 8        50.356
C11        44.000                                                                                                                                    22541989.773 6 117382091.77006     -2575.424 6        37.652    22541989.447 8  90767404.68708     -1991.484 8        50.458    22541987.215 7  95382692.34007     -2092.770 7        43.788
C13        45.000                                                                                                                                    37736812.598 7 196505582.25707      -929.685 7        44.897    37736810.949 5                      -718.726 5        31.532    37736811.014 6 159676834.04006      -755.533 6        36.310
C08        46.000                                                                                                                                    37853079.807 5                     -1200.015 5        30.023    37853079.250 5 152418724.01805      -928.464 5        32.383    37853076.522 5                      -975.128 5        32.024
C42        48.000                                                                                                                                    25604111.434 4                      1833.164 4        26.467
C38        49.000                                                                                                                                    39001918.463 4 203092921.23704     -1607.477 4        26.144                                                                    39001856.682 5 165029670.32605     -1306.281 5        31.389
C23        55.000                                                                                                                                    23475116.383 7 122241343.87307     -3048.622 7        44.587                                                                    23475123.422 5  99330950.94505     -2477.517 5        35.329
I06        58.000    38793187.775 7 152232957.17107      -616.438 7        42.241
> 2025 01 01 18 15  5.0000000  0 36
G18         1.000    20686185.836 7 108706865.34207     -1622.104 7        42.459                                    20686182.060 4  84706524.61004     -1263.972 4        27.737    20686183.046 6  84706534.59406     -1264.004 6        41.514
G23         4.000    22459986.340 6 118028040.39806      2054.111 6        39.910                                    22459982.497 3  91969873.70003      1600.590 3        18.328    22459985.024 6  91969897.67306      1600.769 6        37.671
G31         5.000    24300366.121 6 127699302.23416     -4129.970 6        36.170                                                                                                    24300363.513 4                     -3219.068 4        25.098
G28         6.000                                                                                                                                                                    25725594.985 3                     -3330.362 3        22.705
G27         7.000    22876430.753 4                      2173.865 4        28.502                                                                                                    22876424.687 4  93675147.86804      1693.214 4        28.180
G29         8.000    23047994.985 6 121117974.96306     -3637.136 6        37.395                                    23047981.651 2  94377638.16202     -2834.116 2        16.641    23047983.154 5                     -2833.932 5        30.483
E15        10.000    24429259.050 6 128376718.78806     -2574.468 6        38.402                                                                    24429259.877 8  95865658.56508     -1922.514 8        49.630    24429258.825 7  98366492.53507     -1972.734 7        47.445
G05        11.000                                                                                                                                                                    24031913.034 4                     -2698.137 4        26.419
E27        15.000    24797797.832 6 130313317.31906     -3038.466 6        40.400                                                                    24797799.373 7  97311889.23107     -2269.060 7        42.167    24797796.250 6  99850680.77806     -2328.161 6        36.975
E13        16.000    23601435.570 6 124026454.64306       220.884 6        36.828                                                                    23601435.021 7  92617154.06107       165.020 7        42.281    23601433.857 6  95033207.97006       169.271 6        37.263
R17        17.000    21431641.764 6 114684888.55806     -3957.047 6        41.325                                                                    21431638.622 5                     -3077.649 5        31.668
G16        18.000    20943146.957 6 110056963.36806       652.913 6        38.333                                    20943134.381 1  85758667.07001       508.794 1         9.714
E26        19.000    27206293.435 4 142970082.89404      1986.959 4        27.713                                                                    27206323.851 4                      1483.885 4        26.982    27206286.434 3                      1522.007 3        22.381
R15        20.000    22785676.654 5 121759797.35905     -5337.674 5        32.928
E21        22.000    23824381.029 6 125198072.96206      -281.590 6        41.514                                                                    23824380.433 8  93492002.39208      -210.360 8        50.251    23824380.122 8  95930950.47408      -215.755 8        51.598
S36        23.000    38288978.086 6 201209803.10906      -854.648 6        36.560
S23        24.000    38242824.162 6 200967409.48306      -856.694 6        39.670
G26        25.000    20694709.357 8 108751447.87908     -1734.987 8        48.028                                    20694705.751 8  84741402.09108     -1351.933 8        49.619    20694707.275 7  84741445.09007     -1351.934 7        47.276
R01        26.000    23190959.611 4                     -1921.172 4        26.108
C34        28.000                                                                                                                                    24110792.371 6 125551285.78606     -3391.756 6        36.166                                                                    24110790.568 6 102020848.97106     -2755.895 6        36.798
R19        29.000    20833040.463 5 111442768.62505      1476.576 5        34.871                                                                    20833039.770 6  86677675.29306      1148.627 6        36.155
R18        30.000    19367388.908 7 103384459.52307     -1307.824 7        45.512                                                                    19367388.538 7  80410117.50207     -1017.201 7        44.615
C21        31.000                                                                                                                                    25425745.850 5 132398520.89705      -212.681 5        31.087                                                                    25425771.164 4                      -173.249 4        27.605
R16        33.000    19755411.656 7 105530088.31507     -2573.831 7        45.928                                                                    19755411.833 7  82078761.28607     -2001.856 7        44.515
R09        34.000    21136408.894 8 112867252.15108      1799.568 8        48.864                                                                    21136408.221 7  87785646.74107      1399.540 7        42.165
C37        36.000                                                                                                                                    23753812.006 6 123692173.21506       -90.460 6        40.567                                                                    23753821.457 6 100510151.51506       -73.259 6        36.635
S21        38.000    38517834.463 5 202412781.04805      -855.883 5        33.916
C28        40.000                                                                                                                                    23795114.884 6 123907397.57706      1505.270 6        38.973                                                                    23795118.281 6 100684921.77106      1223.278 6        38.931
C43        42.000                                                                                                                                    21672402.461 8 112853913.84408     -1437.168 8        49.013                                                                    21672400.214 8  91703199.22408     -1167.684 8        50.142
C11        44.000                                                                                                                                    22544462.982 6 117394970.43606     -2576.293 6        37.221    22544462.408 8  90777363.28308     -1992.155 8        50.040    22544460.519 7  95393157.32507     -2093.357 7        43.547
C13        45.000                                                                                                                                    37737705.291 7 196510231.37207      -930.299 7        45.093    37737703.570 5                      -719.306 5        31.668    37737703.853 6 159680611.84706      -755.909 6        36.359
C08        46.000                                                                                                                                    37854230.467 4                     -1201.279 4        28.066    37854231.689 5 152423365.34405      -928.720 5        33.575    37854229.646 5                      -975.808 5        32.144
C42        48.000                                                                                                                                    25602353.648 4                      1830.713 4        26.299
C38        49.000                                                                                                                                    39003463.394 4 203100958.43504     -1609.004 4        24.782                                                                    39003400.698 5 165036201.12505     -1306.482 5        31.653
C23        55.000                                                                                                                                    23478044.342 7 122256590.81907     -3050.468 7        44.400                                                                    23478049.275 5  99343340.35405     -2478.521 5        35.076
I06        58.000    38793972.781 7 152236037.99207      -616.246 7        42.349
> 2025 01 01 18 15 10.0000000  0 37
G18         1.000    20687730.684 7 108714982.13107     -1624.656 7        42.008                                    20687726.165 4  84712849.38104     -1265.961 4        27.341    20687727.425 6  84712859.36506     -1266.012 6        41.478
G23         4.000    22458031.745 6 118017774.13706      2052.467 6        39.838                                    22458029.243 3  91961874.02003      1599.330 3        19.164    22458030.999 6  91961897.99706      1599.223 6        37.656
G31         5.000    24304295.510 5 127719953.43805     -4130.695 5        35.462                                                                                                    24304301.264 4                     -3218.491 4        24.060
G28         6.000                                                                                                                                                                    25729664.032 3                     -3329.084 3        22.324
G27         7.000    22874367.117 5                      2172.716 5        32.527
G29         8.000    23051454.330 6 121136162.16506     -3637.904 6        36.851                                    23051442.643 3  94391809.96503     -2834.727 3        18.418    23051445.174 5                     -2834.761 5        31.449
E15        10.000    24431709.584 6 128389594.34806     -2575.867 6        38.886                                                                    24431710.046 8  95875273.41208     -1923.381 8        49.835    24431709.051 7  98376358.21307     -1973.669 7        47.586
G05        11.000    24035183.689 4 126305933.87314     -3465.178 4        28.464                                                                                                    24035203.227 4                     -2699.889 4        27.054
E27        15.000    24800689.408 6 130328513.69006     -3039.970 6        40.830                                                                    24800691.037 6  97323237.17406     -2270.090 6        41.900    24800688.508 6  99862324.75906     -2329.312 6        37.391
E13        16.000    23601225.473 6 124025354.70006       219.072 6        36.310                                                                    23601225.892 7  92616332.67707       163.669 7        42.781    23601224.152 6  95032365.15806       167.993 6        37.887
R17        17.000    21435335.998 6 114704675.99506     -3957.836 6        40.203
G16        18.000    20942527.454 6 110053705.44606       650.245 6        38.856                                    20942514.243 1  85756128.36601       506.730 1         8.476
E26        19.000    27204402.247 4 142960147.69304      1986.987 4        27.222                                                                    27204434.680 4                      1483.144 4        27.557    27204397.831 4                      1522.219 4        25.504
R15        20.000    22790671.062 5 121786488.15615     -5338.744 5        30.030                                                                    22790664.296 5                     -4152.230 5        31.660
E21        22.000    23824649.754 6 125199485.76606      -283.493 6        40.477                                                                    23824649.263 8  93493057.40808      -211.685 8        50.370    23824648.840 8  95932033.01208      -217.179 8        51.691
S36        23.000    38289791.492 6 201214076.03406      -854.577 6        36.764
S23        24.000    38243642.245 6 200971693.55206      -856.809 6        39.994
G26        25.000    20696361.443 8 108760130.32108     -1737.914 8        49.669                                    20696358.168 8  84748167.63108     -1354.217 8        50.306    20696359.372 7  84748210.63907     -1354.224 7        47.678
R01        26.000    23192753.411 4                     -1924.613 4        28.218
R02        27.000    22915526.281 4                      1414.918 4        28.607
C34        28.000                                                                                                                                    24114049.381 5 125568245.52205     -3392.070 5        35.748                                                                    24114047.551 6 102034630.12706     -2756.378 6        36.117
R19        29.000    20831662.548 6 111435390.59906      1474.609 6        36.892                                                                    20831660.571 6  86671936.82306      1146.991 6        37.493
R18        30.000    19368614.969 7 103391004.84007     -1310.284 7        45.893                                                                    19368615.488 7  80415208.29307     -1019.127 7        45.145
C21        31.000                                                                                                                                    25425954.168 4 132399592.48604      -215.181 4        29.156                                                                    25425975.244 4                      -175.437 4        26.287
R16        33.000    19757822.728 7 105542968.09307     -2578.042 7        45.562                                                                    19757822.854 7  82088778.90007     -2005.149 7        43.989
R09        34.000    21134724.126 7 112858262.94107      1796.237 7        47.518                                                                    21134724.976 7  87778655.12107      1397.031 7        42.476
C37        36.000                                                                                                                                    23753899.410 7 123692632.08207       -93.129 7        42.891                                                                    23753908.872 6 100510524.36406       -75.333 6        37.248
S21        38.000    38518647.775 5 202417059.35705      -855.430 5        34.067
C28        40.000                                                                                                                                    23793668.539 6 123899873.65606      1504.397 6        37.236                                                                    23793672.654 6 100678807.95006      1222.491 6        38.036
C43        42.000                                                                                                                                    21673783.200 8 112861103.14808     -1438.541 8        48.902                                                                    21673780.810 8  91709041.10308     -1168.872 8        49.792
C11        44.000                                                                                                                                    22546937.595 6 117407854.44706     -2577.339 6        37.070    22546936.495 8  90787326.03408     -1992.945 8        49.688    22546935.013 7  95403626.62107     -2094.130 7        43.484
C13        45.000                                                                                                                                    37738599.210 7 196514884.94007      -931.081 7        45.177    37738596.920 5                      -720.058 5        31.713    37738597.540 6 159684393.21506      -756.444 6        36.355
C08        46.000                                                                                                                                    37855381.673 4                     -1202.787 4        25.038    37855384.151 5 152428010.34505      -929.234 5        34.148    37855383.222 5                      -976.775 5        32.275
C42        48.000                                                                                                                                    25600602.078 4                      1829.570 4        26.084
C38        49.000                                                                                                                                    39005009.574 3                     -1610.506 3        21.929                                                                    39004944.884 5 165042734.71505     -1306.569 5        31.849
C23        55.000                                                                                                                                    23480974.454 7 122271848.16107     -3052.424 7        43.644                                                                    23480979.312 5  99355738.20305     -2480.440 5        35.510
I06        58.000    38794757.876 7 152239118.59507      -616.123 7        42.461
> 2025 01 01 18 15 15.0000000  0 37
G18         1.000    20689278.075 7 108723112.21907     -1627.087 7        42.184                                    20689273.011 4  84719184.51004     -1267.866 4        26.659    20689273.985 6  84719194.50806     -1267.986 6        41.404
G23         4.000    22456081.502 6 118007517.82706      2050.399 6        40.212                                    22456077.653 3  91953882.07003      1597.740 3        19.642    22456078.957 6  91953906.05006      1597.674 6        37.459
G31         5.000    24308227.001 5 127740608.44005     -4131.143 5        33.784
G28         6.000                                                                                                                                                                    25733722.951 3                     -3327.825 3        22.609
G27         7.000    22872301.952 5                      2171.630 5        33.293                                                                                                    22872323.423 4  93658217.66004      1691.883 4        29.583
G29         8.000    23054914.467 6 121154354.49106     -3638.982 6        36.654                                    23054905.239 3  94405985.77303     -2835.574 3        19.045    23054905.163 5                     -2835.537 5        31.985
E15        10.000    24434161.427 6 128402477.03906     -2577.164 6        39.643                                                                    24434161.522 8  95884893.61908     -1924.474 8        49.626    24434160.556 7  98386229.37507     -1974.691 7        47.515
G05        11.000    24038490.025 5 126323265.15505     -3467.162 5        31.396                                                                                                    24038505.189 4                     -2701.988 4        27.737
E27        15.000    24803582.385 6 130343718.14006     -3041.519 6        40.174                                                                    24803583.770 6  97334591.13406     -2271.271 6        40.901    24803581.909 6  99873974.91106     -2330.646 6        37.550
E13        16.000    23601016.728 5 124024264.43605       217.416 5        35.729                                                                    23601018.537 7  92615518.53107       162.350 7        43.181    23601016.611 6  95031529.78206       166.351 6        38.294
R17        17.000    21439032.896 6 114724468.42706     -3958.843 6        39.441                                                                    21439050.533 5  89230333.63915     -3078.959 5        34.695
G16        18.000    20941916.233 6 110050462.53106       647.063 6        36.915                                    20941897.222 1  85753601.45601       504.528 1         3.000
E26        19.000    27202507.899 4 142950216.58204      1986.103 4        27.976                                                                    27202546.122 4                      1482.628 4        27.509    27202508.356 4                      1521.771 4        28.237
R15        20.000    22795664.198 4 121813184.60004     -5339.916 4        27.892                                                                    22795663.932 5                     -4153.183 5        32.886
E21        22.000    23824920.573 6 125200909.03606      -285.537 6        39.676                                                                    23824920.169 8  93494120.24608      -213.200 8        50.306    23824919.626 8  95933123.58108      -218.847 8        51.667
S36        23.000    38290603.717 6 201218350.16006      -854.664 6        36.922
S23        24.000    38244457.713 6 200975978.32406      -856.799 6        39.652
G26        25.000    20698016.519 8 108768828.65408     -1741.084 8        50.386                                    20698013.585 8  84754945.55608     -1356.690 8        50.782    20698014.400 7  84754988.57307     -1356.725 7        47.891
R01        26.000    23194550.802 4                     -1928.934 4        27.341
R02        27.000    22914196.197 4                      1411.282 4        28.559
C34        28.000                                                                                                                                    24117308.544 5 125585208.45105     -3392.781 5        35.762                                                                    24117304.515 5 102048413.91105     -2756.911 5        35.671
R19        29.000    20830286.219 6 111428023.97306      1472.298 6        37.769                                                                    20830283.048 6  86666207.19906      1145.203 6        38.604
R18        30.000    19369844.254 7 103397563.53107     -1312.915 7        46.247                                                                    19369843.486 7  80420309.49707     -1021.161 7        45.028
C21        31.000                                                                                                                                    25426164.324 4 132400678.26004      -217.465 4        26.455                                                                    25426183.747 3                      -175.778 3        22.952
R16        33.000    19760236.880 7 105555869.79507     -2582.381 7        45.616                                                                    19760238.471 7  82098813.55807     -2008.546 7        43.172
R09        34.000    21133044.305 7 112849291.26407      1792.783 7        47.087                                                                    21133045.206 7  87771677.14807      1394.357 7        43.043
C37        36.000                                                                                                                                    23753989.449 7 123693105.20807       -95.824 7        44.170                                                                    23753998.956 6 100510908.86406       -78.161 6        38.150
S21        38.000    38519464.110 5 202421338.21805      -855.640 5        33.904
C28        40.000                                                                                                                                    23792223.057 5 123892355.01405      1503.238 5        34.757                                                                    23792227.816 6 100672698.45206      1221.452 6        37.214
C43        42.000                                                                                                                                    21675165.254 8 112868300.60708     -1440.118 8        48.992                                                                    21675163.060 8  91714889.64808     -1170.317 8        49.855
C11        44.000                                                                                                                                    22549413.324 6 117420744.39106     -2578.463 6        37.040    22549412.010 8  90797293.36508     -1993.782 8        49.383    22549410.556 7  95414100.79207     -2095.269 7        43.645
C13        45.000                                                                                                                                    37739494.040 7 196519543.53307      -932.054 7        45.282    37739491.647 5                      -721.042 5        31.464    37739492.301 6 159688178.73106      -757.509 6        36.760
C08        46.000                                                                                                                                    37856528.966 3                     -1201.168 3        21.262    37856539.403 5 152432659.31005      -930.048 5        34.857    37856538.314 5                      -977.536 5        32.509
C42        48.000                                                                                                                                    25598853.352 4                      1829.291 4        24.887
C38        49.000                                                                                                                                    39006554.188 3                     -1611.083 3        20.714                                                                    39006490.164 5 165049271.57705     -1307.677 5        32.443
C23        55.000                                                                                                                                    23483906.219 7 122287116.40407     -3054.625 7        42.203                                                                    23483913.178 6  99368144.91006     -2482.256 6        36.011
I06        58.000    38795543.215 7 152242199.32507      -616.091 7        42.288
> 2025 01 01 18 15 20.0000000  0 34
G18         1.000    20690827.612 7 108731254.88707     -1629.788 7        42.766                                    20690822.522 4  84725529.43404     -1269.969 4        26.228    20690823.809 6  84725539.44506     -1270.072 6        41.440
G23         4.000    22454132.429 6 117997270.69306      2048.457 6        40.663                                    22454127.949 3  91945897.25203      1596.203 3        19.433    22454127.952 6  91945921.26606      1596.269 6        37.444
G31         5.000    24312160.419 5 127761266.44905     -4131.727 5        30.453                                    24312141.811 1  99554155.20611     -3219.475 1         7.000
G28         6.000                                                                                                                                                                    25737788.474 3                     -3328.885 3        21.833
G27         7.000    22870236.290 5 120183905.46215      2170.903 5        34.443
G29         8.000    23058376.054 5 121172551.16105     -3639.759 5        35.733                                    23058368.801 3  94420164.99003     -2836.192 3        19.224    23058369.333 5                     -2836.139 5        31.743
E15        10.000    24436613.728 6 128415366.07706     -2578.568 6        40.870                                                                    24436614.155 8  95894518.56408     -1925.491 8        49.534    24436613.091 7  98396105.40007     -1975.719 7        47.320
G05        11.000    24041797.147 5 126340608.21905     -3470.135 5        32.317                                                                                                    24041810.085 4                     -2703.769 4        29.033
E27        15.000    24806475.849 6 130358929.87706     -3043.275 6        39.153                                                                    24806477.716 6  97345950.54206     -2272.470 6        40.012    24806476.855 6  99885630.62906     -2331.608 6        38.114
E13        16.000    23600810.733 5 124023183.11205       215.226 5        35.505                                                                    23600813.118 7  92614711.06107       160.764 7        43.672    23600810.975 6  95030701.24106       164.961 6        38.937
R17        17.000    21442732.981 6 114744265.31506     -3959.808 6        40.908                                                                    21442746.397 6  89245731.26606     -3079.743 6        36.045
E26        19.000    27200619.796 4 142940288.69904      1984.939 4        27.042                                                                    27200656.839 4                      1482.355 4        25.218    27200620.571 4                      1521.210 4        29.810
R15        20.000    22800659.345 4 121839885.94004     -5340.779 4        27.473                                                                    22800658.520 5                     -4153.955 5        33.742
E21        22.000    23825192.905 6 125202342.00106      -287.632 6        38.051                                                                    23825192.865 8  93495190.33308      -214.795 8        50.366    23825192.201 8  95934221.57408      -220.361 8        51.504
S36        23.000    38291415.388 6 201222624.15006      -854.645 6        36.885
S23        24.000    38245269.178 6 200980262.89906      -856.816 6        39.345
G26        25.000    20699674.001 8 108777542.08708     -1744.242 8        50.874                                    20699671.882 8  84761735.25208     -1359.150 8        51.410    20699672.445 7  84761778.26407     -1359.208 7        47.776
R01        26.000    23196359.032 4                     -1932.819 4        29.754
C34        28.000                                                                                                                                    24120570.223 6 125602173.74006     -3393.362 6        36.015                                                                    24120562.760 5 102062199.63005     -2757.353 5        35.148
R19        29.000    20828910.269 6 111420667.99906      1469.996 6        38.258                                                                    20828908.527 6  86660485.94306      1143.389 6        39.051
R18        30.000    19371074.579 7 103404134.84707     -1315.572 7        45.229                                                                    19371074.234 7  80425420.52807     -1023.242 7        44.465
C21        31.000                                                                                                                                    25426371.965 3                      -217.660 3        20.381                                                                    25426394.825 3                      -182.354 3        20.357
R16        33.000    19762657.019 7 105568792.56707     -2586.735 7        45.846                                                                    19762657.944 7  82108864.59107     -2011.943 7        42.910
R09        34.000    21131368.329 7 112840336.34707      1789.314 7        47.150                                                                    21131367.724 7  87764712.18707      1391.806 7        42.722
C37        36.000                                                                                                                                    23754082.642 7 123693591.82407       -98.678 7        44.822                                                                    23754091.587 6 100511304.28006       -80.141 6        38.922
S21        38.000    38520276.161 5 202425616.59005      -855.731 5        33.731
C28        40.000                                                                                                                                    23790780.750 5 123884840.88705      1502.298 5        33.886                                                                    23790783.643 6 100666592.61906      1220.654 6        37.108
C43        42.000                                                                                                                                    21676548.926 8 112875505.45608     -1441.746 8        49.322                                                                    21676546.713 8  91720744.17508     -1171.564 8        49.832
C11        44.000                                                                                                                                    22551889.722 6 117433639.45306     -2579.519 6        38.051    22551888.643 8  90807264.63308     -1994.687 8        49.492    22551886.929 7  95424579.06507     -2096.085 7        44.141
C13        45.000                                                                                                                                    37740389.512 7 196524206.30007      -932.968 7        45.443    37740387.979 5                      -721.125 5        31.125    37740387.478 6 159691967.60906      -758.266 6        36.764
C08        46.000                                                                                                                                                                                                    37857694.931 5 152437311.69005      -930.948 5        35.476    37857694.282 5                      -978.069 5        32.808
C38        49.000                                                                                                                                                                                                                                                                    39008035.452 5 165055810.99005     -1308.096 5        32.802
C23        55.000                                                                                                                                    23486840.429 6 122302394.73806     -3056.563 6        41.530                                                                    23486846.198 5  99380559.82805     -2483.857 5        35.852
I06        58.000    38796327.914 7 152245279.67007      -616.070 7        42.445
> 2025 01 01 18 15 25.0000000  0 36
G18         1.000    20692378.839 7 108739409.60807     -1632.401 7        43.678                                    20692374.600 4  84731883.75304     -1272.001 4        26.347    20692375.203 6  84731893.75706     -1271.933 6        41.909
G23         4.000    22452184.207 6 117987032.24706      2046.615 6        41.175                                    22452179.596 3  91937919.22503      1594.773 3        18.955    22452179.101 6  91937943.22706      1594.955 6        37.319
G31         5.000    24316095.970 4 127781927.01404     -4132.671 4        25.398                                    24316071.996 1  99570254.37701     -3220.360 1         3.400
G28         6.000                                                                                                                                                                    25741852.271 3                     -3328.287 3        20.690
G27         7.000    22868171.742 5 120173051.96105      2170.236 5        35.048                                    22868172.536 2  93641345.46112      1691.104 2        17.019
G29         8.000    23061837.531 5 121190751.74805     -3640.728 5        33.449                                    23061832.932 3  94434347.23103     -2836.933 3        18.746    23061832.176 5                     -2836.621 5        30.830
E15        10.000    24439067.186 7 128428260.97707     -2579.659 7        42.398                                                                    24439067.823 8  95904147.88908     -1926.456 8        49.376    24439066.746 7  98405985.91507     -1976.582 7        47.253
G05        11.000    24045101.439 5 126357962.92705     -3472.486 5        32.437                                                                                                    24045114.449 4                     -2705.633 4        29.725
E27        15.000    24809370.571 6 130374148.38706     -3044.496 6        37.580                                                                    24809373.027 6  97357315.01406     -2273.428 6        38.688    24809373.026 6  99897291.54406     -2332.836 6        38.399
E13        16.000    23600608.493 5 124022110.20905       213.629 5        35.648                                                                    23600609.146 7  92613909.87807       159.472 7        44.196    23600607.034 6  95029879.15906       163.790 6        39.736
R17        17.000    21446435.890 7 114764066.03207     -3960.673 7        42.514                                                                    21446443.630 6  89261131.78206     -3080.452 6        37.161
G16        18.000    20940709.395 5 110044018.56505       641.262 5        34.014                                    20940670.598 1  85748580.12301       499.376 1         2.200
E26        19.000    27198733.535 4 142930363.49004      1983.364 4        24.286                                                                    27198767.690 3                      1482.256 3        23.695    27198732.397 5                      1520.729 5        30.906
R15        20.000    22805654.225 4 121866591.62314     -5341.646 4        26.144                                                                    22805653.921 5  94785059.39315     -4154.870 5        34.338
E21        22.000    23825467.001 6 125203784.17306      -289.456 6        37.055                                                                    23825467.351 8  93496267.27808      -216.217 8        50.484    23825466.492 8  95935326.61108      -221.864 8        51.473
S36        23.000    38292231.223 6 201226896.84806      -854.628 6        36.722
S23        24.000    38246084.829 6 200984546.73006      -856.994 6        39.450
G26        25.000    20701334.727 8 108786270.12408     -1747.268 8        52.185                                    20701332.978 8  84768536.32708     -1361.507 8        52.080    20701333.295 7  84768579.33807     -1361.529 7        47.621
R01        26.000    23198174.122 5                     -1936.726 5        31.132
C34        28.000                                                                                                                                    24123831.830 6 125619140.91906     -3393.740 6        36.026                                                                    24123821.349 5 102075986.85505     -2757.474 5        34.786
R19        29.000    20827538.853 6 111413322.29906      1467.930 6        38.544                                                                    20827535.100 6  86654772.62806      1141.736 6        39.622
R18        30.000    19372307.249 7 103410718.28007     -1318.054 7        45.193                                                                    19372307.261 7  80430540.96007     -1025.162 7        43.632
C21        31.000                                                                                                                                                                                                                                                                    25426609.159 3                      -183.914 3        21.548
R16        33.000    19765081.340 7 105581736.09007     -2590.928 7        46.854                                                                    19765080.408 7  82118931.74107     -2015.009 7        43.082
R09        34.000    21129695.371 8 112831397.57208      1785.979 8        48.186                                                                    21129693.486 7  87757759.81607      1389.008 7        42.284
C37        36.000                                                                                                                                    23754178.614 7 123694091.43407      -101.419 7        44.909                                                                    23754186.784 6 100511710.24906       -82.317 6        39.045
S21        38.000    38521087.966 5 202429894.13405      -855.279 5        33.479
C28        40.000                                                                                                                                    23789341.688 6 123877330.76206      1501.606 6        36.333                                                                    23789341.055 6 100660490.03806      1219.836 6        36.771
C43        42.000                                                                                                                                    21677933.956 8 112882717.20408     -1443.195 8        49.560                                                                    21677931.737 8  91726604.32708     -1172.693 8        49.677
C11        44.000                                                                                                                                    22554367.908 6 117446539.15206     -2580.649 6        38.883    22554365.948 8  90817239.50508     -1995.468 8        49.523    22554364.369 7  95435061.13907     -2096.936 7        44.232
C13        45.000                                                                                                                                    37741285.662 7 196528872.84907      -933.899 7        45.488    37741284.490 5                      -722.011 5        31.072    37741283.786 6 159695759.54706      -758.697 6        36.605
C08        46.000                                                                                                                                                                                                    37858850.109 6 152441967.02706      -931.325 6        36.295    37858850.174 5                      -978.843 5        33.108
C42        48.000                                                                                                                                    25595288.619 4                      1827.202 4        24.571
C38        49.000                                                                                                                                                                                                                                                                    39009581.648 5 165062352.73605     -1308.764 5        33.042
C23        55.000                                                                                                                                    23489776.686 6 122317682.67806     -3058.786 6        40.617                                                                    23489777.454 5  99392982.54505     -2485.612 5        35.833
I06        58.000    38797112.929 7 152248359.20607      -615.919 7        42.455
> 2025 01 01 18 15 30.0000000  0 35
G18         1.000    20693933.505 7 108747577.41507     -1634.588 7        43.879                                    20693929.088 4  84738248.27304     -1273.705 4        26.311    20693929.245 7  84738258.29307     -1273.758 7        42.263
G23         4.000    22450237.528 6 117976803.53706      2044.970 6        40.815                                    22450233.166 3  91929948.78903      1593.492 3        19.403    22450232.843 6  91929972.80906      1593.454 6        37.493
G28         6.000                                                                                                                                                                    25745915.509 3                     -3328.127 3        22.152
G27         7.000    22866113.915 5 120162203.18905      2169.595 5        31.970                                    22866106.182 2  93632891.83702      1690.566 2        16.151    22866091.244 4  93632846.66004      1690.861 4        28.948
G29         8.000    23065299.388 4 121208957.23004     -3641.508 4        28.578                                    23065297.979 2  94448533.29402     -2837.522 2        17.547    23065296.270 4                     -2837.631 4        29.839
E15        10.000    24441522.041 7 128441162.74207     -2580.800 7        43.335                                                                    24441522.752 8  95913782.32608     -1927.226 8        49.204    24441521.742 7  98415871.68707     -1977.456 7        46.868
G05        11.000    24048405.481 5 126375330.19905     -3474.928 5        30.370                                                                                                    24048417.024 5                     -2707.604 5        30.264
E27        15.000    24812267.146 6 130389374.72406     -3045.784 6        36.011                                                                    24812269.753 6  97368685.34006     -2274.552 6        37.508    24812270.720 6  99908958.47906     -2333.825 6        38.808
E13        16.000    23600406.795 5 124021046.77605       212.092 5        35.667                                                                    23600407.095 7  92613115.77307       158.403 7        44.825    23600404.622 6  95029064.34706       162.424 6        40.355
R17        17.000    21450140.494 7 114783871.55007     -3961.298 7        43.007                                                                    21450143.032 6  89276536.04506     -3081.007 6        37.750
E26        19.000    27196848.236 3                      1982.768 3        19.970                                                                    27196879.319 3                      1480.396 3        20.524    27196845.175 5                      1520.135 5        31.940
R15        20.000                                                                                                                                    22810650.729 5                     -4154.928 5        34.919
E21        22.000    23825743.102 5 125205236.58305      -291.319 5        35.662                                                                    23825743.712 8  93497351.86108      -217.453 8        50.699    23825742.805 8  95936439.48808      -223.122 8        51.188
S36        23.000    38293043.072 6 201231170.04506      -854.612 6        36.439
S23        24.000    38246901.584 6 200988830.67606      -856.760 6        39.303
