     3.04           OBSERVATION DATA    M                   RINEX VERSION / TYPE
ssrcrin-15.6.1x                         20250101 041500 UTC PGM / RUN BY / DATE 
(00000000023479385599111004) Septentrio proprietary         COMMENT             
ract                                                        MARKER NAME         
01                                                          MARKER NUMBER       
geodetic                                                    MARKER TYPE         
NFB                 CLIMERS@TUW                             OBSERVER / AGENCY   
3296359             SEPT ASTERX SB3 PROB4.14.4              REC # / TYPE / VERS 
Unknown             Unknown                                 ANT # / TYPE        
  4127446.6151  1206914.8869  4695543.7924                  APPROX POSITION XYZ 
        0.0000        0.0000        0.0000                  ANTENNA: DELTA H/E/N
G   23 X1  C1C L1C D1C S1C C1W S1W C2W L2W D2W S2W C2L L2L  SYS / # / OBS TYPES 
       D2L S2L C5Q L5Q D5Q S5Q C1L L1L D1L S1L              SYS / # / OBS TYPES 
E   21 X1  C1C L1C D1C S1C C6C L6C D6C S6C C5Q L5Q D5Q S5Q  SYS / # / OBS TYPES 
       C7Q L7Q D7Q S7Q C8Q L8Q D8Q S8Q                      SYS / # / OBS TYPES 
S    9 X1  C1C L1C D1C S1C C5I L5I D5I S5I                  SYS / # / OBS TYPES 
R   17 X1  C1C L1C D1C S1C C2P L2P D2P S2P C2C L2C D2C S2C  SYS / # / OBS TYPES 
       C3Q L3Q D3Q S3Q                                      SYS / # / OBS TYPES 
C   25 X1  C1P L1P D1P S1P C5P L5P D5P S5P C2I L2I D2I S2I  SYS / # / OBS TYPES 
       C7I L7I D7I S7I C6I L6I D6I S6I C7D L7D D7D S7D      SYS / # / OBS TYPES 
J   17 X1  C1C L1C D1C S1C C2L L2L D2L S2L C5Q L5Q D5Q S5Q  SYS / # / OBS TYPES 
       C1L L1L D1L S1L                                      SYS / # / OBS TYPES 
I    5 X1  C5A L5A D5A S5A                                  SYS / # / OBS TYPES 
SEPTENTRIO RECEIVERS OUTPUT ALIGNED CARRIER PHASES.         COMMENT             
NO FURTHER PHASE SHIFT APPLIED IN THE RINEX ENCODER.        COMMENT             
G L1C                                                       SYS / PHASE SHIFT   
G L2W                                                       SYS / PHASE SHIFT   
G L2L  0.00000                                              SYS / PHASE SHIFT   
G L5Q  0.00000                                              SYS / PHASE SHIFT   
G L1L  0.00000                                              SYS / PHASE SHIFT   
E L1C  0.00000                                              SYS / PHASE SHIFT   
E L6C  0.00000                                              SYS / PHASE SHIFT   
E L5Q  0.00000                                              SYS / PHASE SHIFT   
E L7Q  0.00000                                              SYS / PHASE SHIFT   
E L8Q  0.00000                                              SYS / PHASE SHIFT   
S L1C                                                       SYS / PHASE SHIFT   
S L5I                                                       SYS / PHASE SHIFT   
R L1C                                                       SYS / PHASE SHIFT   
R L2P  0.00000                                              SYS / PHASE SHIFT   
R L2C                                                       SYS / PHASE SHIFT   
R L3Q  0.00000                                              SYS / PHASE SHIFT   
C L1P  0.00000                                              SYS / PHASE SHIFT   
C L5P  0.00000                                              SYS / PHASE SHIFT   
C L2I                                                       SYS / PHASE SHIFT   
C L7I                                                       SYS / PHASE SHIFT   
C L6I                                                       SYS / PHASE SHIFT   
C L7D                                                       SYS / PHASE SHIFT   
J L1C                                                       SYS / PHASE SHIFT   
J L2L  0.00000                                              SYS / PHASE SHIFT   
J L5Q  0.00000                                              SYS / PHASE SHIFT   
J L1L  0.00000                                              SYS / PHASE SHIFT   
I L5A                                                       SYS / PHASE SHIFT   
  2025     1     1     4    15    0.0000000     GPS         TIME OF FIRST OBS   
 C1C    0.000 C2C    0.000 C2P    0.000                     GLONASS COD/PHS/BIS 
DBHZ                                                        SIGNAL STRENGTH UNIT
    18                                                      LEAP SECONDS        
 24 R01  1 R02 -4 R03  5 R04  6 R05  1 R06 -4 R07  5 R08  6 GLONASS SLOT / FRQ #
    R09 -2 R10 -7 R11  0 R12 -1 R13 -2 R14 -7 R15  0 R16 -1 GLONASS SLOT / FRQ #
    R17  4 R18 -3 R19  3 R20  2 R21  4 R22 -3 R23  3 R24  2 GLONASS SLOT / FRQ #
                                                            END OF HEADER       
> 2025 01 01 04 15  0.0000000  0 39
G16         2.000    23920224.646 4 125701662.97504       522.030 4        29.204
G30         3.000    24448613.828 5 128478352.49205      2784.447 5        35.648                                    24448613.031 1 100113009.15501      2169.677 1        11.185
G07         5.000    21990099.516 6 115558766.85306      1476.762 6        39.210                                    21990088.778 4  90045794.10904      1150.736 4        26.371    21990094.533 5  90045752.09805      1150.607 5        30.294
E34         6.000    24260058.255 7 127487483.40507     -1314.506 7        47.384                                                                    24260055.404 6  95201734.35906      -981.622 6        39.916    24260058.494 7  97685226.04507     -1007.144 7        42.102
G03         8.000    23480174.945 5                     -4137.122 5        32.617                                                                                                    23480165.150 4                     -3223.429 4        27.796
G09         9.000    20153374.351 7 105906693.08607     -1249.475 7        47.094                                    20153368.890 6  82524706.52506      -973.615 6        39.916    20153371.695 6  82524697.52706      -973.573 6        36.329
G20        10.000    23938517.516 4 125797721.87204      2522.153 4        28.227                                    23938511.415 1  98024237.39801      1965.341 1        10.889
G04        11.000    21261338.118 7 111729345.47207     -2866.988 7        45.582                                    21261335.539 5  87061661.61105     -2234.016 5        34.757    21261335.103 7  87061609.62107     -2233.969 7        46.520
E09        12.000    24681333.643 7 129701242.94807     -2482.007 7        45.597                                                                    24681333.614 7  96854920.69307     -1853.532 7        44.227    24681332.400 7  99381547.70207     -1901.847 7        44.990
E06        14.000    26233401.469 5 137857475.40105     -3155.763 5        33.970                                                                                                                                    26233433.495 4                     -2418.197 4        28.085
E15        16.000    26619324.013 6 139885442.04306      1359.598 6        40.415                                                                    26619317.938 6 104459957.63506      1015.357 6        41.030    26619316.309 6 107185017.74006      1041.626 6        39.249
G06        19.000    21470636.189 6 112828951.85406     -1847.198 6        37.701                                    21470632.426 5  87918784.90205     -1439.369 5        30.121    21470634.711 6  87918690.88906     -1439.094 6        39.538
E36        20.000    25844336.755 4                     -3743.524 4        27.952                                                                    25844308.774 5 101418610.89505     -2795.274 5        35.614    25844309.603 5 104064316.66605     -2868.407 5        34.605
E05        21.000    22205757.775 7 116692081.75507       -23.724 7        43.003                                                                    22205758.382 8  87140221.72008       -17.646 8        50.132    22205757.886 8  89413432.14708       -18.158 8        49.743
R07        23.000    19690152.952 8 105403013.30808      -348.692 8        50.226                                                                    19690152.579 7  81980047.34907      -271.190 7        42.133
S23        24.000    38296538.160 6 201249558.50406      -821.579 6        40.472
S36        25.000    38355294.153 5 201558461.89405      -825.874 5        34.338
G11        26.000    22639943.492 6 118973467.95606       784.859 6        38.796                                    22639927.741 1  92706714.47101       611.525 1        10.444    22639928.790 4  92706704.40004       611.747 4        28.284
E03        27.000    27148781.707 4                      1610.210 4        26.419                                                                    27148804.335 5                      1202.661 5        32.132    27148793.907 5 109316878.97305      1234.467 5        30.943
R15        28.000    24023393.429 4                     -4292.015 4        27.377                                                                    24023388.337 3                     -3339.644 3        22.000
R06        29.000    21015614.324 6 112143327.36706     -3147.939 6        38.348
R24        31.000    24469914.207 4 130851601.79004      2809.115 4        25.338                                                                    24469954.523 3                      2183.548 3        18.358
R09        32.000    21651527.641 7 115617948.02507      2587.636 7        45.266                                                                    21651534.690 5  89925103.75505      2012.665 5        32.120
C19        33.000                                                                                                                                    22276546.326 7 115999825.73507     -1647.853 7        47.819                                                                    22276542.216 8  94259326.27608     -1339.098 8        49.096
R08        35.000    22195950.759 7 118858447.77807      2028.794 7        42.292                                                                    22195955.969 5                      1577.939 5        30.211
R22        37.000    21377318.028 7 114113665.69907     -3874.960 7        42.973                                                                    21377316.605 7  88754996.04307     -3013.735 7        42.461
R16        39.000    21214490.936 8 113324072.90008     -1105.448 8        51.378                                                                    21214488.830 7  88140985.12707      -859.801 7        46.637
C06        41.000                                                                                                                                    39263390.705 5 204454770.63805     -1771.893 5        33.245    39263449.283 4                     -1370.036 4        27.820    39263393.231 4                     -1439.845 4        25.925
C36        42.000                                                                                                                                    24759990.273 6 128931867.36406      2375.254 6        36.801                                                                    24759995.637 6 104767654.99906      1929.885 6        39.114
R23        44.000    21185906.959 6 113330280.45806      -453.830 6        40.584
C16        45.000                                                                                                                                    39841373.782 4                     -1792.421 4        29.583    39841370.851 5                     -1386.263 5        32.120
C09        46.000                                                                                                                                    38886659.367 6 202493050.58806     -1374.396 6        39.270    38886650.404 7 156580407.47507     -1062.810 7        42.713    38886645.318 3                     -1117.914 3        21.976
C44        48.000                                                                                                                                    24534829.577 6 127759274.45406     -2133.256 6        37.278                                                                    24534829.363 5 103814860.27805     -1733.404 5        35.362
C37        49.000                                                                                                                                    25570347.430 5                     -2750.734 5        34.381                                                                    25570374.695 4                     -2234.611 4        25.669
C22        50.000                                                                                                                                    22821367.131 6 118837114.03606      1027.168 6        40.358                                                                    22821384.028 5  96564636.66005       834.459 5        31.902
C35        51.000                                                                                                                                    25554782.423 4                     -3773.452 4        27.042                                                                    25554804.398 5                     -3066.293 5        30.483
C20        55.000                                                                                                                                    25318525.961 3                     -3414.081 3        19.552                                                                    25318508.290 5 107130911.87905     -2773.062 5        33.036
C12        56.000                                                                                                                                    24941534.542 6 129877146.06306      -688.355 6        36.828    24941579.538 6 100429231.72806      -532.397 6        39.517    24941537.758 5 105535862.61005      -559.700 5        33.024
I06        60.000    38130119.326 6 149630782.51406      -579.512 6        36.465
> 2025 01 01 04 15  5.0000000  0 38
G16         2.000    23919734.780 3                       517.532 3        19.851
G30         3.000    24445964.810 5 128464431.47005      2783.935 5        35.700                                    24445963.846 1 100102161.68201      2169.183 1        10.000
G07         5.000    21988696.771 6 115551388.86506      1474.615 6        40.951                                    21988684.165 4  90040045.04204      1149.052 4        27.641    21988690.291 5  90040002.99605      1149.048 5        30.106
E34         6.000    24261310.273 7 127494062.91707     -1317.157 7        47.437                                                                    24261307.333 6  95206647.63606      -983.688 6        40.024    24261310.636 7  97690267.49507     -1009.190 7        42.406
G03         8.000                                                                                                                                                                    23484103.483 4                     -3224.552 4        26.431
G09         9.000    20154563.733 7 105912946.53807     -1251.753 7        46.595                                    20154559.031 6  82529579.34006      -975.388 6        39.709    20154561.584 6  82529570.34306      -975.129 6        36.715
G20        10.000    23936118.219 5 125785112.56005      2521.869 5        30.543                                    23936111.947 1  98014411.94501      1965.082 1         7.625
G04        11.000    21264066.903 7 111743684.58007     -2868.535 7        44.570                                    21264064.396 5  87072834.94005     -2235.223 5        34.395    21264063.937 7  87072782.96307     -2235.214 7        46.536
E09        12.000    24683695.908 7 129713655.96707     -2483.029 7        46.209                                                                    24683695.849 7  96864190.14307     -1854.173 7        44.153    24683693.921 7  99391058.96607     -1902.591 7        44.460
E06        14.000    26236403.967 5 137873255.06905     -3156.253 5        33.683                                                                                                                                    26236436.883 4                     -2418.533 4        28.948
E15        16.000    26618031.206 6 139878649.04706      1357.785 6        41.247                                                                    26618025.234 6 104454884.95306      1014.019 6        41.066    26618023.944 6 107179812.73006      1040.269 6        39.312
G06        19.000    21472394.849 6 112838196.40606     -1850.488 6        40.241                                    21472392.045 5  87925988.47005     -1441.937 5        31.547    21472394.478 6  87925894.47606     -1442.042 6        40.350
E36        20.000    25847891.749 4                     -3744.370 4        28.853                                                                    25847870.728 5 101432589.67905     -2796.107 5        35.310    25847871.474 5 104078660.14705     -2869.076 5        34.681
E05        21.000    22205781.022 7 116692204.34307       -25.107 7        42.554                                                                    22205781.940 8  87140313.27008       -18.758 8        50.141    22205781.206 8  89413526.08008       -19.251 8        49.885
R07        23.000    19690479.446 8 105404762.34208      -350.736 8        51.864                                                                    19690480.281 7  81981407.70207      -272.726 7        42.366
S23        24.000    38297315.265 6 201253666.94706      -821.646 6        40.927
S36        25.000    38356082.053 5 201562592.62005      -826.209 5        34.748
G11        26.000    22639197.805 6 118969551.78006       781.773 6        39.399                                    22639182.577 1  92703662.89601       609.261 1         8.381    22639182.650 5  92703652.87805       608.642 5        30.166
E03        27.000    27147249.537 3                      1608.815 3        22.476                                                                    27147272.397 5                      1202.347 5        31.283    27147263.244 4 109310710.37904      1233.339 4        29.156
R15        28.000    24027410.886 4                     -4294.524 4        26.862
R06        29.000    21018562.861 6 112159071.39106     -3149.483 6        37.055
R09        32.000    21649104.701 7 115605016.66207      2585.036 7        45.029                                                                    21649111.746 5  89915046.05505      2010.935 5        32.970
C19        33.000                                                                                                                                    22278128.539 8 116008069.22908     -1649.413 8        48.456                                                                    22278125.373 8  94266024.78408     -1340.236 8        49.059
R08        35.000    22194058.248 7 118848306.86107      2027.818 7        44.090                                                                    22194062.474 4                      1577.314 4        29.716
R22        37.000    21380946.458 6 114133048.42206     -3878.142 6        41.716                                                                    21380946.920 6  88770071.48806     -3016.311 6        41.240
R16        39.000    21215527.480 8 113329612.66708     -1110.240 8        50.680                                                                    21215526.440 7  88145293.84307      -863.532 7        47.181
C06        41.000                                                                                                                                    39265092.961 5 204463631.11705     -1772.348 5        33.635    39265147.748 4                     -1370.844 4        27.988    39265094.048 4                     -1440.635 4        24.692
C36        42.000                                                                                                                                    24757709.048 6 128919994.64906      2374.156 6        38.538                                                                    24757715.586 6 104758007.44106      1929.294 6        40.124
R23        44.000    21186332.374 6 113332562.33506      -458.702 6        40.632
C16        45.000                                                                                                                                    39843094.109 4                     -1792.740 4        28.332    39843092.439 5                     -1386.415 5        31.758
C09        46.000                                                                                                                                    38887979.778 6 202499924.76806     -1375.129 6        39.991    38887970.367 7 156585723.02207     -1063.236 7        42.815    38887965.636 3                     -1120.866 3        22.571
C44        48.000                                                                                                                                    24536877.146 6 127769947.15306     -2135.504 6        36.639                                                                    24536878.607 5 103823532.72005     -1735.323 5        35.190
C37        49.000                                                                                                                                    25572987.878 6 133165271.88216     -2753.100 6        36.125                                                                    25573017.361 3                     -2236.355 3        22.724
C22        50.000                                                                                                                                    22820382.126 6 118831981.75906      1026.029 6        41.189                                                                    22820398.949 5  96560466.21905       834.002 5        31.509
C35        51.000                                                                                                                                    25558408.180 4                     -3774.042 4        28.047                                                                    25558422.545 5                     -3066.692 5        30.740
C20        55.000                                                                                                                                    25321813.059 4                     -3413.130 4        27.234                                                                    25321783.959 5 107144777.30205     -2773.117 5        32.515
C12        56.000                                                                                                                                    24942202.635 6 129880596.59406      -691.344 6        38.844    24942247.777 6 100431899.87206      -534.687 6        39.607    24942199.853 4 105538666.45404      -561.870 4        29.412
I06        60.000    38130857.625 6 149633680.12906      -579.634 6        36.711
> 2025 01 01 04 15 10.0000000  0 37
G30         3.000    24443315.892 5 128450513.03505      2783.367 5        35.429                                    24443315.134 1 100091316.12001      2168.901 1         9.524
G07         5.000    21987295.711 7 115544021.00607      1472.434 7        42.366                                    21987281.690 4  90034303.85604      1147.349 4        28.787    21987287.592 4  90034261.84004      1147.496 4        29.280
E34         6.000    24262564.430 7 127500654.95307     -1319.818 7        47.209                                                                    24262561.917 6  95211570.26006      -985.543 6        40.145    24262565.160 7  97695318.54207     -1011.210 7        42.595
G03         8.000    23488029.815 5                     -4139.010 5        33.581                                                                                                    23488039.673 4                     -3225.131 4        24.451
G09         9.000    20155755.668 7 105919210.47607     -1254.006 7        46.469                                    20155751.241 6  82534460.33006      -977.149 6        39.943    20155753.578 6  82534451.32006      -977.099 6        38.393
G20        10.000    23933721.763 5 125772505.97205      2521.136 5        34.481                                    23933713.127 1  98004588.69801      1964.499 1         9.333
G04        11.000    21266796.656 7 111758030.90807     -2870.149 7        42.910                                    21266794.585 5  87084013.89205     -2236.484 5        34.295    21266793.719 7  87083961.91807     -2236.490 7        46.411
E09        12.000    24686058.569 7 129726073.07007     -2483.993 7        46.299                                                                    24686058.722 7  96873462.64607     -1854.914 7        44.233    24686056.335 7  99400573.34507     -1903.287 7        44.045
E06        14.000    26239407.982 5 137889036.47105     -3156.710 5        32.377                                                                    26239414.537 4 102969082.43814     -2358.145 4        25.143    26239439.903 4                     -2418.551 4        29.204
E15        16.000    26616739.490 6 139871864.27806      1355.945 6        41.478                                                                    26616733.980 6 104449818.42306      1012.579 6        40.949    26616733.450 6 107174614.02106      1038.929 6        39.396
G06        19.000    21474158.779 6 112847457.43806     -1853.990 6        40.312                                    21474154.965 5  87933204.85905     -1444.670 5        32.695    21474156.500 6  87933110.85006     -1444.694 6        40.470
E36        20.000    25851451.997 4                     -3745.504 4        28.313                                                                    25851433.583 5 101446572.77105     -2797.264 5        35.248    25851434.452 5 104093007.99305     -2869.896 5        34.433
E05        21.000    22205805.637 7 116692333.30607       -26.567 7        42.637                                                                    22205806.683 8  87140409.56708       -19.866 8        50.358    22205805.727 8  89413624.88608       -20.351 8        49.987
R07        23.000    19690808.416 8 105406521.47208      -352.926 8        51.862                                                                    19690808.104 7  81982775.90607      -274.599 7        42.502
S23        24.000    38298099.163 6 201257775.24206      -821.699 6        41.027
S36        25.000    38356870.677 5 201566723.06405      -826.147 5        35.243
G11        26.000    22638453.448 6 118965650.62606       778.538 6        39.667                                    22638440.166 1  92700622.93601       606.631 1         6.625    22638444.459 5  92700612.88005       606.535 5        30.015
E03        27.000                                                                                                                                    27145740.983 5                      1201.843 5        31.940    27145732.048 5 109304543.83205      1232.766 5        30.415
R15        28.000    24031430.741 4                     -4297.340 4        25.774                                                                    24031421.581 3                     -3343.110 3        20.476
R06        29.000    21021514.719 6 112174822.24906     -3150.996 6        37.180
R09        32.000    21646684.837 7 115592097.77107      2582.364 7        44.474                                                                    21646690.897 5  89904998.08105      2008.378 5        32.341
C19        33.000                                                                                                                                    22279712.564 8 116016319.82608     -1650.968 8        48.722                                                                    22279709.838 8  94272729.10408     -1341.560 8        49.227
R08        35.000    22192165.472 7 118838169.94807      2026.863 7        45.022                                                                    22192165.375 4                      1576.569 4        26.731
R22        37.000    21384581.857 7 114152446.73007     -3881.396 7        42.148                                                                    21384579.560 6  88785159.05306     -3018.742 6        39.715
R16        39.000    21216567.659 8 113335175.55408     -1114.973 8        50.013                                                                    21216568.004 7  88149620.54807      -867.222 7        47.050
C06        41.000                                                                                                                                    39266793.774 5 204472492.97205     -1772.524 5        33.174    39266841.344 4                     -1370.446 4        27.677    39266796.431 4                     -1440.437 4        25.865
C36        42.000                                                                                                                                    24755430.040 6 128908125.88606      2373.222 6        39.523                                                                    24755436.167 6 104748363.14306      1928.455 6        40.682
R23        44.000    21186763.493 6 113334867.89706      -463.542 6        41.816
C16        45.000                                                                                                                                    39844815.751 4                     -1793.075 4        28.967    39844812.878 5                     -1386.627 5        31.924
C09        46.000                                                                                                                                    38889300.330 6 202506800.94206     -1375.499 6        40.260    38889291.267 7 156591040.14607     -1063.797 7        42.813    38889288.422 3                     -1117.997 3        23.029
C44        48.000                                                                                                                                    24538926.098 5 127780631.81905     -2138.528 5        35.676                                                                    24538930.550 5 103832214.86305     -1737.393 5        34.967
C37        49.000                                                                                                                                    25575630.982 6 133179042.17806     -2755.372 6        37.172                                                                    25575657.595 4                     -2239.674 4        25.053
C22        50.000                                                                                                                                    22819399.179 7 118826854.48907      1024.882 7        42.499                                                                    22819412.698 4  96556299.88304       832.612 4        29.564
C35        51.000                                                                                                                                    25562036.875 4                     -3774.958 4        27.832                                                                    25562044.376 5                     -3067.293 5        30.702
C20        55.000                                                                                                                                    25325088.536 4                     -3413.281 4        29.981                                                                    25325060.076 5 107158645.05905     -2773.723 5        31.389
C12        56.000                                                                                                                                    24942871.557 6 129884061.43806      -694.632 6        39.910    24942914.107 6 100434579.06606      -537.257 6        39.607    24942861.717 4 105541482.06204      -564.877 4        24.421
I06        60.000    38131595.770 6 149636577.90106      -579.772 6        36.972
> 2025 01 01 04 15 15.0000000  0 38
G30         3.000    24440668.833 5 128436597.24105      2783.056 5        35.476                                    24440666.779 1 100080472.64801      2168.475 1         8.286
G07         5.000    21985895.524 7 115536663.34707      1470.839 7        44.134                                    21985881.343 5  90028570.61705      1146.101 5        30.257    21985887.040 4  90028528.65204      1146.181 4        29.583
E34         6.000    24263820.534 7 127507259.53707     -1321.907 7        46.775                                                                    24263819.027 6  95216502.26006      -987.132 6        40.117    24263822.047 7  97700379.19707     -1012.836 7        43.064
G03         8.000    23491971.881 5 123451128.18715     -4140.123 5        35.414                                                                                                    23491979.092 3                     -3225.699 3        22.419
G09         9.000    20156949.490 7 105925484.96407     -1255.655 7        46.189                                    20156945.495 6  82539349.53006      -978.432 6        40.386    20156947.549 6  82539340.51806      -978.340 6        40.017
G20        10.000    23931327.956 6 125759902.18706      2520.880 6        36.699                                    23931314.763 1  97994767.52701      1964.349 1        10.222
G04        11.000    21269528.913 7 111772384.44507     -2871.176 7        42.499                                    21269526.040 5  87095198.46905     -2237.282 5        34.300    21269524.982 7  87095146.49407     -2237.250 7        46.520
E09        12.000    24688422.087 7 129738494.25207     -2484.321 7        46.292                                                                    24688422.227 7  96882738.18507     -1855.123 7        43.968    24688419.637 7  99410090.85207     -1903.471 7        43.755
E06        14.000    26242411.177 5 137904819.55105     -3156.316 5        31.525                                                                    26242413.042 4 102980868.57204     -2357.204 4        26.515    26242441.985 4                     -2418.787 4        29.858
E15        16.000    26615449.217 7 139865087.79207      1354.746 7        42.097                                                                    26615444.222 6 104444758.06606      1011.659 6        40.749    26615444.365 6 107169421.65406      1038.002 6        39.751
G06        19.000    21475923.243 6 112856734.88006     -1856.748 6        40.396                                    21475920.889 5  87940434.03405     -1446.814 5        33.796    21475922.414 6  87940340.02806     -1446.815 6        40.720
E36        20.000    25855013.707 4                     -3746.640 4        26.778                                                                    25854997.621 5 101460560.14605     -2797.647 5        35.109    25854998.270 5 104107360.23605     -2870.640 5        34.967
E05        21.000    22205832.021 7 116692468.61407       -27.416 7        43.534                                                                    22205832.470 8  87140510.61008       -20.444 8        50.324    22205831.566 8  89413728.57008       -21.027 8        50.233
R07        23.000    19691137.942 8 105408290.14408      -354.402 8        51.112                                                                    19691137.258 6  81984151.53106      -275.558 6        41.630
S23        24.000    38298881.200 6 201261883.46906      -821.355 6        41.340
S36        25.000    38357661.721 5 201570853.31205      -825.935 5        35.529
G11        26.000    22637714.897 6 118961764.53606       776.037 6        37.985                                    22637700.551 1  92697594.56601       604.799 1         3.800
E03        27.000                                                                                                                                    27144210.333 5                      1201.451 5        32.174    27144197.692 5 109298379.38005      1232.898 5        31.472
R15        28.000    24035455.984 3                     -4299.913 3        23.829
R06        29.000    21024467.741 6 112190580.03006     -3151.931 6        37.361
R24        31.000    24462077.035 5 130809514.28105      2802.864 5        31.034
R09        32.000    21644267.136 7 115579191.56507      2580.389 7        43.134
C19        33.000                                                                                                                                    22281297.706 8 116024577.53908     -1651.994 8        48.518                                                                    22281295.553 8  94279439.13508     -1342.363 8        49.273
R08        35.000    22190275.029 7                      2026.526 7        46.043                                                                    22190273.270 4                      1576.530 4        25.353
R22        37.000    21388220.319 7 114171860.59407     -3883.927 7        43.344                                                                    21388216.968 6  88800258.71006     -3020.995 6        38.598
R16        39.000    21217612.970 8 113340761.56608     -1119.213 8        49.030                                                                    21217613.476 7  88153965.22407      -870.497 7        46.947
C06        41.000                                                                                                                                    39268495.277 5 204481356.22005     -1772.679 5        33.479    39268535.955 4                     -1371.004 4        27.257    39268499.157 4                     -1440.188 4        25.669
C36        42.000                                                                                                                                    24753151.220 6 128896261.12906      2372.813 6        40.369                                                                    24753157.364 6 104738722.03206      1928.068 6        41.125
R23        44.000    21187201.272 7 113337196.93407      -467.871 7        42.047
C16        45.000                                                                                                                                    39846533.932 4                     -1793.185 4        27.820    39846534.591 5                     -1386.480 5        31.902
C09        46.000                                                                                                                                    38890621.577 6 202513679.21906     -1375.647 6        40.484    38890611.790 7 156596358.86207     -1063.711 7        42.658    38890607.023 3                     -1117.148 3        23.943
C44        48.000                                                                                                                                    24540979.271 5 127791328.35905     -2140.025 5        34.581                                                                    24540984.816 5 103840906.72305     -1739.325 5        34.395
C37        49.000                                                                                                                                    25578274.408 6 133192823.59806     -2757.033 6        37.395                                                                    25578301.638 4                     -2240.571 4        25.910
C22        50.000                                                                                                                                    22818415.596 7 118821732.23707      1024.266 7        43.336                                                                    22818424.298 4  96552137.50304       832.240 4        28.569
C35        51.000                                                                                                                                    25565666.710 4                     -3775.160 4        26.695                                                                    25565668.165 5                     -3067.604 5        30.770
C20        55.000                                                                                                                                    25328359.680 4                     -3413.589 4        29.583                                                                    25328337.676 5 107172514.98605     -2773.787 5        30.075
C12        56.000                                                                                                                                    24943539.600 6 129887540.61406      -697.003 6        40.462
I06        60.000    38132334.698 6 149639475.84306      -579.400 6        36.662
> 2025 01 01 04 15 20.0000000  0 37
G30         3.000    24438021.974 5 128422684.26505      2782.410 5        35.648                                    24438019.060 1 100069631.51501      2168.163 1         4.857
G07         5.000    21984496.032 7 115529316.11207      1468.454 7        46.132                                    21984483.196 5  90022845.49905      1144.247 5        31.441    21984490.324 5  90022803.46505      1144.173 5        30.128
E34         6.000    24265079.499 7 127513876.87107     -1324.758 7        46.054                                                                    24265078.424 6  95221443.76706      -989.271 6        39.988    24265081.328 7  97705449.61807     -1015.038 7        43.426
G03         8.000    23495910.513 6 123471831.67406     -4141.318 6        37.142                                    23495922.464 1  96211873.25311     -3227.022 1         8.286
G09         9.000    20158145.089 7 105931770.17307     -1258.081 7        45.810                                    20158141.753 6  82544247.09506      -980.322 6        40.703    20158143.279 6  82544238.08806      -980.305 6        40.310
G20        10.000    23928933.127 6 125747301.38606      2519.957 6        38.291                                    23928916.918 2  97984948.65002      1963.598 2        12.788
G04        11.000    21272262.043 7 111786745.38807     -2872.786 7        43.058                                    21272258.846 5  87106388.81605     -2238.534 5        34.314    21272258.346 7  87106336.84907     -2238.650 7        46.776
E09        12.000    24690787.051 7 129750919.71607     -2485.527 7        46.069                                                                    24690786.667 7  96892016.93307     -1856.076 7        43.805    24690784.238 7  99419611.65707     -1904.492 7        43.340
E06        14.000    26245414.207 5 137920604.67205     -3157.417 5        30.174                                                                    26245415.373 4 102992656.09204     -2357.593 4        28.389    26245444.591 4                     -2419.211 4        28.692
E15        16.000    26614161.215 7 139858319.77507      1352.615 7        42.377                                                                    26614156.171 6 104439704.04706      1010.115 6        40.565    26614157.219 6 107164235.79706      1036.459 6        40.355
G06        19.000    21477691.346 7 112866028.95607     -1860.510 7        42.301                                    21477689.916 5  87947676.17605     -1449.748 5        34.614    21477690.699 6  87947582.15906     -1449.653 6        40.934
E36        20.000                                                                                                                                    25858562.455 5 101474551.96005     -2798.768 5        35.119    25858563.680 5 104121717.01205     -2871.664 5        35.048
E05        21.000    22205859.167 7 116692610.50107       -29.031 7        43.833                                                                    22205859.514 8  87140616.57908       -21.702 8        50.440    22205858.606 8  89413837.29508       -22.260 8        50.296
R07        23.000    19691469.334 8 105410069.12408      -356.766 8        50.218                                                                    19691469.012 6  81985535.19806      -277.429 6        40.462
S23        24.000    38299664.481 6 201265992.04606      -821.680 6        41.123
S36        25.000    38358444.662 5 201574983.48105      -826.012 5        35.210
G11        26.000    22636980.143 5 118957893.71105       772.756 5        34.048                                    22636964.249 1  92694578.29001       602.137 1         5.143    22637000.336 4  92694568.21504       601.963 4        28.152
E03        27.000                                                                                                                                    27142680.215 5                      1200.824 5        32.742    27142659.908 5 109292217.28105      1232.316 5        33.557
R15        28.000    24039486.686 3                     -4303.551 3        21.238                                                                    24039474.181 4                     -3344.488 4        24.647
R06        29.000    21027422.707 6 112206344.89806     -3153.602 6        36.238
R09        32.000    21641851.241 6 115566298.14406      2577.392 6        41.352                                                                    21641849.653 5  89884931.66205      2004.553 5        34.371
C19        33.000                                                                                                                                    22282884.915 8 116032842.55708     -1653.717 8        48.290                                                                    22282882.778 8  94286155.16608     -1344.070 8        49.447
R08        35.000    22188384.754 7 118817908.26917      2025.231 7        46.171
R22        37.000    21391860.876 7 114191290.22207     -3887.376 7        43.661                                                                    21391857.323 6  88815370.61206     -3023.476 6        38.856
R16        39.000    21218663.046 8 113346370.91108     -1124.214 8        48.502                                                                    21218664.158 7  88158328.04607      -874.410 7        47.463
C06        41.000                                                                                                                                    39270197.961 5 204490221.07505     -1773.007 5        33.581                                                                    39270200.739 4                     -1441.232 4        26.515
C36        42.000                                                                                                                                    24750874.397 6 128884400.56206      2371.749 6        41.025                                                                    24750879.547 6 104729084.37806      1926.959 6        41.297
R23        44.000    21187642.350 6 113339549.74806      -472.925 6        41.437
C16        45.000                                                                                                                                    39848254.635 4                     -1793.464 4        28.445    39848257.928 5                     -1386.906 5        31.192
C09        46.000                                                                                                                                    38891942.897 6 202520559.74606     -1376.375 6        40.522    38891932.987 7 156601679.32507     -1064.345 7        42.379    38891927.798 3                     -1118.248 3        23.962
C44        48.000                                                                                                                                    24543036.896 5 127802037.10805     -2142.739 5        33.713                                                                    24543040.898 5 103849608.39705     -1741.395 5        33.204
C37        49.000                                                                                                                                    25580915.962 6 133206616.31606     -2759.678 6        37.645                                                                    25580949.514 4                     -2243.420 4        26.096
C22        50.000                                                                                                                                    22817432.834 7 118816615.18407      1022.825 7        44.056                                                                    22817436.922 4  96547979.50604       830.735 4        28.948
C35        51.000                                                                                                                                                                                                                                                                    25569292.035 5                     -3068.192 5        30.845
C20        55.000                                                                                                                                                                                                                                                                    25331614.078 4 107186387.51604     -2775.010 4        29.062
C12        56.000                                                                                                                                    24944209.259 6 129891034.27706      -700.151 6        40.188    24944232.898 6 100439970.82106      -541.451 6        37.781    24944235.699 5                      -569.091 5        32.808
I06        60.000    38133073.308 6 149642374.08706      -579.607 6        36.442
> 2025 01 01 04 15 25.0000000  0 39
G30         3.000    24435375.474 5 128408774.55105      2781.306 5        35.833                                    24435371.690 1 100058792.86601      2167.277 1         5.286
G07         5.000    21983099.363 7 115521979.64707      1465.900 7        47.870                                    21983087.344 5  90017128.78005      1142.259 5        32.958    21983096.126 5  90017086.73705      1142.335 5        31.940
E34         6.000    24266341.240 7 127520507.32107     -1327.708 7        45.782                                                                    24266340.290 6  95226395.07806      -991.590 6        40.155    24266343.150 7  97710530.10607     -1017.362 7        43.676
G03         8.000    23499852.848 6 123492540.71106     -4142.781 6        38.814                                    23499865.984 1  96228010.30501     -3228.086 1         9.238
G09         9.000    20159343.403 7 105938066.50307     -1260.584 7        44.834                                    20159340.067 6  82549153.30906      -982.274 6        41.006    20159341.071 6  82549144.29806      -982.291 6        39.856
G20        10.000    23926532.411 6 125734703.95106      2518.873 6        38.919                                    23926519.690 2  97975132.47002      1962.804 2        13.697
G04        11.000    21274996.235 7 111801114.12907     -2874.830 7        44.260                                    21274993.086 5  87117585.24405     -2240.131 5        34.376    21274992.626 7  87117533.26507     -2240.115 7        46.886
E09        12.000    24693152.810 7 129763349.84907     -2486.863 7        45.991                                                                    24693151.946 7  96901299.16907     -1857.010 7        43.793    24693149.682 7  99429136.03607     -1905.516 7        43.255
E31        13.000                                                                                                                                    27251866.589 4 106942183.19914       805.982 4        29.640
E06        14.000    26248417.550 4 137936391.99404     -3158.040 4        28.844                                                                    26248420.289 5 103004445.29305     -2358.543 5        30.151    26248447.759 4                     -2419.179 4        29.052
E15        16.000    26612875.155 7 139851560.63307      1350.549 7        42.955                                                                    26612869.969 6 104434656.65206      1008.531 6        40.338    26612871.501 6 107159056.74006      1034.827 6        40.710
G06        19.000    21479463.650 7 112875340.04407     -1864.302 7        43.098                                    21479462.056 5  87954931.57705     -1452.697 5        35.276    21479462.560 6  87954837.55906     -1452.749 6        41.263
E36        20.000    25862130.835 4                     -3749.333 4        28.408                                                                    25862128.833 5 101488548.47905     -2800.045 5        35.710    25862130.406 5 104136078.64105     -2872.805 5        34.843
E05        21.000    22205887.147 7 116692759.35907       -30.703 7        43.780                                                                    22205887.840 8  87140727.73308       -22.958 8        50.516    22205887.024 8  89413951.35208       -23.548 8        50.474
R07        23.000    19691802.768 8 105411858.32808      -359.277 8        49.783                                                                    19691802.353 6  81986926.80506      -279.583 6        39.595
S23        24.000    38300445.423 6 201270101.10606      -822.112 6        40.982
S36        25.000    38359228.103 5 201579113.85905      -826.663 5        35.419
G11        26.000    22636245.420 4 118954038.68204       768.879 4        29.393                                    22636230.760 1  92691574.16301       599.167 1         4.714
E03        27.000                                                                                                                                    27141150.576 5                      1200.269 5        33.042    27141125.219 5 109286057.76305      1231.460 5        34.586
R15        28.000                                                                                                                                    24043508.631 4                     -3348.316 4        26.072
R06        29.000    21030377.524 5 112222117.29105     -3155.667 5        34.943
R24        31.000    24456827.104 4 130781509.51904      2797.473 4        27.677                                                                    24456807.448 3                      2177.686 3        22.609
R09        32.000    21639438.255 6 115553418.02506      2574.370 6        41.125                                                                    21639441.545 6  89874913.80606      2002.355 6        37.603
C19        33.000                                                                                                                                    22284474.278 8 116041115.28308     -1655.616 8        48.473                                                                    22284471.546 8  94292877.41408     -1345.075 8        49.305
R08        35.000    22186493.996 7                      2024.034 7        46.356
R22        37.000    21395502.031 6 114210736.02306     -3891.154 6        41.352                                                                    21395500.897 6  88830495.09206     -3026.302 6        39.291
R16        39.000    21219718.538 8 113352003.92808     -1129.279 8        48.085                                                                    21219718.726 7  88162709.28407      -878.352 7        46.930
C06        41.000                                                                                                                                    39271900.965 5 204499087.93105     -1773.883 5        33.150                                                                    39271906.037 4                     -1441.834 4        25.278
C36        42.000                                                                                                                                    24748597.940 6 128872544.60606      2370.422 6        41.602                                                                    24748602.699 6 104719450.43406      1926.459 6        41.199
R23        44.000    21188086.642 6 113341926.91606      -478.083 6        40.808
C16        45.000                                                                                                                                    39849978.919 4                     -1793.618 4        28.493    39849981.421 5                     -1387.349 5        31.230
C09        46.000                                                                                                                                    38893264.097 6 202527442.89706     -1377.196 6        40.598    38893254.589 7 156607001.82407     -1064.962 7        42.370    38893250.387 3                     -1118.726 3        23.905
C44        48.000                                                                                                                                    24545099.686 5 127812758.34905     -2146.012 5        33.940                                                                    24545099.821 5 103858320.25705     -1743.419 5        31.064
C37        49.000                                                                                                                                    25583560.418 6 133220420.73706     -2762.436 6        37.108                                                                    25583597.788 4                     -2244.828 4        27.030
C22        50.000                                                                                                                                    22816450.601 7 118811503.73107      1021.382 7        43.934                                                                    22816458.785 4  96543826.01304       830.393 4        29.062
C35        51.000                                                                                                                                                                                                                                                                    25572916.630 5                     -3068.856 5        30.996
C20        55.000                                                                                                                                    25334891.563 5                     -3415.560 5        30.445                                                                    25334892.890 4 107200262.68004     -2775.748 4        27.245
C12        56.000                                                                                                                                    24944882.415 6 129894542.85206      -703.491 6        40.429    24944902.665 6 100442683.89106      -544.096 6        38.655    24944909.443 4                      -571.312 4        29.365
I06        60.000    38133811.181 6 149645272.97006      -580.080 6        36.295
> 2025 01 01 04 15 30.0000000  0 39
G30         3.000    24432729.053 5 128394867.20005      2781.532 5        35.900                                    24432724.941 1 100047955.99301      2167.359 1         6.875
G07         5.000    21981705.706 8 115514653.17408      1464.328 8        48.898                                    21981693.740 5  90011419.85405      1141.030 5        34.214    21981702.704 5  90011377.80205      1141.033 5        34.357
E34         6.000    24267605.416 7 127527150.04107     -1329.812 7        46.053                                                                    24267604.574 6  95231355.55006      -993.030 6        40.257    24267607.210 7  97715619.98507     -1018.895 7        44.072
