     3.04           OBSERVATION DATA    M                   RINEX VERSION / TYPE
ssrcrin-15.6.1x                         20250101 200000 UTC PGM / RUN BY / DATE 
(00000000023479385599111004) Septentrio proprietary         COMMENT             
ract                                                        MARKER NAME         
01                                                          MARKER NUMBER       
geodetic                                                    MARKER TYPE         
NFB                 CLIMERS@TUW                             OBSERVER / AGENCY   
3296359             SEPT ASTERX SB3 PROB4.14.4              REC # / TYPE / VERS 
Unknown             Unknown                                 ANT # / TYPE        
  4127446.3847  1206915.2628  4695543.7470                  APPROX POSITION XYZ 
        0.0000        0.0000        0.0000                  ANTENNA: DELTA H/E/N
G   23 X1  C1C L1C D1C S1C C1W S1W C2W L2W D2W S2W C2L L2L  SYS / # / OBS TYPES 
       D2L S2L C5Q L5Q D5Q S5Q C1L L1L D1L S1L              SYS / # / OBS TYPES 
E   21 X1  C1C L1C D1C S1C C6C L6C D6C S6C C5Q L5Q D5Q S5Q  SYS / # / OBS TYPES 
       C7Q L7Q D7Q S7Q C8Q L8Q D8Q S8Q                      SYS / # / OBS TYPES 
S    9 X1  C1C L1C D1C S1C C5I L5I D5I S5I                  SYS / # / OBS TYPES 
R   17 X1  C1C L1C D1C S1C C2P L2P D2P S2P C2C L2C D2C S2C  SYS / # / OBS TYPES 
       C3Q L3Q D3Q S3Q                                      SYS / # / OBS TYPES 
C   25 X1  C1P L1P D1P S1P C5P L5P D5P S5P C2I L2I D2I S2I  SYS / # / OBS TYPES 
       C7I L7I D7I S7I C6I L6I D6I S6I C7D L7D D7D S7D      SYS / # / OBS TYPES 
J   17 X1  C1C L1C D1C S1C C2L L2L D2L S2L C5Q L5Q D5Q S5Q  SYS / # / OBS TYPES 
       C1L L1L D1L S1L                                      SYS / # / OBS TYPES 
I    5 X1  C5A L5A D5A S5A                                  SYS / # / OBS TYPES 
SEPTENTRIO RECEIVERS OUTPUT ALIGNED CARRIER PHASES.         COMMENT             
NO FURTHER PHASE SHIFT APPLIED IN THE RINEX ENCODER.        COMMENT             
G L1C                                                       SYS / PHASE SHIFT   
G L2W                                                       SYS / PHASE SHIFT   
G L2L  0.00000                                              SYS / PHASE SHIFT   
G L5Q  0.00000                                              SYS / PHASE SHIFT   
G L1L  0.00000                                              SYS / PHASE SHIFT   
E L1C  0.00000                                              SYS / PHASE SHIFT   
E L6C  0.00000                                              SYS / PHASE SHIFT   
E L5Q  0.00000                                              SYS / PHASE SHIFT   
E L7Q  0.00000                                              SYS / PHASE SHIFT   
E L8Q  0.00000                                              SYS / PHASE SHIFT   
S L1C                                                       SYS / PHASE SHIFT   
S L5I                                                       SYS / PHASE SHIFT   
R L1C                                                       SYS / PHASE SHIFT   
R L2P  0.00000                                              SYS / PHASE SHIFT   
R L2C                                                       SYS / PHASE SHIFT   
R L3Q  0.00000                                              SYS / PHASE SHIFT   
C L1P  0.00000                                              SYS / PHASE SHIFT   
C L5P  0.00000                                              SYS / PHASE SHIFT   
C L2I                                                       SYS / PHASE SHIFT   
C L7I                                                       SYS / PHASE SHIFT   
C L6I                                                       SYS / PHASE SHIFT   
C L7D                                                       SYS / PHASE SHIFT   
J L1C                                                       SYS / PHASE SHIFT   
J L2L  0.00000                                              SYS / PHASE SHIFT   
J L5Q  0.00000                                              SYS / PHASE SHIFT   
J L1L  0.00000                                              SYS / PHASE SHIFT   
I L5A                                                       SYS / PHASE SHIFT   
  2025     1     1    20     0    0.0000000     GPS         TIME OF FIRST OBS   
 C1C    0.000 C2C    0.000 C2P    0.000                     GLONASS COD/PHS/BIS 
DBHZ                                                        SIGNAL STRENGTH UNIT
    18                                                      LEAP SECONDS        
 24 R01  1 R02 -4 R03  5 R04  6 R05  1 R06 -4 R07  5 R08  6 GLONASS SLOT / FRQ #
    R09 -2 R10 -7 R11  0 R12 -1 R13 -2 R14 -7 R15  0 R16 -1 GLONASS SLOT / FRQ #
    R17  4 R18 -3 R19  3 R20  2 R21  4 R22 -3 R23  3 R24  2 GLONASS SLOT / FRQ #
                                                            END OF HEADER       
> 2025 01 01 20 00  0.0000000  0 39
G18         1.000    22910269.513 5 120394494.00305     -3704.800 5        34.190                                    22910267.795 2  93813756.51102     -2886.819 2        16.906    22910265.113 6  93813703.45006     -2886.701 6        37.675
G10         2.000    21253323.631 7 111687202.99907      1119.151 7        45.484                                    21253325.251 4  87028763.84004       872.067 4        28.540    21253322.169 5  87028828.93805       872.151 5        30.883
G07         3.000    25088552.782 5 131841135.24705     -1486.706 5        35.695                                    25088547.544 1 102733389.26601     -1158.506 1         8.095    25088556.885 4                     -1158.480 4        26.168
G23         4.000    20845041.953 7 109541407.68107     -1647.520 7        45.896                                    20845028.170 3  85356905.56403     -1283.817 3        18.269    20845061.789 6  85356984.43806     -1283.829 6        38.171
G08         6.000    21960876.472 5 115405179.70705      1900.517 5        32.653                                    21960948.830 1  89926454.64601      1480.991 1         6.000
G27         7.000    20116786.688 8 105714457.88008        83.536 8        48.485                                    20116774.721 4  82374838.96704        65.082 4        29.479    20116791.628 5                        65.018 5        30.332
G21         8.000    23887664.446 4                      2194.859 4        24.992
E15        14.000    26943334.884 4 141588251.25704     -3366.302 4        29.772                                                                                                                                    26943362.158 5 108489719.45805     -2579.323 5        30.121
E27        15.000    28060631.006 3                     -4095.651 3        20.238
E13        16.000    23411121.034 7 123026356.04907     -1756.027 7        45.394                                                                    23411121.828 8  91870328.24408     -1311.389 8        49.426    23411120.046 8  94266899.65408     -1345.588 8        48.279
E31        17.000    27963968.270 5 146951666.56005      1871.614 5        35.971                                                                    27963967.368 5 109736707.62205      1397.742 5        31.826    27963979.079 5 112599330.47705      1434.353 5        35.462
G16        18.000    21378723.616 7 112345945.78607     -3315.355 7        44.457                                    21378723.817 3  87542275.45603     -2583.400 3        23.410
E26        19.000    24327318.450 7 127840924.89807       720.068 7        44.525                                                                    24327316.453 7  95465682.89307       537.758 7        47.158    24327314.644 7  97956083.86907       551.714 7        45.704
E21        22.000    24580398.600 7 129170963.75807     -2948.542 7        44.390                                                                    24580397.407 7  96458768.22307     -2201.808 7        43.198    24580398.665 7  98975110.50607     -2259.238 7        46.845
S36        23.000    38109012.963 6 200264115.29706      -851.559 6        36.491
S23        24.000    38064460.300 6 200030073.99006      -852.162 6        40.715
G26        25.000    23465649.730 3                     -4384.797 3        20.762                                                                                                    23465651.826 5  96087928.72505     -3415.601 5        32.623
R20        26.000    22061626.106 4 117973435.21404      2015.856 4        29.062                                                                    22061621.597 6  91757100.72006      1567.704 6        37.493
R02        27.000    23038863.530 5 122939791.03905     -3651.940 5        34.829                                                                    23038848.065 5  95619908.19705     -2840.046 5        31.245
R19        29.000    19543463.944 6 104544363.55106     -1272.971 6        40.181                                                                    19543460.325 6  81312290.75206      -990.122 6        40.682
R18        30.000    21185287.822 7 113088759.24707     -3473.794 7        45.151                                                                    21185287.356 5  87957716.41505     -2701.797 5        35.990
R04        31.000    21992446.129 5 117768545.28205      3002.902 5        33.479                                                                    21992420.946 6  91597664.50206      2335.655 6        36.820
R03        32.000    20961252.997 8 112207214.74708      -118.712 8        50.499                                                                    20961251.881 7  87272274.99407       -92.267 7        43.854
R09        34.000    20922906.084 6 111727377.43106     -3497.065 6        37.319                                                                    20922908.674 6  86899311.76006     -2719.967 6        40.708
R10        35.000    21181789.084 5 112910875.86405      -168.719 5        35.333
C37        36.000                                                                                                                                    24707378.094 5 128657770.29405     -3220.791 5        35.038                                                                    24707374.874 5 104544972.25005     -2617.355 5        33.946
C33        37.000                                                                                                                                    23995103.432 6 124948858.51606      1842.781 6        41.108                                                                    23995103.247 5 101531180.36305      1497.336 5        35.324
C28        40.000                                                                                                                                    21606179.369 7 112509306.99307        41.761 7        46.454                                                                    21606174.646 4  91422807.76704        34.193 4        29.479
R11        41.000    24113366.009 6 128854489.33506      2827.984 6        37.856
C43        42.000                                                                                                                                    23214295.228 6 120883158.49306     -2982.767 6        40.691                                                                    23214299.018 6  98227312.41506     -2423.739 6        37.017
C11        44.000                                                                                                                                    25065668.211 5 130523516.06905     -3448.007 5        33.251    25065657.688 5                     -2665.946 5        30.823
C13        45.000                                                                                                                                    38220524.376 5                     -1740.212 5        32.557    38220543.073 5 153898276.74905     -1345.394 5        32.563    38220542.679 5 161723698.77205     -1414.276 5        31.849
C08        46.000                                                                                                                                    38663355.285 3                     -1990.331 3        23.943    38663341.072 4 155681488.35504     -1538.804 4        27.353    38663340.910 5 163597244.76905     -1617.263 5        35.376
C14        47.000                                                                                                                                    23322820.845 6 121448096.61906       531.267 6        36.715    23322819.933 6  93911373.14706       410.798 6        39.213    23322816.085 6  98686571.77406       431.578 6        38.177
C42        48.000                                                                                                                                    23719847.972 6 123515610.54906     -1097.497 6        41.774                                                                    23719852.208 7 100366491.78407      -891.758 7        47.205
C38        50.000                                                                                                                                                                                                                                                                    40119739.896 3                     -1706.231 3        23.010
C27        52.000                                                                                                                                    24317252.149 6 126626548.23506      1730.979 6        41.924                                                                    24317249.079 6 102894289.86306      1406.573 6        41.192
I06        58.000    38540049.527 6 151239587.29006      -567.532 6        40.095
I01        59.000   367443615.969 6 138786876.89906     -1915.338 6        37.251
> 2025 01 01 20 00  5.0000000  0 39
G18         1.000    22913795.643 5 120413020.36205     -3705.294 5        34.224                                    22913793.191 2  93828192.65202     -2887.250 2        16.226    22913790.146 6  93828139.56506     -2887.203 6        37.195
G10         2.000    21252260.846 7 111681614.70107      1116.462 7        47.497                                    21252262.176 4  87024409.34004       869.966 4        29.829    21252258.187 5  87024474.43005       870.131 5        31.192
G07         3.000    25089973.729 6 131848574.93206     -1488.906 6        36.824                                    25089963.483 1 102739186.50301     -1160.207 1         8.476    25089979.080 3                     -1161.314 3        21.881
G23         4.000    20846611.153 7 109549653.68307     -1650.557 7        46.200                                    20846597.330 3  85363331.03103     -1286.145 3        18.567    20846625.089 6  85363409.89806     -1286.105 6        38.676
G15         5.000    23611942.246 4                     -1501.250 4        29.147
G08         6.000    21959069.641 5 115395680.93805      1899.237 5        32.731                                    21959140.913 1  89919052.91101      1479.947 1         5.286    21959071.768 4                      1479.851 4        26.120
G27         7.000    20116708.452 8 105714047.25508        81.118 8        48.426                                    20116698.448 5  82374519.01605        63.206 5        30.913    20116713.026 5                        62.995 5        32.257
E15        14.000    26946539.763 4 141605084.34004     -3366.223 4        29.251                                                                                                                                    26946565.744 5 108502617.50305     -2579.610 5        30.815
E27        15.000    28064529.286 3                     -4096.947 3        21.381
E13        16.000    23412792.967 7 123035139.89107     -1757.003 7        45.090                                                                    23412793.248 8  91876887.60408     -1312.095 8        49.359    23412791.459 7  94273630.13207     -1346.346 7        47.940
E31        17.000    27962187.918 5 146942311.43805      1870.931 5        35.962                                                                    27962187.153 5 109729721.68305      1396.943 5        33.479    27962199.381 5 112592162.28105      1433.503 5        35.024
G16        18.000    21381879.696 7 112362529.67607     -3317.753 7        44.984                                    21381879.620 3  87555197.97803     -2585.267 3        23.562
E26        19.000    24326634.141 7 127837328.18607       719.033 7        44.278                                                                    24326631.876 7  95462997.03607       536.914 7        47.243    24326630.153 7  97953327.94807       550.888 7        45.318
E21        22.000    24583205.060 7 129185711.31307     -2950.170 7        44.086                                                                    24583203.887 7  96469781.00307     -2203.097 7        43.397    24583205.083 7  98986410.56807     -2260.493 7        46.843
S36        23.000    38109830.420 6 200268373.39506      -851.256 6        36.605
S23        24.000    38065272.410 6 200034335.01406      -851.917 6        40.789
G26        25.000                                                                                                                                                                    23469823.816 5  96105008.84705     -3415.915 5        32.958
R20        26.000                                                                                                                                    22059737.866 6  91749264.77006      1566.981 6        38.646
R02        27.000    23042284.096 5 122958059.14805     -3654.935 5        34.452                                                                    23042277.855 5  95634116.64405     -2842.722 5        32.982
R19        29.000    19544655.704 6 104550734.38706     -1274.999 6        40.398                                                                    19544651.904 6  81317245.84206      -991.571 6        41.070
R18        30.000    21188540.719 7 113106131.45607     -3474.723 7        45.487                                                                    21188540.557 6  87971228.14706     -2702.653 6        36.499
R04        31.000    21989642.145 5 117753535.67105      3001.499 5        32.958                                                                    21989617.205 6  91585990.41006      2334.427 6        36.722
R03        32.000    20961367.422 8 112207819.97008      -123.053 8        51.076                                                                    20961363.967 7  87272745.71407       -95.636 7        42.768
R09        34.000    20926186.055 6 111744871.65606     -3500.385 6        38.381                                                                    20926186.400 6  86912918.31806     -2722.526 6        41.118
R10        35.000    21181947.159 5 112911731.16005      -173.505 5        32.988
C37        36.000                                                                                                                                    24710469.651 6 128673879.28606     -3222.521 6        37.357                                                                    24710469.092 5 104558062.07905     -2618.363 5        33.359
C33        37.000                                                                                                                                    23993334.115 6 124939649.60206      1841.276 6        39.790                                                                    23993334.911 5 101523697.41905      1496.149 5        35.019
C28        40.000                                                                                                                                    21606140.433 7 112509102.23807        40.521 7        46.883                                                                    21606135.206 4  91422641.32904        33.288 4        29.905
R11        41.000    24110720.034 6 128840354.20406      2826.390 6        37.917
C43        42.000                                                                                                                                    23217158.537 6 120898075.03206     -2983.588 6        41.428                                                                    23217165.322 6  98239433.31206     -2424.320 6        36.461
C11        44.000                                                                                                                                    25068979.140 5 130540757.86505     -3448.373 5        33.844    25068969.479 5                     -2666.684 5        30.023
C13        45.000                                                                                                                                    38222214.443 5                     -1740.885 5        33.982    38222214.611 5 153905006.51005     -1345.906 5        31.698    38222213.960 5 161730770.69605     -1414.642 5        31.517
C08        46.000                                                                                                                                    38665268.764 4                     -1990.184 4        24.932    38665252.953 4 155689184.12404     -1538.553 4        26.898    38665252.435 5 163605331.90105     -1617.625 5        35.052
C14        47.000                                                                                                                                    23322313.789 6 121445448.58506       528.491 6        38.063    23322312.740 6  93909325.53506       408.622 6        40.977    23322307.316 6  98684420.03306       429.383 6        38.021
C42        48.000                                                                                                                                    23720901.777 6 123521105.74006     -1100.272 6        41.633                                                                    23720907.424 7 100370957.07807      -894.101 7        46.958
C38        50.000                                                                                                                                    40121793.814 3                     -2096.780 3        18.567                                                                    40121756.468 3                     -1708.519 3        23.657
C27        52.000                                                                                                                                    24315590.568 6 126617894.89306      1730.779 6        40.749                                                                    24315587.314 6 102887258.31406      1406.268 6        40.994
I06        58.000    38540773.157 6 151242426.47006      -567.586 6        40.269
I01        59.000   367446057.001 6 138796454.35906     -1915.558 6        37.701
> 2025 01 01 20 00 10.0000000  0 39
G18         1.000    22917322.470 5 120431550.65105     -3706.515 5        35.733                                    22917319.548 2  93842631.81102     -2888.202 2        15.905    22917315.390 6  93842578.74506     -2888.053 6        36.926
G10         2.000    21251199.892 8 111676039.64108      1113.518 8        48.002                                    21251201.208 5  87020065.18405       867.663 5        30.634    21251194.409 5  87020130.27605       867.484 5        32.485
G07         3.000    25091395.059 6 131856027.29206     -1491.945 6        36.805                                    25091381.967 1 102744993.51601     -1162.565 1         8.381
G23         4.000    20848183.169 7 109557915.61507     -1654.074 7        46.679                                    20848169.834 3  85369768.89003     -1288.892 3        19.164    20848194.983 6  85369847.78006     -1288.781 6        39.066
G15         5.000    23613375.996 3                     -1506.446 3        21.810
G08         6.000    21957260.208 5 115386188.67305      1898.091 5        30.053                                    21957334.404 1  89911656.19501      1479.030 1         3.000    21957264.334 4                      1478.935 4        26.192
G27         7.000    20116632.659 8 105713649.07908        78.325 8        49.004                                    20116625.096 5  82374208.75805        61.032 5        32.922    20116637.818 5  82374267.84215        61.208 5        35.843
E15        14.000    26949744.116 4 141621917.97104     -3366.660 4        27.772                                                                                                                                    26949768.743 5 108515515.95805     -2579.744 5        31.215
E27        15.000    28068428.764 3                     -4093.157 3        19.552
E13        16.000    23414465.760 7 123043929.59807     -1758.564 7        45.097                                                                    23414465.886 8  91883451.34708     -1313.200 8        49.163    23414464.005 7  94280365.09507     -1347.465 7        47.729
E31        17.000    27960408.494 5 146932960.97505      1869.528 5        35.124                                                                    27960409.878 5 109722739.16405      1396.068 5        34.533    27960421.002 5 112584997.60805      1432.459 5        34.452
G16        18.000    21385037.564 7 112379126.40607     -3320.737 7        43.600                                    21385037.945 3  87568130.50803     -2587.594 3        23.143
E26        19.000    24325950.756 7 127833737.32807       717.488 7        44.278                                                                    24325948.481 7  95460315.54007       535.813 7        47.118    24325946.712 7  97950576.49607       549.697 7        45.287
E21        22.000    24586013.853 7 129200467.96607     -2952.307 7        43.426                                                                    24586012.161 7  96480800.57907     -2204.687 7        43.238    24586013.086 7  98997717.61607     -2262.188 7        46.726
S36        23.000    38110635.733 6 200272631.90406      -851.899 6        36.756
S23        24.000    38066082.162 6 200038596.21206      -852.509 6        40.346
G26        25.000    23474016.198 3                     -4386.514 3        21.643                                                                                                    23473995.977 5  96122091.85405     -3416.745 5        33.790
R20        26.000    22057849.965 4 117953290.30904      2013.666 4        28.047                                                                    22057856.073 6  91741432.52506      1566.111 6        39.297
R02        27.000    23045711.688 6 122976343.49306     -3658.670 6        36.450                                                                    23045706.939 5  95648337.77805     -2845.513 5        33.671
R19        29.000    19545847.253 6 104557115.32106     -1277.399 6        40.119                                                                    19545844.877 6  81322208.81106      -993.492 6        40.865
R18        30.000    21191796.118 7 113123508.81507     -3476.048 7        46.634                                                                    21191796.814 5  87984743.83805     -2703.481 5        35.562
R04        31.000    21986831.092 5 117738535.69005      2999.071 5        31.992                                                                    21986815.953 6  91574323.77906      2332.712 6        36.314
R03        32.000    20961485.456 8 112208447.58308      -127.858 8        50.828                                                                    20961480.798 6  87273233.85606       -99.386 6        41.406
R09        34.000    20929466.677 6 111762383.30106     -3504.122 6        38.087                                                                    20929463.584 6  86926538.45806     -2725.488 6        39.483
R10        35.000    21182114.788 5 112912609.26105      -178.073 5        33.659
C37        36.000                                                                                                                                    24713564.593 6 128689996.31206     -3224.321 6        38.694                                                                    24713564.044 5 104571158.46105     -2620.015 5        33.323
C33        37.000                                                                                                                                    23991563.546 6 124930449.29806      1839.096 6        38.691                                                                    23991569.167 5 101516221.45105      1494.574 5        34.471
C28        40.000                                                                                                                                    21606102.251 7 112508904.50407        38.790 7        46.350                                                                    21606097.833 5  91422480.65505        31.775 5        31.404
R11        41.000    24108076.625 6 128826229.62006      2823.874 6        38.246                                                                    24108078.775 4 100198388.93114      2196.377 4        29.441
C43        42.000                                                                                                                                    23220023.391 6 120912996.50206     -2984.814 6        41.580                                                                    23220032.492 6  98251558.22706     -2425.399 6        36.847
C11        44.000                                                                                                                                    25072290.416 5 130558001.86605     -3448.621 5        33.413    25072280.702 4                     -2667.005 4        29.431    25072288.639 5                     -2802.495 5        30.777
C13        45.000                                                                                                                                    38223888.766 5 199041805.98315     -1741.436 5        33.629    38223886.040 5 153911737.70605     -1346.282 5        32.090    38223885.551 5 161737844.11305     -1414.729 5        30.770
C08        46.000                                                                                                                                    38667175.611 4                     -1991.138 4        24.722    38667162.140 4 155696881.20104     -1539.502 4        24.556    38667163.565 5 163613420.31905     -1617.490 5        35.157
C14        47.000                                                                                                                                    23321808.480 6 121442814.02206       525.482 6        39.964    23321806.999 6  93907288.31306       406.373 6        41.850    23321802.032 6  98682279.20806       427.139 6        38.204
C42        48.000                                                                                                                                    23721959.348 6 123526615.70806     -1103.456 6        41.259                                                                    23721965.538 7 100375434.37407      -896.615 7        46.696
C38        50.000                                                                                                                                                                                                                                                                    40123773.608 4                     -1707.335 4        24.211
C27        52.000                                                                                                                                    24313929.201 6 126609244.07706      1729.831 6        39.096                                                                    24313925.967 6 102880228.79806      1405.705 6        40.839
I06        58.000    38541496.074 6 151245265.56906      -567.899 6        40.322
I01        59.000   367448497.756 6 138806033.24106     -1915.890 6        38.288
> 2025 01 01 20 00 15.0000000  0 37
G18         1.000    22920850.522 6 120450085.32106     -3707.173 6        37.365                                    22920846.344 2  93857074.38802     -2888.686 2        15.952    22920841.805 6  93857021.35506     -2888.602 6        36.442
G10         2.000    21250140.777 7 111670478.27507      1111.091 7        47.727                                    21250142.337 5  87015731.71305       865.774 5        31.170    21250136.053 5  87015796.73605       866.041 5        33.174
G07         3.000    25092813.656 6 131863492.68106     -1494.298 6        36.034                                    25092802.869 1 102750810.80101     -1164.291 1         4.571
G23         4.000    20849758.653 8 109566193.94308     -1657.170 8        48.065                                    20849746.134 3  85376219.54603     -1291.315 3        20.881    20849769.298 6  85376298.45406     -1291.250 6        38.201
G08         6.000    21955453.109 4 115376703.48904      1896.367 4        27.150                                    21955529.429 1  89904265.09001      1477.822 1         3.400    21955455.741 3                      1478.392 3        22.381
G27         7.000    20116559.710 8 105713263.82308        75.859 8        49.170                                    20116554.167 5  82373908.55905        59.110 5        34.581    20116561.952 6  82373967.54406        59.010 6        37.055
E15        14.000    26952947.696 4 141638752.58604     -3366.902 4        27.090                                                                                                                                    26952970.639 5 108528415.21005     -2579.892 5        31.404
E13        16.000    23416139.761 7 123052725.60307     -1759.652 7        45.059                                                                    23416139.657 8  91890019.79208     -1314.015 8        49.036    23416137.822 7  94287104.88807     -1348.325 7        47.645
E31        17.000    27958630.123 5 146923615.60205      1868.326 5        33.341                                                                    27958632.686 5 109715760.43805      1395.459 5        34.648    27958643.629 5 112577836.81005      1431.803 5        33.874
G16        18.000    21388197.915 7 112395736.41407     -3323.214 7        42.836                                    21388198.586 3  87581073.37403     -2589.511 3        23.219
E26        19.000    24325268.412 7 127830152.71607       716.451 7        44.262                                                                    24325266.384 7  95457638.72407       535.020 7        47.099    24325264.533 7  97947829.83907       549.015 7        44.939
E21        22.000    24588824.109 7 129215234.19007     -2954.107 7        42.356                                                                    24588822.107 7  96491827.30107     -2205.939 7        43.473    24588823.011 7  99009031.99707     -2263.509 7        46.589
S36        23.000    38111449.349 6 200276890.82306      -852.115 6        37.070
S23        24.000    38066890.229 6 200042857.74606      -852.118 6        40.036
G26        25.000    23478181.756 3                     -4386.514 3        22.381                                                                                                    23478168.857 5  96139178.15505     -3417.783 5        34.019
R20        26.000    22055971.940 4 117943225.34904      2012.776 4        28.493                                                                    22055973.733 6  91733604.22906      1565.418 6        38.186
R02        27.000    23049145.033 5 122994644.69605     -3661.747 5        35.414                                                                    23049134.798 5  95662572.03605     -2848.108 5        32.198
R19        29.000    19547041.190 6 104563506.67806     -1279.178 6        40.126                                                                    19547038.699 6  81327179.87706      -994.897 6        40.608
R18        30.000    21195053.555 7 113140891.85707     -3476.929 7        47.833                                                                    21195052.919 6  87998263.97906     -2704.317 6        36.064
R04        31.000    21984028.582 5 117723546.01105      2997.005 5        32.186                                                                    21984016.572 5  91562665.17405      2331.142 5        35.962
R03        32.000    20961606.887 8 112209098.31808      -132.350 8        49.808                                                                    20961602.429 6  87273739.99906      -103.008 6        41.237
R09        34.000    20932749.393 6 111779912.72306     -3507.607 6        37.388                                                                    20932745.534 6  86940172.42006     -2728.044 6        38.853
R10        35.000    21182285.954 6 112913510.50406      -182.478 6        36.253
C37        36.000                                                                                                                                    24716660.760 6 128706121.80606     -3225.872 6        38.652                                                                    24716661.475 5 104584261.75905     -2621.575 5        33.737
C33        37.000                                                                                                                                    23989795.592 6 124921258.12106      1837.623 6        37.894                                                                    23989808.215 5 101508752.89305      1492.917 5        33.880
C28        40.000                                                                                                                                    21606065.594 7 112508714.25307        37.396 7        45.372                                                                    21606062.178 5  91422326.05505        30.117 5        31.887
R11        41.000    24105434.126 6 128812116.02706      2821.799 6        37.947                                                                    24105436.770 4 100187411.68904      2194.983 4        27.796
C43        42.000                                                                                                                                    23222890.643 7 120927923.34807     -2985.793 7        42.258                                                                    23222899.444 6  98263687.52206     -2426.411 6        36.775
C11        44.000                                                                                                                                    25075602.729 5 130575248.59305     -3449.633 5        32.587    25075593.504 4                     -2667.636 4        28.284    25075600.483 5                     -2803.227 5        30.634
C13        45.000                                                                                                                                    38225561.175 5 199050513.18605     -1741.613 5        34.348    38225559.004 5 153918470.67505     -1346.897 5        32.413    38225557.873 5 161744919.45005     -1415.186 5        30.619
C08        46.000                                                                                                                                    38669084.730 4                     -1990.656 4        25.684    38669075.709 3 155704579.80703     -1538.949 3        23.848    38669075.701 5 163621510.44505     -1618.243 5        35.057
C14        47.000                                                                                                                                    23321306.392 6 121440193.35906       522.965 6        41.959    23321302.668 7  93905261.88307       404.323 7        42.550    23321299.177 6  98680149.72506       424.796 6        38.309
C42        48.000                                                                                                                                    23723020.664 6 123532140.91406     -1106.382 6        41.588                                                                    23723026.526 7 100379924.07507      -899.142 7        46.357
C38        50.000                                                                                                                                                                                                                                                                    40125792.094 4                     -1707.925 4        24.090
C27        52.000                                                                                                                                    24312268.347 6 126600596.20706      1729.549 6        39.447                                                                    24312265.165 6 102873201.73706      1405.120 6        40.958
I06        58.000    38542219.726 6 151248104.88806      -567.725 6        40.303
I01        59.000   367450938.924 6 138815613.91006     -1916.119 6        38.288
> 2025 01 01 20 00 20.0000000  0 39
G18         1.000    22924377.549 6 120468623.68106     -3707.935 6        38.369                                    22924373.989 2  93871519.87402     -2889.335 2        15.381    22924369.633 6  93871466.86906     -2889.618 6        36.907
G10         2.000    21249084.907 7 111664929.99007      1108.262 7        47.221                                    21249085.603 5  87011408.42305       863.568 5        32.347    21249079.659 5  87011473.41905       863.616 5        34.014
G07         3.000    25094233.679 6 131870970.38706     -1496.826 6        36.095                                    25094226.048 1 102756637.70801     -1166.435 1         1.333
G23         4.000    20851337.090 8 109574487.99608     -1660.491 8        48.622                                    20851325.762 3  85382682.44903     -1293.900 3        23.390
G08         6.000                                                                                                                                                                    21953652.582 3                      1476.578 3        21.929
G27         7.000    20116488.634 8 105712890.82308        73.370 8        48.458                                    20116485.264 5  82373617.91405        57.177 5        35.867    20116489.702 6  82373676.89406        57.079 6        37.875
G21         8.000    23879339.747 3                      2188.439 3        20.810
E15        14.000    26956154.119 4 141655587.54204     -3367.239 4        26.850                                                                                                                                    26956173.147 5 108541314.74205     -2580.055 5        31.087
E13        16.000    23417814.899 7 123061527.24807     -1760.995 7        45.377                                                                    23417814.517 8  91896592.45908     -1315.065 8        48.748    23417812.690 7  94293849.00507     -1349.354 7        47.296
E31        17.000    27956851.601 5 146914274.86805      1867.582 5        32.281                                                                    27956854.427 5 109708785.19505      1394.428 5        34.990    27956867.658 5 112570679.59805      1430.770 5        34.481
G16        18.000    21391361.924 7 112412359.01507     -3325.871 7        42.609                                    21391361.105 3  87594026.05903     -2591.581 3        22.705
E26        19.000    24324587.171 7 127826573.74707       715.133 7        44.209                                                                    24324585.316 7  95454966.11607       533.970 7        46.956    24324583.481 7  97945087.51307       547.861 7        44.743
E21        22.000    24591635.582 6 129230009.32206     -2956.117 6        40.856                                                                    24591633.750 7  96502860.67707     -2207.434 7        43.287    24591634.512 7  99020353.20007     -2265.096 7        46.438
S36        23.000    38112258.073 6 200281150.06406      -852.089 6        36.673
S23        24.000    38067701.051 6 200047119.08106      -852.374 6        40.296
G26        25.000                                                                                                                                                                    23482340.866 5  96156267.09905     -3418.241 5        33.587
R20        26.000    22054090.455 4 117933164.95204      2011.140 4        29.043                                                                    22054092.687 6  91725779.40906      1564.571 6        37.921
R02        27.000    23052576.356 5 123012961.75405     -3664.994 5        32.192
R19        29.000    19548238.719 6 104569907.79906     -1281.365 6        41.237                                                                    19548235.910 6  81332158.52406      -996.575 6        40.350
R18        30.000    21198310.769 8 113158279.77808     -3478.236 8        48.159                                                                    21198310.403 6  88011787.93606     -2705.170 6        37.384
R04        31.000    21981231.172 5 117708566.01005      2995.167 5        33.144                                                                    21981217.683 5  91551014.07305      2329.302 5        34.633
R03        32.000    20961731.215 8 112209771.27608      -136.932 8        48.735                                                                    20961728.174 6  87274263.44506      -106.580 6        41.690
R16        33.000    23850134.048 3                     -5411.320 3        19.433
R09        34.000    20936033.446 5 111797459.28605     -3511.456 5        34.862                                                                    20936032.158 6  86953819.72006     -2730.895 6        39.811
R10        35.000    21182459.635 6 112914434.25806      -187.055 6        36.586
C37        36.000                                                                                                                                    24719758.805 6 128722255.14706     -3227.733 6        37.958                                                                    24719760.462 5 104597371.33305     -2622.473 5        34.314
C33        37.000                                                                                                                                    23988030.745 6 124912075.41706      1835.623 6        36.370                                                                    23988050.363 5 101501291.08005      1491.770 5        32.509
C28        40.000                                                                                                                                    21606030.659 7 112508530.79207        35.877 7        44.497                                                                    21606028.103 5  91422176.91005        29.360 5        32.695
R11        41.000    24102794.521 6 128798012.58706      2819.369 6        37.546                                                                    24102798.958 4 100176442.31304      2193.572 4        27.569
C43        42.000                                                                                                                                    23225757.998 7 120942854.90907     -2986.929 7        42.641                                                                    23225766.330 6  98275820.58506     -2426.942 6        36.870
C11        44.000                                                                                                                                    25078915.534 4 130592497.41004     -3450.500 4        29.109    25078908.510 4                     -2667.917 4        26.491    25078912.011 5                     -2803.296 5        30.694
C13        45.000                                                                                                                                    38227234.021 5 199059222.07105     -1742.264 5        33.659    38227231.395 5 153925204.90705     -1347.357 5        33.042    38227229.972 5 161751996.06705     -1415.403 5        30.679
C08        46.000                                                                                                                                    38670999.685 4                     -1992.165 4        24.526    38670987.482 4 155712279.45704     -1539.841 4        25.774    38670987.597 5 163629601.58505     -1618.453 5        34.519
C14        47.000                                                                                                                                    23320806.978 7 121437586.02407       520.012 7        43.668    23320801.338 7  93903245.75207       402.020 7        44.596    23320798.458 6  98678031.02706       422.775 6        38.168
C42        48.000                                                                                                                                    23724084.479 6 123537680.69706     -1109.565 6        41.976                                                                    23724090.378 7 100384425.55807      -901.359 7        46.059
C38        50.000                                                                                                                                    40127820.810 3                     -2099.751 3        20.905                                                                    40127807.879 4                     -1707.538 4        25.248
C27        52.000                                                                                                                                    24310608.132 6 126591950.68606      1728.833 6        40.594                                                                    24310604.800 6 102866176.52006      1404.889 6        41.058
I06        58.000    38542943.472 6 151250943.99306      -567.993 6        40.205
I01        59.000   367453380.958 6 138825195.88206     -1916.536 6        38.309
> 2025 01 01 20 00 25.0000000  0 39
G18         1.000    22927904.812 6 120487166.34506     -3708.739 6        38.489                                    22927902.493 2  93885968.69002     -2889.950 2        15.048    22927898.401 6  93885915.66006     -2890.037 6        37.353
G10         2.000    21248031.467 8 111659395.33908      1105.500 8        48.064                                    21248031.051 5  87007095.74205       861.426 5        33.880    21248027.272 5  87007160.68005       861.456 5        34.933
G07         3.000    25095659.225 5 131878461.05405     -1499.451 5        35.910                                    25095651.472 1 102762474.78901     -1168.402 1         2.600    25095646.173 3                     -1167.822 3        21.095
G23         4.000    20852918.176 8 109582798.33308     -1663.697 8        48.394                                    20852908.609 4  85389158.04704     -1296.381 4        25.955    20852906.988 6  85389237.06906     -1296.474 6        40.100
G08         6.000                                                                                                                                                                    21951850.755 4                      1474.928 4        24.887
G27         7.000    20116419.697 7 105712530.65107        70.732 7        47.798                                    20116418.601 6  82373337.24806        55.123 6        36.915    20116420.474 6  82373396.23306        55.246 6        38.141
G21         8.000    23877251.826 3                      2189.338 3        21.690
E15        14.000    26959363.675 4 141672423.46304     -3367.049 4        26.096                                                                                                                                    26959377.308 5 108554214.93405     -2580.089 5        31.457
E13        16.000    23419491.062 7 123070335.10007     -1762.201 7        45.377                                                                    23419490.415 8  91903169.74808     -1315.904 8        48.712    23419488.758 7  94300597.87907     -1350.319 7        46.965
E31        17.000    27955074.948 4 146904939.17204      1866.351 4        29.943                                                                    27955077.009 5 109701813.73305      1393.669 5        35.524    27955093.323 5 112563526.19405      1430.542 5        33.066
G16        18.000    21394528.968 6 112428994.78406     -3328.362 6        41.828                                    21394526.070 3  87606989.00103     -2593.537 3        22.000
E26        19.000    24323907.556 7 127823000.94507       713.900 7        44.339                                                                    24323905.296 7  95452298.11107       533.177 7        46.952    24323903.630 7  97942349.90207       547.125 7        44.546
E21        22.000    24594448.292 6 129244793.87706     -2957.866 6        37.652                                                                    24594447.172 7  96513901.09607     -2208.725 7        43.340    24594447.983 7  99031681.63707     -2266.420 7        46.247
S36        23.000    38113068.340 6 200285410.56006      -852.172 6        36.658
S23        24.000    38068514.645 6 200051380.78106      -852.353 6        40.403
G26        25.000    23486517.773 3                     -4388.234 3        20.405                                                                                                    23486515.248 5  96173359.25105     -3418.766 5        33.677
R20        26.000    22052206.602 4 117923109.55904      2010.530 4        27.281                                                                    22052212.465 6  91717958.55006      1563.845 6        38.051
R02        27.000                                                                                                                                    23055985.157 3                     -2852.804 3        19.910
R19        29.000    19549438.188 6 104576319.36106     -1283.377 6        41.254                                                                    19549434.647 6  81337145.30106      -998.264 6        40.598
R18        30.000    21201569.038 8 113175673.21808     -3479.275 8        48.020                                                                    21201570.446 6  88025316.16806     -2706.079 6        39.354
R04        31.000    21978439.274 5 117693596.04205      2993.236 5        35.629                                                                    21978421.885 5  91539370.81005      2327.968 5        33.641
R03        32.000    20961860.692 8 112210467.29208      -141.477 8        48.996                                                                    20961858.398 6  87274804.80606      -110.084 6        41.504
R16        33.000    23855198.613 3                     -5411.368 3        21.905
R09        34.000    20939322.030 4 111815023.48604     -3515.056 4        26.683                                                                    20939322.502 6  86967480.65706     -2733.586 6        40.698
R10        35.000    21182638.378 6 112915381.03406      -191.605 6        39.267
C37        36.000                                                                                                                                    24722857.442 6 128738396.82206     -3229.146 6        38.222                                                                    24722862.198 5 104610487.78105     -2624.111 5        35.086
C33        37.000                                                                                                                                    23986267.020 5 124902901.73605      1833.762 5        34.614                                                                    23986293.733 5 101493836.64305      1490.657 5        31.555
C28        40.000                                                                                                                                    21605997.267 7 112508354.69307        34.469 7        44.801                                                                    21605994.565 5  91422033.85705        27.956 5        34.590
R11        41.000    24100157.834 6 128783920.12706      2817.255 6        37.198                                                                    24100166.578 4 100165481.54104      2190.728 4        27.293
C43        42.000                                                                                                                                    23228626.230 7 120957791.77407     -2987.975 7        42.047                                                                    23228634.775 6  98287958.02906     -2427.981 6        36.665
C11        44.000                                                                                                                                    25082235.860 4 130609748.62104     -3449.237 4        24.226                                                                    25082225.228 5                     -2803.814 5        30.498
C13        45.000                                                                                                                                    38228906.590 5 199067933.14505     -1742.508 5        33.988    38228904.542 5 153931940.87905     -1347.266 5        33.569    38228902.341 5 161759074.57605     -1416.144 5        30.151
C08        46.000                                                                                                                                    38672912.417 4                     -1992.356 4        25.248    38672901.360 4 155719980.60304     -1539.370 4        27.557    38672900.321 5 163637694.39505     -1618.702 5        34.881
C14        47.000                                                                                                                                    23320309.881 7 121434992.48807       517.344 7        44.969    23320303.828 7  93901240.27307       400.011 7        46.383    23320300.139 6  98675923.58006       420.378 6        38.661
C42        48.000                                                                                                                                    23725152.128 7 123543235.59507     -1112.494 7        42.554                                                                    23725157.121 7 100388939.39307      -903.832 7        45.682
C38        50.000                                                                                                                                    40129836.224 3                     -2099.658 3        19.851                                                                    40129823.262 4                     -1707.271 4        25.023
C27        52.000                                                                                                                                    24308948.424 6 126583308.03606      1728.221 6        41.273                                                                    24308945.341 6 102859153.69306      1404.428 6        41.080
I06        58.000    38543666.678 6 151253783.26206      -567.891 6        40.203
I01        59.000   367455823.884 6 138834779.56106     -1916.965 6        38.694
> 2025 01 01 20 00 30.0000000  0 39
G18         1.000    22931433.080 6 120505713.01806     -3709.497 6        38.318                                    22931431.748 2  93900420.62802     -2890.528 2        15.333    22931427.320 6  93900367.59506     -2890.575 6        37.629
G10         2.000    21246981.478 8 111653874.09008      1103.003 8        48.831                                    21246979.205 5  87002793.49805       859.477 5        35.310    21246977.178 6  87002858.45206       859.662 6        36.529
