     3.04           OBSERVATION DATA    M                   RINEX VERSION / TYPE
ssrcrin-15.6.1x                         20250101 173000 UTC PGM / RUN BY / DATE 
(00000000023479385599111004) Septentrio proprietary         COMMENT             
ract                                                        MARKER NAME         
01                                                          MARKER NUMBER       
geodetic                                                    MARKER TYPE         
NFB                 CLIMERS@TUW                             OBSERVER / AGENCY   
3296359             SEPT ASTERX SB3 PROB4.14.4              REC # / TYPE / VERS 
Unknown             Unknown                                 ANT # / TYPE        
  4127446.4973  1206915.1013  4695543.3309                  APPROX POSITION XYZ 
        0.0000        0.0000        0.0000                  ANTENNA: DELTA H/E/N
G   23 X1  C1C L1C D1C S1C C1W S1W C2W L2W D2W S2W C2L L2L  SYS / # / OBS TYPES 
       D2L S2L C5Q L5Q D5Q S5Q C1L L1L D1L S1L              SYS / # / OBS TYPES 
E   21 X1  C1C L1C D1C S1C C6C L6C D6C S6C C5Q L5Q D5Q S5Q  SYS / # / OBS TYPES 
       C7Q L7Q D7Q S7Q C8Q L8Q D8Q S8Q                      SYS / # / OBS TYPES 
S    9 X1  C1C L1C D1C S1C C5I L5I D5I S5I                  SYS / # / OBS TYPES 
R   17 X1  C1C L1C D1C S1C C2P L2P D2P S2P C2C L2C D2C S2C  SYS / # / OBS TYPES 
       C3Q L3Q D3Q S3Q                                      SYS / # / OBS TYPES 
C   25 X1  C1P L1P D1P S1P C5P L5P D5P S5P C2I L2I D2I S2I  SYS / # / OBS TYPES 
       C7I L7I D7I S7I C6I L6I D6I S6I C7D L7D D7D S7D      SYS / # / OBS TYPES 
J   17 X1  C1C L1C D1C S1C C2L L2L D2L S2L C5Q L5Q D5Q S5Q  SYS / # / OBS TYPES 
       C1L L1L D1L S1L                                      SYS / # / OBS TYPES 
I    5 X1  C5A L5A D5A S5A                                  SYS / # / OBS TYPES 
SEPTENTRIO RECEIVERS OUTPUT ALIGNED CARRIER PHASES.         COMMENT             
NO FURTHER PHASE SHIFT APPLIED IN THE RINEX ENCODER.        COMMENT             
G L1C                                                       SYS / PHASE SHIFT   
G L2W                                                       SYS / PHASE SHIFT   
G L2L  0.00000                                              SYS / PHASE SHIFT   
G L5Q  0.00000                                              SYS / PHASE SHIFT   
G L1L  0.00000                                              SYS / PHASE SHIFT   
E L1C  0.00000                                              SYS / PHASE SHIFT   
E L6C  0.00000                                              SYS / PHASE SHIFT   
E L5Q  0.00000                                              SYS / PHASE SHIFT   
E L7Q  0.00000                                              SYS / PHASE SHIFT   
E L8Q  0.00000                                              SYS / PHASE SHIFT   
S L1C                                                       SYS / PHASE SHIFT   
S L5I                                                       SYS / PHASE SHIFT   
R L1C                                                       SYS / PHASE SHIFT   
R L2P  0.00000                                              SYS / PHASE SHIFT   
R L2C                                                       SYS / PHASE SHIFT   
R L3Q  0.00000                                              SYS / PHASE SHIFT   
C L1P  0.00000                                              SYS / PHASE SHIFT   
C L5P  0.00000                                              SYS / PHASE SHIFT   
C L2I                                                       SYS / PHASE SHIFT   
C L7I                                                       SYS / PHASE SHIFT   
C L6I                                                       SYS / PHASE SHIFT   
C L7D                                                       SYS / PHASE SHIFT   
J L1C                                                       SYS / PHASE SHIFT   
J L2L  0.00000                                              SYS / PHASE SHIFT   
J L5Q  0.00000                                              SYS / PHASE SHIFT   
J L1L  0.00000                                              SYS / PHASE SHIFT   
I L5A                                                       SYS / PHASE SHIFT   
  2025     1     1    17    30    0.0000000     GPS         TIME OF FIRST OBS   
 C1C    0.000 C2C    0.000 C2P    0.000                     GLONASS COD/PHS/BIS 
DBHZ                                                        SIGNAL STRENGTH UNIT
    18                                                      LEAP SECONDS        
 24 R01  1 R02 -4 R03  5 R04  6 R05  1 R06 -4 R07  5 R08  6 GLONASS SLOT / FRQ #
    R09 -2 R10 -7 R11  0 R12 -1 R13 -2 R14 -7 R15  0 R16 -1 GLONASS SLOT / FRQ #
    R17  4 R18 -3 R19  3 R20  2 R21  4 R22 -3 R23  3 R24  2 GLONASS SLOT / FRQ #
                                                            END OF HEADER       
> 2025 01 01 17 30  0.0000000  0 36
G18         1.000    20533016.480 7 107901945.30007      -106.890 7        42.938                                    20533012.783 6  84079312.25906       -83.287 6        36.435    20533012.579 8  84079323.23908       -83.278 8        50.432
G25         3.000    24009950.739 5                     -4605.194 5        30.604
G31         5.000    22639612.248 7 118972075.18907     -3350.245 7        46.697                                    22639646.591 3  92705603.31603     -2610.570 3        19.970    22639608.052 5  92705401.74905     -2610.604 5        34.986
G28         6.000    23806613.927 5                     -4217.600 5        30.521                                                                                                    23806616.100 5  97484097.32005     -3286.832 5        33.587
G27         7.000    24393829.223 5                      2513.487 5        31.721                                                                                                    24393829.517 4                      1958.471 4        25.940
G29         8.000    21622358.397 7 113626402.04207     -3032.189 7        46.371                                    21622354.013 6  88540253.38306     -2362.752 6        38.532    21622354.464 6  88539920.39606     -2362.778 6        38.411
E30         9.000    27592063.641 3                     -3713.528 3        21.357                                                                                                                                    27592050.784 4                     -2845.629 4        28.332
E15        10.000    23620909.161 7 124128708.95207     -1672.669 7        46.237                                                                    23620910.429 8  92693521.56508     -1249.109 8        49.816    23620908.614 7  95111651.08407     -1281.647 7        47.225
E34        12.000                                                                                                                                    27089503.201 4                     -2726.230 4        25.233    27089502.501 4 109078175.39304     -2797.061 4        26.802
E27        15.000    23759566.137 8 124857474.54808     -2139.756 8        49.171                                                                    23759566.487 8  93237756.73708     -1597.880 8        49.290    23759564.051 7  95670155.67707     -1639.552 7        45.246
E13        16.000    24268889.014 5 127533935.08605      1192.939 5        31.064                                                                    24268890.647 6  95236372.21206       890.645 6        38.586    24268892.356 6  97720753.78506       913.815 6        40.155
R17        17.000    19908767.863 7 106535957.93207     -3146.429 7        46.959                                                                    19908766.891 7  82861084.20607     -2447.224 7        43.211
G16        18.000    21933923.913 7 115263580.61207      1931.986 7        46.581                                    21933917.867 4  89815732.38604      1505.443 4        27.976
R15        20.000    20609391.411 6 110130460.98206     -4285.567 6        41.166                                                                    20609404.842 5  85656939.96305     -3333.640 5        31.834
E21        22.000    24233530.576 6 127348041.59806       655.197 6        39.336                                                                    24233527.730 6  95097581.64506       489.029 6        36.817    24233527.667 6  97578536.36106       501.838 6        40.064
S36        23.000    38148967.877 6 200474064.28306      -854.092 6        36.306
S23        24.000    38101522.092 6 200224855.70306      -857.198 6        38.619
G26        25.000    20533296.916 7 107903223.21307       -71.738 7        45.893                                    20533295.904 7  84080447.71707       -55.903 7        43.363    20533295.583 7  84080490.71807       -55.884 7        44.623
E04        26.000                                                                                                                                                                                                    28839282.864 4                     -1729.185 4        24.376
C34        28.000                                                                                                                                    22744533.077 7 118436878.20107     -2979.623 7        44.590                                                                    22744530.862 7  96239757.42107     -2421.229 7        44.193
R08        29.000                                                                                                                                    24131270.973 3                     -2178.734 3        23.429
R18        30.000    19387386.142 7 103491135.13107       247.106 7        42.882                                                                    19387386.918 7  80493228.16107       192.223 7        44.599
R16        33.000    19362645.029 7 103431987.70707      -157.919 7        47.046                                                                    19362643.241 7  80446942.71907      -122.842 7        44.736
R09        34.000    22726638.823 5 121359000.70105      3119.501 5        31.238                                                                    22726641.463 6  94390344.15406      2426.124 6        40.625
C37        36.000                                                                                                                                    24367866.967 7 126889882.01707      1237.387 7        42.828                                                                    24367868.354 7 103108481.45307      1005.498 7        44.578
S21        38.000    38377365.197 5 201674591.81305      -855.404 5        33.617
C28        40.000                                                                                                                                    25002308.693 4 130193214.51304      1966.927 4        26.060
C25        41.000                                                                                                                                    24187807.159 5 125952336.52005     -4099.710 5        32.982                                                                    24187803.918 6 102346524.85406     -3331.378 6        40.889
C43        42.000                                                                                                                                    21455073.793 8 111722229.76508      -530.387 8        49.556                                                                    21455072.183 7  90783612.80707      -431.067 7        44.454
C12        43.000                                                                                                                                                                                                    25364179.026 5 102131086.63905     -2878.644 5        33.623
C11        44.000                                                                                                                                    21681564.701 8 112901659.05708     -1854.138 8        50.928    21681560.967 8  87302815.04808     -1433.783 8        50.844    21681559.243 8  91741937.10308     -1506.660 8        49.108
C13        45.000                                                                                                                                    37687983.693 5 196251339.33205      -404.929 5        35.081    37687989.191 6 151753886.32606      -313.008 6        38.201    37687988.233 6 159470239.99106      -328.930 6        40.491
C08        46.000                                                                                                                                    37671034.260 6 196162983.78506      -643.753 6        39.619    37671026.643 6 151685538.01406      -497.614 6        40.026    37671028.449 6 159398514.98806      -522.962 6        36.699
C38        49.000                                                                                                                                    38577228.869 6 200881911.97206     -1167.572 6        37.939                                                                    38577225.317 5 163232866.46505      -948.578 5        31.208
C23        55.000                                                                                                                                    22523480.379 7 117285926.35607     -1720.953 7        45.684                                                                    22523470.878 7  95304298.57107     -1398.383 7        47.669
I06        58.000    38661554.732 5 151716395.36905      -637.967 5        35.429
> 2025 01 01 17 30  5.0000000  0 38
G18         1.000    20533118.644 7 107902486.24207      -109.441 7        44.506                                    20533115.760 6  84079733.76006       -85.280 6        36.756    20533115.278 8  84079744.75208       -85.310 8        50.200
G20         2.000    25025151.588 4                     -3644.980 4        25.699
G25         3.000    24014332.204 5                     -4605.664 5        30.340
G31         5.000    22642800.852 7 118988831.26107     -3352.125 7        47.161                                    22642834.254 3  92718660.00803     -2612.046 3        18.955    22642795.909 5  92718458.42505     -2612.309 5        34.838
G28         6.000    23810629.762 5                     -4218.488 5        33.653                                                                                                    23810629.236 5  97500531.32805     -3287.212 5        33.671
G27         7.000    24391434.522 5                      2512.903 5        32.293                                                                                                    24391438.254 4                      1958.007 4        26.826
G29         8.000    21625244.078 7 113641565.35207     -3033.142 7        47.242                                    21625239.453 6  88552068.95706     -2363.486 6        39.462    21625240.121 6  88551735.97806     -2363.452 6        39.508
E30         9.000    27595595.167 3                     -3716.553 3        18.687                                                                                                                                    27595583.446 4                     -2845.907 4        27.305
E15        10.000    23622501.557 7 124137076.56707     -1674.361 7        46.510                                                                    23622502.725 8  92699770.10308     -1250.391 8        49.931    23622501.121 7  95118062.63407     -1282.985 7        47.650
G05        11.000    22947686.678 5 120590969.46315     -1838.344 5        33.395                                    22947686.913 1  93966934.26711     -1432.478 1         5.571
E34        12.000                                                                                                                                    27092976.789 4                     -2726.281 4        24.887    27092975.454 4 109092161.82404     -2797.992 4        27.102
E27        15.000    23761602.624 8 124868177.04308     -2141.238 8        49.030                                                                    23761603.008 8  93245748.85908     -1598.959 8        49.101    23761600.742 7  95678356.29007     -1640.759 7        45.362
E13        16.000    24267758.331 5 127527974.93805      1191.433 5        34.010                                                                    24267756.872 6  95231921.45606       889.582 6        39.465    24267760.759 6  97716186.90206       912.772 6        40.820
R17        17.000    19911708.775 7 106551694.69407     -3148.297 7        46.778                                                                    19911707.257 7  82873323.90307     -2448.639 7        43.384
G16        18.000    21932086.609 7 115253924.10107      1930.568 7        46.201                                    21932079.891 4  89808207.83904      1504.336 4        27.617
R15        20.000    20613404.512 7 110151894.93607     -4288.105 7        43.185                                                                    20613416.250 5  85673610.79505     -3335.275 5        34.152
E21        22.000    24232908.210 6 127344768.91106       653.931 6        40.122                                                                    24232905.536 6  95095137.76406       488.220 6        37.096    24232904.801 6  97576028.72106       501.200 6        39.991
S36        23.000    38149783.250 6 200478333.53106      -853.690 6        36.234
S23        24.000    38102337.640 6 200229140.48406      -856.932 6        38.709
G26        25.000    20533366.920 7 107903588.94007       -74.481 7        44.919                                    20533365.643 7  84080732.71007       -58.039 7        43.299    20533365.347 7  84080775.70307       -57.983 7        44.680
E04        26.000                                                                                                                                                                                                    28841431.640 4                     -1731.036 4        24.917
C34        28.000                                                                                                                                    22747393.409 7 118451778.10307     -2980.297 7        44.886                                                                    22747392.255 7  96251864.79607     -2421.689 7        44.068
R08        29.000    24133891.759 3                     -2803.424 3        20.071                                                                    24133892.560 3                     -2180.833 3        23.943
R18        30.000    19387156.681 7 103489906.60707       244.365 7        44.453                                                                    19387157.124 7  80492272.64007       189.900 7        44.700
R16        33.000    19362794.559 7 103432787.23407      -162.033 7        46.588                                                                    19362793.694 7  80447564.58307      -125.981 7        45.260
R09        34.000    22723723.116 5 121343407.05505      3118.307 5        35.448                                                                    22723721.228 6  94378215.80106      2425.195 6        39.529
C37        36.000                                                                                                                                    24366680.043 7 126883699.57507      1235.537 7        42.172                                                                    24366681.061 7 103103457.70007      1003.992 7        44.605
S21        38.000    38378179.108 5 201678866.09405      -854.708 5        33.503
C28        40.000                                                                                                                                                                                                                                                                    25000327.053 4                      1597.412 4        28.957
C25        41.000                                                                                                                                    24191742.303 5 125972836.18905     -4100.284 5        32.844                                                                    24191740.953 6 102363182.54606     -3331.961 6        41.285
C43        42.000                                                                                                                                    21455583.567 8 111724885.37508      -531.824 8        49.971                                                                    21455582.229 7  90785770.69207      -432.249 7        44.572
C12        43.000                                                                                                                                                                                                    25367751.488 5 102145478.07105     -2878.142 5        32.766
C11        44.000                                                                                                                                    21683345.151 8 112910933.16508     -1855.489 8        50.432    21683341.617 8  87309986.37108     -1434.815 8        50.751    21683340.280 8  91749473.07208     -1507.760 8        49.300
C13        45.000                                                                                                                                    37688372.873 5 196253365.68305      -405.659 5        35.571    37688378.349 6 151755453.23106      -313.678 6        38.177    37688377.386 6 159471886.57506      -329.680 6        40.589
C08        46.000                                                                                                                                    37671652.239 6 196166204.47006      -644.565 6        39.264    37671645.900 6 151688028.46606      -498.574 6        40.482    37671646.786 6 159401132.04906      -523.734 6        36.291
C38        49.000                                                                                                                                    38578350.317 6 200887751.16506     -1168.242 6        37.803                                                                    38578346.663 5 163237611.26505      -948.937 5        31.034
C23        55.000                                                                                                                                    22525134.171 7 117294536.76207     -1723.276 7        45.634                                                                    22525124.516 8  95311295.22208     -1400.358 8        48.067
I06        58.000    38662367.428 5 151719585.27905      -637.777 5        35.695
> 2025 01 01 17 30 10.0000000  0 37
G18         1.000    20533224.609 7 107903042.35507      -112.410 7        45.771                                    20533221.572 6  84080167.09406       -87.590 6        37.119    20533221.126 8  84080178.08908       -87.674 8        50.146
G20         2.000    25028613.277 4                     -3646.860 4        25.038
G25         3.000    24018712.561 4                     -4606.558 4        29.602                                                                                                    24018708.057 3                     -3587.750 3        21.881
G31         5.000    22645991.991 7 119005598.87607     -3354.400 7        47.240                                    22646024.283 3  92731725.69703     -2613.821 3        19.313    22645986.690 5  92731524.06805     -2613.661 5        35.010
G28         6.000    23814642.517 6 125146799.55916     -4219.201 6        36.034                                    23814642.228 1                     -3287.852 1        10.518    23814642.393 5  97516969.07705     -3287.615 5        33.545
G27         7.000    24389040.192 5                      2512.207 5        31.811                                                                                                    24389045.113 4                      1958.610 4        25.278
G29         8.000    21628131.290 8 113656735.81608     -3034.600 8        48.381                                    21628126.413 6  88563890.09806     -2364.626 6        40.389    21628127.256 6  88563557.11106     -2364.511 6        40.460
E30         9.000                                                                                                                                                                                                    27599118.442 4                     -2846.387 4        27.162
E15        10.000    23624095.585 7 124145454.67007     -1676.420 7        46.974                                                                    23624096.998 8  92706026.47408     -1251.889 8        49.928    23624095.638 8  95124482.22708     -1284.559 8        48.102
G05        11.000    22949441.311 5 120600171.23405     -1842.017 5        34.843                                    22949440.903 1  93974104.69401     -1435.154 1         4.857    22949464.289 4                     -1435.196 4        27.665
E34        12.000                                                                                                                                    27096452.152 3                     -2727.472 3        23.943    27096450.196 4 109106150.73704     -2797.677 4        28.246
E27        15.000    23763641.067 8 124878888.87108     -2143.015 8        49.309                                                                    23763641.375 8  93253747.96008     -1600.331 8        48.867    23763639.417 7  95686564.06107     -1642.115 7        45.538
E13        16.000    24266627.185 6 127522023.84106      1189.439 6        36.435                                                                    24266624.820 6  95227477.44106       888.317 6        40.310    24266628.030 6  97711626.93806       911.565 6        41.075
R17        17.000    19914651.287 7 106567442.64307     -3150.541 7        45.779                                                                    19914650.054 7  82885572.31407     -2450.401 7        43.433
G16        18.000    21930251.641 7 115244277.22807      1928.643 7        46.060                                    21930243.709 4  89800690.80404      1502.836 4        27.210
R15        20.000    20617423.258 7 110173343.46107     -4290.900 7        43.920                                                                    20617430.680 5  85690292.95505     -3337.332 5        35.562
E21        22.000    24232287.995 6 127341504.00506       652.511 6        41.106                                                                    24232284.314 6  95092699.68006       487.271 6        37.422    24232283.264 6  97573527.05606       499.879 6        39.946
S36        23.000    38150595.753 6 200482604.17706      -854.084 6        36.355
S23        24.000    38103155.191 6 200233425.89206      -856.991 6        38.619
G26        25.000    20533439.093 7 107903969.88607       -77.518 7        45.156                                    20533438.267 7  84081029.55607       -60.403 7        42.967    20533437.857 7  84081072.55707       -60.357 7        44.813
E04        26.000                                                                                                                                                                                                    28843580.522 4                     -1732.752 4        24.797
C34        28.000                                                                                                                                    22750255.348 7 118466683.70507     -2981.495 7        45.255                                                                    22750254.880 7  96263976.82307     -2422.829 7        43.854
R18        30.000    19386929.981 7 103488694.03507       241.161 7        46.491                                                                    19386929.824 7  80491329.50007       187.588 7        44.396
R16        33.000    19362949.666 7 103433608.94007      -166.402 7        45.977                                                                    19362947.436 7  80448203.68507      -129.375 7        46.167
R09        34.000    22720808.820 6 121327821.37906      3116.590 6        39.180                                                                    22720801.234 6  94366093.60806      2423.927 6        38.577
C37        36.000                                                                                                                                    24365495.419 7 126877528.05107      1233.455 7        42.317                                                                    24365495.853 7 103098442.83307      1002.093 7        44.527
S21        38.000    38378993.333 5 201683141.17705      -854.877 5        33.748
C28        40.000                                                                                                                                                                                                                                                                    24998440.435 4                      1596.875 4        29.592
C25        41.000                                                                                                                                    24195678.259 5 125993341.16805     -4101.056 5        32.293                                                                    24195678.757 6 102379844.52106     -3332.695 6        41.576
C43        42.000                                                                                                                                    21456094.975 8 111727550.57908      -533.769 8        50.297                                                                    21456094.161 7  90787936.38707      -433.892 7        44.713
C12        43.000                                                                                                                                                                                                    25371325.781 5 102159870.86505     -2878.412 5        32.617
C11        44.000                                                                                                                                    21685127.656 8 112920215.84708     -1857.136 8        50.591    21685123.720 8  87317164.32608     -1436.054 8        50.342    21685122.870 8  91757016.00608     -1509.252 8        49.358
C13        45.000                                                                                                                                    37688762.479 5 196255397.75105      -406.722 5        35.971    37688768.641 6 151757024.58206      -314.494 6        38.270    37688767.541 6 159473537.80806      -330.733 6        40.543
C08        46.000                                                                                                                                    37672271.874 6 196169431.30506      -645.767 6        38.850    37672265.666 6 151690523.64306      -499.187 6        40.865    37672266.152 6 159403754.07906      -524.607 6        36.204
C38        49.000                                                                                                                                    38579472.794 6 200893595.55406     -1169.183 6        37.864                                                                    38579469.584 5 163242360.35505      -950.389 5        30.430
C23        55.000                                                                                                                                    22526790.714 7 117303161.40707     -1726.067 7        45.719                                                                    22526780.714 8  95318303.45408     -1402.704 8        48.203
I06        58.000    38663181.080 5 151722775.42805      -637.819 5        35.486
> 2025 01 01 17 30 15.0000000  0 37
G18         1.000    20533332.827 7 107903613.03707      -115.699 7        45.877                                    20533330.197 6  84080611.77706       -90.153 6        37.403    20533329.895 8  84080622.76708       -90.165 8        50.335
G20         2.000    25032082.250 4                     -3648.081 4        25.218
G25         3.000    24023096.764 4                     -4607.216 4        28.882                                                                                                    24023095.452 3                     -3592.941 3        21.429
G31         5.000    22649184.719 7 119022377.40907     -3356.870 7        46.906                                    22649216.588 3  92744799.87803     -2615.744 3        19.821    22649178.895 5  92744598.24105     -2615.727 5        34.652
G28         6.000    23818658.337 6 125167898.84006     -4220.248 6        37.028                                    23818656.837 1  97533420.13311     -3288.495 1        10.148    23818657.667 5  97533410.07205     -3288.411 5        33.114
G27         7.000    24386643.098 5                      2512.026 5        30.491                                                                                                    24386659.029 4                      1957.813 4        25.955
G29         8.000    21631019.615 8 113671912.83508     -3036.179 8        48.618                                    21631014.772 6  88575716.35306     -2365.853 6        41.452    21631015.462 6  88575383.36706     -2365.915 6        41.151
E30         9.000                                                                                                                                                                                                    27602653.260 4                     -2846.913 4        26.814
E15        10.000    23625691.870 7 124153842.63307     -1678.676 7        47.057                                                                    23625693.012 8  92712290.20908     -1253.572 8        50.009    23625692.129 8  95130909.37208     -1286.268 8        48.350
G05        11.000    22951195.636 5 120609390.02105     -1845.660 5        34.424                                    22951197.602 1  93981288.02701     -1438.209 1         6.375
E34        12.000                                                                                                                                    27099926.397 4                     -2727.780 4        24.391    27099924.372 4 109120141.69304     -2798.962 4        28.474
E27        15.000    23765681.128 8 124889609.42408     -2145.083 8        49.372                                                                    23765681.396 8  93261753.57008     -1601.815 8        48.835    23765679.869 7  95694778.51207     -1643.666 7        45.669
E13        16.000    24265495.112 6 127516081.11406      1187.569 6        38.264                                                                    24265493.901 6  95223039.68506       886.774 6        40.582    24265496.239 6  97707073.42706       909.758 6        40.501
R17        17.000    19917595.548 7 106583201.19707     -3152.868 7        45.890                                                                    19917594.982 7  82897828.97707     -2452.286 7        43.869
G16        18.000    21928417.633 7 115234639.39107      1926.619 7        45.243                                    21928409.378 4  89793180.80604      1501.261 4        27.162
R15        20.000    20621440.962 7 110194805.80407     -4294.010 7        43.788                                                                    20621447.151 6  85706985.91106     -3339.714 6        37.036
E21        22.000    24231668.471 6 127338246.30506       650.660 6        41.988                                                                    24231664.269 6  95090266.98906       485.766 6        37.550    24231663.194 6  97571030.90206       498.439 6        39.751
S36        23.000    38151407.196 6 200486875.34406      -854.423 6        36.302
S23        24.000    38103967.394 6 200237711.09906      -857.160 6        38.571
G26        25.000    20533514.943 7 107904365.42707       -80.654 7        44.921                                    20533513.641 7  84081337.77407       -62.849 7        42.518    20533512.795 7  84081380.78207       -62.800 7        44.670
E04        26.000                                                                                                                                                                                                    28845731.275 4                     -1734.531 4        24.602
C34        28.000                                                                                                                                    22753118.493 7 118481594.35807     -2982.795 7        44.944                                                                    22753118.428 7  96276092.93007     -2423.573 7        43.632
R18        30.000    19386706.059 7 103487496.75607       237.811 7        46.919                                                                    19386705.283 7  80490398.27907       185.038 7        44.184
R16        33.000    19363107.690 7 103434452.41307      -170.974 7        43.663                                                                    19363105.021 7  80448859.73607      -132.983 7        46.671
R09        34.000    22717891.836 6 121312243.13106      3114.794 6        40.360                                                                    22717884.774 6  94353977.17506      2422.884 6        36.681
C37        36.000                                                                                                                                    24364312.558 7 126871366.85807      1231.153 7        42.451                                                                    24364312.678 7 103093436.34907      1000.637 7        44.528
S21        38.000    38379806.435 5 201687416.12605      -855.121 5        33.653
C28        40.000                                                                                                                                                                                                                                                                    24996554.917 4                      1595.404 4        27.772
C25        41.000                                                                                                                                    24199614.092 5 126013850.82905     -4102.318 5        31.396                                                                    24199617.284 6 102396510.28906     -3333.428 6        41.535
C43        42.000                                                                                                                                    21456607.956 8 111730224.75308      -535.837 8        50.212                                                                    21456607.795 7  90790109.36607      -435.242 7        44.891
C12        43.000                                                                                                                                                                                                    25374902.282 5 102174264.33205     -2878.680 5        32.186
C11        44.000                                                                                                                                    21686912.373 8 112929506.48708     -1858.963 8        50.740    21686907.452 8  87324348.43908     -1437.498 8        49.908    21686907.010 8  91764565.40808     -1510.426 8        49.311
C13        45.000                                                                                                                                    37689155.893 6 196257434.91306      -407.930 6        36.287    37689159.491 6 151758599.86006      -315.490 6        38.177    37689158.829 6 159475193.16906      -331.455 6        40.482
C08        46.000                                                                                                                                    37672892.421 6 196172663.59706      -647.138 6        38.354    37672887.577 6 151693023.06406      -500.266 6        41.294    37672886.877 5 159406380.57105      -525.724 5        35.671
C38        49.000                                                                                                                                    38580595.978 6 200899444.51606     -1170.458 6        37.841                                                                    38580592.086 5 163247113.08105      -951.051 5        30.755
C23        55.000                                                                                                                                    22528450.027 7 117311799.64707     -1729.106 7        45.862                                                                    22528439.517 8  95325322.72008     -1404.895 8        48.267
I06        58.000    38663993.827 5 151725965.35605      -638.104 5        35.305
> 2025 01 01 17 30 20.0000000  0 38
G18         1.000    20533443.869 7 107904197.83607      -118.354 7        45.640                                    20533441.536 6  84081067.45806       -92.223 6        37.580    20533440.993 8  84081078.45608       -92.167 8        50.163
G20         2.000    25035553.123 4                     -3650.267 4        24.692
G25         3.000    24027480.756 4                     -4607.532 4        28.351                                                                                                    24027477.217 3                     -3589.777 3        21.952
G31         5.000    22652378.635 7 119039166.41907     -3358.795 7        46.582                                    22652411.611 3  92757882.20103     -2617.231 3        20.690    22652373.650 5  92757680.57805     -2617.055 5        34.581
G28         6.000    23822674.616 6 125189001.86506     -4220.834 6        37.312                                    23822671.737 1  97549864.01001     -3289.024 1        11.630    23822672.467 5  97549853.97705     -3288.974 5        32.180
G27         7.000    24384247.932 5                      2511.681 5        30.091                                                                                                    24384264.909 4                      1956.782 4        26.323
G29         8.000    21633908.457 8 113687095.99008     -3037.133 8        48.651                                    21633904.304 7  88587547.38407     -2366.601 7        42.220    21633904.413 6  88587214.39406     -2366.578 6        41.473
E30         9.000    27606195.139 3                     -3715.988 3        21.452                                                                                                                                    27606188.015 4                     -2847.372 4        26.192
E15        10.000    23627289.760 7 124162240.01307     -1680.356 7        47.376                                                                    23627290.766 8  92718560.97808     -1254.822 8        49.913    23627290.192 8  95137343.73608     -1287.547 8        48.855
G05        11.000    22952952.516 5 120618625.37505     -1848.659 5        34.843                                    22952957.186 1  93988484.46801     -1440.568 1         7.250
E34        12.000                                                                                                                                    27103400.333 3                     -2727.312 3        23.219    27103399.531 4 109134134.46804     -2799.020 4        28.095
E27        15.000    23767722.606 8 124900338.25308     -2146.493 8        49.766                                                                    23767722.966 8  93269765.36408     -1602.921 8        48.693    23767721.848 7  95702999.29907     -1644.698 7        46.045
E13        16.000    24264365.344 6 127510146.36006      1186.216 6        40.348                                                                    24264364.299 6  95218607.89406       885.763 6        40.534    24264366.387 6  97702526.00506       909.002 6        39.934
R17        17.000    19920543.050 7 106598969.90507     -3154.700 7        46.772                                                                    19920542.065 7  82910093.52307     -2453.626 7        44.123
G16        18.000    21926585.689 7 115225010.11207      1925.109 7        45.246                                    21926576.688 4  89785677.47004      1500.083 4        27.198
R15        20.000    20625458.426 7 110216281.74407     -4296.410 7        42.136                                                                    20625465.555 6  85723689.48106     -3341.707 6        37.512
E21        22.000    24231049.723 7 127334995.33107       649.494 7        42.961                                                                    24231045.757 6  95087839.29106       485.296 6        37.531    24231044.492 6  97568539.86606       497.903 6        40.038
S36        23.000    38152220.477 6 200491146.42806      -853.983 6        36.200
S23        24.000    38104784.919 6 200241995.89206      -856.988 6        38.682
G26        25.000    20533592.410 7 107904775.15007       -83.251 7        43.302                                    20533591.639 7  84081657.04107       -64.872 7        42.083    20533590.933 7  84081700.05307       -64.904 7        44.402
E04        26.000                                                                                                                                                                                                    28847883.569 4                     -1735.571 4        24.165
C34        28.000                                                                                                                                    22755982.623 7 118496509.64807     -2983.441 7        44.447                                                                    22755982.992 7  96288212.84507     -2424.326 7        43.736
R08        29.000    24141791.810 4                     -2814.840 4        24.451                                                                    24141801.260 3                     -2190.695 3        22.724
R18        30.000    19386483.621 7 103486314.33107       235.074 7        46.623                                                                    19386483.719 7  80489478.64207       182.745 7        44.248
R16        33.000    19363266.701 6 103435317.14006      -175.005 6        41.259                                                                    19363266.663 7  80449532.29107      -136.176 7        46.983
R09        34.000    22714975.150 6 121296671.81006      3113.664 6        40.715                                                                    22714969.475 6  94341866.20406      2421.753 6        36.991
C37        36.000                                                                                                                                    24363131.150 7 126865215.59207      1229.481 7        42.743                                                                    24363131.380 7 103088437.96407       998.980 7        44.492
S21        38.000    38380616.818 5 201691690.58905      -854.663 5        33.557
C28        40.000                                                                                                                                                                                                                                                                    24994670.102 4                      1595.566 4        26.467
C25        41.000                                                                                                                                    24203551.655 4 126034364.68204     -4102.353 4        29.118                                                                    24203556.642 6 102413179.51206     -3334.152 6        41.630
C43        42.000                                                                                                                                    21457122.751 8 111732907.47408      -537.360 8        50.095                                                                    21457123.121 7  90792289.29907      -436.674 7        45.136
C12        43.000                                                                                                                                                                                                    25378477.498 5 102188658.31905     -2878.875 5        32.132
C11        44.000                                                                                                                                    21688697.973 8 112938804.63408     -1860.369 8        50.778    21688693.105 8  87331538.35508     -1438.537 8        49.324    21688692.546 8  91772120.93108     -1511.731 8        49.351
C13        45.000                                                                                                                                    37689548.827 6 196259476.73106      -408.733 6        36.775    37689550.704 6 151760178.74806      -316.220 6        38.060    37689550.907 6 159476852.33506      -332.153 6        40.598
C08        46.000                                                                                                                                    37673514.057 6 196175900.98206      -647.883 6        37.970    37673509.802 6 151695526.41706      -501.027 6        41.950    37673507.883 5 159409011.22805      -526.589 5        35.357
C38        49.000                                                                                                                                    38581719.644 6 200905297.59506     -1170.899 6        37.743                                                                    38581715.953 4 163251869.24804      -951.506 4        29.716
C23        55.000                                                                                                                                    22530111.207 7 117320451.06707     -1731.547 7        45.859                                                                    22530100.834 8  95332352.71508     -1407.059 8        48.396
I06        58.000    38664806.061 5 151729154.75705      -637.932 5        35.271
> 2025 01 01 17 30 25.0000000  0 37
G18         1.000    20533557.413 7 107904797.03907      -121.164 7        45.807                                    20533555.540 6  84081534.36006       -94.414 6        37.422    20533554.839 8  84081545.36608       -94.380 8        49.828
G20         2.000    25039028.790 3                     -3652.326 3        23.257
G25         3.000    24031865.673 4                     -4607.922 4        27.808                                                                                                    24031860.208 3                     -3592.040 3        22.400
G31         5.000    22655575.672 7 119055966.14007     -3360.890 7        46.834                                    22655609.470 3  92770972.84803     -2618.870 3        21.929    22655570.651 5  92770771.23005     -2618.576 5        34.076
G28         6.000    23826691.389 6 125210108.84806     -4221.616 6        36.223                                    23826687.406 1  97566311.03701     -3289.571 1        10.000    23826689.132 5  97566300.93105     -3289.463 5        30.860
G27         7.000    24381856.195 4                      2511.585 4        27.437                                                                                                    24381874.987 4                      1956.683 4        28.616
G29         8.000    21636798.419 8 113702285.56408     -3038.407 8        48.462                                    21636795.029 7  88599383.41607     -2367.590 7        42.618    21636794.909 6  88599050.42206     -2367.546 6        41.499
E30         9.000    27609736.884 3                     -3717.772 3        21.786                                                                                                                                    27609724.192 4                     -2848.294 4        25.895
E15        10.000    23628889.290 7 124170647.08407     -1682.184 7        47.187                                                                    23628890.288 8  92724838.98008     -1256.200 8        49.612    23628890.120 8  95143785.52408     -1288.956 8        48.985
G05        11.000    22954713.038 5 120627877.51905     -1851.924 5        35.571                                    22954717.301 1  93995693.99101     -1443.035 1         7.750    22954770.742 4                     -1443.369 4        28.682
E34        12.000                                                                                                                                    27106876.287 3                     -2728.963 3        23.905    27106873.544 4 109148129.13104     -2799.140 4        28.171
E27        15.000    23769765.579 8 124911075.64208     -2148.178 8        49.758                                                                    23769766.218 8  93277783.54708     -1604.192 8        48.339    23769765.356 7  95711226.65507     -1646.042 7        46.024
E13        16.000    24263237.677 7 127504219.84707      1184.577 7        42.028                                                                    24263236.035 6  95214182.25706       884.687 6        40.036    24263237.735 6  97697984.92106       907.729 6        38.114
R17        17.000    19923491.938 7 106614749.07207     -3156.752 7        47.971                                                                    19923490.602 7  82922366.19107     -2455.183 7        43.575
G16        18.000    21924754.731 7 115215389.63107      1923.357 7        45.961                                    21924745.764 4  89778181.00304      1498.722 4        27.305
R15        20.000    20629474.953 6 110237771.52906     -4299.222 6        40.296                                                                    20629483.640 6  85740403.81706     -3343.851 6        38.408
E21        22.000    24230431.516 7 127331751.36307       648.209 7        42.893                                                                    24230428.593 6  95085416.85906       484.179 6        37.629    24230426.651 6  97566054.24006       496.790 6        39.691
S36        23.000    38153036.816 6 200495417.40306      -854.207 6        36.181
S23        24.000    38105600.172 6 200246280.67906      -856.987 6        38.742
G26        25.000    20533672.324 7 107905199.33507       -86.159 7        42.116                                    20533672.325 6  84081987.58006       -67.133 6        41.259    20533671.691 7  84082030.57807       -67.117 7        44.236
E04        26.000                                                                                                                                                                                                    28850033.096 3                     -1737.852 3        22.705
C34        28.000                                                                                                                                    22758848.124 7 118511429.82107     -2984.365 7        43.507                                                                    22758848.458 7  96300336.70007     -2425.083 7        43.735
R18        30.000    19386263.688 7 103485147.04407       232.043 7        46.310                                                                    19386265.044 7  80488570.74507       180.512 7        44.036
R16        33.000    19363430.966 6 103436203.35406      -179.302 6        39.688                                                                    19363432.279 7  80450221.59307      -139.416 7        46.958
R09        34.000    22712059.224 6 121281107.58406      3112.304 6        41.619                                                                    22712055.809 6  94329760.62906      2420.688 6        38.009
C37        36.000                                                                                                                                    24361951.299 7 126859074.51707      1227.409 7        43.227                                                                    24361951.996 7 103083447.83607       997.390 7        44.394
S21        38.000    38381434.177 5 201695964.95205      -854.873 5        33.766
C28        40.000                                                                                                                                                                                                                                                                    24992785.348 4                      1594.274 4        24.872
C25        41.000                                                                                                                                    24207493.217 4 126054883.07104     -4103.307 4        27.281                                                                    24207496.868 6 102429852.36906     -3334.796 6        41.464
C43        42.000                                                                                                                                    21457639.964 8 111735598.98808      -539.012 8        50.236                                                                    21457640.126 7  90794476.37007      -437.986 7        45.366
C12        43.000                                                                                                                                                                                                    25382052.120 5 102203052.89805     -2878.940 5        31.328
C11        44.000                                                                                                                                    21690484.806 8 112948110.57808     -1861.819 8        50.576    21690480.068 8  87338734.30008     -1439.732 8        48.760    21690479.581 8  91779682.76408     -1512.905 8        49.239
C13        45.000                                                                                                                                    37689941.122 6 196261523.49806      -409.795 6        36.715    37689943.756 6 151761761.38506      -316.699 6        37.592    37689943.923 6 159478515.47506      -332.855 6        40.305
C08        46.000                                                                                                                                    37674136.466 6 196179143.68106      -648.879 6        37.679    37674132.908 7 151698033.88207      -501.849 7        42.207    37674130.255 5 159411646.15805      -527.256 5        34.910
C38        49.000                                                                                                                                    38582844.085 6 200911155.10306     -1171.677 6        37.690                                                                    38582840.399 4 163256628.93204      -952.155 4        29.526
C23        55.000                                                                                                                                    22531774.946 7 117329115.90607     -1734.177 7        46.195                                                                    22531764.818 8  95339393.60508     -1409.159 8        48.410
I06        58.000    38665618.775 5 151732343.78305      -637.506 5        35.543
> 2025 01 01 17 30 30.0000000  0 37
G18         1.000    20533674.361 7 107905411.07707      -124.192 7        45.007                                    20533672.299 6  84082012.82806       -96.776 6        37.225    20533671.516 8  84082023.84108       -96.791 8        49.422
G20         2.000    25042504.064 3                     -3656.714 3        21.119
