     3.04           OBSERVATION DATA    M                   RINEX VERSION / TYPE
ssrcrin-15.6.1x                         20250101 211500 UTC PGM / RUN BY / DATE 
(00000000023479385599111004) Septentrio proprietary         COMMENT             
ract                                                        MARKER NAME         
01                                                          MARKER NUMBER       
geodetic                                                    MARKER TYPE         
NFB                 CLIMERS@TUW                             OBSERVER / AGENCY   
3296359             SEPT ASTERX SB3 PROB4.14.4              REC # / TYPE / VERS 
Unknown             Unknown                                 ANT # / TYPE        
  4127447.0215  1206915.1583  4695542.3461                  APPROX POSITION XYZ 
        0.0000        0.0000        0.0000                  ANTENNA: DELTA H/E/N
G   23 X1  C1C L1C D1C S1C C1W S1W C2W L2W D2W S2W C2L L2L  SYS / # / OBS TYPES 
       D2L S2L C5Q L5Q D5Q S5Q C1L L1L D1L S1L              SYS / # / OBS TYPES 
E   21 X1  C1C L1C D1C S1C C6C L6C D6C S6C C5Q L5Q D5Q S5Q  SYS / # / OBS TYPES 
       C7Q L7Q D7Q S7Q C8Q L8Q D8Q S8Q                      SYS / # / OBS TYPES 
S    9 X1  C1C L1C D1C S1C C5I L5I D5I S5I                  SYS / # / OBS TYPES 
R   17 X1  C1C L1C D1C S1C C2P L2P D2P S2P C2C L2C D2C S2C  SYS / # / OBS TYPES 
       C3Q L3Q D3Q S3Q                                      SYS / # / OBS TYPES 
C   25 X1  C1P L1P D1P S1P C5P L5P D5P S5P C2I L2I D2I S2I  SYS / # / OBS TYPES 
       C7I L7I D7I S7I C6I L6I D6I S6I C7D L7D D7D S7D      SYS / # / OBS TYPES 
J   17 X1  C1C L1C D1C S1C C2L L2L D2L S2L C5Q L5Q D5Q S5Q  SYS / # / OBS TYPES 
       C1L L1L D1L S1L                                      SYS / # / OBS TYPES 
I    5 X1  C5A L5A D5A S5A                                  SYS / # / OBS TYPES 
SEPTENTRIO RECEIVERS OUTPUT ALIGNED CARRIER PHASES.         COMMENT             
NO FURTHER PHASE SHIFT APPLIED IN THE RINEX ENCODER.        COMMENT             
G L1C                                                       SYS / PHASE SHIFT   
G L2W                                                       SYS / PHASE SHIFT   
G L2L  0.00000                                              SYS / PHASE SHIFT   
G L5Q  0.00000                                              SYS / PHASE SHIFT   
G L1L  0.00000                                              SYS / PHASE SHIFT   
E L1C  0.00000                                              SYS / PHASE SHIFT   
E L6C  0.00000                                              SYS / PHASE SHIFT   
E L5Q  0.00000                                              SYS / PHASE SHIFT   
E L7Q  0.00000                                              SYS / PHASE SHIFT   
E L8Q  0.00000                                              SYS / PHASE SHIFT   
S L1C                                                       SYS / PHASE SHIFT   
S L5I                                                       SYS / PHASE SHIFT   
R L1C                                                       SYS / PHASE SHIFT   
R L2P  0.00000                                              SYS / PHASE SHIFT   
R L2C                                                       SYS / PHASE SHIFT   
R L3Q  0.00000                                              SYS / PHASE SHIFT   
C L1P  0.00000                                              SYS / PHASE SHIFT   
C L5P  0.00000                                              SYS / PHASE SHIFT   
C L2I                                                       SYS / PHASE SHIFT   
C L7I                                                       SYS / PHASE SHIFT   
C L6I                                                       SYS / PHASE SHIFT   
C L7D                                                       SYS / PHASE SHIFT   
J L1C                                                       SYS / PHASE SHIFT   
J L2L  0.00000                                              SYS / PHASE SHIFT   
J L5Q  0.00000                                              SYS / PHASE SHIFT   
J L1L  0.00000                                              SYS / PHASE SHIFT   
I L5A                                                       SYS / PHASE SHIFT   
  2025     1     1    21    15    0.0000000     GPS         TIME OF FIRST OBS   
 C1C    0.000 C2C    0.000 C2P    0.000                     GLONASS COD/PHS/BIS 
DBHZ                                                        SIGNAL STRENGTH UNIT
    18                                                      LEAP SECONDS        
 24 R01  1 R02 -4 R03  5 R04  6 R05  1 R06 -4 R07  5 R08  6 GLONASS SLOT / FRQ #
    R09 -2 R10 -7 R11  0 R12 -1 R13 -2 R14 -7 R15  0 R16 -1 GLONASS SLOT / FRQ #
    R17  4 R18 -3 R19  3 R20  2 R21  4 R22 -3 R23  3 R24  2 GLONASS SLOT / FRQ #
                                                            END OF HEADER       
> 2025 01 01 21 15  0.0000000  0 39
G10         2.000    20800520.993 8 109307448.00608     -1480.369 8        50.859                                    20800522.834 5  85174635.20305     -1153.548 5        31.411    20800518.714 5  85174656.15705     -1153.576 5        31.449
G32         3.000    23698648.736 5 124537222.33405      2059.167 5        35.700                                    23698643.182 3  97041960.48303      1604.544 3        19.254    23698649.232 5  97041995.46105      1604.453 5        35.500
G23         4.000    22692909.475 5 119252099.02905     -3803.818 5        35.833                                                                                                    22692898.534 5                     -2963.898 5        31.298
E07         5.000                                                                                                                                    26915389.274 4 105621657.89804      1483.682 4        25.233    26915388.324 4                      1523.009 4        25.414
G08         6.000    20429494.663 7 107358254.92907        51.954 7        45.535                                    20429491.170 6  83655349.41006        40.484 6        36.329    20429493.623 6  83655377.40606        40.264 6        37.558
G27         7.000    20484332.140 8 107645926.34108     -2382.646 8        48.854                                    20484330.012 8  83879878.52108     -1856.606 8        50.162    20484330.088 7  83879937.52607     -1856.632 7        46.198
G21         8.000    21845765.860 5 114800261.01905      1110.607 5        35.743
G02         9.000    23817416.161 5 125161558.58505      1797.015 5        30.241                                    23817415.976 1  97528339.68101      1400.229 1         8.000
E03        11.000    27854577.453 3                     -2309.418 3        22.038                                                                                                                                    27854585.444 5 112158878.33405     -1769.120 5        32.060
E08        12.000    26151169.956 4 137425432.57804       108.524 4        24.872                                                                    26151174.524 6 102622848.01606        80.230 6        36.416    26151179.739 5 105299938.47005        82.479 5        33.635
E13        16.000    24684543.787 6 129718200.39606     -2542.770 6        38.039                                                                    24684545.618 7  96867509.54807     -1898.728 7        44.089    24684545.730 7  99394441.43007     -1948.305 7        45.520
E31        17.000    26295773.392 5 138185208.94905       427.829 5        35.667                                                                    26295773.369 6 103190386.13106       319.469 6        39.417    26295774.958 7 105882201.78707       327.794 7        44.000
G16        18.000    24318015.877 6 127792019.87606     -4598.744 6        36.125                                    24318005.747 1  99578150.68001     -3583.413 1         9.810
E26        19.000    23544965.010 5                      -278.267 5        31.917                                                                    23544965.029 6  92395573.59406      -208.050 6        39.387    23544964.295 7  94805825.64407      -213.380 7        42.775
E21        22.000    27040673.291 6 142099781.01906     -3986.779 6        36.635                                                                    27040673.728 6 106113425.65706     -2977.110 6        41.545    27040673.730 6 108881651.35506     -3054.818 6        39.607
S36        23.000    38239491.632 6 200949749.22706      -853.989 6        36.257
S23        24.000    38194824.442 6 200715114.46606      -853.228 6        40.822
R20        26.000    20185623.221 6 107941625.38806       916.414 6        41.538                                                                    20185624.768 7  83954772.96707       712.827 7        45.704
R05        27.000    21637781.564 5 115666858.62705      3167.669 5        31.306                                                                    21637776.549 4                      2463.429 4        28.758
E33        28.000    26453239.135 6 139012693.40306      1355.255 6        38.078                                                                    26453237.627 6 103808168.34506      1012.034 6        37.100    26453234.855 5 106516194.28305      1037.950 5        34.876
R19        29.000    20727111.473 6 110876028.25906     -2924.135 6        37.331                                                                    20727106.376 5  86236907.86105     -2274.234 5        34.767
R21        30.000    24101399.690 3                      2565.221 3        22.571                                                                    24101411.113 3                      1992.794 3        21.381
R04        31.000    20038185.935 7 107303538.37807      -206.309 7        46.316                                                                    20038178.386 5  83458320.49205      -160.515 5        31.894
R03        32.000    22134238.305 5 118486265.34105     -3884.468 5        34.243
C05        33.000                                                                                                                                                                                                    39223533.661 5 157936911.72005      -613.879 5        35.852
C33        37.000                                                                                                                                    22683489.280 7 118118828.12607      -382.988 7        47.683                                                                    22683500.482 7  95981316.72507      -311.151 7        42.808
C30        38.000                                                                                                                                    26688312.410 5 138973039.90805      2137.770 5        34.771                                                                    26688317.540 5                      1737.472 5        33.293
C28        40.000                                                                                                                                    21557405.503 8 112255323.37908     -1370.962 8        49.519                                                                    21557403.820 7  91216424.41807     -1113.887 7        46.378
R11        41.000    22302840.128 6 119179527.32706      -319.370 6        40.613                                                                    22302826.912 6  92695175.68906      -248.204 6        38.126
C13        45.000                                                                                                                                    39212429.807 3                     -1884.297 3        20.405    39212425.615 4                     -1459.835 4        25.669    39212414.015 4                     -1533.977 4        26.778
C08        46.000                                                                                                                                                                                                    39845445.945 4                     -1605.320 4        25.308
C14        47.000                                                                                                                                    23384602.708 7 121769751.79407     -2064.084 7        47.130    23384595.686 8  94160383.06808     -1596.066 8        48.403    23384595.496 7  98947910.34907     -1677.107 7        44.390
C41        49.000                                                                                                                                                                                                                                                                    24110843.707 6 102020867.29406      1791.155 6        39.730
I01        51.000   369194976.755 7 145659583.69607     -2192.010 7        42.040
C27        52.000                                                                                                                                    22484579.638 6 117083336.71306      1020.590 6        41.874                                                                    22484576.719 5  95139602.37405       829.480 5        34.076
C42        54.000                                                                                                                                    25118558.341 4 130798816.99104     -3351.292 4        28.701                                                                    25118548.091 5 106284783.50505     -2722.995 5        34.067
I09        55.000    37924101.337 4 148822331.97704       -92.040 4        29.204
C36        56.000                                                                                                                                                                                                                                                                    26128433.552 5 110557986.73905      -459.997 5        32.359
I06        58.000    38577916.749 6 151388193.48606      -546.121 6        36.234
> 2025 01 01 21 15  5.0000000  0 37
G10         2.000    20801930.918 8 109314856.09208     -1482.855 8        51.009                                    20801932.464 5  85180407.74405     -1155.465 5        32.754    20801925.421 5  85180428.68805     -1155.279 5        33.072
G32         3.000    23696690.666 5 124526929.18105      2058.142 5        35.729                                    23696686.288 3  97033939.86003      1603.749 3        20.881    23696690.477 6  97033974.88106      1603.716 6        36.681
G23         4.000    22696531.272 5 119271121.56205     -3804.964 5        35.057                                                                                                    22696521.098 5                     -2965.081 5        32.988
E07         5.000    26913465.032 3                      1986.127 3        22.648                                                                                                                                    26913493.438 4                      1521.907 4        28.436
G08         6.000    20429446.297 7 107358001.57507        49.350 7        44.956                                    20429443.145 6  83655151.98006        38.460 6        36.628    20429445.656 6  83655179.96306        38.425 6        37.694
G27         7.000    20486600.298 8 107657846.04908     -2385.105 8        49.139                                    20486598.502 8  83889166.60208     -1858.525 8        50.571    20486598.900 7  83889225.60707     -1858.537 7        46.598
G21         8.000    21844709.144 5 114794710.72605      1109.352 5        35.548
G02         9.000    23815701.133 3                      1796.834 3        19.672
E03        11.000                                                                                                                                                                                                    27856782.487 5 112167728.48205     -1770.584 5        30.996
E08        12.000    26151071.987 4 137424900.17804       105.557 4        25.068                                                                    26151073.900 6 102622450.44006        78.663 6        36.333    26151073.667 5 105299530.52505        80.574 5        34.271
E13        16.000    24686963.664 6 129730915.03506     -2543.185 6        38.637                                                                    24686965.382 7  96877004.23607     -1899.059 7        44.175    24686965.026 7  99404183.80807     -1948.636 7        45.199
E31        17.000    26295367.887 6 138183075.33606       425.775 6        37.153                                                                    26295367.401 6 103188792.86706       317.952 6        38.820    26295368.950 7 105880566.94607       326.263 7        43.699
G16        18.000    24322390.159 6 127815014.23706     -4598.931 6        36.620                                    24322382.491 1  99596068.34901     -3583.583 1        10.222
E26        19.000    23545231.094 5 123731020.63115      -279.266 5        34.910                                                                    23545230.452 6  92396615.00706      -208.553 6        39.147    23545229.318 6  94806894.21806      -213.986 6        41.928
E21        22.000    27044466.496 6 142119715.71206     -3986.984 6        37.289                                                                    27044466.742 6 106128311.95106     -2977.418 6        41.080    27044467.078 6 108896925.96206     -3054.821 6        39.438
S36        23.000    38240305.744 6 200954019.35406      -853.808 6        36.408
S23        24.000    38195635.532 6 200719380.70806      -853.046 6        40.689
R20        26.000    20184767.535 7 107937046.86207       914.896 7        42.263                                                                    20184768.329 7  83951211.89207       711.689 7        46.065
R05        27.000    21634813.581 4 115651026.63704      3165.817 4        27.844                                                                    21634815.704 5                      2462.036 5        31.117
E33        28.000    26451948.824 6 139005918.35706      1354.971 6        38.327                                                                    26451950.984 6 103803109.05706      1011.879 6        37.422    26451946.591 6 106511003.00906      1038.108 6        36.117
R19        29.000    20729842.200 6 110890651.67106     -2925.343 6        36.302                                                                    20729839.044 5  86248281.66405     -2275.494 5        34.919
R04        31.000    20038379.819 7 107304581.19507      -210.723 7        47.185                                                                    20038374.072 4  83459131.54304      -164.125 4        28.559
C05        33.000                                                                                                                                                                                                    39224295.616 5 157939980.95405      -613.757 5        35.629
C33        37.000                                                                                                                                    22683857.449 7 118120750.02407      -385.697 7        46.985                                                                    22683869.711 7  95982878.41607      -313.451 7        42.766
C30        38.000                                                                                                                                    26686255.333 5 138962349.77805      2138.320 5        35.200                                                                    26686264.797 5                      1737.598 5        32.838
C28        40.000                                                                                                                                    21558722.937 8 112262181.81208     -1372.431 8        49.414                                                                    21558720.849 7  91221997.46107     -1115.374 7        46.302
R11        41.000    22303134.769 6 119181133.88406      -323.433 6        40.164                                                                    22303127.331 6  92696425.20306      -251.600 6        38.883
C13        45.000                                                                                                                                    39214241.615 3                     -1886.002 3        20.690    39214240.043 4                     -1458.509 4        24.782    39214226.824 4                     -1533.520 4        27.269
C08        46.000                                                                                                                                                                                                    39847436.130 4                     -1606.408 4        24.090
C14        47.000                                                                                                                                    23386585.033 7 121780078.29107     -2066.488 7        46.604    23386579.136 8  94168368.16908     -1597.931 8        48.329    23386578.827 7  98956301.46807     -1679.364 7        44.337
C41        49.000                                                                                                                                                                                                                                                                    24108727.576 6 102011914.01506      1790.101 6        39.288
I01        51.000   369197769.551 7 145670544.03407     -2192.116 7        42.080
C27        52.000                                                                                                                                    22483600.323 7 117078236.45107      1019.569 7        42.597                                                                    22483598.359 5  95135457.97705       828.464 5        35.243
C42        54.000                                                                                                                                    25121776.164 4 130815576.73704     -3352.540 4        27.904                                                                    25121765.623 5 106298402.25305     -2724.408 5        34.700
I09        55.000    37924219.235 4 148822791.74704       -91.640 4        29.943
C36        56.000                                                                                                                                    26128964.630 4                      -569.123 4        28.180                                                                    26128978.623 5 110560292.76005      -462.158 5        32.293
I06        58.000    38578611.871 6 151390922.93906      -545.790 6        36.476
> 2025 01 01 21 15 10.0000000  0 39
G10         2.000    20803343.123 8 109322277.45408     -1485.886 8        51.067                                    20803344.643 5  85186190.61305     -1157.829 5        33.569    20803340.605 5  85186211.55905     -1157.726 5        33.455
G32         3.000    23694732.435 5 124516641.84805      2056.487 5        33.988                                    23694730.047 3  97025923.75803      1602.456 3        21.714    23694733.989 6  97025958.75906      1602.652 6        36.646
G23         4.000    22700153.192 5 119290150.84505     -3806.695 5        35.310                                                                                                    22700142.759 5  92953287.13115     -2966.464 5        34.881
E07         5.000    26911577.900 3                      1984.751 3        23.676                                                                    26911612.442 4 105606827.60104      1482.128 4        24.481    26911597.980 5                      1521.405 5        30.083
G08         6.000    20429400.248 7 107357761.43407        46.456 7        44.880                                    20429397.619 6  83654964.84906        36.203 6        37.025    20429399.863 6  83654992.84706        36.083 6        37.822
G27         7.000    20488871.035 8 107669778.87008     -2388.144 8        49.774                                    20488869.411 8  83898464.90708     -1860.891 8        51.186    20488869.600 7  83898523.91307     -1860.921 7        46.707
G21         8.000    21843652.949 5 114789166.84405      1107.929 5        34.514
E03        11.000                                                                                                                                                                                                    27858981.967 5 112176586.16405     -1772.763 5        30.770
E08        12.000    26150977.010 5 137424378.77905       102.509 5        30.574                                                                    26150975.090 6 102622061.11306        76.725 6        36.393    26150974.419 5 105299131.03705        78.765 5        34.733
E13        16.000    24689384.110 6 129743632.40306     -2544.237 6        38.898                                                                    24689385.624 7  96886500.96007     -1899.744 7        44.346    24689384.946 7  99413928.28207     -1949.368 7        44.936
E31        17.000    26294963.680 6 138180952.22106       423.335 6        38.036                                                                    26294963.356 6 103187207.42506       316.281 6        39.081    26294965.049 7 105878940.15407       324.316 7        43.630
G16        18.000    24326767.119 6 127838009.28506     -4599.162 6        36.960                                    24326759.141 1  99613986.54801     -3583.788 1        10.222
E26        19.000    23545498.120 6 123732420.00006      -280.479 6        36.268                                                                    23545496.668 6  92397659.97906      -209.529 6        39.048    23545495.336 6  94807966.43006      -214.877 6        41.116
E21        22.000    27048259.833 6 142139651.97106     -3987.632 6        37.902                                                                    27048260.328 6 106143199.37906     -2977.659 6        40.636    27048260.773 6 108912201.77506     -3055.360 6        39.171
S36        23.000    38241119.544 5 200958289.40405      -854.126 5        35.924
S23        24.000    38196447.502 6 200723646.27706      -853.323 6        40.672
R20        26.000    20183913.172 7 107932475.85707       913.084 7        42.379                                                                    20183913.370 7  83947656.65607       710.214 7        45.318
R05        27.000    21631850.998 4 115635204.39304      3164.163 4        24.030                                                                    21631856.765 5                      2460.399 5        32.820
E33        28.000    26450660.390 6 138999145.11506      1354.208 6        38.459                                                                    26450664.864 6 103798051.13406      1011.250 6        37.958    26450658.068 6 106505813.14506      1037.715 6        37.028
R19        29.000    20732577.276 5 110905283.11105     -2927.297 5        35.276                                                                    20732574.904 6  86259661.70306     -2276.935 6        36.287
R21        30.000    24096628.536 4                      2564.380 4        26.862                                                                    24096618.285 4                      1994.201 4        25.669
R04        31.000    20038579.069 7 107305646.88807      -215.753 7        47.011                                                                    20038571.903 4  83459960.41304      -167.737 4        26.814
R03        32.000                                                                                                                                    22141574.841 3                     -3024.468 3        21.262
C05        33.000                                                                                                                                                                                                    39225056.883 5 157943049.85405      -614.015 5        35.733
R10        35.000    22376962.445 4                     -3804.641 4        29.100
C33        37.000                                                                                                                                    22684227.436 7 118122686.07007      -388.836 7        45.893                                                                    22684241.281 7  95984451.62707      -316.157 7        42.688
C30        38.000                                                                                                                                    26684197.606 5 138951658.62005      2138.177 5        34.333                                                                    26684211.531 5                      1737.696 5        32.180
C28        40.000                                                                                                                                    21560041.551 8 112269048.41908     -1374.423 8        49.142                                                                    21560039.348 7  91227577.14607     -1116.966 7        46.294
R11        41.000    22303430.160 6 119182761.99906      -328.110 6        40.381                                                                    22303430.876 6  92697691.55306      -255.156 6        39.270
C13        45.000                                                                                                                                    39216050.963 3                     -1884.833 3        20.048    39216049.521 4                     -1458.702 4        24.105    39216040.152 4                     -1534.129 4        28.540
C08        46.000                                                                                                                                                                                                    39849434.436 3                     -1604.081 3        22.819
C14        47.000                                                                                                                                    23388570.214 7 121790417.70907     -2069.497 7        46.127    23388564.800 8  94176363.25808     -1600.264 8        48.443    23388564.458 7  98964703.09107     -1681.730 7        44.767
C41        49.000                                                                                                                                    24106594.219 5                      2201.535 5        33.251                                                                    24106612.743 6 102002966.01706      1788.877 6        38.571
I01        51.000   369200562.864 6 145681505.59606     -2192.655 6        41.914
C27        52.000                                                                                                                                    22482622.956 7 117073141.49607      1018.249 7        42.495                                                                    22482620.375 6  95131317.90206       827.459 6        36.370
C42        54.000                                                                                                                                                                                                                                                                    25124985.615 5 106312027.89005     -2726.016 5        35.814
I09        55.000    37924337.181 4 148823252.34604       -92.315 4        29.564
C36        56.000                                                                                                                                    26129519.844 5                      -571.699 5        31.011                                                                    26129526.022 5 110562609.10905      -464.593 5        32.287
I06        58.000    38579307.085 6 151393651.93706      -545.896 6        36.042
> 2025 01 01 21 15 15.0000000  0 38
G10         2.000    20804757.731 8 109329712.57908     -1488.250 8        50.797                                    20804758.999 5  85191984.18305     -1159.668 5        34.133    20804757.591 5  85192005.17905     -1159.724 5        33.994
G32         3.000    23692774.805 5 124506360.83405      2055.698 5        33.581                                    23692774.665 3  97017912.58703      1601.827 3        21.952    23692776.592 5  97017947.62505      1601.923 5        35.995
G23         4.000    22703775.548 5 119309187.39805     -3807.988 5        34.624                                                                                                    22703762.347 5  92968120.79105     -2967.136 5        35.538
E07         5.000    26909686.618 3                      1984.786 3        22.762                                                                    26909717.058 4 105599416.04004      1482.042 4        25.113    26909710.852 5                      1520.776 5        30.853
G08         6.000    20429357.692 7 107357535.05707        43.940 7        45.845                                    20429354.700 6  83654788.44506        34.239 6        37.573    20429356.926 6  83654816.44106        34.184 6        38.760
G27         7.000    20491144.577 8 107681725.31108     -2390.550 8        50.480                                    20491142.815 8  83907773.82408     -1862.768 8        51.694    20491142.959 7  83907832.82207     -1862.758 7        46.592
G21         8.000    21842597.767 5 114783629.90105      1106.849 5        32.796
G02         9.000    23812353.068 5                      1795.041 5        30.709
E03        11.000                                                                                                                                                                                                    27861183.016 5 112185451.82305     -1773.924 5        30.264
E08        12.000    26150879.702 5 137423868.89905       101.048 5        33.443                                                                    26150878.259 6 102621680.39806        75.408 6        36.125    26150877.400 5 105298740.44505        77.106 5        35.067
E13        16.000    24691804.870 6 129756353.01206     -2544.330 6        39.712                                                                    24691806.181 7  96896000.11707     -1899.975 7        44.343    24691805.516 7  99423675.24707     -1949.543 7        44.728
E31        17.000    26294560.646 6 138178840.12706       421.302 6        38.006                                                                    26294561.350 6 103185630.22506       314.690 6        38.904    26294563.133 7 105877321.80207       322.786 7        43.761
G16        18.000    24331143.238 6 127861005.58606     -4599.354 6        37.353                                    24331136.502 1  99631905.72101     -3583.884 1         8.762
E26        19.000    23545766.110 6 123733824.62006      -281.280 6        37.781                                                                    23545764.065 6  92398708.90006      -210.088 6        38.793    23545762.476 6  94809042.72106      -215.564 6        40.236
E21        22.000    27052053.630 6 142159590.30206     -3987.778 6        38.565                                                                    27052054.291 6 106158088.36006     -2977.833 6        40.231    27052054.837 6 108927479.16906     -3055.389 6        39.045
S36        23.000    38241929.118 5 200962559.29805      -853.788 5        35.881
S23        24.000    38197258.748 6 200727911.96306      -853.049 6        40.477
R20        26.000    20183059.426 7 107927912.96007       911.865 7        42.313                                                                    20183060.286 7  83944107.75107       709.119 7        45.055
R05        27.000    21628895.533 3                      3167.671 3        19.672                                                                    21628901.434 5  89925783.61815      2458.839 5        34.595
E33        28.000    26449374.342 6 138992374.25406      1354.024 6        38.736                                                                    26449378.304 6 103792994.95606      1011.185 6        38.562    26449370.012 6 106500625.09306      1037.391 6        37.690
R19        29.000    20735313.933 5 110919922.99805     -2928.823 5        35.214                                                                    20735311.274 6  86271048.25006     -2277.691 6        37.255
R21        30.000    24094243.555 4                      2565.214 4        28.265                                                                    24094230.510 4                      1993.634 4        27.245
R04        31.000    20038781.854 7 107306735.92207      -220.020 7        46.587                                                                    20038779.802 5  83460807.47605      -171.156 5        30.128
R03        32.000                                                                                                                                    22145210.355 4                     -3028.524 4        25.278
C05        33.000                                                                                                                                                                                                    39225819.362 5 157946118.80405      -613.623 5        35.281
C33        37.000                                                                                                                                    22684600.975 7 118124636.79307      -391.501 7        44.039                                                                    22684615.221 6  95986036.72606      -318.071 6        41.900
C30        38.000                                                                                                                                    26682146.189 5 138940966.94105      2138.551 5        34.710                                                                    26682158.810 5                      1737.745 5        30.038
C28        40.000                                                                                                                                    21561362.003 8 112275923.69708     -1375.823 8        49.197                                                                    21561359.471 7  91233163.85307     -1117.846 7        46.190
R11        41.000    22303736.258 6 119184412.20206      -332.173 6        40.765                                                                    22303739.566 6  92698975.05406      -258.227 6        38.928
C13        45.000                                                                                                                                    39217859.386 3                     -1889.685 3        20.024    39217865.424 3                     -1460.146 3        23.333    39217852.742 4                     -1533.941 4        28.322
C14        47.000                                                                                                                                    23390558.463 7 121800770.61207     -2071.844 7        45.503    23390553.309 8  94184368.77508     -1602.040 8        48.255    23390552.752 7  98973115.65607     -1683.391 7        45.014
C41        49.000                                                                                                                                    24104483.251 6                      2200.506 6        36.276                                                                    24104498.567 6 101994023.71406      1787.930 6        36.866
I01        51.000   369203356.802 7 145692468.77807     -2192.843 7        42.044
C27        52.000                                                                                                                                    22481645.433 7 117068052.40707      1017.308 7        42.337                                                                    22481643.976 6  95127182.56406       826.855 6        37.701
C42        54.000                                                                                                                                                                                                                                                                    25128206.916 6 106325660.84006     -2727.093 6        36.253
I09        55.000    37924455.019 5 148823714.17905       -92.457 5        30.430
C36        56.000                                                                                                                                    26130075.993 5                      -574.165 5        31.841                                                                    26130075.868 5 110564936.12805      -466.173 5        32.964
I06        58.000    38580002.738 6 151396380.83806      -546.006 6        36.011
> 2025 01 01 21 15 20.0000000  0 36
G10         2.000    20806175.269 8 109337161.83708     -1491.156 8        50.314                                    20806175.413 5  85197788.77205     -1161.924 5        34.262    20806171.554 5  85197809.78705     -1162.239 5        33.377
G32         3.000    23690820.377 5 124496086.50405      2054.392 5        34.190                                    23690820.400 3  97009906.63103      1600.814 3        21.881    23690818.964 5  97009941.69305      1600.768 5        35.195
G23         4.000    22707398.916 5 119328231.55405     -3809.510 5        34.367                                                                                                    22707387.843 6  92982960.36206     -2968.445 6        36.597
E07         5.000    26907798.533 3                      1985.417 3        20.095                                                                    26907827.451 4 105592007.14104      1481.394 4        25.910    26907824.847 5                      1520.139 5        31.441
G08         6.000    20429318.260 7 107357322.78207        41.168 7        46.846                                    20429314.451 6  83654623.03206        32.078 6        38.270    20429316.389 6  83654651.01906        31.956 6        39.988
G27         7.000    20493420.675 8 107693685.72508     -2393.463 8        50.897                                    20493418.759 8  83917093.62608     -1865.035 8        52.208    20493418.610 7  83917152.61507     -1864.969 7        46.769
G21         8.000    21841547.950 4 114778100.32604      1105.295 4        28.142
E03        11.000                                                                                                                                                                                                    27863385.980 4 112194325.77604     -1775.965 4        29.336
E08        12.000    26150785.821 5 137423371.00805        98.355 5        35.248                                                                    26150784.179 5 102621308.60505        73.535 5        35.786    26150781.976 5 105298358.94305        75.413 5        35.819
E13        16.000    24694226.811 6 129769077.24906     -2545.158 6        40.234                                                                    24694227.396 7  96905501.97407     -1900.634 7        44.384    24694226.977 7  99433424.98507     -1950.133 7        44.408
E31        17.000    26294160.345 6 138176739.44606       418.938 6        38.126                                                                    26294161.588 6 103184061.53406       312.856 6        39.336    26294163.222 7 105875712.18007       321.065 7        43.903
G16        18.000    24335518.818 6 127884003.44806     -4599.599 6        36.813                                    24335513.236 1  99649826.08201     -3584.020 1        10.518
E26        19.000    23546034.100 6 123735234.87206      -282.366 6        37.134                                                                    23546032.415 6  92399762.03206      -210.973 6        39.117    23546030.950 6  94810123.30406      -216.539 6        39.132
E21        22.000    27055848.467 6 142179531.03306     -3988.284 6        38.700                                                                    27055848.930 6 106172979.14706     -2978.287 6        39.904    27055849.060 6 108942758.43006     -3056.138 6        38.655
S36        23.000    38242742.457 5 200966829.21505      -853.730 5        35.952
S23        24.000    38198073.170 6 200732178.02406      -853.061 6        40.667
R20        26.000    20182207.775 7 107923358.52607       910.178 7        42.684                                                                    20182208.968 7  83940565.42207       707.854 7        45.071
R05        27.000                                                                                                                                    21625947.893 5  89913493.68805      2457.318 5        35.486
E33        28.000    26448088.011 6 138985606.08306      1353.559 6        38.051                                                                    26448091.534 6 103787940.82906      1010.672 6        38.925    26448082.433 6 106495439.11606      1037.056 6        38.589
R19        29.000    20738051.178 5 110934571.72605     -2930.472 5        34.233                                                                    20738049.482 6  86282441.74706     -2279.229 6        37.807
R21        30.000    24091849.225 5                      2564.667 5        30.279                                                                    24091839.936 4                      1994.796 4        27.269
R04        31.000    20038991.294 7 107307848.70707      -224.793 7        46.571                                                                    20038988.081 5  83461672.93905      -174.936 5        30.287
C05        33.000                                                                                                                                                                                                    39226581.644 5 157949188.09405      -613.898 5        35.686
C33        37.000                                                                                                                                    22684978.879 7 118126602.53807      -394.582 7        42.626                                                                    22684992.070 6  95987634.04806      -320.506 6        40.896
C30        38.000                                                                                                                                    26680095.951 5 138930275.13105      2138.509 5        34.052                                                                    26680106.465 4                      1737.574 4        28.379
C28        40.000                                                                                                                                    21562684.004 8 112282807.99508     -1377.640 8        49.542                                                                    21562681.441 7  91238757.93207     -1119.479 7        45.985
R11        41.000    22304051.307 6 119186084.92606      -336.656 6        40.293                                                                    22304051.474 6  92700276.08606      -261.904 6        38.847
C13        45.000                                                                                                                                    39219675.955 3                     -1887.175 3        20.167    39219679.293 4                     -1460.001 4        25.008    39219665.739 4                     -1533.506 4        28.427
C14        47.000                                                                                                                                    23392548.904 7 121811137.29507     -2074.641 7        44.880    23392544.650 8  94192384.96508     -1604.298 8        48.351    23392543.623 7  98981539.45207     -1685.874 7        45.077
C41        49.000                                                                                                                                    24102372.734 6                      2198.831 6        38.811                                                                    24102384.750 5 101985087.40105      1786.699 5        33.485
I01        51.000   369206151.332 7 145703433.81607     -2193.133 7        42.013
C27        52.000                                                                                                                                    22480669.186 6 117062969.52006      1016.003 6        41.871                                                                    22480668.643 6  95123052.29906       825.508 6        38.715
C42        54.000                                                                                                                                                                                                                                                                    25131430.204 6 106339301.35506     -2728.837 6        36.446
I09        55.000    37924574.278 5 148824177.39005       -92.682 5        30.098
C36        56.000                                                                                                                                                                                                                                                                    26130628.390 5 110567274.25305      -468.827 5        32.096
I06        58.000    38580698.288 5 151399109.89905      -545.860 5        35.805
> 2025 01 01 21 15 25.0000000  0 38
G10         2.000    20807595.400 8 109344624.86608     -1494.144 8        50.074                                    20807594.115 5  85203604.09405     -1164.266 5        34.095    20807587.605 5  85203625.13305     -1164.548 5        30.468
G32         3.000    23688867.583 5 124485818.58905      2052.699 5        33.443                                    23688866.780 3  97001905.67703      1599.507 3        20.571    23688865.145 5  97001940.70505      1599.811 5        33.647
G23         4.000    22711023.772 5 119347282.92405     -3811.147 5        34.300                                                                                                    22711014.163 6  92997805.56606     -2969.830 6        37.009
E07         5.000    26905920.698 3                      1983.375 3        18.896                                                                    26905939.642 4 105584600.75804      1480.784 4        25.759    26905939.303 5                      1519.650 5        32.168
G08         6.000    20429280.685 7 107357124.28207        38.177 7        47.761                                    20429276.805 6  83654468.34806        29.745 6        38.447    20429278.398 6  83654496.34106        29.771 6        39.417
G27         7.000    20495699.025 8 107705659.75308     -2396.381 8        51.421                                    20495697.208 8  83926424.03708     -1867.308 8        52.444    20495697.410 7  83926483.02707     -1867.254 7        46.815
G21         8.000    21840491.198 4 114772577.65504      1102.886 4        26.527
G02         9.000    23808913.746 5 125116703.26015      1793.696 5        35.619
E03        11.000                                                                                                                                                                                                    27865590.095 4 112203207.81704     -1777.696 4        29.318
E08        12.000    26150695.970 6 137422884.69206        96.080 6        37.025                                                                    26150692.990 5 102620945.48005        71.689 5        35.548    26150689.565 6 105297986.34606        73.421 6        36.242
E13        16.000    24696648.868 6 129781804.74306     -2545.900 6        40.155                                                                    24696649.312 7  96915006.26907     -1901.222 7        44.454    24696649.075 7  99443177.23107     -1950.843 7        44.301
E31        17.000    26293762.837 6 138174649.76706       416.715 6        38.285                                                                    26293763.920 6 103182501.06306       311.211 6        39.141    26293765.606 7 105874110.99107       319.261 7        43.549
G16        18.000    24339895.327 6 127907002.50506     -4600.112 6        36.635                                    24339889.797 1  99667747.40801     -3584.519 1        11.111
E26        19.000    23546302.939 6 123736650.42906      -283.828 6        36.715                                                                    23546301.864 6  92400819.10006      -211.984 6        39.459    23546300.435 6  94811207.96206      -217.453 6        38.210
E21        22.000    27059642.957 6 142199473.81606     -3988.841 6        38.279                                                                    27059644.352 6 106187871.46406     -2978.616 6        39.676    27059643.920 6 108958039.22706     -3056.382 6        38.354
S36        23.000    38243552.643 5 200971099.27605      -854.019 5        35.910
S23        24.000    38198884.268 6 200736444.09006      -853.431 6        40.751
R20        26.000    20181357.712 7 107918812.24807       908.219 7        42.944                                                                    20181358.851 7  83937029.41307       706.457 7        45.278
R05        27.000    21622991.945 4                      3157.083 4        26.395                                                                    21622993.451 5  89901212.00105      2455.555 5        35.400
E33        28.000    26446798.504 5 138978840.36105      1352.784 5        35.971                                                                    26446804.753 6 103782888.49106      1010.260 6        38.778    26446794.968 6 106490254.95906      1036.558 6        39.129
R19        29.000    20740792.898 5 110949228.97905     -2932.589 5        33.707                                                                    20740789.853 6  86293841.78506     -2280.691 6        38.604
R21        30.000    24089453.947 5                      2564.779 5        32.850
R04        31.000    20039209.624 7 107308984.91507      -229.737 7        46.513                                                                    20039198.212 5  83462556.63405      -178.637 5        30.113
C05        33.000                                                                                                                                                                                                    39227343.720 5 157952257.44405      -613.833 5        35.271
C33        37.000                                                                                                                                    22685360.715 6 118128582.95306      -397.706 6        40.806                                                                    22685371.434 6  95989243.28806      -323.073 6        39.823
C30        38.000                                                                                                                                    26678046.099 5 138919582.79705      2138.650 5        30.996                                                                    26678056.539 4                      1737.776 4        28.493
C28        40.000                                                                                                                                    21564007.458 8 112289700.98908     -1379.668 8        48.834                                                                    21564005.011 7  91244359.06707     -1121.001 7        45.902
R11        41.000    22304369.954 7 119187779.77907      -341.245 7        42.138                                                                    22304368.804 6  92701594.31806      -265.539 6        40.286
C13        45.000                                                                                                                                    39221487.687 3                     -1891.726 3        20.048    39221490.792 3                     -1459.765 3        22.667    39221478.826 4                     -1533.821 4        28.673
C08        46.000                                                                                                                                                                                                    39855435.273 3                     -1605.082 3        23.581
C14        47.000                                                                                                                                    23394541.295 7 121821517.44307     -2077.507 7        44.078    23394538.278 8  94200411.56608     -1606.479 8        48.472    23394537.124 7  98989974.17207     -1688.062 7        45.431
C41        49.000                                                                                                                                    24100262.940 6 125496370.69616      2197.236 6        39.435                                                                    24100268.184 5 101976156.75705      1785.882 5        30.008
I01        51.000   369208945.816 7 145714400.50107     -2193.613 7        42.207
C27        52.000                                                                                                                                    22479694.161 7 117057892.46107      1014.745 7        42.032                                                                    22479694.017 6  95118926.76806       824.581 6        39.964
C42        54.000                                                                                                                                    25134644.023 5                     -3360.108 5        31.887                                                                    25134655.558 6 106352949.14306     -2730.401 6        36.851
I09        55.000    37924692.064 5 148824641.85305       -93.270 5        30.687
C36        56.000                                                                                                                                    26131203.079 6                      -579.591 6        37.418                                                                    26131183.247 5 110569623.04805      -470.492 5        31.872
I06        58.000    38581393.554 5 151401838.90005      -545.995 5        35.857
> 2025 01 01 21 15 30.0000000  0 38
G10         2.000    20809017.993 8 109352101.29008     -1496.766 8        49.171                                    20809015.031 5  85209429.87605     -1166.307 5        34.067    20809013.048 4  85209450.90804     -1166.558 4        29.716
G32         3.000    23686914.455 5 124475556.64705      2051.634 5        31.457                                    23686914.139 3  96993909.38003      1598.644 3        18.806    23686912.183 5  96993944.42405      1598.619 5        31.434
G23         4.000    22714648.329 5 119366341.20505     -3812.657 5        34.852                                                                                                    22714642.183 6  93012656.08506     -2970.895 6        36.348
E07         5.000    26904035.761 3                      1981.475 3        21.476                                                                    26904048.215 4 105577196.69004      1480.618 4        26.240    26904052.385 5                      1519.105 5        31.736
