     3.04           OBSERVATION DATA    M                   RINEX VERSION / TYPE
ssrcrin-15.6.1x                         20250101 214500 UTC PGM / RUN BY / DATE 
(00000000023479385599111004) Septentrio proprietary         COMMENT             
ract                                                        MARKER NAME         
01                                                          MARKER NUMBER       
geodetic                                                    MARKER TYPE         
NFB                 CLIMERS@TUW                             OBSERVER / AGENCY   
3296359             SEPT ASTERX SB3 PROB4.14.4              REC # / TYPE / VERS 
Unknown             Unknown                                 ANT # / TYPE        
  4127447.8255  1206914.9896  4695543.7468                  APPROX POSITION XYZ 
        0.0000        0.0000        0.0000                  ANTENNA: DELTA H/E/N
G   23 X1  C1C L1C D1C S1C C1W S1W C2W L2W D2W S2W C2L L2L  SYS / # / OBS TYPES 
       D2L S2L C5Q L5Q D5Q S5Q C1L L1L D1L S1L              SYS / # / OBS TYPES 
E   21 X1  C1C L1C D1C S1C C6C L6C D6C S6C C5Q L5Q D5Q S5Q  SYS / # / OBS TYPES 
       C7Q L7Q D7Q S7Q C8Q L8Q D8Q S8Q                      SYS / # / OBS TYPES 
S    9 X1  C1C L1C D1C S1C C5I L5I D5I S5I                  SYS / # / OBS TYPES 
R   17 X1  C1C L1C D1C S1C C2P L2P D2P S2P C2C L2C D2C S2C  SYS / # / OBS TYPES 
       C3Q L3Q D3Q S3Q                                      SYS / # / OBS TYPES 
C   25 X1  C1P L1P D1P S1P C5P L5P D5P S5P C2I L2I D2I S2I  SYS / # / OBS TYPES 
       C7I L7I D7I S7I C6I L6I D6I S6I C7D L7D D7D S7D      SYS / # / OBS TYPES 
J   17 X1  C1C L1C D1C S1C C2L L2L D2L S2L C5Q L5Q D5Q S5Q  SYS / # / OBS TYPES 
       C1L L1L D1L S1L                                      SYS / # / OBS TYPES 
I    5 X1  C5A L5A D5A S5A                                  SYS / # / OBS TYPES 
SEPTENTRIO RECEIVERS OUTPUT ALIGNED CARRIER PHASES.         COMMENT             
NO FURTHER PHASE SHIFT APPLIED IN THE RINEX ENCODER.        COMMENT             
G L1C                                                       SYS / PHASE SHIFT   
G L2W                                                       SYS / PHASE SHIFT   
G L2L  0.00000                                              SYS / PHASE SHIFT   
G L5Q  0.00000                                              SYS / PHASE SHIFT   
G L1L  0.00000                                              SYS / PHASE SHIFT   
E L1C  0.00000                                              SYS / PHASE SHIFT   
E L6C  0.00000                                              SYS / PHASE SHIFT   
E L5Q  0.00000                                              SYS / PHASE SHIFT   
E L7Q  0.00000                                              SYS / PHASE SHIFT   
E L8Q  0.00000                                              SYS / PHASE SHIFT   
S L1C                                                       SYS / PHASE SHIFT   
S L5I                                                       SYS / PHASE SHIFT   
R L1C                                                       SYS / PHASE SHIFT   
R L2P  0.00000                                              SYS / PHASE SHIFT   
R L2C                                                       SYS / PHASE SHIFT   
R L3Q  0.00000                                              SYS / PHASE SHIFT   
C L1P  0.00000                                              SYS / PHASE SHIFT   
C L5P  0.00000                                              SYS / PHASE SHIFT   
C L2I                                                       SYS / PHASE SHIFT   
C L7I                                                       SYS / PHASE SHIFT   
C L6I                                                       SYS / PHASE SHIFT   
C L7D                                                       SYS / PHASE SHIFT   
J L1C                                                       SYS / PHASE SHIFT   
J L2L  0.00000                                              SYS / PHASE SHIFT   
J L5Q  0.00000                                              SYS / PHASE SHIFT   
J L1L  0.00000                                              SYS / PHASE SHIFT   
I L5A                                                       SYS / PHASE SHIFT   
  2025     1     1    21    45    0.0000000     GPS         TIME OF FIRST OBS   
 C1C    0.000 C2C    0.000 C2P    0.000                     GLONASS COD/PHS/BIS 
DBHZ                                                        SIGNAL STRENGTH UNIT
    18                                                      LEAP SECONDS        
 24 R01  1 R02 -4 R03  5 R04  6 R05  1 R06 -4 R07  5 R08  6 GLONASS SLOT / FRQ #
    R09 -2 R10 -7 R11  0 R12 -1 R13 -2 R14 -7 R15  0 R16 -1 GLONASS SLOT / FRQ #
    R17  4 R18 -3 R19  3 R20  2 R21  4 R22 -3 R23  3 R24  2 GLONASS SLOT / FRQ #
                                                            END OF HEADER       
> 2025 01 01 21 45  0.0000000  0 39
G14         1.000    24801276.309 4                      1452.714 4        28.929                                                                                                    24801287.634 4                      1132.134 4        27.389
G10         2.000    21168540.064 8 111241407.45908     -2387.192 8        49.726                                    21168539.348 7  86681616.58307     -1860.146 7        45.530    21168539.735 7  86681637.55807     -1860.076 7        44.352
G32         3.000    22790816.467 6 119766552.79906      1437.507 6        36.567                                    22790813.300 3  93324584.42703      1120.128 3        22.571    22790815.893 5  93324582.47705      1120.062 5        31.502
G23         4.000    23770020.923 4 124912381.32904     -4189.681 4        29.355                                                                                                    23770032.880 4  97334306.02104     -3264.676 4        29.943
E07         5.000    25990126.972 6 136579077.38606      1627.126 6        38.619                                                                    25990130.105 5 101990878.29005      1215.073 5        35.581    25990133.234 7 104651465.64507      1246.667 7        42.100
G08         6.000    20288620.888 8 106617956.46208      -995.180 8        49.539                                    20288616.811 7  83078493.70907      -775.462 7        44.160    20288619.753 6  83078521.70706      -775.653 6        37.580
G27         7.000    21161860.835 5 111206292.04005     -3298.196 5        34.967                                    21161855.131 5  86654251.19405     -2570.025 5        31.940    21161854.912 6  86654262.16506     -2570.070 6        38.739
G21         8.000    21253447.164 6 111687613.08106       592.450 6        39.652                                    21253440.554 3  87029285.39303       461.638 3        19.134
G02         9.000    22944126.900 4 120572355.17204      1544.439 4        25.444                                    22944122.284 1  93952366.74801      1203.539 1         8.762
E08        12.000    25962281.385 6 136432700.83906      -764.624 6        38.159                                                                    25962279.251 6 101881602.34506      -570.695 6        38.024    25962278.450 6 104539356.93306      -585.660 6        39.757
R10        15.000    23494106.164 5                     -4545.336 5        30.113
E13        16.000    25293642.729 6 132919032.41906     -2757.040 6        41.721                                                                    25293643.450 6  99257740.30106     -2058.838 6        40.603    25293643.034 7 101847026.04407     -2112.564 7        42.019
E31        17.000    25991542.141 5 136586451.09105      -414.957 5        32.192                                                                    25991570.920 5 101996510.74805      -310.060 5        33.006
E26        19.000    23405126.158 8 122994754.16508      -652.610 8        48.703                                                                    23405123.390 8  91846805.88508      -487.334 8        48.380    23405123.266 8  94242742.29908      -500.025 8        49.035
C08        21.000                                                                                                                                                                                                    40255546.610 4                     -1564.873 4        24.662
E21        22.000    28119477.048 3                     -4025.517 3        21.738                                                                    28119479.528 3                     -3006.436 3        20.143
S36        23.000    38232375.657 6 200912370.90006      -853.565 6        36.072
S23        24.000    38187379.150 6 200675986.77906      -852.214 6        40.894
R20        26.000    19683435.847 6 105256208.52906       261.371 6        38.252                                                                    19683436.799 6  81866115.63906       203.111 6        39.303
R05        27.000    20424523.210 6 109181025.93006      2179.376 6        40.567                                                                    20424520.333 6  84918388.82106      1694.905 6        38.099
E33        28.000    25718985.753 5 135154144.43705      1181.086 5        31.464                                                                    25718977.037 6 100926792.39406       881.842 6        37.837    25718978.885 7 103559669.78907       904.938 7        42.089
R19        29.000    21511546.398 5                     -3510.571 5        32.737                                                                    21511537.407 5                     -2730.527 5        30.981
R21        30.000    22937603.124 6 122743988.09906      2555.266 6        39.853                                                                    22937622.482 5  95467443.82105      1987.387 5        32.287
R04        31.000    20091538.724 7 107589252.99407     -1883.041 7        47.698                                                                    20091535.230 7  83680543.57107     -1464.580 7        42.163
R03        32.000    23304044.230 4                     -4774.578 4        29.393                                                                    23304015.459 5                     -3713.596 5        32.689
C05        33.000                                                                                                                                                                                                    39199267.078 5 157839188.62605      -617.605 5        34.324
C33        37.000                                                                                                                                    22698148.568 7 118195219.47207     -1428.139 7        46.944                                                                    22698159.677 7  96043421.83007     -1160.347 7        45.539
C30        38.000                                                                                                                                    25648350.433 5                      2129.072 5        34.405                                                                    25648364.292 4                      1730.815 4        26.754
C28        40.000                                                                                                                                    21841023.983 8 113732204.00308     -2006.369 8        53.141                                                                    21841021.993 7  92416510.91707     -1630.245 7        46.922
R11        41.000    22377875.480 7 119580467.21607     -1889.701 7        42.095                                                                    22377859.377 5                     -1469.551 5        30.996
I01        44.000   369927175.786 6 148532924.00506     -2306.329 6        37.497
C13        45.000                                                                                                                                    39562370.287 5                     -1863.883 5        32.126
C14        47.000                                                                                                                                    23955471.265 7 124742563.77407     -2938.261 7        44.372    23955465.680 6  96458585.93706     -2271.849 6        40.319    23955471.021 4 101363429.48604     -2387.731 4        29.791
C41        49.000                                                                                                                                    23150220.261 6 120549300.17806      1581.839 6        39.150                                                                    23150232.008 5  97956203.57305      1285.491 5        33.922
C27        52.000                                                                                                                                    21912350.177 6 114103340.26306       534.313 6        41.774                                                                    21912361.878 5  92718328.74305       434.155 5        34.471
C42        54.000                                                                                                                                    26074330.255 4                     -3868.267 4        28.464
C36        56.000                                                                                                                                    26187006.555 5                     -1495.585 5        31.336                                                                    26186979.941 5 110805724.92405     -1215.393 5        34.738
I06        58.000    38527132.049 7 151188899.25607      -538.905 7        42.061
I09        59.000    37686421.814 5 147889609.41605      -178.480 5        31.094
> 2025 01 01 21 45  5.0000000  0 38
G10         2.000    21170812.214 8 111253348.51408     -2389.194 8        49.107                                    21170811.804 7  86690921.30707     -1861.704 7        45.445    21170811.381 7  86690942.29307     -1861.776 7        44.150
G32         3.000    22789451.864 6 119759370.80106      1435.448 6        38.213                                    22789447.403 3  93318988.08103      1118.533 3        22.876    22789449.028 5  93318986.12805      1118.848 5        31.306
G23         4.000    23774008.731 5 124933331.02405     -4190.399 5        30.083                                                                                                    23774020.801 4  97350630.48004     -3265.212 4        29.554
E07         5.000    25988579.308 6 136570945.05106      1625.891 6        39.126                                                                    25988581.109 5 101984805.46105      1214.173 5        34.395    25988585.742 7 104645234.38007      1245.739 7        42.419
G08         6.000    20289569.218 8 106622939.25808      -998.033 8        50.240                                    20289564.469 7  83082376.40607      -777.688 7        43.554    20289567.832 6  83082404.40006      -777.628 6        37.081
G27         7.000    21165002.624 5 111222789.09505     -3300.509 5        34.710                                    21164994.304 5  86667106.03405     -2571.841 5        30.370    21164993.555 6  86667117.02106     -2571.914 6        38.108
G21         8.000    21252884.348 6 111684654.65806       591.203 6        38.027                                    21252878.539 3  87026980.12903       460.675 3        18.687
G02         9.000    22942665.202 4 120564637.47004      1543.092 4        29.081                                    22942653.879 1  93946352.99701      1202.432 1         7.125
E08        12.000    25963009.686 6 136436529.19606      -766.963 6        39.360                                                                    25963007.603 6 101884461.23306      -572.741 6        37.032    25963006.894 6 104542290.39806      -587.584 6        39.498
R10        15.000    23498364.705 4                     -4546.796 4        28.910
E13        16.000    25296266.136 6 132932818.51306     -2757.353 6        41.406                                                                    25296266.691 6  99268035.10306     -2059.033 6        40.205    25296266.229 7 101857589.41107     -2112.889 7        42.104
E31        17.000    25991937.620 5 136588532.13905      -417.339 5        30.891                                                                    25991968.505 5 101998064.81205      -311.845 5        32.012    25991959.960 3                      -321.490 3        19.881
E26        19.000    23405747.311 8 122998019.63808      -653.471 8        48.657                                                                    23405744.854 8  91849244.39508      -488.034 8        48.249    23405744.705 8  94245244.42708      -500.759 8        49.314
E21        22.000    28123304.167 3                     -4022.052 3        20.452                                                                    28123307.831 3                     -3006.065 3        19.463
S36        23.000    38233187.413 6 200916638.30206      -853.417 6        36.178
S23        24.000    38188192.860 6 200680247.49306      -851.934 6        40.880
R12        25.000    24130482.819 6 128900690.67416      1673.309 6        37.868                                                                    24130494.590 4                      1301.658 4        25.985
R20        26.000    19683192.575 6 105254906.78106       259.347 6        38.201                                                                    19683191.582 6  81865103.13906       201.917 6        36.786
R05        27.000    20422485.619 7 109170137.42607      2176.082 7        42.485                                                                    20422482.633 6  84909919.97306      1692.638 6        37.747
E33        28.000    25717857.013 5 135148240.06205      1180.780 5        30.181                                                                    25717852.482 6 100922383.32406       881.667 6        37.304    25717854.943 6 103555145.69006       904.762 6        41.864
R19        29.000    21514824.496 5                     -3514.319 5        34.043                                                                    21514819.202 5                     -2731.596 5        30.740
R21        30.000    22935225.074 6 122731211.33306      2555.350 6        40.741                                                                    22935234.206 5  95457506.28705      1987.957 5        31.230
R04        31.000    20093300.240 8 107598678.69408     -1887.319 8        48.933                                                                    20093296.116 6  83687874.66206     -1468.030 6        41.600
R03        32.000                                                                                                                                    23308482.037 5                     -3714.874 5        33.886
C05        33.000                                                                                                                                                                                                    39200033.657 5 157842276.76505      -617.394 5        34.405
C33        37.000                                                                                                                                    22699521.019 7 118202366.76407     -1430.805 7        46.351                                                                    22699532.336 7  96049229.61107     -1162.689 7        45.521
C30        38.000                                                                                                                                    25646298.085 5 133547060.44715      2129.011 5        32.623                                                                    25646320.864 4                      1730.367 4        28.180
C28        40.000                                                                                                                                    21842951.452 8 113742239.58008     -2007.886 8        53.004                                                                    21842949.227 7  92424665.66507     -1631.737 7        47.229
R11        41.000    22379643.600 7 119589925.48617     -1893.565 7        42.506                                                                    22379628.431 5                     -1472.784 5        30.574
I01        44.000   369930115.311 6 148544456.13106     -2306.532 6        37.675
C13        45.000                                                                                                                                    39564164.445 5                     -1863.763 5        31.796    39564191.237 3                     -1440.091 3        22.971
C14        47.000                                                                                                                                    23958293.200 7 124757259.60007     -2940.151 7        44.134    23958288.051 6  96469949.66906     -2273.535 6        38.901
C41        49.000                                                                                                                                    23148700.487 6 120541395.44906      1579.941 6        37.985                                                                    23148713.106 5  97949780.30105      1283.793 5        33.605
C27        52.000                                                                                                                                    21911838.690 6 114100671.97406       532.946 6        41.526                                                                    21911849.399 5  92716160.51705       432.903 5        35.162
C42        54.000                                                                                                                                    26078051.289 4                     -3869.800 4        27.545
C36        56.000                                                                                                                                                                                                                                                                    26188416.501 5 110811806.67205     -1217.120 5        33.719
I06        58.000    38527818.581 7 151191593.32207      -538.682 7        42.015
I09        59.000    37686649.952 5 147890502.73905      -178.963 5        31.102
> 2025 01 01 21 45 10.0000000  0 40
G14         1.000    24798487.854 5                      1448.308 5        34.090
G10         2.000    21173086.660 8 111265300.96408     -2391.577 8        48.679                                    21173086.322 7  86700234.90507     -1863.566 7        45.582    21173085.417 7  86700255.88507     -1863.613 7        43.699
G32         3.000    22788087.514 6 119752199.81206      1433.154 6        40.379                                    22788083.258 3  93313400.30603      1116.740 3        22.343    22788083.381 4  93313398.39204      1116.708 4        29.156
G23         4.000    23777993.978 5 124954284.46405     -4191.141 5        31.389                                                                                                    23778007.758 4  97366957.81804     -3265.879 4        29.147
E07         5.000    25987032.879 6 136562819.48606      1624.601 6        39.565                                                                    25987033.923 5 101978737.70005      1212.945 5        33.353    25987039.671 7 104639008.29607      1244.774 7        42.138
G08         6.000    20290520.255 8 106627937.29608     -1001.075 8        50.563                                    20290515.221 7  83086270.97707      -780.059 7        43.757    20290520.663 6  83086298.97506      -780.093 6        38.117
G27         7.000    21168139.324 5 111239297.87505     -3302.875 5        34.262                                    21168135.475 4  86679970.04904     -2573.680 4        28.521    21168134.389 6  86679981.03806     -2573.635 6        37.138
G21         8.000    21252323.161 6 111681703.85406       589.383 6        36.764                                    21252317.775 3  87024680.79503       459.260 3        18.657
G02         9.000    22941204.062 5 120556923.89605      1542.201 5        31.902                                    22941186.239 1  93940342.44601      1201.884 1         6.125
E03        11.000    28471691.522 3                     -2984.022 3        20.119
E08        12.000    25963741.609 6 136440370.13206      -769.331 6        40.408                                                                    25963738.311 6 101887329.49206      -574.505 6        36.060    25963738.030 6 104545233.48606      -589.587 6        39.012
R10        15.000    23502634.389 4                     -4547.992 4        29.554
E13        16.000    25298890.261 6 132946607.49306     -2758.041 6        41.092                                                                    25298890.642 6  99278332.07606     -2059.516 6        40.174    25298890.120 7 101868154.98907     -2113.323 7        42.019
E31        17.000    25992334.957 4 136590625.52004      -419.672 4        28.502                                                                    25992368.066 5 101999628.10405      -313.609 5        32.108
E26        19.000    23406369.673 8 123001290.41308      -654.654 8        48.249                                                                    23406367.378 8  91851686.85808      -488.860 8        48.346    23406367.166 8  94247750.60408      -501.623 8        49.560
E21        22.000    28127132.444 3                     -4025.571 3        21.976
S36        23.000    38233997.264 6 200920904.97706      -853.426 6        36.711
S23        24.000    38189002.707 6 200684508.43906      -852.045 6        41.142
R12        25.000    24128918.701 6 128892332.25606      1669.942 6        36.578                                                                    24128926.790 3                      1299.486 3        20.357
R20        26.000    19682952.139 6 105253615.49106       257.193 6        38.297                                                                    19682951.185 5  81864098.80005       200.050 5        33.653
R05        27.000    20420452.386 7 109159265.98607      2172.677 7        44.909                                                                    20420449.628 6  84901464.40606      1689.866 6        37.270
E33        28.000    25716724.030 4 135142338.39204      1179.991 4        29.896                                                                    25716729.300 6 100917976.22006       881.255 6        37.217    25716731.585 6 103550623.61106       904.403 6        41.347
R19        29.000    21518105.290 5 115107366.39915     -3513.647 5        33.036                                                                    21518100.604 4                     -2732.819 4        29.763
R21        30.000    22932844.878 6 122718435.72406      2554.920 6        41.981                                                                    22932844.264 5  95447569.63605      1987.069 5        31.630
R04        31.000    20095065.140 8 107608127.11108     -1891.909 8        49.444                                                                    20095059.606 6  83695223.39806     -1471.433 6        40.806
R03        32.000                                                                                                                                    23312943.456 5  97063567.21815     -3716.437 5        34.043
C05        33.000                                                                                                                                                                                                    39200801.166 5 157845365.12805      -617.774 5        34.167
C33        37.000                                                                                                                                    22700896.039 7 118209528.26907     -1433.696 7        45.992                                                                    22700907.604 7  96055048.93007     -1165.016 7        45.570
C30        38.000                                                                                                                                    25644246.404 4 133536415.11104      2128.927 4        28.768                                                                    25644277.127 4                      1730.014 4        27.952
C28        40.000                                                                                                                                    21844880.816 8 113752284.22608     -2009.816 8        52.881                                                                    21844878.244 7  92432827.75807     -1633.184 7        47.408
R11        41.000    22381413.728 7 119599404.60307     -1897.927 7        42.990                                                                    22381406.348 5                     -1476.030 5        32.503
I01        44.000   369933054.688 6 148555989.90806     -2306.762 6        37.664
C13        45.000                                                                                                                                    39565959.694 5                     -1863.616 5        32.281    39565981.679 4                     -1440.953 4        24.226
C14        47.000                                                                                                                                    23961116.314 7 124771966.20707     -2942.410 7        43.837    23961111.754 6  96481321.70606     -2275.169 6        37.221
C41        49.000                                                                                                                                    23147183.468 6 120533501.04606      1577.966 6        37.051                                                                    23147195.483 5  97943365.42505      1282.004 5        32.677
C27        52.000                                                                                                                                    21911328.794 6 114098011.54306       531.336 6        41.962                                                                    21911337.349 5  92713998.69405       431.545 5        35.748
C42        54.000                                                                                                                                    26081766.228 4                     -3870.057 4        25.053
C36        56.000                                                                                                                                    26189866.497 4                     -1500.617 4        27.988                                                                    26189855.266 5 110817898.58705     -1219.212 5        32.922
I06        58.000    38528505.590 7 151194287.43507      -538.747 7        42.000
I09        59.000    37686876.334 5 147891397.35905      -178.683 5        30.528
> 2025 01 01 21 45 15.0000000  0 39
G10         2.000    21175363.679 7 111277264.63107     -2393.820 7        47.973                                    21175362.798 7  86709557.24207     -1865.317 7        45.362    21175361.334 7  86709578.21607     -1865.272 7        42.883
G32         3.000    22786724.937 6 119745039.71706      1430.890 6        40.660                                    22786720.849 3  93307821.02303      1114.971 3        21.643    22786718.944 4  93307819.11204      1115.241 4        27.641
G23         4.000    23781981.493 5 124975241.35705     -4191.769 5        31.026                                                                                                    23781995.202 4  97383287.89504     -3266.550 4        29.374
E07         5.000    25985488.126 6 136554700.54906      1623.220 6        39.982                                                                    25985487.602 5 101972674.89405      1211.829 5        32.910    25985494.966 6 104632787.31706      1243.751 6        41.669
G08         6.000    20291473.893 8 106632950.45108     -1004.135 8        50.538                                    20291469.130 7  83090177.32607      -782.444 7        44.036    20291473.904 6  83090205.31706      -782.475 6        39.592
G27         7.000    21171277.336 5 111255818.36705     -3305.275 5        33.766                                    21171278.525 4  86692843.09304     -2575.554 4        27.569    21171277.515 5  86692854.11505     -2575.682 5        35.862
G21         8.000    21251763.681 6 111678760.54706       587.972 6        36.336                                    21251758.075 3  87022387.28703       458.175 3        18.776
G02         9.000    22939736.305 5 120549214.30505      1541.474 5        34.814                                    22939719.395 1  93934334.86301      1201.146 1         8.952
E03        11.000    28474531.007 3                     -2987.092 3        21.238
E08        12.000    25964475.944 6 136444223.53706      -771.830 6        41.511                                                                    25964471.454 5 101890207.05105      -576.307 5        35.367    25964471.636 6 104548186.12706      -591.437 6        38.517
R10        15.000    23506905.571 4                     -4549.198 4        29.924
E13        16.000    25301515.104 6 132960399.23006     -2758.625 6        41.676                                                                    25301514.972 6  99288631.10706     -2060.094 6        40.055    25301514.449 6 101878722.66306     -2113.676 6        41.859
E31        17.000    25992734.241 4 136592731.16004      -422.209 4        25.278                                                                    25992769.416 5 102001200.53905      -315.198 5        32.275
E26        19.000    23406993.142 8 123004566.34208      -655.629 8        48.242                                                                    23406990.741 8  91854133.17008      -489.605 8        48.513    23406990.605 8  94250260.73608      -502.346 8        49.673
E21        22.000    28130962.961 3                     -4023.658 3        21.143                                                                    28130964.497 3                     -3006.218 3        20.667
S36        23.000    38234810.639 6 200925172.12206      -853.301 6        36.696
S23        24.000    38189813.975 6 200688769.33706      -852.154 6        41.151
R12        25.000    24127349.882 5 128883989.85405      1666.969 5        34.519
R20        26.000    19682712.747 6 105252334.43406       255.159 6        38.508                                                                    19682712.666 5  81863102.42705       198.581 5        31.268
R05        27.000    20418422.299 7 109148411.63407      2169.244 7        46.414                                                                    20418419.122 6  84893022.14106      1687.120 6        37.323
E33        28.000    25715603.022 4 135136439.21104      1179.629 4        29.014                                                                    25715607.775 6 100913571.01506       880.886 6        37.641    25715608.455 6 103546103.48806       903.843 6        40.732
R19        29.000    21521385.809 5 115124938.59505     -3515.557 5        31.940                                                                    21521383.021 4                     -2734.066 4        29.640
R21        30.000    22930459.061 7 122705661.14607      2554.813 7        43.071                                                                    22930456.406 5  95437633.83205      1987.458 5        30.445
R04        31.000    20096831.872 8 107617597.97908     -1896.391 8        48.589                                                                    20096827.642 6  83702589.66406     -1474.915 6        40.379
R03        32.000                                                                                                                                    23317408.332 5  97082152.24305     -3717.569 5        33.886
C05        33.000                                                                                                                                                                                                    39201568.640 5 157848453.48405      -617.827 5        34.581
C33        37.000                                                                                                                                    22702273.826 7 118216703.85807     -1436.425 7        45.877                                                                    22702285.764 7  96060879.69107     -1167.260 7        45.290
C30        38.000                                                                                                                                                                                                                                                                    25642233.608 4                      1730.035 4        24.617
C28        40.000                                                                                                                                    21846811.478 8 113762337.78808     -2011.518 8        52.570                                                                    21846809.123 7  92440997.08807     -1634.541 7        47.561
R11        41.000    22383183.926 6 119608904.55906     -1901.843 6        41.607                                                                    22383180.938 5  93029183.52615     -1479.201 5        35.210
I01        44.000   369935994.634 6 148567525.29306     -2307.243 6        37.974
C13        45.000                                                                                                                                    39567753.504 5                     -1863.412 5        32.593    39567764.689 4                     -1440.668 4        25.744
C14        47.000                                                                                                                                    23963941.046 7 124786683.44807     -2944.472 7        42.999    23963937.188 6  96492701.98506     -2276.776 6        36.147    23963971.842 4 101399280.53604     -2392.237 4        29.469
C41        49.000                                                                                                                                    23145671.063 6 120525616.83906      1575.955 6        36.042                                                                    23145679.405 5  97936958.83005      1280.685 5        32.437
C27        52.000                                                                                                                                    21910819.294 6 114095358.84506       529.876 6        41.745                                                                    21910826.264 5  92711843.14305       430.602 5        35.043
C42        54.000                                                                                                                                    26085479.651 3                     -3871.046 3        21.452
C36        56.000                                                                                                                                    26191305.278 4                     -1503.130 4        28.749                                                                    26191297.078 5 110824000.55505     -1221.143 5        32.192
I06        58.000    38529191.979 7 151196981.45207      -538.803 7        42.100
I09        59.000    37687105.154 5 147892293.29005      -179.355 5        30.468
> 2025 01 01 21 45 20.0000000  0 40
G14         1.000    24795717.100 6 130302489.44816      1443.275 6        37.735
G10         2.000    21177643.308 7 111289239.88007     -2396.252 7        47.601                                    21177641.273 7  86718888.61607     -1867.210 7        45.117    21177640.086 6  86718909.59406     -1867.158 6        41.883
G32         3.000    22785363.713 6 119737890.89006      1428.771 6        40.167                                    22785360.120 3  93302250.52603      1113.309 3        20.690
G23         4.000    23785969.946 5 124996202.23405     -4192.694 5        30.823                                                                                                    23785987.811 4  97399621.04404     -3267.083 4        29.536
E07         5.000    25983945.679 6 136546588.65706      1621.653 6        40.646                                                                    25983944.168 5 101966617.33605      1211.054 5        32.455    25983951.599 6 104626571.70806      1242.644 6        41.128
G08         6.000    20292430.794 8 106637979.07108     -1007.192 8        50.583                                    20292426.258 7  83094095.72707      -784.824 7        44.554    20292429.707 6  83094123.72606      -784.739 6        40.975
G27         7.000    21174426.303 5 111272350.66805     -3307.613 5        34.586                                    21174423.708 4  86705725.45604     -2577.385 4        28.209    21174424.739 5  86705736.48305     -2577.337 5        34.438
G21         8.000    21251204.786 6 111675825.04106       586.434 6        36.605                                    21251199.847 2  87020099.87402       456.952 2        17.736
G02         9.000    22938265.885 6 120541508.96206      1540.546 6        37.021                                    22938253.320 1  93928330.63301      1200.449 1         8.286
E03        11.000    28477369.208 3                     -2987.112 3        20.429
E08        12.000    25965212.051 7 136448089.75107      -774.422 7        42.248                                                                    25965206.897 5 101893094.19205      -578.329 5        34.652    25965207.670 6 104551148.57606      -593.472 6        38.297
R10        15.000    23511180.514 4                     -4550.511 4        29.735
E13        16.000    25304140.260 6 132974194.07506     -2759.201 6        41.888                                                                    25304140.243 6  99298932.44806     -2060.369 6        40.069    25304139.216 6 101889292.75506     -2114.172 6        41.919
E31        17.000    25993132.403 3                      -424.772 3        23.581                                                                    25993171.873 5 102002782.33605      -316.949 5        33.503
E26        19.000    23407617.827 8 123007847.78408      -656.833 8        48.419                                                                    23407615.068 8  91856583.60208      -490.455 8        48.604    23407614.983 8  94252775.09708      -503.268 8        49.978
E21        22.000    28134789.324 3                     -4023.162 3        21.429                                                                    28134791.325 3                     -3002.195 3        19.701
S36        23.000    38235623.186 6 200929439.16106      -853.496 6        36.601
S23        24.000    38190624.716 6 200693030.70706      -852.330 6        41.254
R12        25.000    24125789.635 5 128875663.74805      1663.431 5        32.629
R20        26.000    19682474.328 6 105251063.87706       253.066 6        37.853                                                                    19682475.160 4  81862114.23704       196.732 4        28.569
R05        27.000    20416395.028 7 109137574.53607      2165.738 7        47.187                                                                    20416392.791 6  84884593.28006      1684.314 6        37.800
E33        28.000    25714487.146 5 135130542.89905      1179.124 5        31.351                                                                    25714486.347 6 100909167.95506       880.501 6        37.664    25714485.924 6 103541585.55706       903.567 6        40.293
R19        29.000    21524670.820 5                     -3516.766 5        30.362                                                                    21524671.367 4                     -2734.948 4        29.469
R21        30.000    22928072.963 7 122692887.83207      2554.453 7        42.863                                                                    22928070.332 5  95427699.08205      1987.120 5        31.026
R04        31.000    20098602.713 8 107627091.68108     -1900.963 8        49.234                                                                    20098600.687 6  83709973.67806     -1478.507 6        40.212
R03        32.000                                                                                                                                    23321876.539 5                     -3719.213 5        33.611
C05        33.000                                                                                                                                                                                                    39202336.475 5 157851542.20105      -617.779 5        34.443
C33        37.000                                                                                                                                    22703654.425 7 118223893.86607     -1439.428 7        44.697                                                                    22703666.648 7  96066722.17607     -1169.629 7        45.464
C30        38.000                                                                                                                                    25640127.061 5 133515127.43205      2128.929 5        30.860                                                                    25640191.096 4                      1729.537 4        25.383
C28        40.000                                                                                                                                    21848743.738 8 113772400.61908     -2013.450 8        52.349                                                                    21848741.591 7  92449173.97007     -1636.103 7        47.890
R11        41.000    22384960.336 6 119618425.68706     -1906.259 6        40.231                                                                    22384961.888 5  93036588.84205     -1482.669 5        35.614
I01        44.000   369938933.949 6 148579062.51406     -2307.504 6        38.219
C13        45.000                                                                                                                                    39569547.572 5                     -1863.237 5        32.234    39569555.659 4                     -1441.067 4        25.895
C14        47.000                                                                                                                                    23966768.248 7 124801411.67907     -2946.617 7        42.036    23966764.658 6  96504090.74806     -2278.456 6        36.129    23966794.377 5 101411248.56505     -2394.535 5        31.766
C41        49.000                                                                                                                                    23144156.944 5 120517743.24505      1573.704 5        34.462                                                                    23144165.994 5  97930560.83605      1279.080 5        33.126
C27        52.000                                                                                                                                    21910312.353 7 114092714.23307       528.098 7        42.233                                                                    21910317.746 5  92709694.17905       429.356 5        35.100
C42        54.000                                                                                                                                    26089200.940 3                     -3873.633 3        20.976
C36        56.000                                                                                                                                    26192748.373 4                     -1505.630 4        28.000                                                                    26192741.420 5 110830112.86505     -1223.580 5        31.011
I06        58.000    38529878.479 7 151199675.64407      -538.996 7        42.102
I09        59.000    37687333.674 5 147893190.65705      -179.261 5        30.234
> 2025 01 01 21 45 25.0000000  0 40
G14         1.000    24794342.414 6 130295278.43906      1440.796 6        38.033                                                                                                    24794374.760 4                      1122.619 4        28.986
G10         2.000    21179924.524 7 111301226.17407     -2398.480 7        47.496                                    21179921.698 7  86728228.58307     -1868.945 7        44.665    21179921.308 6  86728249.55206     -1868.886 6        41.516
G32         3.000    22784005.149 6 119730752.80206      1426.557 6        38.853                                    22784001.024 3  93296688.43503      1111.599 3        20.095    22784002.693 4  93296686.53704      1111.348 4        25.474
G23         4.000    23789958.056 5 125017166.40405     -4193.308 5        30.151                                                                                                    23789980.098 4  97415956.73704     -3267.531 4        29.299
E07         5.000    25982404.278 6 136538483.19606      1620.343 6        40.849                                                                    25982401.392 5 101960564.62005      1209.697 5        31.743    25982409.569 6 104620361.02506      1241.523 6        40.458
G08         6.000    20293390.796 8 106643022.60008     -1010.264 8        50.673                                    20293386.459 7  83098025.74807      -787.220 7        45.050    20293389.583 6  83098053.74806      -787.232 6        41.926
G27         7.000    21177575.481 6 111288894.43206     -3310.097 6        37.603                                    21177571.171 4  86718616.72504     -2579.312 4        29.024    21177573.074 5  86718627.71605     -2579.171 5        34.776
G21         8.000    21250646.855 6 111672896.81006       585.008 6        36.805                                    21250642.665 2  87017818.09702       455.861 2        17.396
G02         9.000    22936796.243 6 120533807.42206      1539.898 6        39.700                                    22936787.960 1  93922329.41301      1199.931 1         9.619
E03        11.000    28480217.440 3                     -2991.075 3        19.582
E08        12.000    25965949.665 7 136451968.23107      -777.103 7        42.419                                                                    25965944.486 5 101895990.50005      -580.505 5        34.614    25965946.218 6 104554120.43906      -595.415 6        37.981
E13        16.000    25306765.971 7 132987991.49607     -2759.822 7        42.229                                                                    25306765.785 6  99309235.72006     -2060.835 6        40.000    25306764.722 6 101899864.78506     -2114.684 6        41.752
E31        17.000    25993542.080 4                      -427.356 4        25.233                                                                    25993576.260 5 102004373.11105      -318.990 5        34.448
E26        19.000    23408243.359 8 123011134.17908      -657.797 8        48.690                                                                    23408240.386 8  91859037.72908      -491.195 8        48.737    23408240.381 8  94255293.24608      -504.032 8        49.916
C08        21.000                                                                                                                                                                                                    40265173.088 4                     -1564.435 4        26.611
E21        22.000    28138618.786 3                     -4023.442 3        22.838
S36        23.000    38236438.846 6 200933706.13606      -853.552 6        36.473
S23        24.000    38191434.424 6 200697291.83706      -852.402 6        41.058
R12        25.000    24124235.044 4 128867353.38704      1660.262 4        29.403
R20        26.000    19682238.342 6 105249803.45506       250.813 6        37.119
R05        27.000    20414370.490 7 109126754.19607      2162.255 7        47.943                                                                    20414369.180 6  84876177.47106      1681.870 6        38.189
E33        28.000    25713368.303 5 135124648.92005      1178.706 5        33.222                                                                    25713364.874 6 100904766.61906       880.125 6        37.611    25713364.255 6 103537069.40106       903.031 6        39.526
R19        29.000    21527956.364 4 115160106.61314     -3518.329 4        29.488                                                                    21527958.037 4                     -2736.523 4        29.953
R21        30.000    22925685.168 6 122680115.37706      2554.411 6        40.393                                                                    22925684.918 5  95417764.94805      1987.051 5        31.132
R04        31.000    20100379.844 8 107636607.69508     -1905.481 8        49.237                                                                    20100377.654 6  83717375.02806     -1482.180 6        40.167
R03        32.000    23326334.674 4                     -4783.751 4        29.014                                                                    23326343.502 5  97119343.85515     -3720.694 5        32.497
C05        33.000                                                                                                                                                                                                    39203103.569 5 157854630.79105      -617.616 5        34.057
C33        37.000                                                                                                                                    22705038.308 7 118231097.76907     -1442.258 7        42.954                                                                    22705050.041 7  96072575.93207     -1171.788 7        45.609
C30        38.000                                                                                                                                    25638090.873 5 133504484.94905      2128.332 5        30.966                                                                    25638147.467 4                      1729.547 4        24.511
C28        40.000                                                                                                                                    21850677.914 8 113782472.17208     -2015.229 8        51.958                                                                    21850675.704 7  92457357.92607     -1637.468 7        47.992
R11        41.000    22386744.663 6 119627967.45506     -1910.271 6        37.505                                                                    22386746.773 6  93044010.26106     -1486.108 6        36.231
I01        44.000   369941874.662 6 148590601.14506     -2307.859 6        38.018
C13        45.000                                                                                                                                    39571339.119 5                     -1863.234 5        31.834    39571343.838 4                     -1441.816 4        25.414
C14        47.000                                                                                                                                    23969597.865 6 124816150.31806     -2948.863 6        41.077    23969594.016 6  96515487.60106     -2280.323 6        36.733    23969620.969 5 101423224.96505     -2396.192 5        33.293
C41        49.000                                                                                                                                    23142644.091 5 120509879.70105      1571.720 5        33.180                                                                    23142656.099 5  97924171.01205      1277.225 5        34.014
C27        52.000                                                                                                                                    21909806.142 7 114090077.14507       526.594 7        42.356                                                                    21909811.459 5  92707551.32605       428.007 5        34.038
C42        54.000                                                                                                                                    26092915.834 3                     -3872.376 3        21.143
C36        56.000                                                                                                                                                                                                                                                                    26194188.226 5 110836235.04305     -1225.770 5        30.800
I06        58.000    38530564.850 6 151202369.61406      -538.874 6        41.981
I09        59.000    37687561.159 5 147894089.19605      -180.146 5        30.302
> 2025 01 01 21 45 30.0000000  0 41
G14         1.000    24792972.997 6 130288079.19606      1438.830 6        38.742                                                                                                    24793005.191 4                      1121.122 4        29.327
G10         2.000    21182207.608 7 111313223.78807     -2400.523 7        47.945                                    21182204.170 7  86737577.38107     -1870.540 7        44.259    21182204.365 6  86737598.35706     -1870.484 6        41.654
G32         3.000    22782648.217 6 119723625.73906      1424.521 6        37.614                                    22782643.556 3  93291134.93503      1110.023 3        20.024    22782643.447 4  93291133.00804      1109.536 4        25.398
G23         4.000    23793948.770 4 125038134.14504     -4193.760 4        29.829                                                                                                    23793971.021 4  97432295.25104     -3267.876 4        28.919
E07         5.000    25980863.096 6 136530384.53006      1619.025 6        40.455                                                                    25980860.546 5 101954516.92205      1209.278 5        31.894    25980869.058 6 104614155.53806      1240.603 6        39.901
G08         6.000    20294353.464 8 106648081.35308     -1013.169 8        50.801                                    20294349.682 7  83101967.63107      -789.483 7        45.661    20294352.283 7  83101995.62607      -789.497 7        42.487
G27         7.000    21180726.358 6 111305449.86906     -3312.144 6        40.470                                    21180721.242 5  86731517.07605     -2580.893 5        30.657    21180724.841 5  86731528.03405     -2580.742 5        35.676
G21         8.000    21250090.063 5 111669976.18505       583.367 5        35.552                                    21250087.075 2  87015542.26802       454.584 2        16.604
G02         9.000    22935331.830 7 120526109.87607      1539.280 7        42.063                                    22935323.289 1  93916331.31601      1199.494 1        10.074
E03        11.000    28483062.460 3                     -2990.879 3        19.403
E08        12.000    25966689.495 7 136455859.24707      -779.326 7        42.440                                                                    25966684.764 5 101898896.16205      -582.294 5        34.633    25966686.803 6 104557101.91406      -597.322 6        37.936
R10        15.000    23519742.375 4                     -4553.515 4        26.156
