     3.04           OBSERVATION DATA    M                   RINEX VERSION / TYPE
ssrcrin-15.6.1x                         20250101 064500 UTC PGM / RUN BY / DATE 
(00000000023479385599111004) Septentrio proprietary         COMMENT             
ract                                                        MARKER NAME         
01                                                          MARKER NUMBER       
geodetic                                                    MARKER TYPE         
NFB                 CLIMERS@TUW                             OBSERVER / AGENCY   
3296359             SEPT ASTERX SB3 PROB4.14.4              REC # / TYPE / VERS 
Unknown             Unknown                                 ANT # / TYPE        
  4127446.0310  1206914.5849  4695543.4495                  APPROX POSITION XYZ 
        0.0000        0.0000        0.0000                  ANTENNA: DELTA H/E/N
G   23 X1  C1C L1C D1C S1C C1W S1W C2W L2W D2W S2W C2L L2L  SYS / # / OBS TYPES 
       D2L S2L C5Q L5Q D5Q S5Q C1L L1L D1L S1L              SYS / # / OBS TYPES 
E   21 X1  C1C L1C D1C S1C C6C L6C D6C S6C C5Q L5Q D5Q S5Q  SYS / # / OBS TYPES 
       C7Q L7Q D7Q S7Q C8Q L8Q D8Q S8Q                      SYS / # / OBS TYPES 
S    9 X1  C1C L1C D1C S1C C5I L5I D5I S5I                  SYS / # / OBS TYPES 
R   17 X1  C1C L1C D1C S1C C2P L2P D2P S2P C2C L2C D2C S2C  SYS / # / OBS TYPES 
       C3Q L3Q D3Q S3Q                                      SYS / # / OBS TYPES 
C   25 X1  C1P L1P D1P S1P C5P L5P D5P S5P C2I L2I D2I S2I  SYS / # / OBS TYPES 
       C7I L7I D7I S7I C6I L6I D6I S6I C7D L7D D7D S7D      SYS / # / OBS TYPES 
J   17 X1  C1C L1C D1C S1C C2L L2L D2L S2L C5Q L5Q D5Q S5Q  SYS / # / OBS TYPES 
       C1L L1L D1L S1L                                      SYS / # / OBS TYPES 
I    5 X1  C5A L5A D5A S5A                                  SYS / # / OBS TYPES 
SEPTENTRIO RECEIVERS OUTPUT ALIGNED CARRIER PHASES.         COMMENT             
NO FURTHER PHASE SHIFT APPLIED IN THE RINEX ENCODER.        COMMENT             
G L1C                                                       SYS / PHASE SHIFT   
G L2W                                                       SYS / PHASE SHIFT   
G L2L  0.00000                                              SYS / PHASE SHIFT   
G L5Q  0.00000                                              SYS / PHASE SHIFT   
G L1L  0.00000                                              SYS / PHASE SHIFT   
E L1C  0.00000                                              SYS / PHASE SHIFT   
E L6C  0.00000                                              SYS / PHASE SHIFT   
E L5Q  0.00000                                              SYS / PHASE SHIFT   
E L7Q  0.00000                                              SYS / PHASE SHIFT   
E L8Q  0.00000                                              SYS / PHASE SHIFT   
S L1C                                                       SYS / PHASE SHIFT   
S L5I                                                       SYS / PHASE SHIFT   
R L1C                                                       SYS / PHASE SHIFT   
R L2P  0.00000                                              SYS / PHASE SHIFT   
R L2C                                                       SYS / PHASE SHIFT   
R L3Q  0.00000                                              SYS / PHASE SHIFT   
C L1P  0.00000                                              SYS / PHASE SHIFT   
C L5P  0.00000                                              SYS / PHASE SHIFT   
C L2I                                                       SYS / PHASE SHIFT   
C L7I                                                       SYS / PHASE SHIFT   
C L6I                                                       SYS / PHASE SHIFT   
C L7D                                                       SYS / PHASE SHIFT   
J L1C                                                       SYS / PHASE SHIFT   
J L2L  0.00000                                              SYS / PHASE SHIFT   
J L5Q  0.00000                                              SYS / PHASE SHIFT   
J L1L  0.00000                                              SYS / PHASE SHIFT   
I L5A                                                       SYS / PHASE SHIFT   
  2025     1     1     6    45    0.0000000     GPS         TIME OF FIRST OBS   
 C1C    0.000 C2C    0.000 C2P    0.000                     GLONASS COD/PHS/BIS 
DBHZ                                                        SIGNAL STRENGTH UNIT
    18                                                      LEAP SECONDS        
 24 R01  1 R02 -4 R03  5 R04  6 R05  1 R06 -4 R07  5 R08  6 GLONASS SLOT / FRQ #
    R09 -2 R10 -7 R11  0 R12 -1 R13 -2 R14 -7 R15  0 R16 -1 GLONASS SLOT / FRQ #
    R17  4 R18 -3 R19  3 R20  2 R21  4 R22 -3 R23  3 R24  2 GLONASS SLOT / FRQ #
                                                            END OF HEADER       
> 2025 01 01 06 45  0.0000000  0 36
G13         2.000    22421134.969 5 117823836.65705      2069.308 5        35.829                                    22421129.146 1  91810827.35601      1612.448 1         8.286
G30         3.000    20486903.354 8 107659399.79808      -485.852 8        48.037                                    20486901.168 7  83890394.43207      -378.583 7        47.103    20486902.467 7  83890430.42407      -378.619 7        43.484
G14         4.000    23052574.496 6 121142040.60206      2517.716 6        40.360                                    23052571.244 3  94396402.90403      1961.856 3        20.643    23052574.304 6  94396423.86906      1961.935 6        37.633
G07         5.000    21568391.694 7 113342664.27507     -2532.327 7        46.154                                    21568389.338 7  88318956.32107     -1973.238 7        42.717    21568388.996 7  88318928.31007     -1973.242 7        44.915
E34         6.000                                                                                                                                    27997384.740 3                     -2953.095 3        23.067
G05         7.000                                                                                                                                                                    21581980.660 3  88374624.12703       769.328 3        23.867
G09         9.000                                                                                                                                                                    23397733.582 4                     -3033.369 4        25.474
G20        10.000    20798399.714 8 109296343.07208     -1528.202 8        52.999                                    20798394.807 6  85165947.95706     -1190.804 6        40.129
E31        13.000    27247407.394 4                     -2846.694 4        29.744                                                                    27247398.837 5 106924657.51005     -2125.518 5        30.845    27247408.076 4                     -2180.993 4        29.791
E25        14.000    25828926.488 5 135731886.55405      1997.769 5        30.974                                                                    25828920.148 6 101358219.27806      1491.965 6        40.834    25828918.539 5 104002346.61805      1530.735 5        34.286
E24        15.000    25190737.108 5 132378254.15905      -311.931 5        30.075                                                                    25190745.427 6  98853923.04806      -233.047 6        37.656    25190739.365 6 101432661.24006      -239.139 6        36.106
E15        16.000    26255672.797 5 137974510.69305     -2755.575 5        31.826                                                                    26255670.202 6 103032839.20006     -2058.262 6        36.189    26255666.391 6 105720628.43706     -2111.823 6        40.682
E08        17.000    27748332.822 5                      1638.423 5        33.814                                                                    27748326.424 5                      1223.462 5        32.311
E05        21.000    22522793.265 6 118358050.15606     -2003.878 6        40.365                                                                    22522795.658 8  88384303.06008     -1496.391 8        48.487    22522795.717 8  90689968.81608     -1535.370 8        49.947
E13        22.000                                                                                                                                    27010004.432 6 105993082.86306      -143.920 6        37.437    27010003.276 5 108758165.96905      -147.940 5        34.262
R07        23.000    21903891.337 6 117253260.58706     -4022.280 6        38.504                                                                    21903899.095 6  91196972.03906     -3128.243 6        36.522
S23        24.000    38207547.827 6 200781964.22106      -813.167 6        39.432
S36        25.000    38272711.450 5 201124399.05705      -816.165 5        34.500
E03        27.000    23896357.977 5 125576217.43505       348.978 5        34.390                                                                    23896361.171 7  93774451.57107       260.487 7        42.627    23896361.908 7  96220717.42407       267.377 7        44.634
R11        28.000    21079416.157 7 112641969.86307      2853.613 7        42.720                                                                    21079415.943 6  87610476.29306      2219.443 6        38.808
R17        29.000                                                                                                                                    23236369.711 5  96710833.63805      -560.457 5        32.886
R10        30.000    19480452.722 5 103841752.48005     -1075.908 5        32.461
R24        31.000    23618888.033 5                     -3714.440 5        33.198
R09        32.000    21594912.927 5 115315681.31305     -4204.865 5        34.614                                                                    21594919.548 5  89689952.56005     -3270.803 5        33.251
C19        33.000                                                                                                                                    25721596.760 5                     -3878.569 5        30.121                                                                    25721607.927 4                     -3151.328 4        26.647
R08        35.000    19379893.397 6 103778805.81606     -1138.716 6        41.580                                                                    19379893.361 6  80716569.08706      -885.668 6        36.945
C05        36.000                                                                                                                                                                                                    39339166.686 5 158402425.33805      -674.019 5        35.243
R01        38.000    21285933.931 7 113785505.71307      2395.262 7        46.556                                                                    21285933.987 6  88499937.33106      1863.115 6        41.101
C42        41.000                                                                                                                                    26912347.661 4                      2346.268 4        24.962                                                                    26912347.954 3                      1906.692 3        21.310
C36        42.000                                                                                                                                    22047587.734 7 114807549.76307     -1518.877 7        47.326                                                                    22047593.262 6  93290572.00506     -1233.927 6        39.874
C09        46.000                                                                                                                                    40085893.787 3                     -1581.096 3        23.124    40085835.685 4                     -1221.454 4        28.332
C21        47.000                                                                                                                                    22889046.108 7 119189255.44907      1089.888 7        42.645                                                                    22889039.816 6  96851059.38906       885.648 6        38.541
C45        49.000                                                                                                                                    22766663.268 8 118551945.76008      1485.057 8        49.139                                                                    22766656.512 8  96333158.62908      1206.887 8        49.507
C22        50.000                                                                                                                                    21791115.479 7 113471990.82207     -1933.035 7        46.055                                                                    21791110.047 7  92205271.81107     -1570.539 7        45.619
I02        53.000    38737831.613 6 152015566.00606       161.549 6        36.064
I06        60.000    38037776.006 5 149268320.18705      -638.866 5        33.228
> 2025 01 01 06 45  5.0000000  0 36
G13         2.000    22419167.746 6 117813491.02706      2068.654 6        36.628                                    22419160.317 1  91802765.82801      1611.912 1         8.571
G30         3.000    20487366.415 7 107661833.81607      -487.935 7        47.332                                    20487364.499 7  83892291.06207      -380.210 7        47.278    20487366.088 7  83892327.06707      -380.234 7        44.328
G14         4.000    23050178.549 6 121129453.68906      2516.948 6        40.198                                    23050175.944 3  94386594.90703      1961.260 3        20.357    23050178.511 6  94386615.89906      1961.176 6        37.399
G07         5.000    21570800.760 7 113355328.86007     -2533.577 7        46.031                                    21570799.333 7  88328824.80907     -1974.212 7        43.236    21570799.118 7  88328796.81607     -1974.320 7        45.183
E34         6.000                                                                                                                                    28001147.762 3                     -2954.832 3        23.505
G05         7.000                                                                                                                                                                    21581044.875 3  88370785.98303       767.401 3        23.219
G09         9.000                                                                                                                                                                    23401437.020 4                     -3033.650 4        24.000
G20        10.000    20799855.138 8 109303991.13808     -1531.182 8        52.863                                    20799850.580 6  85171907.47106     -1193.127 6        40.126
E31        13.000    27250116.660 5                     -2848.156 5        30.030                                                                    27250107.297 4 106935288.78604     -2127.150 4        29.403    27250118.108 5                     -2182.504 5        30.845
E25        14.000    25827026.808 5 135721898.99905      1996.914 5        31.872                                                                    25827019.714 6 101350761.08906      1491.275 6        41.294    25827017.256 5 103994693.84605      1530.166 5        34.210
E24        15.000    25191034.797 4 132379819.12404      -314.119 4        27.725                                                                    25191043.683 6  98855091.65406      -234.599 6        36.938    25191038.224 6 101433860.33106      -240.668 6        37.293
E15        16.000    26258297.864 5 137988293.93405     -2757.731 5        32.054                                                                    26258296.373 5 103043131.85005     -2059.231 5        35.981    26258289.690 6 105731189.57306     -2112.873 6        41.137
E08        17.000    27746771.192 5 145810278.58915      1638.441 5        34.281                                                                    27746767.907 5                      1223.466 5        32.054    27746799.867 5 111724864.59515      1255.457 5        34.319
E05        21.000    22524699.794 6 118368070.75806     -2004.672 6        39.889                                                                    22524702.395 8  88391785.93808     -1496.867 8        48.076    22524702.764 8  90697646.90608     -1535.975 8        50.192
E13        22.000                                                                                                                                    27010189.310 6 105993806.58706      -145.508 6        37.508    27010187.775 5 108758908.53505      -149.206 5        34.243
R07        23.000    21907650.006 6 117273375.00906     -4023.623 6        41.723                                                                    21907656.984 5  91212616.49405     -3129.346 5        33.994
S23        24.000    38208323.832 6 200786029.20106      -812.809 6        39.393
S36        25.000    38273490.921 5 201128478.01105      -815.454 5        34.510
E03        27.000    23896026.838 5 125574474.39605       348.128 5        33.251                                                                    23896029.385 7  93773149.91907       259.968 7        42.317    23896030.183 7  96219381.80107       266.884 7        44.578
R11        28.000    21076746.494 6 112627706.67506      2851.343 6        39.087                                                                    21076747.067 6  87599382.71506      2217.680 6        38.132
R17        29.000                                                                                                                                    23237050.960 5  96713644.17305      -564.084 5        31.502
R10        30.000    19481462.776 5 103847140.55705     -1079.865 5        32.341
R24        31.000    23622361.631 5 126319387.43815     -3716.625 5        32.293                                                                    23622365.347 4  98248534.88614     -2890.874 4        24.211
R09        32.000    21598855.795 6 115336712.10806     -4207.444 6        37.826                                                                    21598862.885 6  89706309.76106     -3272.393 6        37.932
C19        33.000                                                                                                                                    25725322.511 5                     -3879.627 5        30.023                                                                    25725332.373 4                     -3152.502 4        27.868
R08        35.000    19380957.703 6 103784505.53906     -1141.396 6        41.726                                                                    19380955.582 6  80721002.16706      -887.724 6        36.601
C05        36.000                                                                                                                                                                                                    39340003.568 5 158405795.32705      -673.981 5        35.262
R01        38.000    21283694.058 7 113773531.31807      2394.407 7        47.271                                                                    21283693.498 6  88490623.90206      1862.358 6        41.445
C42        41.000                                                                                                                                    26910089.792 4                      2346.416 4        24.992                                                                    26910093.080 3                      1902.753 3        19.582
C36        42.000                                                                                                                                    22049046.995 7 114815149.23007     -1521.043 7        47.265                                                                    22049052.642 6  93296747.19806     -1235.983 6        39.757
C09        46.000                                                                                                                                    40087416.366 3                     -1580.203 3        22.457    40087363.902 4                     -1221.557 4        29.507
C21        47.000                                                                                                                                    22887999.995 7 119183808.80807      1088.679 7        42.328                                                                    22887994.142 6  96846633.53006       884.692 6        39.195
C45        49.000                                                                                                                                    22765238.056 8 118544524.42508      1483.344 8        49.501                                                                    22765230.901 8  96327128.16408      1205.421 8        48.834
C22        50.000                                                                                                                                    21792972.938 7 113481660.35207     -1934.897 7        45.991                                                                    21792966.834 7  92213129.05907     -1572.193 7        45.834
I02        53.000    38737627.008 6 152014759.23806       161.517 6        36.132
I06        60.000    38038591.485 5 149271513.32705      -638.533 5        33.120
> 2025 01 01 06 45 10.0000000  0 37
G13         2.000    22417196.407 5 117803149.63005      2067.944 5        34.629                                    22417192.275 1  91794707.65401      1611.306 1         9.048
G30         3.000    20487831.702 7 107664279.50507      -490.356 7        47.570                                    20487830.201 7  83894196.78407      -382.095 7        47.604    20487831.535 7  83894232.77607      -382.058 7        45.216
G14         4.000    23047784.928 6 121116871.98406      2515.862 6        40.520                                    23047781.850 3  94376790.98003      1960.401 3        20.786    23047783.953 6  94376811.96706      1960.386 6        37.270
G07         5.000    21573212.251 7 113368000.88107     -2535.170 7        46.155                                    21573210.727 7  88338699.08707     -1975.451 7        43.714    21573210.379 7  88338671.08407     -1975.471 7        45.372
E34         6.000                                                                                                                                    28004913.477 3                     -2952.432 3        23.524
G05         7.000                                                                                                                                                                    21580110.189 4  88366959.09204       764.082 4        25.368
G09         9.000                                                                                                                                                                    23405138.585 3                     -3034.739 3        23.924
G20        10.000    20801313.570 8 109311655.50908     -1534.520 8        52.421                                    20801309.295 6  85177879.68806     -1195.725 6        40.122
E31        13.000    27252825.815 5                     -2849.967 5        30.611                                                                    27252817.951 4 106945926.42404     -2128.336 4        28.758    27252829.624 5                     -2183.727 5        31.094
E25        14.000    25825128.438 5 135711916.64305      1996.269 5        32.527                                                                    25825120.212 6 101343306.71106      1490.520 6        41.650    25825117.156 5 103987045.02005      1529.442 5        33.814
E24        15.000    25191333.166 3 132381396.07003      -317.347 3        23.314                                                                    25191343.588 6  98856269.24406      -236.327 6        36.575    25191339.012 6 101435068.64106      -242.803 6        38.120
E15        16.000    26260920.875 5 138002086.18205     -2759.112 5        33.599                                                                    26260925.076 5 103053431.29205     -2060.580 5        35.929    26260913.981 6 105741757.67606     -2114.271 6        41.375
E08        17.000    27745213.288 5 145802086.80805      1638.450 5        33.826                                                                    27745209.601 5                      1223.536 5        31.758    27745240.864 5 111718587.75405      1255.310 5        34.395
E05        21.000    22526607.074 6 118378096.18006     -2005.560 6        39.276                                                                    22526610.150 7  88399272.43007     -1497.681 7        47.675    22526610.685 8  90705328.70308     -1536.725 8        50.195
E13        22.000    27010377.660 5 141940493.06315      -197.693 5        33.138                                                                    27010376.297 6 105994539.43506      -147.458 6        37.531    27010375.154 5 108759660.52905      -151.452 5        34.395
R07        23.000    21911411.512 7 117293497.77607     -4025.382 7        43.374                                                                    21911414.239 5  91228267.37405     -3130.342 5        32.539
S23        24.000    38209095.938 6 200790093.79506      -812.926 6        39.039
S36        25.000    38274261.618 5 201132556.88205      -815.755 5        33.910
G11        26.000    24519523.334 4                     -3955.396 4        24.451
E03        27.000    23895696.974 5 125572735.64405       347.191 5        33.982                                                                    23895698.369 7  93771851.51907       259.376 7        42.182    23895699.442 7  96218049.53907       266.119 7        44.491
R11        28.000    21074078.803 5 112613455.82205      2848.820 5        34.043                                                                    21074080.864 6  87588298.72306      2215.624 6        38.877
R17        29.000    23237747.184 6 124349730.52016      -729.233 6        40.882                                                                    23237734.975 4  96716471.18204      -567.020 4        29.299
R10        30.000    19482479.783 5 103852550.89105     -1084.229 5        35.181
R24        31.000    23625840.532 5 126337977.51405     -3719.257 5        35.914
R09        32.000    21602801.746 6 115357754.40606     -4209.774 6        41.008                                                                    21602805.871 6  89722675.92306     -3274.131 6        40.839
C19        33.000                                                                                                                                    25729048.374 5                     -3880.234 5        30.845                                                                    25729057.337 4                     -3152.944 4        28.919
R08        35.000    19382024.062 7 103790219.70807     -1144.280 7        42.521                                                                    19382021.013 6  80725446.49906      -890.096 6        36.457
C05        36.000                                                                                                                                                                                                    39340840.879 5 158409165.10605      -674.050 5        34.871
R01        38.000    21281454.928 7 113761562.47607      2393.188 7        47.374                                                                    21281454.886 6  88481314.79006      1861.368 6        41.809
C42        41.000                                                                                                                                    26907832.092 4                      2345.697 4        25.925
C36        42.000                                                                                                                                    22050508.705 7 114822761.01407     -1523.626 7        46.954                                                                    22050514.540 6  93302932.38106     -1238.120 6        39.934
C09        46.000                                                                                                                                    40088937.911 3                     -1581.699 3        21.619    40088879.505 4                     -1221.101 4        29.336
C21        47.000                                                                                                                                    22886956.479 7 119178369.65107      1087.055 7        43.062                                                                    22886949.979 6  96842213.75406       883.389 6        40.060
C45        49.000                                                                                                                                    22763814.559 8 118537112.74308      1481.354 8        49.686                                                                    22763807.294 8  96321105.55508      1203.739 8        48.389
C22        50.000                                                                                                                                    21794831.738 7 113491340.25707     -1937.072 7        46.216                                                                    21794825.498 7  92220994.73807     -1574.038 7        45.959
I02        53.000    38737420.608 6 152013952.67406       161.697 6        36.208
I06        60.000    38039405.251 5 149274706.43605      -638.544 5        32.886
> 2025 01 01 06 45 15.0000000  0 37
G13         2.000    22415226.168 5 117792813.05505      2066.810 5        33.144                                    22415225.222 1  91786653.23001      1610.490 1         8.952
G30         3.000    20488300.038 8 107666737.30208      -492.517 8        48.224                                    20488298.286 7  83896111.94807      -383.777 7        47.892    20488299.038 7  83896147.95207      -383.885 7        45.753
G14         4.000    23045392.289 6 121104296.02306      2514.838 6        40.768                                    23045389.058 3  94366991.53003      1959.614 3        20.500    23045390.744 6  94367012.51206      1959.668 6        37.614
G07         5.000    21575625.860 7 113380680.74907     -2536.574 7        46.433                                    21575623.636 7  88348579.48907     -1976.546 7        43.930    21575623.478 7  88348551.49107     -1976.577 7        45.305
E34         6.000                                                                                                                                    28008676.101 3                     -2953.337 3        23.200
G05         7.000    21579231.438 5 113399416.70515       977.873 5        30.702                                    21579175.929 1  88363160.86411       761.970 1         5.857    21579178.382 3  88363143.79203       762.230 3        23.562
G09         9.000                                                                                                                                                                    23408844.871 4                     -3035.468 4        24.060
G20        10.000    20802775.062 8 109319336.66108     -1537.683 8        51.751                                    20802771.028 6  85183864.98306     -1198.189 6        39.967
E31        13.000    27255535.301 5                     -2851.767 5        30.551                                                                    27255529.878 4 106956570.62804     -2129.190 4        28.246    27255542.003 5                     -2185.401 5        31.253
E25        14.000    25823231.741 5 135701939.89705      1995.015 5        32.042                                                                    25823221.605 6 101335856.55306      1489.722 6        41.449    25823217.508 5 103979400.51805      1528.675 5        32.539
E24        15.000                                                                                                                                    25191644.835 5  98857456.16605      -238.127 5        35.138    25191642.134 6 101436286.51406      -244.147 6        38.291
E15        16.000    26263545.204 5 138015888.03705     -2761.058 5        35.129                                                                    26263557.015 5 103063737.89005     -2061.736 5        35.638    26263540.356 6 105752333.12206     -2115.629 6        41.097
E08        17.000    27743653.877 5 145793895.59005      1638.663 5        33.527                                                                    27743651.370 5                      1223.325 5        30.566    27743681.625 5 111712311.28505      1255.512 5        34.181
E05        21.000    22528515.877 6 118388126.94706     -2006.410 6        37.989                                                                    22528518.896 7  88406762.92007     -1498.309 7        47.266    22528519.536 8  90713014.59208     -1537.379 8        50.280
E13        22.000    27010568.486 5 141941487.14405      -199.723 5        34.771                                                                    27010565.762 6 105995281.80406      -149.210 6        37.629    27010564.407 5 108760422.25805      -153.304 5        33.964
R07        23.000    21915172.949 7 117313629.52907     -4027.021 7        43.746                                                                    21915173.940 5  91243925.37805     -3132.357 5        33.018
S23        24.000    38209868.845 6 200794158.73406      -812.739 6        39.117
S36        25.000    38275043.960 5 201136635.38605      -815.367 5        34.205
G11        26.000    24523290.300 4                     -3956.521 4        28.114
E03        27.000    23895368.338 5 125571001.83905       346.707 5        34.562                                                                    23895368.409 6  93770556.78606       258.751 6        41.852    23895369.547 7  96216721.02207       265.498 7        44.486
R11        28.000    21071412.343 5 112599217.66505      2846.797 5        30.679                                                                    21071415.712 6  87577224.68206      2213.975 6        40.029
R17        29.000    23238435.892 6 124353387.19806      -733.274 6        40.558
R10        30.000    19483502.561 5 103857983.64705     -1088.454 5        35.119
R24        31.000    23629324.104 6 126356580.18606     -3721.616 6        37.297
R09        32.000    21606746.478 7 115378808.70807     -4211.762 7        42.783                                                                    21606746.799 7  89739051.43007     -3275.882 7        43.276
C19        33.000                                                                                                                                    25732776.500 5                     -3881.070 5        30.974                                                                    25732783.750 4                     -3154.003 4        29.194
R08        35.000    19383093.110 7 103795948.84907     -1147.057 7        43.443                                                                    19383091.695 6  80729902.43706      -891.995 6        36.272
C05        36.000                                                                                                                                                                                                    39341677.556 5 158412535.06805      -673.778 5        35.181
R01        38.000    21279216.342 8 113749599.73108      2392.210 8        48.113                                                                    21279216.394 6  88472010.41106      1860.626 6        40.999
C42        41.000                                                                                                                                    26905575.255 4                      2346.662 4        25.850
C36        42.000                                                                                                                                    22051972.368 7 114830385.61607     -1525.997 7        46.418                                                                    22051978.686 6  93309127.96306     -1239.976 6        39.625
C09        46.000                                                                                                                                                                                                    40090395.068 4                     -1221.067 4        29.100
C21        47.000                                                                                                                                    22885914.099 7 119172938.43307      1085.726 7        43.818                                                                    22885907.250 6  96837800.43206       882.220 6        41.166
C45        49.000                                                                                                                                    22762392.901 8 118529711.21408      1479.501 8        49.892                                                                    22762385.843 7  96315091.18207      1202.216 7        47.834
C22        50.000                                                                                                                                    21796692.747 7 113501031.00907     -1938.926 7        46.576                                                                    21796686.341 7  92228869.22907     -1575.641 7        45.874
I02        53.000    38737216.538 5 152013147.08105       161.346 5        35.814
I06        60.000    38040218.672 5 149277899.92305      -638.688 5        33.108
> 2025 01 01 06 45 20.0000000  0 37
G13         2.000    22413256.465 5 117782481.50605      2065.847 5        32.653                                    22413259.018 1  91778602.70001      1609.723 1         8.000
G30         3.000    20488770.432 7 107669207.48107      -495.272 7        47.958                                    20488768.723 8  83898036.75408      -385.926 8        48.127    20488768.899 7  83898072.75107      -385.902 7        45.533
G14         4.000    23043000.445 6 121091726.04306      2513.399 6        41.156                                    23042997.313 3  94357196.74103      1958.488 3        20.524    23042998.719 6  94357217.71006      1958.441 6        37.656
G07         5.000    21578040.155 7 113393368.73407     -2538.430 7        46.157                                    21578038.080 7  88358466.20707     -1977.994 7        44.217    21578037.726 7  88358438.20607     -1977.919 7        45.109
E34         6.000                                                                                                                                    28012440.219 3                     -2952.480 3        23.124
G05         7.000    21578301.371 5 113394535.83705       974.405 5        30.106                                    21578276.002 1  88359357.50701       759.292 1         6.000    21578248.465 3                       760.652 3        21.857
G09         9.000    23412539.417 3                     -3897.417 3        23.067                                                                                                    23412553.541 4                     -3036.740 4        24.060
G20        10.000    20804239.989 8 109327034.85608     -1541.371 8        51.720                                    20804235.909 6  85189863.55506     -1201.065 6        39.778
E31        13.000    27258249.330 5                     -2853.496 5        31.170                                                                    27258243.724 4 106967221.68104     -2130.921 4        27.150    27258256.050 5                     -2186.378 5        32.084
E25        14.000    25821335.244 5 135691969.02505      1993.548 5        30.438                                                                    25821324.334 6 101328410.76706      1488.866 6        41.247    25821319.309 5 103971760.49105      1527.477 5        31.540
E24        15.000    25191956.721 5                      -321.353 5        30.362                                                                    25191949.301 5  98858652.60505      -240.161 5        33.545    25191947.795 6 101437514.18206      -246.665 6        37.690
E15        16.000    26266171.514 6 138029699.70606     -2763.218 6        36.147                                                                    26266191.110 5 103074051.80905     -2063.510 5        35.257    26266168.790 6 105762916.06606     -2117.349 6        40.894
E08        17.000    27742094.168 5 145785705.18305      1637.990 5        33.210                                                                    27742093.313 5                      1223.419 5        30.075    27742121.923 5 111706035.44205      1255.331 5        33.611
E05        21.000    22530426.056 6 118398163.30306     -2007.915 6        36.669                                                                    22530428.757 7  88414257.56407     -1499.331 7        46.965    22530429.424 8  90720704.75208     -1538.477 8        50.158
E13        22.000    27010761.612 6 141942494.24306      -202.745 6        36.612                                                                    27010757.720 6 105996033.85006      -151.386 6        37.845    27010756.508 5 108761193.92005      -155.370 5        34.090
R07        23.000    21918934.069 7 117333770.44107     -4029.086 7        43.985                                                                    21918935.687 5  91259590.49805     -3133.786 5        34.438
S23        24.000    38210646.124 6 200798224.12306      -813.129 6        39.069
S36        25.000    38275815.163 5 201140714.74505      -815.728 5        34.324
G11        26.000    24527058.983 5                     -3957.491 5        30.732
E03        27.000    23895039.646 6 125569273.16606       345.440 6        36.276                                                                    23895039.538 6  93769265.87006       257.718 6        41.919    23895040.447 7  96215396.42507       264.567 7        44.420
R11        28.000                                                                                                                                    21068753.453 6  87566160.82506      2211.629 6        40.529
R17        29.000                                                                                                                                    23239090.190 3                      -573.087 3        21.071
R10        30.000    19484524.291 5 103863439.25505     -1093.301 5        35.810
R24        31.000    23632809.289 6 126375195.55106     -3724.219 6        37.372
R09        32.000    21610689.872 7 115399875.10407     -4214.390 7        43.655                                                                    21610691.413 7  89755436.38207     -3277.938 7        44.603
C19        33.000                                                                                                                                    25736504.935 5                     -3881.885 5        31.298                                                                    25736511.205 4                     -3154.438 4        28.796
R08        35.000    19384166.613 7 103801693.25107     -1150.421 7        44.590                                                                    19384165.443 5  80734370.27305      -894.651 5        35.995
C05        36.000                                                                                                                                                                                                    39342515.225 5 158415905.39505      -674.243 5        34.876
R01        38.000    21276980.059 8 113737643.14208      2390.734 8        48.703                                                                    21276979.280 6  88462710.82906      1859.548 6        39.580
C42        41.000                                                                                                                                    26903324.043 4                      2346.167 4        28.123                                                                    26903349.229 3                      1903.276 3        21.929
C36        42.000                                                                                                                                    22053438.296 7 114838023.24307     -1528.782 7        45.437                                                                    22053445.257 6  93315334.18906     -1242.398 6        39.811
C09        46.000                                                                                                                                                                                                    40091910.317 4                     -1221.325 4        29.810
C21        47.000                                                                                                                                    22884872.776 7 119167515.42207      1083.783 7        44.301                                                                    22884866.233 7  96833393.81507       880.774 7        42.027
C45        49.000                                                                                                                                    22760973.328 8 118522320.05608      1477.199 8        49.898                                                                    22760966.428 7  96309085.27107      1200.395 7        47.609
C22        50.000                                                                                                                                    21798555.361 7 113510732.85507     -1941.444 7        46.573                                                                    21798549.376 7  92236752.76907     -1577.604 7        46.039
I02        53.000    38737011.471 5 152012342.62405       160.845 5        35.705
I06        60.000    38041032.779 5 149281093.95505      -638.637 5        33.102
> 2025 01 01 06 45 25.0000000  0 37
G13         2.000    22411291.428 5 117772154.11705      2065.052 5        32.491                                    22411293.552 1  91770555.42201      1609.119 1         8.190
G30         3.000    20489242.046 7 107671689.08307      -497.545 7        47.889                                    20489241.266 8  83899970.46308      -387.696 8        48.479    20489240.881 7  83900006.46007      -387.749 7        45.439
G14         4.000    23040609.542 6 121079161.05506      2512.478 6        40.639                                    23040606.336 3  94347405.84703      1957.770 3        20.119    23040607.631 6  94347426.84706      1957.644 6        38.249
G07         5.000    21580455.980 7 113406063.91807     -2539.796 7        45.937                                    21580453.874 7  88368358.53907     -1979.058 7        44.567    21580453.606 7  88368330.53207     -1979.037 7        44.906
E34         6.000    28016169.304 3                     -3954.738 3        20.024                                                                    28016202.200 3                     -2954.002 3        23.219
G05         7.000                                                                                                                                                                    21577322.334 3                       759.474 3        18.716
G09         9.000    23416256.931 3                     -3895.816 3        22.286                                                                                                    23416264.496 4                     -3036.777 4        25.353
G20        10.000    20805708.187 8 109334749.13608     -1544.531 8        51.590                                    20805703.849 6  85195874.66606     -1203.527 6        39.829
E31        13.000    27260965.478 5                     -2855.104 5        31.389                                                                    27260960.702 4 106977878.91604     -2132.053 4        27.413    27260972.042 5                     -2187.751 5        32.150
E25        14.000    25819441.922 4 135682003.08704      1992.486 4        28.948                                                                    25819428.006 6 101320968.69406      1487.873 6        40.989    25819421.889 4 103964124.25404      1526.906 4        29.943
E24        15.000    25192262.106 5                      -323.935 5        30.536                                                                    25192256.454 5  98859857.85605      -241.739 5        31.479    25192255.679 6 101438750.88006      -248.329 6        36.518
E15        16.000    26268801.874 6 138043520.22606     -2764.978 6        36.858                                                                    26268823.826 5 103084372.31605     -2064.478 5        34.486    26268798.950 6 105773505.80106     -2118.598 6        40.513
E08        17.000    27740533.959 5 145777514.61705      1638.071 5        33.293                                                                    27740535.838 4                      1223.457 4        28.976    27740562.576 5 111699759.47705      1255.322 5        32.377
E05        21.000    22532337.051 5 118408204.27005     -2008.559 5        35.467                                                                    22532339.581 7  88421755.66507     -1499.954 7        46.899    22532340.136 8  90728398.45708     -1539.084 8        50.184
E13        22.000    27010956.017 6 141943513.36006      -205.032 6        38.048                                                                    27010951.657 6 105996794.87806      -153.185 6        38.117    27010950.161 5 108761974.78705      -157.139 5        34.114
R07        23.000    21922697.479 7 117353919.43407     -4030.613 7        43.164                                                                    21922700.054 5  91275261.86305     -3135.233 5        35.595
S23        24.000    38211419.563 6 200802288.88206      -812.930 6        39.285
S36        25.000    38276594.034 5 201144793.19405      -815.353 5        34.538
G11        26.000    24530827.685 5                     -3958.239 5        32.647                                                                                                    24530979.057 3                     -3085.516 3        23.067
E03        27.000    23894711.110 6 125567548.64606       344.527 6        36.960                                                                    23894711.468 7  93767978.08107       257.251 7        42.252    23894712.292 7  96214075.03507       263.934 7        44.442
R11        28.000    21066099.316 4 112570779.91404      2841.378 4        29.441                                                                    21066093.617 6  87555106.38206      2209.904 6        41.178
R17        29.000                                                                                                                                    23239770.512 3                      -577.377 3        23.924
R10        30.000    19485549.265 5 103868916.55405     -1097.759 5        33.940
R24        31.000    23636298.098 5                     -3726.694 5        34.381
R09        32.000    21614634.017 7 115420952.79107     -4216.760 7        43.175                                                                    21614638.555 7  89771830.12107     -3279.783 7        45.062
C19        33.000                                                                                                                                    25740235.032 5                     -3882.704 5        30.521                                                                    25740240.498 4                     -3154.808 4        28.218
R08        35.000    19385243.404 7 103807451.85307     -1153.186 7        44.414                                                                    19385240.713 6  80738849.14206      -896.990 6        36.178
C05        36.000                                                                                                                                                                                                    39343352.308 5 158419275.38105      -673.928 5        34.819
R01        38.000    21274744.981 8 113725692.06508      2389.620 8        48.751                                                                    21274743.435 6  88453415.54806      1858.471 6        38.228
C42        41.000                                                                                                                                    26901071.329 4                      2346.583 4        29.299                                                                    26901095.858 3                      1905.950 3        22.590
C36        42.000                                                                                                                                    22054907.016 7 114845672.98307     -1531.226 7        44.721                                                                    22054914.404 6  93321550.21206     -1244.289 6        40.191
C09        46.000                                                                                                                                    40093452.305 3                     -1580.432 3        22.514    40093428.594 4                     -1220.943 4        29.545
C21        47.000                                                                                                                                    22883831.889 7 119162099.70107      1082.388 7        44.928                                                                    22883826.455 7  96828993.08107       879.565 7        42.891
C45        49.000                                                                                                                                    22759555.862 8 118514938.35508      1475.326 8        49.985                                                                    22759548.657 7  96303087.01807      1198.851 7        47.323
C22        50.000                                                                                                                                    21800419.629 7 113520444.86307     -1943.555 7        45.579                                                                    21800414.639 7  92244644.53407     -1579.220 7        46.124
I02        53.000    38736806.377 5 152011538.19005       160.866 5        35.838
I06        60.000    38041846.455 5 149284287.81305      -638.838 5        32.641
> 2025 01 01 06 45 30.0000000  0 36
G13         2.000    22409330.272 5 117761831.89905      2064.258 5        34.648                                    22409329.025 1  91762512.12601      1608.607 1         9.333
G30         3.000    20489717.090 8 107674183.22308      -499.970 8        48.480                                    20489716.076 8  83901913.94408      -389.586 8        48.503    20489715.753 7  83901949.93907      -389.513 7        45.640
G14         4.000    23038219.531 6 121066602.26306      2511.302 6        40.470                                    23038216.576 3  94337619.77603      1956.858 3        19.522    23038217.556 6  94337640.76706      1956.823 6        38.697
G07         5.000    21582873.571 7 113418767.33907     -2541.360 7        46.152                                    21582871.198 7  88378257.29207     -1980.276 7        44.629    21582870.981 7  88378229.30407     -1980.316 7        44.453
E34         6.000    28019930.985 3                     -3954.112 3        21.738                                                                    28019967.364 3                     -2952.048 3        23.238
G09         9.000    23419963.929 4                     -3898.500 4        24.075                                                                                                    23419976.090 4                     -3037.887 4        25.654
G20        10.000    20807179.435 8 109342480.62008     -1547.880 8        51.375                                    20807175.049 6  85201899.18206     -1206.138 6        39.844
E31        13.000    27263685.177 5                     -2857.087 5        32.772                                                                    27263677.379 4 106988543.08204     -2133.603 4        27.892    27263689.429 5                     -2189.132 5        32.030
E25        14.000    25817549.800 4 135672043.13504      1991.356 4        27.521                                                                    25817532.569 6 101313531.12406      1487.147 6        40.486    25817526.555 4 103956492.65004      1526.329 4        28.427
E24        15.000    25192571.394 4                      -326.688 4        29.441                                                                    25192567.600 4  98861072.71404      -243.287 4        29.024    25192567.160 5 101439997.47405      -250.031 5        34.933
E15        16.000    26271434.994 6 138057350.68406     -2766.899 6        36.510                                                                    26271456.623 5 103094700.30305     -2066.135 5        33.234    26271430.523 6 105784103.17206     -2120.164 6        39.673
E08        17.000    27738974.529 5 145769324.97505      1637.781 5        33.653                                                                    27738979.123 4                      1223.071 4        28.445    27739001.225 5 111693484.20305      1254.996 5        31.955
E05        21.000    22534249.367 5 118418250.99005     -2009.934 5        33.437                                                                    22534251.399 7  88429258.05707     -1500.798 7        46.826    22534251.993 8  90736096.57108     -1539.960 8        50.286
E13        22.000    27011149.782 6 141944545.60906      -207.595 6        38.243                                                                    27011148.536 6 105997565.70506      -155.080 6        38.243    27011146.302 5 108762765.71605      -159.058 5        34.433
R07        23.000    21926462.634 7 117374077.62407     -4032.445 7        42.176                                                                    21926466.849 6  91290940.42606     -3136.264 6        37.112
S23        24.000    38212190.574 6 200806354.31506      -813.036 6        39.658
S36        25.000    38277369.637 5 201148872.54905      -815.632 5        34.429
G11        26.000    24534596.435 5                     -3959.161 5        33.713
E03        27.000    23894384.871 6 125565829.43006       343.319 6        37.229                                                                    23894384.525 7  93766694.23707       256.500 7        42.557    23894385.082 7  96212757.69807       263.088 7        44.557
R11        28.000                                                                                                                                    21063435.753 6  87544062.25406      2207.891 6        41.063
R17        29.000    23240469.925 6 124364487.63516      -746.481 6        41.311
R10        30.000    19486579.798 5 103874416.64205     -1102.201 5        33.778
R24        31.000    23639782.134 5 126412462.44315     -3729.333 5        31.042
R09        32.000    21618582.990 7 115442042.93907     -4219.225 7        42.186                                                                    21618587.248 7  89788233.56907     -3281.543 7        44.987
