     3.04           OBSERVATION DATA    M                   RINEX VERSION / TYPE
ssrcrin-15.6.1x                         20250101 184500 UTC PGM / RUN BY / DATE 
(00000000023479385599111004) Septentrio proprietary         COMMENT             
ract                                                        MARKER NAME         
01                                                          MARKER NUMBER       
geodetic                                                    MARKER TYPE         
NFB                 CLIMERS@TUW                             OBSERVER / AGENCY   
3296359             SEPT ASTERX SB3 PROB4.14.4              REC # / TYPE / VERS 
Unknown             Unknown                                 ANT # / TYPE        
  4127447.8289  1206914.4566  4695544.5439                  APPROX POSITION XYZ 
        0.0000        0.0000        0.0000                  ANTENNA: DELTA H/E/N
G   23 X1  C1C L1C D1C S1C C1W S1W C2W L2W D2W S2W C2L L2L  SYS / # / OBS TYPES 
       D2L S2L C5Q L5Q D5Q S5Q C1L L1L D1L S1L              SYS / # / OBS TYPES 
E   21 X1  C1C L1C D1C S1C C6C L6C D6C S6C C5Q L5Q D5Q S5Q  SYS / # / OBS TYPES 
       C7Q L7Q D7Q S7Q C8Q L8Q D8Q S8Q                      SYS / # / OBS TYPES 
S    9 X1  C1C L1C D1C S1C C5I L5I D5I S5I                  SYS / # / OBS TYPES 
R   17 X1  C1C L1C D1C S1C C2P L2P D2P S2P C2C L2C D2C S2C  SYS / # / OBS TYPES 
       C3Q L3Q D3Q S3Q                                      SYS / # / OBS TYPES 
C   25 X1  C1P L1P D1P S1P C5P L5P D5P S5P C2I L2I D2I S2I  SYS / # / OBS TYPES 
       C7I L7I D7I S7I C6I L6I D6I S6I C7D L7D D7D S7D      SYS / # / OBS TYPES 
J   17 X1  C1C L1C D1C S1C C2L L2L D2L S2L C5Q L5Q D5Q S5Q  SYS / # / OBS TYPES 
       C1L L1L D1L S1L                                      SYS / # / OBS TYPES 
I    5 X1  C5A L5A D5A S5A                                  SYS / # / OBS TYPES 
SEPTENTRIO RECEIVERS OUTPUT ALIGNED CARRIER PHASES.         COMMENT             
NO FURTHER PHASE SHIFT APPLIED IN THE RINEX ENCODER.        COMMENT             
G L1C                                                       SYS / PHASE SHIFT   
G L2W                                                       SYS / PHASE SHIFT   
G L2L  0.00000                                              SYS / PHASE SHIFT   
G L5Q  0.00000                                              SYS / PHASE SHIFT   
G L1L  0.00000                                              SYS / PHASE SHIFT   
E L1C  0.00000                                              SYS / PHASE SHIFT   
E L6C  0.00000                                              SYS / PHASE SHIFT   
E L5Q  0.00000                                              SYS / PHASE SHIFT   
E L7Q  0.00000                                              SYS / PHASE SHIFT   
E L8Q  0.00000                                              SYS / PHASE SHIFT   
S L1C                                                       SYS / PHASE SHIFT   
S L5I                                                       SYS / PHASE SHIFT   
R L1C                                                       SYS / PHASE SHIFT   
R L2P  0.00000                                              SYS / PHASE SHIFT   
R L2C                                                       SYS / PHASE SHIFT   
R L3Q  0.00000                                              SYS / PHASE SHIFT   
C L1P  0.00000                                              SYS / PHASE SHIFT   
C L5P  0.00000                                              SYS / PHASE SHIFT   
C L2I                                                       SYS / PHASE SHIFT   
C L7I                                                       SYS / PHASE SHIFT   
C L6I                                                       SYS / PHASE SHIFT   
C L7D                                                       SYS / PHASE SHIFT   
J L1C                                                       SYS / PHASE SHIFT   
J L2L  0.00000                                              SYS / PHASE SHIFT   
J L5Q  0.00000                                              SYS / PHASE SHIFT   
J L1L  0.00000                                              SYS / PHASE SHIFT   
I L5A                                                       SYS / PHASE SHIFT   
  2025     1     1    18    45    0.0000000     GPS         TIME OF FIRST OBS   
 C1C    0.000 C2C    0.000 C2P    0.000                     GLONASS COD/PHS/BIS 
DBHZ                                                        SIGNAL STRENGTH UNIT
    18                                                      LEAP SECONDS        
 24 R01  1 R02 -4 R03  5 R04  6 R05  1 R06 -4 R07  5 R08  6 GLONASS SLOT / FRQ #
    R09 -2 R10 -7 R11  0 R12 -1 R13 -2 R14 -7 R15  0 R16 -1 GLONASS SLOT / FRQ #
    R17  4 R18 -3 R19  3 R20  2 R21  4 R22 -3 R23  3 R24  2 GLONASS SLOT / FRQ #
                                                            END OF HEADER       
> 2025 01 01 18 45  0.0000000  0 35
G18         1.000    21087896.587 7 110817870.14107     -2454.378 7        43.943                                    21087893.935 5  86351463.52305     -1912.498 5        30.226    21087893.514 7  86351473.52407     -1912.442 7        46.552
G10         2.000    23912620.435 7 125661658.74707      2698.203 7        42.950                                    23912616.503 5  97918193.93105      2102.490 5        34.243    23912618.931 5  97918178.95005      2102.552 5        35.257
G07         3.000                                                                                                                                                                    25730060.044 4                       664.696 4        24.602
G23         4.000    21591945.217 6 113466415.11606      1223.635 6        38.033                                    21591952.141 1  88415406.34401       953.483 1         6.250    21591978.669 4  88415402.09804       953.347 4        24.466
G31         5.000    25431505.493 4                     -4189.666 4        26.982
G08         6.000    24816110.097 4                      2494.028 4        26.707
G27         7.000    21895564.592 7 115062003.07107      1790.176 7        45.985                                    21895685.513 3  89658649.95703      1394.982 3        18.478    21895574.831 5                      1394.683 5        31.917
G29         8.000    24041873.944 3                     -3924.593 3        23.714                                                                                                    24041882.295 4                     -3057.117 4        24.346
E15        10.000    25080437.984 6 131798676.32406     -2966.111 6        41.375                                                                    25080438.608 7  98421082.62107     -2215.020 7        44.924    25080437.124 6 100988519.24006     -2272.778 6        40.241
E27        15.000    25622155.482 6 134645341.11506     -3523.404 6        40.398                                                                    25622156.434 7 100546839.95507     -2631.127 7        46.233    25622154.069 7 103170021.70107     -2699.709 7        43.791
E13        16.000    23337439.906 7 122639157.89807      -424.342 7        47.418                                                                    23337439.239 7  91581186.25707      -316.807 7        45.288    23337440.285 8  93970214.87108      -325.159 8        48.929
R17        17.000    22502404.192 6 120414939.78806     -4181.354 6        36.057                                                                    22502402.617 5  93656069.33805     -3252.415 5        30.000
G16        18.000    20607342.188 7 108292326.48807      -467.787 7        47.879                                    20607338.119 5  84383533.71805      -364.515 5        33.311
E26        19.000    26275035.369 5                      1696.439 5        33.677                                                                    26275040.835 4                      1267.082 4        28.237
E21        22.000    23747634.639 7 124794762.83607     -1036.373 7        45.288                                                                    23747632.383 7  93190829.36307      -773.883 7        47.493    23747632.441 7  95621920.75807      -794.133 7        47.915
S36        23.000    38280337.856 5 201164410.25705      -849.454 5        35.729
S23        24.000    38234847.597 6 200925484.29006      -851.100 6        39.790
G26        25.000    21169749.149 7 111247798.04407     -2778.377 7        45.321                                    21169749.017 6  86686609.17406     -2164.969 6        39.342    21169749.016 6  86686652.14306     -2164.815 6        40.420
R02        27.000    22359419.427 6                        58.242 6        38.727                                                                    22359458.066 5                        45.309 5        30.883
R19        29.000    20171700.455 6 107904985.77006       674.309 6        37.626                                                                    20171700.031 6  83926109.16306       524.440 6        40.243
R18        30.000                                                                                                                                    19652411.603 7  81593460.74907     -1663.264 7        44.003
C21        31.000                                                                                                                                                                                                                                                                    25372617.921 5                      -995.673 5        31.909
R16        33.000    20562230.539 7 109839952.33207     -3954.347 7        46.851                                                                    20562229.160 6  85430831.42706     -3075.621 6        40.849
R09        34.000                                                                                                                                    20457759.785 5  84967026.22005       309.247 5        34.710
C37        36.000                                                                                                                                    23658235.280 7 123194631.34807     -1098.570 7        43.329                                                                    23658236.340 5 100105807.17005      -892.848 5        34.557
C28        40.000                                                                                                                                    23037653.378 7 119963364.49207      1143.941 7        47.523                                                                    23037651.152 7  97479881.21907       929.383 7        46.225
C43        42.000                                                                                                                                    21958376.338 8 114343055.47808     -1949.252 8        49.036                                                                    21958374.277 8  92913248.89508     -1584.119 8        49.011
C11        44.000                                                                                                                                    23193197.417 7 120773544.87307     -2910.240 7        42.159    23193191.409 7  93389526.20307     -2250.318 7        44.334    23193190.542 6  98138142.20106     -2365.054 6        41.056
C13        45.000                                                                                                                                    37811116.227 4                     -1226.811 4        26.647    37811110.098 5 152249665.59805      -948.240 5        35.571    37811101.119 5                      -996.569 5        30.551
C08        46.000                                                                                                                                    38022366.434 5 197992465.89405     -1503.526 5        34.624    38022361.975 6 153100295.69206     -1162.512 6        36.068    38022363.894 6 160885058.95406     -1222.024 6        38.802
C14        47.000                                                                                                                                                                                                    25514258.918 5 102735367.57105      1679.898 5        32.299
C42        48.000                                                                                                                                    24759239.894 5 128927804.89405      1272.528 5        33.719                                                                    24759229.346 5 104764420.58705      1033.686 5        35.667
C38        49.000                                                                                                                                                                                                                                                                    39296697.626 4 166277177.71404     -1480.970 4        29.251
C23        55.000                                                                                                                                    24344141.703 5 126766328.26805     -3671.402 5        34.400                                                                    24344131.688 5 103008081.75705     -2983.126 5        34.776
I06        58.000    38771935.522 7 152149562.16807      -597.838 7        42.489
> 2025 01 01 18 45  5.0000000  0 38
G18         1.000    21090233.214 7 110830147.85307     -2456.405 7        44.018                                    21090230.778 5  86361030.56205     -1914.082 5        30.528    21090229.881 7  86361040.56907     -1914.046 7        45.986
G10         2.000    23910053.960 7 125648170.35207      2697.603 7        42.959                                    23910049.380 5  97907683.51405      2102.030 5        34.195    23910051.927 5  97907668.52405      2102.103 5        35.733
G07         3.000                                                                                                                                                                    25729253.784 4                       663.437 4        24.571
G23         4.000    21590781.490 5 113460305.65205      1220.614 5        34.448                                    21590790.659 1  88410645.47201       951.184 1         5.000
G31         5.000    25435486.225 4                     -4188.972 4        27.976
G08         6.000    24813735.934 3                      2493.828 3        23.810
G27         7.000    21893862.256 7 115053056.50707      1788.945 7        46.864                                    21893984.449 2  89651678.49402      1394.015 2        16.755    21893872.028 5                      1393.885 5        32.275
G29         8.000    24045606.756 3                     -3925.808 3        21.833                                                                                                    24045610.421 4                     -3057.574 4        24.872
E15        10.000    25083260.899 7 131813510.31007     -2967.009 7        42.273                                                                    25083261.285 7  98432159.93707     -2215.694 7        44.793    25083259.717 6 100999885.54106     -2273.505 6        40.396
G05        11.000    25050692.917 3                     -4180.675 3        23.390
E27        15.000    25625508.298 7 134662961.49607     -3524.459 7        42.256                                                                    25625509.403 7 100559998.03407     -2631.952 7        46.175    25625507.060 7 103183523.03007     -2700.540 7        44.090
E13        16.000    23337844.881 7 122641284.83607      -426.044 7        47.292                                                                    23337844.041 7  91582774.55507      -318.146 7        44.928    23337844.952 8  93971844.59908      -326.477 8        49.083
R17        17.000    22506309.040 5 120435847.46905     -4181.230 5        33.407                                                                    22506315.886 4  93672330.94304     -3252.309 4        28.597
G16        18.000    20607788.863 8 108294674.75608      -471.102 8        48.217                                    20607785.129 5  84385363.52605      -367.092 5        33.515
E26        19.000    26273428.245 5 138067777.11015      1696.004 5        34.176                                                                    26273425.246 4                      1266.318 4        28.844
E21        22.000    23748621.155 7 124799951.06607     -1038.551 7        44.792                                                                    23748619.687 7  93194703.69807      -775.578 7        47.013    23748619.557 7  95625896.15407      -795.745 7        47.926
S36        23.000    38281150.045 5 201168657.46505      -849.314 5        35.629
S23        24.000    38235655.431 6 200929740.16506      -850.994 6        39.823
G26        25.000    21172393.828 7 111261696.99307     -2780.913 7        44.784                                    21172394.116 6  86697439.52506     -2166.941 6        38.688    21172393.645 6  86697482.49406     -2167.057 6        38.631
R02        27.000    22359368.323 6 119313652.97916        54.216 6        37.524                                                                    22359400.543 5                        41.888 5        31.955
C34        28.000                                                                                                                                    25011183.280 4                     -3539.605 4        24.632
R19        29.000    20171071.183 6 107901621.19406       671.860 6        37.996                                                                    20171069.824 6  83923492.27706       522.676 6        39.589
R18        30.000    19654427.419 5 104916666.77815     -2140.529 5        35.267                                                                    19654415.209 7  81601781.43217     -1664.807 7        43.429
C21        31.000                                                                                                                                                                                                                                                                    25373796.194 5                      -997.837 5        34.048
R16        33.000    20565933.415 7 109859733.30307     -3957.695 7        46.484                                                                    20565933.288 6  85446216.62706     -3078.305 6        41.714
R09        34.000    20457381.773 6 109241334.54716       393.324 6        38.432                                                                    20457389.314 6  84965489.04506       306.060 6        37.486
C37        36.000                                                                                                                                    23659291.509 7 123200131.63207     -1101.229 7        42.754                                                                    23659288.812 5 100110276.62005      -894.903 5        33.982
R01        37.000    23778321.620 5 127108771.07115     -3301.069 5        31.509
C28        40.000                                                                                                                                    23036555.727 8 119957648.20308      1142.949 8        48.103                                                                    23036553.337 7  97475236.28007       928.759 7        45.986
C43        42.000                                                                                                                                    21960248.975 8 114352806.21608     -1950.603 8        48.638                                                                    21960246.715 8  92921172.16408     -1585.011 8        48.735
C11        44.000                                                                                                                                    23195991.579 6 120788098.45306     -2910.947 6        41.654    23195985.648 7  93400779.95707     -2250.993 7        43.757    23195985.280 6  98149968.16206     -2365.314 6        41.425
C13        45.000                                                                                                                                    37812298.055 4                     -1227.500 4        28.057    37812287.294 5 152254409.26505      -948.857 5        35.310    37812278.989 4                      -997.448 4        29.716
C08        46.000                                                                                                                                    38023811.547 5 197999985.89805     -1504.217 5        33.569    38023806.153 5 153106110.65405     -1163.054 5        35.467    38023808.082 6 160891169.57706     -1222.331 6        38.532
C14        47.000                                                                                                                                                                                                    25512171.483 5 102726970.10105      1679.359 5        31.758
C42        48.000                                                                                                                                    24758014.513 5 128921448.24305      1270.561 5        34.629                                                                    24758007.876 5 104759255.27305      1032.368 5        34.571
C38        49.000                                                                                                                                                                                                                                                                    39298447.754 4 166284582.51904     -1480.996 4        29.005
C23        55.000                                                                                                                                                                                                                                                                    24347657.211 5 103023000.95805     -2984.269 5        34.857
I06        58.000    38772697.625 7 152152551.88407      -597.818 7        42.616
> 2025 01 01 18 45 10.0000000  0 37
G18         1.000    21092571.414 7 110842436.21207     -2458.736 7        44.113                                    21092569.513 5  86370605.89905     -1915.901 5        30.808    21092567.774 7  86370615.90507     -1915.913 7        45.141
G10         2.000    23907488.309 7 125634685.84007      2696.546 7        43.230                                    23907483.040 5  97897176.12005      2101.203 5        34.167    23907485.813 6  97897161.14106      2101.017 6        36.336
G07         3.000                                                                                                                                                                    25728449.867 4                       661.019 4        24.662
G23         4.000    21589626.572 5 113454210.13605      1217.568 5        30.860                                    21589631.601 1  88405895.71701       948.802 1         3.000    21589611.278 5                       948.976 5        32.210
G31         5.000    25439469.180 4                     -4189.723 4        27.677
G08         6.000    24811354.813 4                      2494.924 4        26.120
G27         7.000    21892161.501 7 115044116.73807      1787.306 7        46.557                                    21892284.727 1  89644712.27901      1392.624 1        11.926    21892169.136 5                      1392.657 5        30.740
G29         8.000    24049341.688 3                     -3923.128 3        21.786                                                                                                    24049346.229 4                     -3058.257 4        24.045
E15        10.000    25086084.489 7 131828349.01407     -2968.241 7        42.914                                                                    25086084.749 7  98443240.77907     -2216.555 7        44.667    25086083.265 6 101011255.45506     -2274.380 6        40.072
E27        15.000    25628862.877 7 134680588.13007     -3525.873 7        43.680                                                                    25628863.608 7 100573160.77707     -2633.009 7        46.079    25628861.510 7 103197029.16107     -2701.747 7        44.319
E13        16.000    23338251.752 7 122643420.87407      -428.115 7        47.478                                                                    23338250.690 7  91584369.64307      -319.667 7        44.895    23338251.373 8  93973481.29208      -328.009 8        49.129
R17        17.000    22510218.853 5                     -4182.143 5        31.396
G16        18.000    20608238.405 8 108297039.96208      -474.671 8        48.808                                    20608235.287 5  84387206.54205      -369.870 5        33.898
E26        19.000    26271814.947 5 138059301.70805      1694.639 5        32.976                                                                    26271813.200 4                      1265.289 4        29.318
E21        22.000    23749610.230 7 124805150.66807     -1041.131 7        44.420                                                                    23749609.136 7  93198586.50807      -777.382 7        46.686    23749609.047 7  95629880.25407      -797.656 7        47.883
S36        23.000    38281954.978 5 201172905.53205      -849.651 5        35.762
S23        24.000    38236466.177 6 200933996.25606      -851.270 6        40.040
G26        25.000    21175041.110 7 111275609.75307     -2783.995 7        44.257                                    21175041.558 6  86708280.63306     -2169.344 6        37.618    21175040.026 6  86708323.58406     -2169.367 6        37.032
R02        27.000    22359325.332 5 119313394.33805        49.595 5        34.814                                                                    22359344.987 5                        38.665 5        33.144
C34        28.000                                                                                                                                    25014585.532 4                     -3539.275 4        26.323
R19        29.000    20170444.729 6 107898268.40206       669.335 6        37.217                                                                    20170442.511 6  83920884.53306       520.664 6        39.339
R18        30.000    19656426.949 6 104927375.61106     -2142.813 6        40.722                                                                    19656421.436 7  81610110.39907     -1666.666 7        43.790
C21        31.000                                                                                                                                                                                                                                                                    25374977.221 5 107369830.43615     -1000.248 5        35.224
R16        33.000    20569637.941 7 109879531.32007     -3961.229 7        45.825                                                                    20569639.729 6  85461615.09006     -3081.025 6        41.881
R09        34.000    20457025.792 7 109239380.24807       388.730 7        43.105                                                                    20457026.564 6  84963969.05806       302.219 6        39.411
C37        36.000                                                                                                                                    23660350.237 6 123205646.36806     -1104.295 6        41.695                                                                    23660345.808 5 100114757.76905      -897.015 5        34.119
R01        37.000    23781407.880 5 127125288.75905     -3305.471 5        30.853
C28        40.000                                                                                                                                    23035459.359 8 119951937.60708      1141.566 8        48.659                                                                    23035456.757 7  97470595.94707       927.627 7        46.004
C43        42.000                                                                                                                                    21962122.659 7 114362563.99107     -1952.240 7        47.921                                                                    21962120.529 8  92929101.12808     -1586.339 8        48.791
C11        44.000                                                                                                                                    23198785.396 6 120802656.43306     -2912.007 6        41.039    23198781.220 7  93412037.11107     -2251.712 7        43.062    23198780.851 7  98161797.70907     -2366.317 7        42.028
C13        45.000                                                                                                                                    37813479.502 4                     -1227.795 4        28.976    37813466.311 5 152259156.09505      -949.657 5        34.133    37813457.678 4                      -998.095 4        29.052
C08        46.000                                                                                                                                    38025255.351 5 198007510.06105     -1505.223 5        32.551    38025251.402 5 153111928.81705     -1164.061 5        34.786    38025252.907 6 160897283.56206     -1223.210 6        38.438
C14        47.000                                                                                                                                                                                                    25510087.135 5 102718576.04805      1678.552 5        30.906
C42        48.000                                                                                                                                    24756794.619 5 128915101.75505      1268.350 5        34.200                                                                    24756788.551 5 104754098.21605      1030.409 5        33.407
C38        49.000                                                                                                                                                                                                                                                                    39300198.076 4 166291989.72404     -1481.790 4        29.318
C23        55.000                                                                                                                                    24351224.046 5 126803056.01705     -3674.374 5        30.045                                                                    24351185.256 5 103037926.01305     -2985.821 5        35.638
I06        58.000    38773459.395 7 152155541.62607      -597.941 7        42.599
> 2025 01 01 18 45 15.0000000  0 36
G18         1.000    21094912.510 7 110854735.33907     -2460.795 7        45.130                                    21094910.165 5  86380189.63105     -1917.502 5        31.223    21094907.974 7  86380199.63107     -1917.509 7        44.226
G10         2.000    23904922.943 7 125621205.36307      2695.700 7        43.355                                    23904917.612 5  97886671.87205      2100.540 5        34.276    23904920.605 6  97886656.89306      2100.350 6        36.979
G07         3.000                                                                                                                                                                    25727647.336 3                       658.620 3        22.514
G23         4.000    21588477.228 4 113448128.30804      1214.407 4        25.850                                    21588474.998 1  88401156.90301       946.255 1         4.000    21588457.246 5  88401122.82315       946.698 5        34.438
G31         5.000    25443453.498 4                     -4188.890 4        26.934
G08         6.000    24808972.905 3                      2494.778 3        22.933
G27         7.000    21890460.866 7 115035183.86507      1785.971 7        45.698                                    21890586.030 1  89637751.32001      1391.792 1         9.333
G29         8.000    24053078.287 3                     -3927.288 3        23.638                                                                                                    24053082.109 3                     -3060.328 3        20.000
E15        10.000    25088908.963 7 131843192.55507     -2969.120 7        42.781                                                                    25088909.140 7  98454325.23307     -2217.206 7        44.769    25088907.574 6 101022629.08206     -2275.038 6        40.076
E27        15.000    25632218.521 7 134698221.13307     -3527.148 7        44.602                                                                    25632218.812 7 100586328.27607     -2633.893 7        46.041    25632217.058 7 103210540.15907     -2702.649 7        44.646
E13        16.000    23338660.166 7 122645566.08107      -429.949 7        47.655                                                                    23338659.136 7  91585971.57007      -321.005 7        45.266    23338659.578 8  93975125.02108      -329.410 8        49.251
R17        17.000    22514128.730 4 120477669.61914     -4182.749 4        29.090
G16        18.000    20608691.904 8 108299422.19408      -478.051 8        48.570                                    20608688.554 5  84389062.81805      -372.506 5        33.988
E26        19.000    26270206.480 5 138050831.33605      1693.890 5        30.913                                                                    26270203.872 4                      1264.699 4        28.474
E21        22.000    23750601.716 7 124810361.70707     -1043.229 7        44.024                                                                    23750600.710 7  93202477.87707      -779.083 7        46.666    23750600.693 7  95633873.13807      -799.396 7        47.791
S36        23.000    38282764.409 5 201177153.30305      -849.477 5        35.781
S23        24.000    38237274.959 6 200938252.52206      -851.234 6        39.700
G26        25.000    21177691.084 7 111289536.38807     -2786.724 7        43.871                                    21177691.294 6  86719132.54906     -2171.469 6        36.212    21177690.629 6  86719175.50106     -2171.362 6        36.231
R02        27.000    22359279.976 5 119313157.24715        45.158 5        32.222                                                                    22359293.667 5                        35.308 5        31.525
C34        28.000                                                                                                                                    25017986.268 4                     -3539.934 4        28.142
R19        29.000    20169819.326 6 107894927.50406       666.999 6        37.164                                                                    20169818.072 6  83918286.06706       519.161 6        38.820
R18        30.000    19658436.431 7 104938095.00307     -2144.935 7        43.869                                                                    19658429.277 7  81618447.70707     -1668.250 7        43.107
C21        31.000                                                                                                                                                                                                                                                                    25376160.482 5 107374837.95005     -1002.717 5        35.476
R16        33.000    20573347.521 7 109899346.30507     -3964.680 7        45.329                                                                    20573348.251 7  85477026.72207     -3083.631 7        42.309
R09        34.000    20456668.076 7 109237448.01607       384.243 7        44.625                                                                    20456665.169 6  84962466.19506       298.836 6        41.023
C37        36.000                                                                                                                                    23661411.283 6 123211175.70906     -1107.309 6        40.284                                                                    23661409.485 5 100119250.82005      -899.644 5        34.252
C28        40.000                                                                                                                                    23034364.226 8 119946232.80708      1140.458 8        49.221                                                                    23034361.378 7  97465960.33107       926.694 7        45.825
C43        42.000                                                                                                                                    21963998.026 7 114372328.90707     -1953.596 7        47.737                                                                    21963995.670 8  92937035.91508     -1587.572 8        48.687
C11        44.000                                                                                                                                    23201581.210 6 120817218.89506     -2912.857 6        41.063    23201577.805 7  93423297.75507     -2252.454 7        42.749    23201577.432 7  98173630.91607     -2366.984 7        42.224
C13        45.000                                                                                                                                    37814660.239 4                     -1229.065 4        29.573    37814644.747 5 152263906.24005      -950.586 5        33.012    37814637.220 4                      -998.576 4        29.100
C08        46.000                                                                                                                                    38026702.785 5 198015038.42105     -1505.822 5        32.778    38026696.854 5 153117750.22505     -1164.375 5        34.100    38026698.560 6 160903400.98606     -1224.023 6        38.559
C14        47.000                                                                                                                                                                                                    25508003.887 5 102710185.35305      1678.177 5        30.506
C42        48.000                                                                                                                                    24755578.679 5 128908765.52705      1266.374 5        32.988                                                                    24755571.279 5 104748949.52005      1028.711 5        32.952
C38        49.000                                                                                                                                                                                                                                                                    39301948.812 5 166299399.41705     -1482.433 5        30.045
C23        55.000                                                                                                                                    24354755.024 4 126821430.58804     -3675.156 4        24.842                                                                    24354714.277 6 103052856.97906     -2986.936 6        36.582
I06        58.000    38774221.388 7 152158531.49107      -597.918 7        42.466
> 2025 01 01 18 45 20.0000000  0 37
G18         1.000    21097255.110 7 110867044.76707     -2463.086 7        45.895                                    21097252.562 5  86389781.38805     -1919.292 5        31.660    21097250.912 7  86389791.39107     -1919.295 7        43.553
G10         2.000    23902358.432 7 125607728.47007      2694.747 7        43.329                                    23902353.060 5  97876170.41105      2099.801 5        34.595    23902355.260 6  97876155.41906      2099.873 6        37.267
G07         3.000                                                                                                                                                                    25726840.074 3                       657.970 3        22.990
G23         4.000    21587320.199 4                      1212.023 4        27.042                                                                                                    21587301.002 5  88396394.70605       944.286 5        34.390
G31         5.000    25447441.748 4                     -4188.356 4        26.275
G27         7.000    21888761.340 7 115026257.49907      1784.391 7        44.844                                    21888888.512 1  89630795.50601      1390.454 1         8.476    21888757.056 4                      1390.338 4        26.671
G29         8.000    24056816.188 4                     -3926.294 4        26.766
E15        10.000    25091734.215 7 131858040.49107     -2970.242 7        42.605                                                                    25091734.447 7  98465412.97407     -2218.042 7        44.623    25091732.698 6 101034006.06306     -2275.798 6        39.607
E27        15.000    25635575.166 7 134715860.06307     -3528.608 7        45.457                                                                    25635575.101 7 100599500.20307     -2634.987 7        45.511    25635573.790 7 103224055.70207     -2703.690 7        44.858
E13        16.000    23339070.402 8 122647720.05608      -431.827 8        48.205                                                                    23339069.239 7  91587580.05807      -322.435 7        45.506    23339069.452 8  93976775.46508      -330.927 8        49.393
R17        17.000    22518032.106 3                     -4183.265 3        23.943
G16        18.000    20609148.089 7 108301821.09807      -481.662 7        47.836                                    20609144.833 5  84390932.08405      -375.318 5        33.916
E26        19.000    26268599.448 5 138042365.66405      1692.322 5        30.257                                                                    26268593.140 4                      1264.106 4        27.844
E21        22.000    23751595.203 7 124815583.78607     -1045.738 7        43.380                                                                    23751594.542 7  93206377.47807      -780.828 7        46.444    23751594.626 7  95637874.46207      -801.223 7        47.727
S36        23.000    38283572.587 6 201181400.77106      -849.660 6        36.042
S23        24.000    38238086.666 6 200942508.77806      -851.451 6        40.067
G26        25.000    21180343.756 7 111303476.50107     -2789.626 7        43.793                                    21180343.306 5  86729994.96805     -2173.732 5        34.562    21180344.253 5  86730037.91405     -2173.561 5        35.105
R02        27.000    22359233.003 5 119312941.12415        40.908 5        32.719
C34        28.000                                                                                                                                    25021386.879 5                     -3540.199 5        31.042
R19        29.000    20169196.225 6 107891597.89506       664.545 6        36.575                                                                    20169194.904 6  83915696.41006       516.922 6        38.252
R18        30.000    19660447.191 7 104948824.67007     -2147.198 7        43.310                                                                    19660439.067 7  81626793.01907     -1669.984 7        42.732
C21        31.000                                                                                                                                                                                                                                                                    25377345.648 5 107379857.11405     -1005.046 5        35.105
R03        32.000    23171057.037 5 124036481.46015      2797.933 5        32.766
R16        33.000    20577059.631 7 109919177.80107     -3968.232 7        44.138                                                                    20577061.144 7  85492451.21707     -3086.417 7        42.032
R09        34.000    20456309.401 7 109235537.65507       379.508 7        45.329                                                                    20456306.827 6  84960980.38106       295.364 6        40.732
C37        36.000                                                                                                                                    23662474.436 6 123216719.15906     -1110.272 6        39.784                                                                    23662475.996 5 100123755.33105      -901.802 5        34.714
R01        37.000    23787569.612 5 127158376.20005     -3312.448 5        30.694
C28        40.000                                                                                                                                    23033270.075 8 119940533.38608      1139.179 8        49.464                                                                    23033266.972 7  97461329.09407       925.742 7        45.920
C43        42.000                                                                                                                                    21965874.767 7 114382100.52607     -1955.171 7        47.874                                                                    21965872.222 8  92944976.14608     -1588.636 8        48.408
C11        44.000                                                                                                                                    23204379.260 6 120831785.40806     -2913.940 6        41.201    23204375.093 7  93434561.51007     -2253.175 7        42.375    23204374.833 7  98185467.38707     -2367.583 7        42.538
C13        45.000                                                                                                                                    37815838.985 4                     -1229.624 4        29.848    37815824.486 5 152268659.33905      -950.968 5        32.144    37815817.434 4                      -999.357 4        28.919
C08        46.000                                                                                                                                    38028149.430 5 198022570.71105     -1507.298 5        32.605    38028143.240 5 153123574.62305     -1165.075 5        34.024    38028145.097 6 160909521.54706     -1224.274 6        38.396
C14        47.000                                                                                                                                                                                                    25505921.238 5 102701797.80705      1677.117 5        30.370
C42        48.000                                                                                                                                    24754364.034 5 128902439.20905      1264.092 5        30.717                                                                    24754356.508 5 104743808.81205      1027.336 5        32.533
C38        49.000                                                                                                                                                                                                                                                                    39303700.201 4 166306811.11904     -1481.937 4        29.128
C23        55.000                                                                                                                                                                                                                                                                    24358244.719 6 103067793.53006     -2987.843 6        37.391
I06        58.000    38774983.038 7 152161521.14907      -598.162 7        42.406
> 2025 01 01 18 45 25.0000000  0 38
G18         1.000    21099599.137 7 110879365.01907     -2465.189 7        46.192                                    21099596.882 5  86399381.58605     -1920.926 5        31.917    21099595.047 7  86399391.58407     -1920.863 7        43.137
G10         2.000    23899794.109 7 125594255.70907      2694.158 7        43.318                                    23899789.407 5  97865672.17405      2099.342 5        34.905    23899791.302 6  97865657.17506      2099.343 6        37.784
G07         3.000    25726037.978 4                       841.189 4        29.450                                                                                                    25726035.423 3                       655.488 3        23.162
G23         4.000    21586166.484 5 113436006.44415      1209.562 5        33.168                                                                                                    21586148.572 5  88391677.63805       942.135 5        33.419
G31         5.000    25451429.925 4                     -4188.251 4        25.579
G27         7.000    21887063.885 7 115017338.11807      1783.187 7        43.989                                    21887192.386 1  89623845.09901      1389.625 1         6.250    21887062.284 4                      1389.231 4        28.730
G29         8.000    24060554.760 4                     -3926.955 4        29.166
E15        10.000    25094559.984 7 131872893.32207     -2971.069 7        42.337                                                                    25094560.699 7  98476504.36207     -2218.599 7        44.405    25094558.979 6 101045386.81906     -2276.517 6        39.402
G05        11.000    25066551.563 3                     -4185.738 3        21.690
E27        15.000    25638932.895 7 134733505.42607     -3529.688 7        46.183                                                                    25638932.454 7 100612676.93407     -2635.799 7        45.055    25638931.678 7 103237576.17307     -2704.641 7        44.808
E13        16.000    23339482.093 8 122649883.29308      -433.624 8        48.835                                                                    23339481.040 7  91589195.45907      -323.744 7        45.825    23339481.176 8  93978433.00808      -332.239 8        49.341
R17        17.000    22521937.531 4                     -4182.972 4        25.789                                                                    22521928.904 3                     -3255.023 3        23.524
G16        18.000    20609608.034 7 108304237.12707      -484.929 7        47.621                                    20609604.275 5  84392814.69505      -377.865 5        34.033
E26        19.000    26266992.025 4 138033905.11104      1691.232 4        29.261                                                                    26266984.183 4                      1263.777 4        26.072
E21        22.000    23752590.975 7 124820817.39507     -1047.851 7        42.902                                                                    23752590.423 7  93210285.69807      -782.464 7        46.302    23752590.728 7  95641884.63107      -802.927 7        47.717
S36        23.000    38284377.072 6 201185648.42306      -849.395 6        36.253
S23        24.000    38238896.852 6 200946765.59606      -851.408 6        39.943
G26        25.000    21182999.403 7 111317430.57807     -2792.219 7        43.795                                    21182997.653 5  86740868.27405     -2175.751 5        33.054    21182999.532 5  86740911.20505     -2175.679 5        34.981
R02        27.000                                                                                                                                    22359194.750 4                        28.585 4        29.100
C34        28.000                                                                                                                                    25024787.825 5                     -3540.283 5        32.886
R19        29.000    20168574.713 6 107888280.14106       662.437 6        37.248                                                                    20168575.069 6  83913115.95906       515.165 6        38.688
R18        30.000    19662454.457 6 104959565.13706     -2149.145 6        41.602                                                                    19662450.370 7  81635146.70307     -1671.531 7        42.239
C21        31.000                                                                                                                                                                                                                                                                    25378534.553 5 107384888.32105     -1007.322 5        34.814
R03        32.000    23168441.970 5 124022494.75605      2796.883 5        31.343
R16        33.000    20580776.104 7 109939026.55607     -3971.458 7        43.445                                                                    20580775.956 7  85507889.12907     -3088.949 7        42.019
R09        34.000    20455953.194 7 109233649.67507       375.361 7        44.605                                                                    20455952.551 6  84959511.99306       292.005 6        40.632
C37        36.000                                                                                                                                    23663542.072 6 123222277.22706     -1113.031 6        39.676                                                                    23663544.688 5 100128271.76705      -904.423 5        35.533
R01        37.000    23790669.039 4 127174945.97404     -3315.873 4        29.403
C28        40.000                                                                                                                                    23032176.946 8 119934839.86408      1138.062 8        49.414                                                                    23032173.585 7  97456702.65307       924.951 7        45.941
C43        42.000                                                                                                                                    21967752.843 8 114391879.34608     -1956.530 8        48.368                                                                    21967750.220 8  92952922.25008     -1589.662 8        48.295
C11        44.000                                                                                                                                    23207178.614 6 120846356.47106     -2914.534 6        41.683    23207172.411 7  93445828.80107     -2253.834 7        42.593    23207172.777 7  98197307.60107     -2368.361 7        42.914
C13        45.000                                                                                                                                    37817020.415 4                     -1230.676 4        29.991    37817006.785 5 152273415.75405      -951.525 5        31.721    37816998.479 4                      -999.900 4        28.758
C08        46.000                                                                                                                                    38029595.579 5 198030107.34305     -1507.981 5        32.784    38029590.607 5 153129402.44905     -1165.958 5        33.293    38029592.426 6 160915645.70706     -1225.051 6        38.267
C14        47.000                                                                                                                                                                                                    25503838.497 4 102693413.81004      1676.413 4        28.313
C42        48.000                                                                                                                                    24753148.732 4 128896123.21004      1262.317 4        28.531                                                                    24753143.868 5 104738676.57305      1025.943 5        32.042
C38        49.000                                                                                                                                                                                                                                                                    39305452.331 4 166314225.46304     -1483.236 4        28.389
C23        55.000                                                                                                                                    24361784.476 5                     -3678.428 5        30.302                                                                    24361776.884 6 103082736.05206     -2988.985 6        38.456
I06        58.000    38775745.167 7 152164510.96807      -597.980 7        42.478
> 2025 01 01 18 45 30.0000000  0 37
G18         1.000    21101945.711 7 110891695.17407     -2467.280 7        46.673                                    21101942.937 5  86408989.49605     -1922.558 5        31.441    21101941.215 7  86408999.50607     -1922.621 7        42.565
G10         2.000    23897230.800 7 125580786.15807      2693.286 7        43.482                                    23897226.492 5  97855176.43205      2098.663 5        35.262    23897228.177 6  97855161.43706      2098.698 6        37.425
G07         3.000    25725240.375 5                       838.931 5        31.902                                                                                                    25725230.428 4                       654.068 4        25.639
G23         4.000    21585011.464 5 113429966.01305      1206.730 5        32.988                                                                                                    21585000.315 5  88386970.86305       940.251 5        32.677
G31         5.000    25455408.453 4                     -4187.175 4        25.023                                                                                                    25455405.245 3                     -3263.194 3        19.343
G08         6.000    24801902.679 4                      2493.185 4        24.451
G27         7.000    21885368.037 7 115008424.85207      1781.772 7        42.391                                                                                                    21885368.348 5                      1388.565 5        30.423
G29         8.000    24064293.224 5                     -3927.562 5        30.679
E15        10.000    25097387.074 6 131887750.15906     -2972.065 6        41.692                                                                    25097387.820 7  98487598.74907     -2219.399 7        44.227    25097386.259 6 101056770.61706     -2277.227 6        38.901
E27        15.000    25642291.959 7 134751156.31907     -3531.031 7        46.631                                                                    25642291.011 7 100625857.79107     -2636.780 7        44.611    25642290.332 7 103251100.87407     -2705.600 7        44.513
E13        16.000    23339895.474 8 122652054.86908      -435.439 8        49.194                                                                    23339894.285 7  91590817.09207      -325.157 7        46.307    23339894.442 8  93980096.94008      -333.597 8        49.167
R17        17.000    22525850.890 5                     -4183.907 5        30.974                                                                    22525842.964 4                     -3253.348 4        25.023
G16        18.000    20610071.219 8 108306669.36408      -488.329 8        48.754                                    20610066.717 5  84394709.93105      -380.509 5        33.952
E26        19.000    26265382.416 4 138025448.87104      1690.327 4        27.257                                                                    26265374.255 4                      1262.606 4        25.383
