     3.04           OBSERVATION DATA    M                   RINEX VERSION / TYPE
ssrcrin-15.6.1x                         20250101 083000 UTC PGM / RUN BY / DATE 
(00000000023479385599111004) Septentrio proprietary         COMMENT             
ract                                                        MARKER NAME         
01                                                          MARKER NUMBER       
geodetic                                                    MARKER TYPE         
NFB                 CLIMERS@TUW                             OBSERVER / AGENCY   
3296359             SEPT ASTERX SB3 PROB4.14.4              REC # / TYPE / VERS 
Unknown             Unknown                                 ANT # / TYPE        
  4127446.5325  1206914.1158  4695542.3638                  APPROX POSITION XYZ 
        0.0000        0.0000        0.0000                  ANTENNA: DELTA H/E/N
G   23 X1  C1C L1C D1C S1C C1W S1W C2W L2W D2W S2W C2L L2L  SYS / # / OBS TYPES 
       D2L S2L C5Q L5Q D5Q S5Q C1L L1L D1L S1L              SYS / # / OBS TYPES 
E   21 X1  C1C L1C D1C S1C C6C L6C D6C S6C C5Q L5Q D5Q S5Q  SYS / # / OBS TYPES 
       C7Q L7Q D7Q S7Q C8Q L8Q D8Q S8Q                      SYS / # / OBS TYPES 
S    9 X1  C1C L1C D1C S1C C5I L5I D5I S5I                  SYS / # / OBS TYPES 
R   17 X1  C1C L1C D1C S1C C2P L2P D2P S2P C2C L2C D2C S2C  SYS / # / OBS TYPES 
       C3Q L3Q D3Q S3Q                                      SYS / # / OBS TYPES 
C   25 X1  C1P L1P D1P S1P C5P L5P D5P S5P C2I L2I D2I S2I  SYS / # / OBS TYPES 
       C7I L7I D7I S7I C6I L6I D6I S6I C7D L7D D7D S7D      SYS / # / OBS TYPES 
J   17 X1  C1C L1C D1C S1C C2L L2L D2L S2L C5Q L5Q D5Q S5Q  SYS / # / OBS TYPES 
       C1L L1L D1L S1L                                      SYS / # / OBS TYPES 
I    5 X1  C5A L5A D5A S5A                                  SYS / # / OBS TYPES 
SEPTENTRIO RECEIVERS OUTPUT ALIGNED CARRIER PHASES.         COMMENT             
NO FURTHER PHASE SHIFT APPLIED IN THE RINEX ENCODER.        COMMENT             
G L1C                                                       SYS / PHASE SHIFT   
G L2W                                                       SYS / PHASE SHIFT   
G L2L  0.00000                                              SYS / PHASE SHIFT   
G L5Q  0.00000                                              SYS / PHASE SHIFT   
G L1L  0.00000                                              SYS / PHASE SHIFT   
E L1C  0.00000                                              SYS / PHASE SHIFT   
E L6C  0.00000                                              SYS / PHASE SHIFT   
E L5Q  0.00000                                              SYS / PHASE SHIFT   
E L7Q  0.00000                                              SYS / PHASE SHIFT   
E L8Q  0.00000                                              SYS / PHASE SHIFT   
S L1C                                                       SYS / PHASE SHIFT   
S L5I                                                       SYS / PHASE SHIFT   
R L1C                                                       SYS / PHASE SHIFT   
R L2P  0.00000                                              SYS / PHASE SHIFT   
R L2C                                                       SYS / PHASE SHIFT   
R L3Q  0.00000                                              SYS / PHASE SHIFT   
C L1P  0.00000                                              SYS / PHASE SHIFT   
C L5P  0.00000                                              SYS / PHASE SHIFT   
C L2I                                                       SYS / PHASE SHIFT   
C L7I                                                       SYS / PHASE SHIFT   
C L6I                                                       SYS / PHASE SHIFT   
C L7D                                                       SYS / PHASE SHIFT   
J L1C                                                       SYS / PHASE SHIFT   
J L2L  0.00000                                              SYS / PHASE SHIFT   
J L5Q  0.00000                                              SYS / PHASE SHIFT   
J L1L  0.00000                                              SYS / PHASE SHIFT   
I L5A                                                       SYS / PHASE SHIFT   
  2025     1     1     8    30    0.0000000     GPS         TIME OF FIRST OBS   
 C1C    0.000 C2C    0.000 C2P    0.000                     GLONASS COD/PHS/BIS 
DBHZ                                                        SIGNAL STRENGTH UNIT
    18                                                      LEAP SECONDS        
 24 R01  1 R02 -4 R03  5 R04  6 R05  1 R06 -4 R07  5 R08  6 GLONASS SLOT / FRQ #
    R09 -2 R10 -7 R11  0 R12 -1 R13 -2 R14 -7 R15  0 R16 -1 GLONASS SLOT / FRQ #
    R17  4 R18 -3 R19  3 R20  2 R21  4 R22 -3 R23  3 R24  2 GLONASS SLOT / FRQ #
                                                            END OF HEADER       
> 2025 01 01 08 30  0.0000000  0 34
G18         1.000    25514129.277 4                     -2366.359 4        29.735
G13         2.000    20094289.107 7 105596340.39707       -20.699 7        46.305                                    20094288.134 5  82282735.78805       -16.126 5        32.497
G30         3.000    21746299.937 8 114277654.22608     -2880.692 8        49.035                                    21746302.131 7  89047521.65507     -2244.693 7        44.600    21746303.221 6  89047453.64706     -2244.629 6        39.736
G14         4.000    20668792.821 7 108615220.25107      -489.457 7        46.873                                    20668794.535 5  84635236.69805      -381.393 5        35.957    20668793.938 7  84635245.69807      -381.351 7        47.874
G07         5.000                                                                                                                                                                    24498244.265 3                     -2806.613 3        23.886
G15         6.000    21656839.289 7 113807438.94507      1924.545 7        43.600                                    21656827.229 3  88681078.45503      1499.642 3        20.310    21656841.929 3  88681126.31503      1500.535 3        23.448
G05         7.000    22028189.412 5 115758887.23805     -3174.376 5        34.929                                    22028189.579 4  90201717.01204     -2473.562 4        25.850    22028193.639 5  90201704.09705     -2473.580 5        33.168
G23        10.000    25112677.980 5                      2340.606 5        30.038                                                                                                    25112649.311 5 102832035.62405      1823.891 5        33.850
E26        12.000    28311680.513 5 148778922.24805      -907.686 5        30.340                                                                    28311634.094 5 111100999.77905      -677.916 5        33.928    28311632.526 5 113999209.26405      -695.549 5        34.638
E02        13.000    25665944.140 6 134875466.08806      2008.430 6        37.629                                                                    25665946.826 6 100718747.56406      1499.781 6        37.206    25665950.906 5 103346199.31005      1538.831 5        33.365
E25        14.000    23798104.728 8 125059870.96608      -380.306 8        49.698                                                                    23798108.978 7  93388988.70507      -284.004 7        46.972    23798107.652 7  95825144.26207      -291.488 7        46.328
E24        15.000    26422873.729 5 138853085.42605     -3021.500 5        32.228                                                                    26422870.918 5 103688934.15905     -2256.330 5        34.419    26422867.587 4 106393925.80204     -2315.582 4        25.459
E08        17.000    25066403.280 6 131724837.33706      1171.853 6        37.592                                                                    25066414.116 6  98365974.37906       875.192 6        41.814    25066407.002 6 100932013.55906       898.130 6        37.970
E05        21.000    24788809.002 5 130266030.13405     -3249.595 5        32.509                                                                    24788824.355 7  97276650.16307     -2426.604 7        43.981    24788820.451 6  99814205.76306     -2489.934 6        40.362
E13        22.000    28153112.508 5                     -2980.481 5        30.868                                                                    28153122.007 5                     -2225.819 5        31.125    28153131.292 4                     -2283.710 4        26.216
S23        24.000    38285327.359 6 201190698.71506      -819.936 6        38.099
C05        25.000                                                                                                                                                                                                    39495478.611 4                      -675.654 4        28.872
E03        27.000    23443239.888 7 123195019.51807     -1238.328 7        43.118                                                                    23443243.810 7  91996257.56107      -924.688 7        44.483    23443242.641 7  94396180.33207      -948.848 7        45.120
R11        28.000    19337530.491 8 103333947.14808     -1645.110 8        48.244                                                                    19337532.060 7  80370798.58507     -1279.585 7        47.235
R10        30.000    22449512.616 5                     -4675.288 5        32.102
R12        31.000    21307698.221 7 113821987.27007      2470.280 7        44.465                                                                    21307702.018 7  88528371.29207      1921.268 7        42.038
R08        35.000    22022176.993 6 117927708.30506     -4662.130 6        38.489                                                                    22022182.605 6  91721601.31206     -3626.126 6        39.970
C26        37.000                                                                                                                                    23512554.185 6 122436020.80606      1600.296 6        36.435                                                                    23512557.157 7  99489399.86407      1300.461 7        46.367
R01        38.000    19235930.247 7 102827024.22207     -1095.482 7        44.509                                                                    19235934.328 6  79976600.16706      -852.070 6        40.298
R18        39.000    24295115.007 3                     -2945.252 3        23.467
C42        41.000                                                                                                                                    23583159.508 7 122803654.17007      1236.414 7        45.246                                                                    23583169.837 7  99788077.78807      1004.732 7        47.213
C36        42.000                                                                                                                                    24479371.306 5 127470503.31605     -3592.168 5        35.024                                                                    24479384.596 6 103580173.34706     -2918.819 6        38.408
R02        43.000    21345802.162 8 113905296.50008      2567.077 8        52.587                                                                    21345805.154 7  88593011.61007      1996.643 7        45.630
C40        44.000                                                                                                                                    39147999.071 6 203853944.74506      -175.043 6        41.611                                                                    39148000.828 5 165647996.93005      -142.190 5        32.790
I02        45.000    37753487.520 4 148152829.25004       -83.310 4        27.725
C21        47.000                                                                                                                                    22268101.803 7 115955792.03107     -1800.232 7        46.959                                                                    22268100.476 7  94223563.62807     -1462.776 7        45.299
C45        49.000                                                                                                                                    21785380.618 6 113442058.06206     -1369.204 6        37.187                                                                    21785363.711 7  92180958.98207     -1112.692 7        42.836
C22        50.000                                                                                                                                    24693050.780 5 128582953.90405     -4105.953 5        34.338                                                                    24693056.847 7 104484422.62007     -3336.548 7        42.093
I06        56.000    38200609.995 5 149907429.48605      -685.173 5        33.563
> 2025 01 01 08 30  5.0000000  0 33
G13         2.000    20094310.033 7 105596450.25207       -23.261 7        45.767                                    20094308.963 5  82282821.38505       -18.124 5        32.365
G30         3.000    21749041.266 8 114292061.33008     -2882.150 8        48.293                                    21749043.607 7  89058747.95507     -2245.828 7        44.221    21749045.272 6  89058679.93206     -2245.661 6        39.673
G14         4.000    20669259.552 7 108617675.73207      -492.708 7        46.863                                    20669261.770 6  84637150.06506      -383.934 6        36.352    20669261.015 7  84637159.07107      -383.905 7        47.957
G07         5.000                                                                                                                                                                    24501669.590 4                     -2807.371 4        24.992
G15         6.000    21655008.944 7 113797821.69107      1922.406 7        44.632                                    21654996.819 3  88673584.50003      1497.981 3        21.286    21655019.299 4  88673632.48304      1498.054 4        24.872
G05         7.000    22031214.744 6 115774765.33306     -3177.026 6        37.248                                    22031211.394 4  90214089.54904     -2475.608 4        25.835    22031216.107 5  90214076.58105     -2475.621 5        33.808
G23        10.000    25110443.537 5                      2339.064 5        32.455                                                                                                    25110421.173 5 102822919.49305      1822.485 5        34.514
E26        12.000    28312539.220 5 148783468.31305      -910.643 5        30.498                                                                    28312499.214 5 111104394.57205      -680.192 5        33.389    28312498.303 5 114002692.60305      -697.667 5        34.586
E02        13.000    25664034.368 6 134865426.93106      2007.026 6        39.159                                                                    25664036.510 6 100711250.79506      1498.913 6        38.279    25664039.192 5 103338506.98605      1537.978 5        35.576
E25        14.000    23798467.825 8 125061778.73008      -382.759 8        49.488                                                                    23798472.030 7  93390413.33107      -285.793 7        47.415    23798470.676 7  95826606.05407      -293.339 7        46.687
E24        15.000                                                                                                                                    26425746.610 5 103700219.04905     -2257.667 5        33.581    26425742.900 4 106405505.02204     -2316.146 4        26.156
E08        17.000    25065288.803 6 131718980.00306      1170.754 6        37.875                                                                    25065297.991 7  98361600.40107       874.458 7        42.006    25065292.371 6 100927525.51906       897.140 6        38.030
E05        21.000    24791901.174 5 130282280.49205     -3250.895 5        30.732                                                                    24791916.711 7  97288785.10507     -2427.410 7        44.248    24791913.043 6  99826657.26406     -2490.667 6        40.312
E13        22.000    28155945.893 5                     -2981.938 5        30.694                                                                    28155960.857 5                     -2226.656 5        30.060    28155979.501 4                     -2284.872 4        26.647
S23        24.000    38286108.677 6 201194798.59206      -819.957 6        38.090
C05        25.000                                                                                                                                                                                                    39496318.767 4                      -676.243 4        28.872
E03        27.000    23444418.658 7 123201215.29207     -1239.958 7        42.751                                                                    23444422.807 7  92000884.26607      -925.954 7        44.462    23444421.839 7  94400927.74207      -950.141 7        45.431
R11        28.000    19339070.899 7 103342181.82607     -1648.745 7        47.853                                                                    19339072.597 7  80377203.33207     -1282.260 7        46.649
R10        30.000    22453896.411 5                     -4676.095 5        31.525
R12        31.000    21305389.746 7 113809642.07007      2467.777 7        45.831                                                                    21305389.590 6  88518769.45606      1919.362 6        40.598
R08        35.000    22026532.718 6 117951024.10006     -4664.148 6        37.093                                                                    22026536.230 6  91739735.78106     -3627.773 6        40.803
C26        37.000                                                                                                                                    23511017.270 6 122428022.56306      1598.787 6        37.285                                                                    23511021.133 7  99482900.66307      1299.127 7        46.466
R01        38.000    19236956.940 7 102832511.85207     -1099.588 7        44.685                                                                    19236961.387 6  79980868.32606      -855.218 6        40.546
R18        39.000    24297871.847 4                     -2953.393 4        25.098
C42        41.000                                                                                                                                    23581973.703 7 122797477.35607      1234.343 7        45.171                                                                    23581983.524 7  99783058.61807      1002.908 7        46.964
C36        42.000                                                                                                                                    24482820.814 5 127488466.45505     -3593.004 5        33.731                                                                    24482834.273 6 103594769.82906     -2919.856 6        38.384
R02        43.000    21343397.648 8 113892465.91808      2565.060 8        52.322                                                                    21343400.385 7  88583032.25807      1995.067 7        45.166
C40        44.000                                                                                                                                    39148168.112 6 203854823.22406      -176.272 6        40.984                                                                    39148169.569 5 165648710.73805      -143.151 5        33.425
I02        45.000    37753593.798 4 148153245.67304       -83.790 4        28.303
C21        47.000                                                                                                                                    22269831.648 7 115964799.94407     -1802.966 7        47.082                                                                    22269830.687 7  94230883.28607     -1465.176 7        45.807
C45        49.000                                                                                                                                    21786698.350 6 113448910.34906     -1371.634 6        37.773                                                                    21786679.761 7  92186527.00007     -1114.578 7        42.885
C22        50.000                                                                                                                                    24696994.124 5 128603487.12005     -4107.226 5        35.095                                                                    24697000.066 6 104501107.47506     -3337.540 6        41.771
I06        56.000    38201483.585 5 149910855.45905      -685.134 5        33.509
> 2025 01 01 08 30 10.0000000  0 34
G18         1.000                                                                                                                                                                    25518616.280 4                     -1848.242 4        27.533
G13         2.000    20094333.500 7 105596572.83307       -25.562 7        46.091                                    20094332.095 5  82282916.89405       -19.917 5        32.042
G30         3.000    21751784.229 7 114306475.46607     -2883.185 7        47.603                                    21751786.429 7  89069979.73407     -2246.632 7        43.257    21751788.093 6  89069911.70806     -2246.693 6        39.420
G14         4.000    20669729.809 7 108620147.31407      -495.583 7        46.724                                    20669732.046 6  84639075.96906      -386.171 6        36.208    20669731.322 8  84639084.98308      -386.155 8        48.008
G07         5.000                                                                                                                                                                    24505097.406 4                     -2807.684 4        26.012
G15         6.000    21653180.251 7 113788214.93307      1920.588 7        44.674                                    21653168.891 3  88666098.70203      1496.556 3        21.500    21653193.177 4  88666146.66104      1495.955 4        26.012
G05         7.000    22034240.211 6 115790657.20406     -3179.384 6        41.466                                    22034235.919 4  90226472.82004     -2477.447 4        27.341    22034240.695 5  90226459.86105     -2477.585 5        34.143
G23        10.000    25108209.045 5                      2337.362 5        33.401                                                                                                    25108193.780 5 102813810.03105      1821.489 5        34.967
G20        11.000    23777929.315 4                     -4352.678 4        25.383
E26        12.000    28313405.092 4 148788027.08804      -912.994 4        27.569                                                                    28313365.896 5 111107798.85605      -681.561 5        32.976    28313365.791 5 114006185.69105      -699.467 5        33.892
E02        13.000    25662125.114 6 134855393.77506      2006.323 6        39.628                                                                    25662127.439 6 100703758.53006      1498.169 6        39.348    25662128.086 6 103330819.25806      1537.375 6        37.017
E25        14.000    23798833.284 8 125063698.53408      -384.811 8        49.377                                                                    23798837.449 7  93391846.94707      -287.337 7        47.805    23798835.920 7  95828077.07207      -294.882 7        47.056
E24        15.000                                                                                                                                    26428624.111 5 103711509.64105     -2258.406 5        33.533    26428620.578 4 106417090.19504     -2317.018 4        25.624
E08        17.000    25064176.331 6 131713127.34706      1170.461 6        37.868                                                                    25064182.941 7  98357229.91807       874.026 7        42.091    25064178.387 6 100923041.01506       896.777 6        38.252
E05        21.000    24794994.774 5 130298535.58405     -3250.936 5        30.325                                                                    24795009.784 7  97300923.63807     -2427.875 7        44.509    24795006.492 6  99839112.47206     -2491.169 6        40.276
E13        22.000    28158780.213 4                     -2983.508 4        28.777                                                                    28158800.351 4                     -2228.032 4        28.635    28158816.307 4                     -2285.705 4        25.970
S23        24.000    38286888.340 6 201198898.86306      -819.945 6        38.138
C05        25.000                                                                                                                                                                                                    39497157.701 4                      -675.324 4        29.090
E03        27.000    23445599.283 7 123207419.46607     -1241.307 7        42.811                                                                    23445603.281 7  92005517.24407      -926.967 7        44.421    23445602.605 7  94405681.58107      -951.072 7        45.815
R11        28.000    19340614.719 7 103350434.45607     -1652.060 7        47.121                                                                    19340617.054 7  80383622.05307     -1284.877 7        46.196
R10        30.000    22458282.952 5                     -4677.245 5        31.841
R12        31.000    21303081.704 7 113797308.86607      2465.799 7        44.709                                                                    21303078.947 6  88509176.98006      1917.988 6        39.003
R08        35.000    22030889.403 6 117974349.95106     -4665.860 6        36.178                                                                    22030892.607 6  91757878.05806     -3629.004 6        41.771
C26        37.000                                                                                                                                    23509483.231 6 122420032.05606      1597.690 6        39.715                                                                    23509486.758 7  99476407.73507      1298.277 7        46.460
R01        38.000    19237988.106 7 102838020.32007     -1103.428 7        44.299                                                                    19237991.219 6  79985152.66706      -858.327 6        41.030
C42        41.000                                                                                                                                    23580789.369 7 122791310.86807      1232.576 7        44.582                                                                    23580799.311 7  99778047.82407      1001.664 7        46.595
C36        42.000                                                                                                                                    24486270.855 5 127506433.57305     -3593.108 5        31.796                                                                    24486284.617 6 103609369.54806     -2919.959 6        38.423
R02        43.000    21340994.790 8 113879645.32208      2563.432 8        52.307                                                                    21340997.896 7  88573060.67007      1993.801 7        44.971
C40        44.000                                                                                                                                    39148337.645 6 203855707.24806      -177.024 6        40.524                                                                    39148339.738 5 165649429.09605      -143.878 5        33.401
I02        45.000    37753702.450 4 148153663.68604       -83.041 4        29.166
C21        47.000                                                                                                                                    22271563.765 7 115973821.58507     -1805.330 7        46.820                                                                    22271563.519 7  94238214.09107     -1466.924 7        46.326
C45        49.000                                                                                                                                                                                                                                                                    21787997.949 7  92192103.85507     -1115.914 7        42.910
C22        50.000                                                                                                                                    24700939.140 5 128624025.68305     -4107.775 5        35.900                                                                    24700944.305 6 104517796.70406     -3338.033 6        41.454
I06        56.000    38202356.986 5 149914281.97105      -684.822 5        33.515
> 2025 01 01 08 30 15.0000000  0 35
G18         1.000                                                                                                                                                                    25520870.282 4                     -1849.583 4        28.597
G13         2.000    20094359.625 7 105596707.60907       -28.292 7        46.815                                    20094357.409 5  82283021.91205       -22.043 5        32.323
G30         3.000    21754528.406 7 114320896.12907     -2884.873 7        46.555                                    21754530.480 7  89081216.60107     -2247.949 7        42.590    21754532.035 6  89081148.56406     -2247.939 6        38.715
G14         4.000    20670203.144 7 108622634.51707      -499.092 7        46.097                                    20670205.202 6  84641014.05406      -388.905 6        36.208    20670204.755 8  84641023.06608      -388.960 8        48.023
G07         5.000    24508599.592 4                     -3603.530 4        26.108                                                                                                    24508527.311 4                     -2808.013 4        26.611
G15         6.000    21651352.625 7 113778618.17407      1918.210 7        43.691                                    21651343.396 3  88658620.71803      1494.710 3        21.738
G05         7.000    22037269.689 7 115806562.33007     -3182.421 7        43.344                                    22037262.957 5  90238866.45605     -2479.802 5        30.136    22037266.647 5  90238853.48305     -2479.792 5        35.767
G23        10.000    25105986.425 5 131932837.87515      2335.372 5        34.671                                                                                                    25105968.444 5 102804706.91005      1819.740 5        35.114
G20        11.000    23782072.751 4                     -4353.607 4        26.695
E26        12.000                                                                                                                                    28314235.260 5 111111212.30305      -683.861 5        32.377    28314235.596 5 114009688.14505      -701.403 5        34.043
E02        13.000    25660216.352 6 134845366.16106      2004.956 6        38.898                                                                    25660219.369 6 100696270.41906      1497.070 6        40.672    25660219.293 6 103323135.79906      1536.109 6        38.096
E25        14.000    23799200.902 8 125065629.90908      -387.549 8        49.024                                                                    23799205.074 8  93393289.20608      -289.432 8        48.199    23799203.350 7  95829556.94607      -296.922 7        47.380
E24        15.000                                                                                                                                    26431502.787 5 103722805.69905     -2259.908 5        33.216    26431498.386 4 106428680.89104     -2318.302 4        26.982
E08        17.000    25063064.904 6 131707278.87706      1169.187 6        37.803                                                                    25063069.123 7  98352862.56707       873.111 7        42.324    25063065.507 6 100918559.73806       895.716 6        38.198
E05        21.000    24798090.126 4 130314795.02204     -3252.091 4        29.858                                                                    24798103.616 7  97313065.39907     -2428.698 7        44.637    24798100.669 6  99851570.98106     -2492.150 6        40.253
E13        22.000    28161614.475 4                     -2985.482 4        28.332                                                                    28161640.337 4                     -2228.958 4        25.820    28161654.808 3                     -2287.146 3        23.448
S23        24.000    38287669.890 6 201202999.04506      -820.140 6        38.294
C05        25.000                                                                                                                                                                                                    39497997.060 4                      -676.265 4        28.900
E03        27.000    23446781.486 7 123213631.56607     -1243.299 7        42.885                                                                    23446785.429 7  92010156.13007      -928.390 7        44.352    23446784.907 7  94410441.49107      -952.642 7        46.188
R11        28.000    19342162.088 7 103358704.56307     -1655.864 7        46.956                                                                    19342164.938 7  80390054.35607     -1287.887 7        46.079
R10        30.000    22462671.559 5                     -4678.237 5        32.509
R12        31.000    21300773.312 7 113784987.11607      2463.111 7        42.290                                                                    21300772.773 6  88499593.40306      1915.713 6        38.739
R08        35.000    22035245.292 5 117997685.29305     -4668.268 5        35.195                                                                    22035251.114 7  91776027.73807     -3630.804 7        42.654
C26        37.000                                                                                                                                    23507949.883 6 122412048.79606      1595.802 6        40.882                                                                    23507953.564 7  99469920.70407      1296.645 7        46.544
R01        38.000    19239022.512 7 102843549.05707     -1107.899 7        44.519                                                                    19239024.935 6  79989452.76806      -861.667 6        40.710
R18        39.000                                                                                                                                    24303384.799 4                     -2300.180 4        29.450
C42        41.000                                                                                                                                    23579606.497 7 122785154.23107      1230.235 7        43.245                                                                    23579616.959 7  99773045.05707       999.655 7        46.344
C36        42.000                                                                                                                                    24489722.301 4 127524404.21204     -3594.805 4        28.834                                                                    24489735.892 6 103623972.10706     -2920.954 6        38.676
R02        43.000    21338594.343 8 113866834.23108      2561.188 8        52.355                                                                    21338597.226 7  88563096.48207      1992.060 7        44.456
C40        44.000                                                                                                                                    39148508.624 6 203856596.35406      -178.383 6        39.868                                                                    39148510.846 5 165650151.54105      -145.112 5        33.617
I02        45.000    37753810.702 4 148154083.12304       -84.046 4        29.991
C21        47.000                                                                                                                                    22273298.531 7 115982856.47407     -1808.384 7        46.088                                                                    22273298.529 7  94245555.67107     -1469.459 7        46.667
C45        49.000                                                                                                                                    21789325.675 6 113462647.15406     -1375.891 6        38.799                                                                    21789317.996 7  92197689.17107     -1118.006 7        43.043
C22        50.000                                                                                                                                    24704884.540 6 128644569.13106     -4109.299 6        36.491                                                                    24704889.337 6 104534489.90906     -3339.176 6        41.011
I06        56.000    38203230.535 5 149917708.66905      -685.267 5        33.359
> 2025 01 01 08 30 20.0000000  0 35
G18         1.000    25523067.626 4                     -2376.168 4        27.413
G13         2.000    20094387.450 7 105596855.06907       -30.865 7        47.721                                    20094384.994 5  82283136.81105       -24.052 5        32.168
G30         3.000    21757274.088 7 114335323.80507     -2886.310 7        45.831                                    21757275.864 6  89092458.92506     -2249.074 6        41.526    21757277.796 6  89092390.90906     -2249.147 6        38.405
G14         4.000    20670679.236 7 108625137.78707      -502.437 7        45.398                                    20670681.398 5  84642964.65705      -391.508 5        35.614    20670681.052 7  84642973.65807      -391.428 7        47.916
G07         5.000    24512026.339 4                     -3604.398 4        24.932                                                                                                    24511958.856 4                     -2808.560 4        26.659
G15         6.000    21649526.696 7 113769031.88607      1915.884 7        42.044                                    21649520.106 3  88651150.90103      1492.884 3        21.381    21649526.791 4  88651198.87204      1493.018 4        29.649
G05         7.000    22040296.691 7 115822481.24407     -3185.280 7        44.944                                    22040292.674 5  90251270.80705     -2482.028 5        32.156    22040296.132 6  90251257.82806     -2482.222 6        37.047
G23        10.000    25103761.001 5 131921164.21905      2333.489 5        34.195                                                                                                    25103746.743 5 102795610.51505      1818.540 5        35.352
G20        11.000    23786211.877 4                     -4354.810 4        26.994
E26        12.000                                                                                                                                    28315107.513 5 111114635.25205      -685.647 5        32.731    28315108.315 5 114013200.36905      -703.526 5        34.276
E02        13.000    25658308.255 6 134835344.59106      2003.657 6        37.527                                                                    25658312.513 6 100688786.78506      1496.237 6        41.387    25658312.206 6 103315456.93406      1535.343 6        39.141
E25        14.000    23799570.779 8 125067573.28808      -390.042 8        49.003                                                                    23799574.941 8  93394740.42808      -291.276 8        48.416    23799573.141 7  95831046.03707      -298.839 7        47.689
E24        15.000                                                                                                                                    26434383.395 5 103734107.45205     -2260.970 5        32.892    26434379.346 4 106440277.53704     -2320.187 4        26.934
E08        17.000    25061953.215 6 131701435.07606      1168.122 6        38.535                                                                    25061956.350 7  98348498.68807       872.343 7        42.241    25061953.450 6 100914082.01506       895.166 6        38.198
E05        21.000    24801186.063 5 130331059.21405     -3253.173 5        30.362                                                                    24801198.627 7  97325210.72907     -2429.509 7        44.549    24801195.619 6  99864033.16106     -2492.895 6        40.167
E13        22.000    28164454.269 4                     -2986.412 4        29.896                                                                    28164483.220 3                     -2229.707 3        20.881    28164498.756 3                     -2289.112 3        20.381
S23        24.000    38288448.641 6 201207099.93806      -820.411 6        38.318
C05        25.000                                                                                                                                                                                                    39498836.406 4                      -675.838 4        28.654
E03        27.000    23447964.836 7 123219852.03107     -1245.059 7        43.575                                                                    23447968.966 7  92014801.27407      -929.713 7        44.328    23447968.655 7  94415207.82007      -953.981 7        46.518
R11        28.000    19343712.854 7 103366992.60607     -1659.593 7        46.699                                                                    19343716.330 7  80396500.61607     -1290.779 7        46.619
R10        30.000    22467061.619 5                     -4679.200 5        33.964
R12        31.000    21298464.855 6 113772677.31506      2460.679 6        39.748                                                                    21298468.959 6  88490019.13406      1913.939 6        38.805
R08        35.000    22039603.139 6 118021030.66406     -4670.203 6        36.843                                                                    22039611.664 7  91794185.20107     -3632.306 7        43.805
C26        37.000                                                                                                                                    23506417.846 6 122404073.23406      1594.232 6        41.740                                                                    23506422.052 7  99463439.92707      1295.411 7        46.620
R01        38.000    19240060.222 7 102849098.53807     -1112.081 7        44.017                                                                    19240063.487 6  79993769.04006      -865.048 6        40.751
R18        39.000    24306207.506 5                     -2960.352 5        33.054
C42        41.000                                                                                                                                    23578426.565 7 122779007.92307      1228.196 7        42.131                                                                    23578436.528 7  99768050.66007       997.929 7        46.104
C36        42.000                                                                                                                                    24493173.509 4 127542378.77804     -3595.701 4        26.431                                                                    24493187.680 6 103638577.85806     -2921.704 6        38.420
R02        43.000    21336195.485 8 113854033.25508      2559.092 8        51.962                                                                    21336198.425 7  88553140.15407      1990.407 7        44.293
C40        44.000                                                                                                                                    39148680.454 6 203857490.98006      -179.641 6        39.423                                                                    39148682.540 5 165650878.49605      -145.917 5        33.515
I02        45.000    37753921.713 5 148154504.31605       -84.131 5        30.989
C21        47.000                                                                                                                                    22275035.678 7 115991905.04807     -1811.210 7        44.838                                                                    22275036.061 7  94252908.36307     -1471.756 7        46.718
C45        49.000                                                                                                                                    21790648.140 6 113469531.55006     -1378.157 6        39.904                                                                    21790640.042 7  92203283.29507     -1119.801 7        43.084
C22        50.000                                                                                                                                    24708829.572 6 128665117.93806     -4110.468 6        36.612                                                                    24708835.389 6 104551187.42706     -3340.059 6        40.834
I06        56.000    38204104.352 5 149921135.85005      -685.402 5        33.862
> 2025 01 01 08 30 25.0000000  0 35
G18         1.000                                                                                                                                                                    25525376.680 5                     -1853.362 5        33.156
G13         2.000    20094417.950 8 105597014.63608       -33.105 8        48.168                                    20094414.896 5  82283261.14505       -25.795 5        32.407
G30         3.000    21760020.583 7 114349757.91107     -2887.515 7        45.153                                    21760022.504 6  89103706.26206     -2250.013 6        40.722    21760024.716 6  89103638.24606     -2250.002 6        38.219
G14         4.000    20671158.769 7 108627656.57207      -505.376 7        43.809                                    20671160.586 5  84644927.35205      -393.798 5        35.190    20671160.253 7  84644936.35707      -393.744 7        47.625
G07         5.000                                                                                                                                                                    24515387.661 4                     -2808.454 4        27.449
G15         6.000    21647703.381 6 113759455.45206      1914.370 6        38.916                                    21647699.417 3  88643688.74403      1491.717 3        21.476    21647705.609 5  88643736.73205      1491.423 5        31.230
G05         7.000    22043325.272 7 115838413.31707     -3187.773 7        46.134                                    22043325.002 5  90263685.39305     -2483.975 5        34.162    22043327.847 6  90263672.39106     -2484.071 6        37.890
G23        10.000    25101540.408 5 131909498.63205      2332.113 5        32.096                                                                                                    25101526.036 5 102786520.40205      1817.453 5        35.576
G20        11.000    23790353.928 4                     -4355.120 4        27.245
E26        12.000    28316045.974 3                      -921.382 3        22.571                                                                    28315982.253 5 111118067.29005      -687.405 5        32.000    28315983.669 5 114016721.94605      -705.403 5        34.024
E02        13.000    25656400.601 5 134825328.48005      2002.698 5        34.943                                                                    25656406.814 7 100681307.24707      1495.402 7        42.116    25656406.031 6 103307782.27306      1534.481 6        40.064
E25        14.000    23799942.726 8 125069528.12608      -392.139 8        49.088                                                                    23799946.880 8  93396200.20208      -292.812 8        48.683    23799945.110 7  95832543.89907      -300.466 7        47.906
E24        15.000    26437321.855 4 138928720.77604     -3029.348 4        27.521                                                                    26437264.573 5 103745414.50905     -2262.139 5        32.820    26437260.840 4 106451879.50204     -2320.476 4        27.760
E08        17.000    25060841.992 6 131695595.38906      1167.524 6        39.517                                                                    25060844.624 7  98344137.86307       871.970 7        42.265    25060842.124 6 100909607.44306       894.661 6        37.958
E05        21.000    24804282.292 5 130347327.70505     -3254.125 5        30.181                                                                    24804294.351 7  97337359.22307     -2430.008 7        44.527    24804291.563 6  99876498.57506     -2493.379 6        40.026
E13        22.000    28167297.796 5                     -2987.785 5        31.585
S23        24.000    38289228.336 6 201211200.83506      -820.085 6        38.243
C05        25.000                                                                                                                                                                                                    39499676.217 4                      -675.941 4        28.246
E03        27.000    23449150.162 7 123226080.33907     -1246.546 7        44.012                                                                    23449154.120 7  92019452.26707      -930.774 7        44.396    23449153.884 7  94419980.14607      -955.107 7        46.607
R11        28.000    19345267.501 7 103375298.03007     -1662.791 7        47.156                                                                    19345270.471 7  80402960.39307     -1293.278 7        46.752
R10        30.000    22471450.004 5 119785480.81815     -4679.947 5        35.576
R12        31.000    21296163.796 6 113760378.87106      2458.555 6        37.229                                                                    21296167.750 6  88480453.67406      1912.282 6        39.670
R08        35.000    22043965.502 6 118044385.53306     -4671.758 6        39.438                                                                    22043973.611 7  91812350.03507     -3633.701 7        44.518
C26        37.000                                                                                                                                    23504887.746 7 122396104.82007      1592.911 7        42.597                                                                    23504891.774 7  99456964.98207      1294.255 7        46.684
R01        38.000    19241101.645 7 102854668.16207     -1115.986 7        43.786                                                                    19241106.048 6  79998100.96206      -867.936 6        41.182
R18        39.000    24308983.745 6 129763007.31816     -2963.645 6        36.393                                                                    24308949.559 4                     -2304.865 4        24.346
C42        41.000                                                                                                                                    23577248.164 6 122772871.41106      1226.305 6        40.477                                                                    23577258.177 7  99763064.22007       996.398 7        45.786
C36        42.000                                                                                                                                    24496629.295 4 127560356.66204     -3596.012 4        27.245                                                                    24496640.329 6 103653186.38006     -2922.224 6        38.459
R02        43.000    21333798.468 8 113841241.49908      2557.345 8        52.078                                                                    21333801.343 7  88543191.00907      1989.111 7        44.460
C40        44.000                                                                                                                                    39148853.523 6 203858390.61006      -180.389 6        38.679                                                                    39148855.548 5 165651609.53705      -146.793 5        34.119
I02        45.000    37754028.517 5 148154926.55905       -84.381 5        31.238
C21        47.000                                                                                                                                    22276776.018 7 116000966.75607     -1813.602 7        43.314                                                                    22276776.127 7  94260271.76307     -1473.902 7        46.674
C45        49.000                                                                                                                                    21791972.740 6 113476426.22006     -1379.914 6        40.923                                                                    21791964.031 7  92208885.79807     -1121.445 7        43.075
C22        50.000                                                                                                                                    24712775.956 6 128685671.50006     -4111.251 6        36.113                                                                    24712782.469 6 104567888.86606     -3340.898 6        40.420
I06        56.000    38204977.267 5 149924563.12705      -685.470 5        33.820
> 2025 01 01 08 30 30.0000000  0 35
G18         1.000    25527628.153 5                     -2380.758 5        34.462                                                                                                    25527644.723 5 104531424.90015     -1855.146 5        34.329
G13         2.000    20094450.453 8 105597186.77908       -35.656 8        48.698                                    20094447.114 5  82283395.27905       -27.785 5        33.006
G30         3.000    21762769.164 7 114364198.87107     -2888.835 7        45.293                                    21762770.504 6  89114958.94006     -2251.038 6        40.217    21762772.238 6  89114890.92406     -2250.969 6        38.345
G14         4.000    20671641.725 7 108630191.30207      -508.516 7        43.081                                    20671642.873 5  84646902.46305      -396.250 5        35.029    20671642.729 7  84646911.47807      -396.244 7        47.773
G07         5.000                                                                                                                                                                    24518822.019 4                     -2808.768 4        26.108
G15         6.000    21645884.007 5 113749889.37405      1912.173 5        31.985                                    21645880.612 3  88636234.66003      1490.004 3        21.595    21645885.223 5  88636282.68105      1489.973 5        33.108
G05         7.000    22046360.569 7 115854359.03107     -3190.485 7        46.811                                    22046360.017 5  90276110.60505     -2486.084 5        35.738    22046362.189 6  90276097.62606     -2486.132 6        38.958
G23        10.000    25099321.389 4 131897841.57804      2330.821 4        29.422                                                                                                    25099305.657 5 102777436.87505      1816.137 5        35.952
G20        11.000    23794497.901 4                     -4355.925 4        28.692
E26        12.000                                                                                                                                    28316859.771 5 111121508.68905      -689.002 5        31.555    28316861.514 5 114020253.14005      -707.377 5        34.405
E02        13.000    25654494.235 5 134815318.27405      2001.479 5        31.841                                                                    25654501.920 7 100673832.11707      1494.617 7        42.832    25654500.937 6 103300112.13206      1533.564 6        40.605
E25        14.000    23800316.798 8 125071494.86508      -394.541 8        49.193                                                                    23800321.205 8  93397668.86308      -294.600 8        48.961    23800319.343 8  95834050.88508      -302.350 8        48.005
E24        15.000                                                                                                                                    26440147.795 5 103756727.15105     -2262.748 5        33.168    26440143.392 4 106463487.27004     -2321.731 4        28.701
E08        17.000    25059731.900 6 131689760.25306      1166.432 6        40.813                                                                    25059733.868 7  98339780.45307       871.135 7        42.233    25059731.632 6 100905136.34106       894.005 6        37.713
E05        21.000    24807378.781 4 130363600.78604     -3255.081 4        29.820                                                                    24807390.865 7  97349511.18907     -2430.744 7        44.367    24807388.297 6  99888967.54406     -2494.031 6        39.736
E13        22.000    28170142.839 5                     -2989.099 5        32.401                                                                                                                                    28170168.406 3                     -2293.194 3        20.310
S23        24.000    38290008.768 6 201215302.07706      -820.310 6        38.441
C05        25.000                                                                                                                                                                                                    39500515.013 4                      -675.511 4        28.464
E03        27.000    23450337.146 7 123232316.88607     -1248.114 7        44.671                                                                    23450340.842 7  92024109.43107      -931.941 7        44.417    23450340.764 7  94424758.80307      -956.352 7        46.974
R11        28.000    19346825.450 7 103383621.24507     -1666.384 7        47.786                                                                    19346827.588 7  80409434.02107     -1296.068 7        46.736
R10        30.000    22475844.098 6 119808883.52806     -4681.147 6        36.907
R12        31.000    21293870.995 5 113748092.22705      2456.193 5        30.400                                                                    21293867.104 6  88470897.42706      1910.329 6        39.330
R08        35.000    22048331.853 6 118067750.27106     -4673.807 6        40.813                                                                    22048336.359 7  91830522.51607     -3635.248 7        44.904
C26        37.000                                                                                                                                    23503359.804 7 122388144.01007      1591.454 7        43.505                                                                    23503362.880 7  99450496.13607      1293.266 7        46.491
R01        38.000    19242147.186 7 102860258.44907     -1120.073 7        44.351                                                                    19242151.269 6  80002448.94806      -871.145 6        40.675
R18        39.000    24311756.099 6                     -2967.204 6        36.204
C42        41.000                                                                                                                                    23576071.143 6 122766745.11006      1224.297 6        38.294                                                                    23576081.619 7  99758086.02907       994.844 7        45.469
