     3.04           OBSERVATION DATA    M                   RINEX VERSION / TYPE
ssrcrin-15.6.1x                         20250101 174500 UTC PGM / RUN BY / DATE 
(00000000023479385599111004) Septentrio proprietary         COMMENT             
ract                                                        MARKER NAME         
01                                                          MARKER NUMBER       
geodetic                                                    MARKER TYPE         
NFB                 CLIMERS@TUW                             OBSERVER / AGENCY   
3296359             SEPT ASTERX SB3 PROB4.14.4              REC # / TYPE / VERS 
Unknown             Unknown                                 ANT # / TYPE        
  4127445.9237  1206915.1734  4695542.0705                  APPROX POSITION XYZ 
        0.0000        0.0000        0.0000                  ANTENNA: DELTA H/E/N
G   23 X1  C1C L1C D1C S1C C1W S1W C2W L2W D2W S2W C2L L2L  SYS / # / OBS TYPES 
       D2L S2L C5Q L5Q D5Q S5Q C1L L1L D1L S1L              SYS / # / OBS TYPES 
E   21 X1  C1C L1C D1C S1C C6C L6C D6C S6C C5Q L5Q D5Q S5Q  SYS / # / OBS TYPES 
       C7Q L7Q D7Q S7Q C8Q L8Q D8Q S8Q                      SYS / # / OBS TYPES 
S    9 X1  C1C L1C D1C S1C C5I L5I D5I S5I                  SYS / # / OBS TYPES 
R   17 X1  C1C L1C D1C S1C C2P L2P D2P S2P C2C L2C D2C S2C  SYS / # / OBS TYPES 
       C3Q L3Q D3Q S3Q                                      SYS / # / OBS TYPES 
C   25 X1  C1P L1P D1P S1P C5P L5P D5P S5P C2I L2I D2I S2I  SYS / # / OBS TYPES 
       C7I L7I D7I S7I C6I L6I D6I S6I C7D L7D D7D S7D      SYS / # / OBS TYPES 
J   17 X1  C1C L1C D1C S1C C2L L2L D2L S2L C5Q L5Q D5Q S5Q  SYS / # / OBS TYPES 
       C1L L1L D1L S1L                                      SYS / # / OBS TYPES 
I    5 X1  C5A L5A D5A S5A                                  SYS / # / OBS TYPES 
SEPTENTRIO RECEIVERS OUTPUT ALIGNED CARRIER PHASES.         COMMENT             
NO FURTHER PHASE SHIFT APPLIED IN THE RINEX ENCODER.        COMMENT             
G L1C                                                       SYS / PHASE SHIFT   
G L2W                                                       SYS / PHASE SHIFT   
G L2L  0.00000                                              SYS / PHASE SHIFT   
G L5Q  0.00000                                              SYS / PHASE SHIFT   
G L1L  0.00000                                              SYS / PHASE SHIFT   
E L1C  0.00000                                              SYS / PHASE SHIFT   
E L6C  0.00000                                              SYS / PHASE SHIFT   
E L5Q  0.00000                                              SYS / PHASE SHIFT   
E L7Q  0.00000                                              SYS / PHASE SHIFT   
E L8Q  0.00000                                              SYS / PHASE SHIFT   
S L1C                                                       SYS / PHASE SHIFT   
S L5I                                                       SYS / PHASE SHIFT   
R L1C                                                       SYS / PHASE SHIFT   
R L2P  0.00000                                              SYS / PHASE SHIFT   
R L2C                                                       SYS / PHASE SHIFT   
R L3Q  0.00000                                              SYS / PHASE SHIFT   
C L1P  0.00000                                              SYS / PHASE SHIFT   
C L5P  0.00000                                              SYS / PHASE SHIFT   
C L2I                                                       SYS / PHASE SHIFT   
C L7I                                                       SYS / PHASE SHIFT   
C L6I                                                       SYS / PHASE SHIFT   
C L7D                                                       SYS / PHASE SHIFT   
J L1C                                                       SYS / PHASE SHIFT   
J L2L  0.00000                                              SYS / PHASE SHIFT   
J L5Q  0.00000                                              SYS / PHASE SHIFT   
J L1L  0.00000                                              SYS / PHASE SHIFT   
I L5A                                                       SYS / PHASE SHIFT   
  2025     1     1    17    45    0.0000000     GPS         TIME OF FIRST OBS   
 C1C    0.000 C2C    0.000 C2P    0.000                     GLONASS COD/PHS/BIS 
DBHZ                                                        SIGNAL STRENGTH UNIT
    18                                                      LEAP SECONDS        
 24 R01  1 R02 -4 R03  5 R04  6 R05  1 R06 -4 R07  5 R08  6 GLONASS SLOT / FRQ #
    R09 -2 R10 -7 R11  0 R12 -1 R13 -2 R14 -7 R15  0 R16 -1 GLONASS SLOT / FRQ #
    R17  4 R18 -3 R19  3 R20  2 R21  4 R22 -3 R23  3 R24  2 GLONASS SLOT / FRQ #
                                                            END OF HEADER       
> 2025 01 01 17 45  0.0000000  0 35
G18         1.000    20596152.209 6 108233728.51306      -629.532 6        41.518                                    20596147.916 5  84337845.46705      -490.547 5        34.338    20596148.036 8  84337856.47308      -490.520 8        48.115
G23         4.000                                                                                                                                                                    23562602.406 5  96484977.36105      1995.476 5        35.162
G31         5.000    23244662.326 6 122151633.15206     -3700.969 6        38.363                                    23244653.400 4  95183180.82804     -2883.878 4        25.278    23244657.206 5                     -2886.037 5        34.067
G28         6.000    24539330.380 6 128955041.38106     -4323.671 6        36.204                                    24539328.816 2 100484447.30402     -3369.065 2        14.048    24539330.541 6 100484475.32506     -3369.043 6        37.353
G27         7.000    23970246.361 4 125964354.06204      2429.530 4        28.758                                    23970201.147 1  98153946.24701      1893.196 1         3.800    23970218.721 3                      1893.286 3        23.867
G29         8.000    22161242.136 7 116458249.91607     -3256.875 7        42.919                                    22161237.454 5  90746887.77905     -2537.820 5        34.848    22161238.469 6  90746554.78006     -2537.942 6        37.062
E15        10.000    23936866.361 7 125789076.92307     -2011.307 7        45.065                                                                    23936866.911 7  93933406.84807     -1501.940 7        47.003    23936866.169 7  96383881.22907     -1541.080 7        44.555
G05        11.000                                                                                                                                                                    23311873.267 5  95458223.54105     -1894.809 5        34.695
E34        12.000                                                                                                                                                                                                    27721826.352 4                     -2855.581 4        28.427
E27        15.000    24152799.056 8 126923928.41408     -2451.373 8        48.405                                                                    24152798.997 8  94780887.74908     -1830.592 8        51.261    24152798.111 8  97253542.26808     -1878.334 8        50.505
E13        16.000    24091089.160 7 126599595.02607       880.362 7        44.572                                                                    24091088.383 7  94538652.52307       657.455 7        44.692    24091088.817 8  97004832.76308       674.614 8        48.637
R17        17.000    20467877.426 8 109527857.60808     -3489.315 8        51.779                                                                    20467874.127 7  85188118.06907     -2713.895 7        45.822
G16        18.000    21632698.894 7 113680626.06707      1573.777 7        46.389                                    21632692.086 4  88582262.22004      1226.320 4        26.371
R15        20.000    21370932.694 6 114199713.02506     -4741.297 6        36.495                                                                    21370927.447 6  88822015.13006     -3687.533 6        37.081
E21        22.000    24144494.945 7 126880277.02807       378.244 7        44.656                                                                    24144492.641 7  94748193.81007       282.511 7        44.537    24144493.550 7  97219912.10207       289.824 7        47.675
S36        23.000    38295260.559 6 201242840.48306      -854.108 6        36.469
S23        24.000    38248282.927 6 200996110.62706      -857.153 6        38.261
G26        25.000    20591494.280 7 108209055.40407      -612.431 7        47.329                                    20591493.891 7  84318759.03507      -477.215 7        46.747    20591493.106 7  84318802.04107      -477.150 7        45.890
C34        28.000                                                                                                                                    23274376.020 5 121195788.82305     -3146.248 5        35.124                                                                    23274364.706 6  98481651.02006     -2556.483 6        39.462
R19        29.000    21760197.558 5 116402380.59905      2224.931 5        30.060
R18        30.000    19391839.491 7 103514908.24607      -297.468 7        45.691                                                                    19391838.233 6  80511719.26306      -231.426 6        39.640
R16        33.000    19456141.259 8 103931441.56708      -957.887 8        48.500                                                                    19456140.587 7  80835407.32407      -744.980 7        43.118
R09        34.000    22226354.564 7 118687484.71207      2797.771 7        46.575                                                                    22226352.548 6  92312504.27406      2176.133 6        38.132
C37        36.000                                                                                                                                    24187640.946 7 125951410.38507       839.393 7        42.963                                                                    24187643.682 6 102345896.94206       681.982 6        41.466
S21        38.000    38523805.313 5 202444146.76205      -855.088 5        33.898
C28        40.000                                                                                                                                    24674087.812 6 128484674.29606      1827.618 6        40.560                                                                    24674084.668 5 104404121.86505      1485.054 5        33.443
C25        41.000                                                                                                                                    24909178.917 5 129708638.48605     -4237.698 5        33.838                                                                    24909179.389 5 105398897.41405     -3443.420 5        30.558
C43        42.000                                                                                                                                    21574325.089 8 112343197.30008      -847.464 8        50.608                                                                    21574322.860 7  91288200.28607      -688.596 7        47.246
C12        43.000                                                                                                                                                                                                    26010006.171 3                     -2892.969 3        19.403
C11        44.000                                                                                                                                    22025915.917 7 114694791.02007     -2125.469 7        45.707    22025913.025 7  88689378.48107     -1643.496 7        47.161    22025911.180 7  93199003.73507     -1727.169 7        43.528
C13        45.000                                                                                                                                    37773705.568 7 196697691.32607      -586.432 7        45.413    37773705.881 6 152099034.12406      -453.509 6        40.794    37773704.453 7 159832937.64407      -476.587 7        42.377
C08        46.000                                                                                                                                    37799237.503 6 196830585.77406      -838.663 6        36.352    37799234.080 5 152201770.68405      -648.765 5        34.700    37799240.982 4 159940996.34204      -681.282 4        26.275
C38        49.000                                                                                                                                    38792955.214 6 202005094.83206     -1326.909 6        36.715                                                                    38792950.179 5 164145669.43905     -1078.549 5        30.702
C23        55.000                                                                                                                                    22862647.638 8 119052059.92708     -2199.766 8        49.238                                                                    22862637.157 7  96739426.94207     -1787.571 7        42.849
I06        58.000    38807037.267 6 152287301.63006      -630.516 6        36.571
> 2025 01 01 17 45  5.0000000  0 34
G18         1.000    20596752.467 7 108236882.53307      -632.062 7        42.125                                    20596747.860 5  84340303.15205      -492.519 5        34.090    20596748.015 8  84340314.16008      -492.587 8        48.212
G23         4.000                                                                                                                                                                    23560165.542 5  96475000.96705      1995.025 5        35.919
G31         5.000    23248184.581 6 122170141.35706     -3702.243 6        37.198                                    23248176.882 4  95197602.81404     -2884.865 4        26.263    23248181.285 5  95197407.81415     -2885.027 5        35.490
G28         6.000    24543443.596 5 128976660.34805     -4323.855 5        35.990                                    24543442.825 2 100501293.23302     -3369.205 2        13.758    24543444.158 6 100501321.24906     -3369.279 6        36.866
G27         7.000    23967936.656 5 125952210.01705      2428.797 5        31.909                                    23967890.195 1  98144483.40201      1892.659 1         3.200
G29         8.000    22164341.453 6 116474536.64906     -3257.867 6        41.578                                    22164336.463 5  90759578.74205     -2538.597 5        34.871    22164337.861 6  90759245.74206     -2538.696 6        37.584
E15        10.000    23938781.148 7 125799137.14707     -2012.855 7        44.928                                                                    23938781.152 7  93940919.35307     -1503.061 7        46.773    23938780.481 7  96391589.70907     -1542.391 7        44.199
G05        11.000    23314168.985 3                     -2432.639 3        21.595                                                                                                    23314187.788 5  95467703.04005     -1897.212 5        33.024
E34        12.000                                                                                                                                                                                                    27725372.157 4                     -2855.804 4        28.246
E27        15.000    24155132.291 8 126936188.90808     -2452.863 8        48.264                                                                    24155132.041 8  94790043.30308     -1831.651 8        51.160    24155131.336 8  97262936.66408     -1879.444 8        50.880
E13        16.000    24090252.237 7 126595196.26207       878.895 7        44.557                                                                    24090251.306 7  94535367.73307       656.333 7        44.621    24090251.853 8  97001462.28608       673.503 8        48.711
R17        17.000    20471139.015 8 109545308.02508     -3490.805 8        52.418                                                                    20471135.063 7  85201690.61607     -2715.063 7        45.585
G16        18.000    21631202.081 7 113672761.94307      1571.878 7        47.001                                    21631194.870 4  88576134.34904      1224.838 4        26.850
R15        20.000    21375362.154 5 114223423.86605     -4743.211 5        33.084                                                                    21375364.983 6  88840456.84206     -3689.211 6        36.242
E21        22.000    24144135.420 7 126878389.22307       376.852 7        44.193                                                                    24144133.223 7  94746784.08407       281.445 7        44.625    24144134.290 7  97218465.59707       288.803 7        47.491
S36        23.000    38296075.262 6 201247110.48106      -853.950 6        36.401
S23        24.000    38249100.384 6 201000395.01006      -856.842 6        38.610
G26        25.000    20592078.517 8 108212124.53408      -615.185 8        48.165                                    20592077.970 7  84321150.56107      -479.361 7        46.711    20592076.731 7  84321193.57507      -479.404 7        45.356
C34        28.000                                                                                                                                    23277395.800 5 121211521.08005     -3146.877 5        32.557                                                                    23277386.045 6  98494434.81306     -2556.811 6        39.784
R19        29.000    21758117.087 4                      2222.735 4        28.265                                                                    21758102.847 4                      1728.894 4        27.713
R18        30.000    19392118.902 7 103516402.02007      -300.093 7        44.582                                                                    19392118.599 6  80512881.11406      -233.468 6        40.150
R16        33.000    19457040.612 8 103936241.87608      -962.189 8        49.323                                                                    19457039.601 7  80839140.89707      -748.451 7        42.940
R09        34.000    22223734.444 7 118673500.36307      2795.844 7        45.335                                                                    22223734.766 6  92301627.57106      2174.729 6        38.724
C37        36.000                                                                                                                                    24186837.081 7 125947218.86807       837.245 7        43.975                                                                    24186838.580 6 102342490.98306       680.285 6        40.932
S21        38.000    38524613.385 5 202448423.02005      -855.181 5        33.958
C28        40.000                                                                                                                                    24672333.144 6 128475537.79006      1826.904 6        41.590                                                                    24672330.146 5 104396697.72205      1484.466 5        33.455
C25        41.000                                                                                                                                    24913247.149 5 129729827.96905     -4238.045 5        33.138                                                                    24913248.534 5 105416115.56105     -3443.762 5        30.740
C43        42.000                                                                                                                                    21575139.466 8 112347438.35408      -848.985 8        50.215                                                                    21575137.198 7  91291646.46607      -689.805 7        47.186
C11        44.000                                                                                                                                    22027957.387 7 114705421.09407     -2126.634 7        45.704    22027953.725 7  88697598.33307     -1644.481 7        46.373    22027952.225 7  93207641.52807     -1728.030 7        43.429
C13        45.000                                                                                                                                    37774268.775 7 196700624.95507      -587.105 7        45.338    37774269.311 6 152101302.58606      -454.003 6        40.701    37774267.770 7 159835321.43707      -477.111 7        42.491
C08        46.000                                                                                                                                    37800042.822 6 196834781.41606      -839.455 6        36.272    37800040.023 5 152205015.02305      -649.274 5        35.229    37800047.696 4 159944405.61804      -682.278 4        27.329
C38        49.000                                                                                                                                    38794230.252 6 202011731.33506     -1327.670 6        36.957                                                                    38794225.223 5 164151062.08805     -1078.616 5        31.608
C23        55.000                                                                                                                                    22864760.950 8 119063065.01908     -2202.175 8        49.663                                                                    22864750.754 7  96748369.45807     -1789.510 7        43.024
I06        58.000    38807840.375 6 152290454.59106      -630.333 6        36.495
> 2025 01 01 17 45 10.0000000  0 33
G18         1.000    20597354.825 7 108240050.68607      -635.337 7        42.561                                    20597350.483 5  84342771.84105      -495.078 5        33.772    20597350.793 8  84342782.85708      -494.870 8        48.408
G23         4.000    23557763.031 5                      2559.162 5        30.838                                                                                                    23557729.961 6  96465027.93506      1994.279 6        36.809
G31         5.000    23251708.395 6 122188657.79206     -3704.303 6        36.518                                    23251701.961 4  95212031.21104     -2886.477 4        26.443    23251704.496 6  95211836.20906     -2886.320 6        37.089
G28         6.000    24547558.528 5 128998280.70505     -4324.109 5        35.362                                    24547557.076 2 100518140.23702     -3369.439 2        12.909    24547558.957 6 100518168.24706     -3369.557 6        36.113
G29         8.000    22167441.462 6 116490829.03806     -3259.151 6        38.646                                    22167436.675 5  90772274.08605     -2539.604 5        34.405    22167437.639 6  90771941.07906     -2539.446 6        37.966
E15        10.000    23940697.566 7 125809205.97507     -2014.642 7        45.100                                                                    23940696.943 7  93948438.28407     -1504.438 7        46.650    23940696.428 7  96399304.77907     -1543.749 7        43.543
G05        11.000                                                                                                                                                                    23316503.261 5  95477194.80905     -1899.606 5        31.125
E34        12.000                                                                                                                                                                                                    27728917.836 4                     -2856.213 4        28.844
E27        15.000    24157466.862 8 126948457.67908     -2454.624 8        48.051                                                                    24157466.655 8  94799205.04708     -1833.013 8        51.130    24157466.073 8  97272337.41008     -1880.816 8        51.103
E13        16.000    24089416.676 7 126590806.12807       877.150 7        44.117                                                                    24089415.764 7  94532089.40407       654.948 7        44.871    24089416.449 8  96998098.43608       672.051 8        48.705
R17        17.000    20474401.467 8 109562766.51008     -3492.526 8        52.843                                                                    20474397.573 7  85215269.44007     -2716.497 7        45.232
G16        18.000    21629707.275 7 113664908.47007      1569.560 7        47.017                                    21629699.721 4  88570014.77004      1223.036 4        27.293
R15        20.000    21379797.158 5 114247145.69205     -4745.083 5        30.189                                                                    21379803.075 5  88858907.22005     -3691.019 5        35.386
E21        22.000    24143778.082 7 126876509.34307       375.185 7        43.824                                                                    24143775.439 7  94745380.28907       280.141 7        44.464    24143776.534 7  97217025.17607       287.504 7        47.262
S36        23.000    38296887.993 6 201251380.44906      -853.953 6        36.541
S23        24.000    38249916.021 6 201004679.03006      -856.750 6        38.553
G26        25.000    20592665.806 8 108215208.75708      -618.339 8        48.737                                    20592664.803 7  84323553.84607      -481.822 7        46.695    20592663.509 7  84323596.86607      -481.863 7        44.814
C34        28.000                                                                                                                                                                                                                                                                    23280408.300 6  98507221.81206     -2557.756 6        39.916
R19        29.000    21756038.790 4 116380151.04014      2220.887 4        28.123                                                                    21756033.564 5                      1727.453 5        30.898
R18        30.000    19392400.686 7 103517910.42207      -303.184 7        44.688                                                                    19392400.829 6  80514054.31806      -235.828 6        40.670
R16        33.000    19457943.435 8 103941064.45208      -966.866 8        49.235                                                                    19457942.849 7  80842891.79807      -752.017 7        43.261
R09        34.000    22221116.638 7 118659526.31707      2793.725 7        44.755                                                                    22221118.399 6  92290758.90806      2172.881 6        38.613
C37        36.000                                                                                                                                    24186035.039 7 125943038.86507       834.773 7        44.429                                                                    24186035.800 6 102339094.36506       678.420 6        40.496
S21        38.000    38525433.927 5 202452699.36805      -855.203 5        33.880
C28        40.000                                                                                                                                    24670580.411 7 128466405.08107      1826.207 7        42.066                                                                    24670576.309 5 104389276.66105      1483.906 5        33.138
C25        41.000                                                                                                                                    24917316.125 5 129751020.11905     -4238.645 5        31.170                                                                    24917317.334 5 105433335.94305     -3444.413 5        30.536
C43        42.000                                                                                                                                    21575955.275 8 112351687.74308      -850.777 8        50.036                                                                    21575953.160 7  91295099.43707      -691.251 7        47.109
C11        44.000                                                                                                                                    22029999.480 7 114716057.99307     -2128.152 7        45.509    22029995.576 7  88705823.45007     -1645.556 7        45.979    22029994.554 7  93216284.86707     -1729.284 7        43.202
C13        45.000                                                                                                                                    37774833.060 7 196703563.29907      -588.186 7        45.284    37774833.236 6 152103574.70206      -454.808 6        40.493    37774831.935 7 159837709.07407      -477.938 7        42.328
C08        46.000                                                                                                                                    37800849.623 6 196838982.19206      -840.769 6        36.333    37800846.663 5 152208263.30805      -649.886 5        35.938    37800855.543 4 159947819.00304      -682.836 4        28.483
C38        49.000                                                                                                                                    38795506.122 6 202018371.78706     -1328.575 6        37.444                                                                    38795500.079 5 164156457.97205     -1079.639 5        31.577
C23        55.000                                                                                                                                    22866876.743 8 119074082.77408     -2204.839 8        49.897                                                                    22866866.700 7  96757322.27207     -1791.597 7        43.187
I06        58.000    38808643.801 6 152293607.17106      -630.774 6        36.431
> 2025 01 01 17 45 15.0000000  0 34
G18         1.000    20597959.722 7 108243233.10607      -637.891 7        43.464                                    20597955.842 5  84345251.64905      -497.057 5        33.832    20597956.404 8  84345262.66808      -497.003 8        48.255
G23         4.000                                                                                                                                                                    23555295.730 6  96455058.34806      1993.662 6        36.919
G31         5.000    23255234.175 5 122207182.55005     -3705.515 5        34.471                                    23255228.609 4  95226466.09604     -2887.418 4        26.575    23255229.599 6  95226271.09306     -2887.403 6        38.414
G28         6.000    24551672.286 5 129019902.64405     -4324.559 5        34.848                                    24551671.599 2 100534988.46502     -3369.723 2        12.182    24551673.155 5 100535016.46405     -3369.510 5        35.381
G27         7.000    23963284.041 5 125927929.61005      2427.644 5        34.267
G29         8.000    22170541.548 5 116507127.19705     -3259.874 5        34.976                                    22170538.134 5  90784973.92505     -2540.161 5        33.659    22170539.556 6  90784640.93606     -2540.239 6        38.387
E15        10.000    23942615.072 7 125819283.57507     -2016.318 7        44.984                                                                    23942614.669 7  93955963.76607     -1505.641 7        46.349    23942613.967 7  96407026.55807     -1544.800 7        43.065
G05        11.000                                                                                                                                                                    23318826.011 4  95486698.96204     -1901.880 4        29.858
E34        12.000                                                                                                                                                                                                    27732464.499 4                     -2856.399 4        28.379
E27        15.000    24159803.092 8 126960734.86508     -2456.094 8        48.016                                                                    24159802.838 8  94808373.06908     -1834.081 8        50.840    24159802.366 8  97281744.59908     -1881.904 8        51.276
E13        16.000    24088582.023 7 126586424.77807       875.627 7        43.062                                                                    24088582.022 7  94528817.62507       653.842 7        44.855    24088582.851 8  96994741.30908       670.892 8        48.603
R17        17.000    20477665.324 8 109580233.30608     -3494.056 8        53.127                                                                    20477661.664 7  85228854.71507     -2717.544 7        45.220
G16        18.000    21628214.511 7 113657065.86907      1567.557 7        47.131                                    21628207.026 4  88563903.65504      1221.474 4        28.104
R15        20.000    21384241.120 5 114270878.58905     -4747.517 5        34.271                                                                    21384244.766 5  88877366.07205     -3692.512 5        34.710
E21        22.000    24143421.923 7 126874637.57707       373.625 7        43.278                                                                    24143419.131 7  94743982.54907       279.043 7        44.457    24143420.306 7  97215590.96307       286.376 7        46.868
S36        23.000    38297699.167 6 201255650.57606      -853.783 6        36.563
S23        24.000    38250730.353 6 201008962.89406      -856.678 6        38.532
G26        25.000    20593255.523 8 108218308.21008      -621.149 8        49.260                                    20593254.405 7  84325968.99707      -484.010 7        46.915    20593253.351 7  84326012.03207      -484.134 7        44.331
C34        28.000                                                                                                                                    23283424.521 4 121242997.76004     -3148.712 4        29.498                                                                    23283430.914 6  98520012.11406     -2558.349 6        40.267
R19        29.000    21753964.691 4 116369050.55714      2219.010 4        27.557                                                                    21753970.196 5                      1726.200 5        34.200
R18        30.000    19392686.299 7 103519433.59407      -305.884 7        44.456                                                                    19392686.081 6  80515239.00306      -237.964 6        40.813
R16        33.000    19458850.061 8 103945909.65408      -971.118 8        49.203                                                                    19458850.185 7  80846660.28707      -755.327 7        43.287
R09        34.000    22218502.074 7 118645562.80107      2791.824 7        44.596                                                                    22218503.118 6  92279898.41206      2171.679 6        38.057
C37        36.000                                                                                                                                    24185234.440 7 125938870.50107       832.694 7        44.193                                                                    24185235.268 6 102335707.23906       676.624 6        40.055
S21        38.000    38526245.853 5 202456975.52505      -854.904 5        34.114
C28        40.000                                                                                                                                    24668827.725 6 128457276.35806      1825.520 6        41.447                                                                    24668823.961 5 104381858.87405      1483.341 5        33.090
C25        41.000                                                                                                                                    24921386.230 4 129772215.20704     -4239.138 4        27.545                                                                    24921387.570 5 105450558.60305     -3444.474 5        30.491
C43        42.000                                                                                                                                    21576773.092 8 112355945.62908      -852.258 8        50.310                                                                    21576770.986 7  91298559.33007      -692.622 7        47.076
C11        44.000                                                                                                                                    22032043.106 7 114726701.86507     -2129.262 7        45.427    22032039.431 7  88714053.98007     -1646.487 7        45.597    22032038.326 7  93224933.88507     -1730.293 7        43.035
C13        45.000                                                                                                                                    37775398.424 7 196706506.49207      -588.948 7        45.261    37775398.695 6 152105850.58306      -455.541 6        40.281    37775397.132 7 159840100.65207      -478.623 7        42.252
C08        46.000                                                                                                                                    37801656.157 6 196843188.09306      -841.582 6        36.484    37801654.535 6 152211515.61006      -650.772 6        36.253    37801663.112 4 159951236.61704      -683.991 4        28.787
C38        49.000                                                                                                                                    38796783.043 6 202025016.40406     -1329.274 6        37.682                                                                    38796775.453 5 164161857.24305     -1079.898 5        31.857
C23        55.000                                                                                                                                    22868995.004 8 119085113.32908     -2207.208 8        50.121                                                                    22868985.050 7  96766285.51107     -1793.607 7        43.266
I06        58.000    38809447.534 6 152296759.42206      -630.456 6        36.469
> 2025 01 01 17 45 20.0000000  0 34
G18         1.000    20598567.660 7 108246429.72707      -640.652 7        43.541                                    20598563.839 5  84347742.53805      -499.209 5        33.760    20598564.637 8  84347753.53808      -499.231 8        48.165
G23         4.000    23552880.118 4                      2557.392 4        27.760                                                                                                    23552861.423 6  96445092.18306      1992.842 6        36.590
G31         5.000    23258759.695 5 122225715.56505     -3707.446 5        32.299                                    23258756.768 4  95240907.42804     -2888.930 4        25.729    23258756.609 6  95240712.44906     -2888.825 6        39.291
G28         6.000    24555786.600 5 129041525.99905     -4324.631 5        34.724                                    24555786.315 2 100551837.78702     -3369.764 2        12.000    24555788.171 5 100551865.79905     -3369.697 5        34.857
G27         7.000    23960975.387 5 125915793.13005      2427.293 5        32.311                                                                                                    23961037.683 3                      1892.907 3        20.500
G29         8.000    22173643.400 5 116523431.10005     -3261.332 5        34.438                                    22173640.801 5  90797678.24705     -2541.291 5        32.509    22173641.521 6  90797345.24906     -2541.228 6        38.862
E15        10.000    23944533.789 7 125829369.87207     -2017.960 7        44.983                                                                    23944534.042 7  93963495.73807     -1506.913 7        46.246    23944533.088 7  96414755.02007     -1546.296 7        42.673
G05        11.000    23321184.791 3                     -2444.242 3        22.495                                                                                                    23321153.444 4  95496215.36204     -1904.646 4        28.768
E34        12.000                                                                                                                                                                                                    27736012.695 4                     -2856.801 4        28.711
E27        15.000    24162140.788 8 126973020.41808     -2457.790 8        48.122                                                                    24162140.590 8  94817547.34108     -1835.385 8        50.642    24162140.251 8  97291158.20208     -1883.291 8        51.523
E13        16.000    24087749.094 7 126582052.15407       873.904 7        42.235                                                                    24087749.890 7  94525552.36507       652.511 7        45.029    24087750.864 8  96991390.86808       669.509 8        48.526
R17        17.000    20480931.090 8 109597708.39908     -3495.756 8        53.070                                                                    20480927.682 7  85242446.44707     -2718.949 7        45.108
G16        18.000    21626723.830 7 113649234.01107      1565.422 7        47.626                                    21626716.666 4  88557800.91404      1219.812 4        28.692
R15        20.000    21388685.919 6 114294622.59406     -4749.714 6        37.754                                                                    21388687.539 5  88895833.56805     -3694.218 5        34.243
E21        22.000    24143066.970 7 126872773.82707       372.089 7        43.189                                                                    24143064.458 7  94742590.78707       277.839 7        44.400    24143065.529 7  97214162.89807       285.091 7        46.793
S36        23.000    38298511.558 6 201259921.75406      -854.107 6        36.620
S23        24.000    38251543.996 6 201013246.53106      -856.590 6        38.315
G26        25.000    20593848.096 8 108221422.85508      -624.315 8        50.206                                    20593846.801 7  84328395.99107      -486.480 7        47.082    20593846.060 7  84328439.01307      -486.417 7        44.078
C34        28.000                                                                                                                                    23286458.366 5 121258742.04605     -3149.270 5        32.419                                                                    23286454.759 6  98532805.64106     -2558.989 6        40.329
R19        29.000    21751892.324 4 116357959.28704      2217.263 4        28.104                                                                    21751894.912 5  90500650.90115      1724.823 5        35.710
R18        30.000    19392973.633 7 103520971.41807      -308.899 7        42.720                                                                    19392974.298 6  80516435.10306      -240.243 6        40.431
R16        33.000    19459761.236 8 103950777.14508      -975.647 8        49.014                                                                    19459761.089 7  80850446.10207      -758.743 7        43.172
R09        34.000    22215889.623 7 118631609.46707      2789.748 7        44.194                                                                    22215891.069 6  92269045.84906      2169.685 6        37.860
C37        36.000                                                                                                                                    24184435.565 7 125934713.74907       830.260 7        43.793                                                                    24184437.173 6 102332329.53406       674.678 6        39.661
S21        38.000    38527059.581 5 202461251.44705      -855.051 5        33.587
C28        40.000                                                                                                                                    24667075.890 6 128448151.54406      1824.727 6        40.391                                                                    24667071.752 5 104374444.25205      1482.465 5        32.437
C25        41.000                                                                                                                                    24925454.204 4 129793412.96404     -4240.137 4        24.075                                                                    24925458.409 5 105467783.57605     -3445.564 5        30.189
C43        42.000                                                                                                                                    21577592.406 8 112360211.93108      -853.954 8        50.404                                                                    21577590.259 7  91302026.06307      -693.980 7        47.044
C11        44.000                                                                                                                                    22034089.140 7 114737352.62907     -2130.737 7        45.171    22034084.811 7  88722289.82607     -1647.652 7        46.016    22034083.445 7  93233588.51207     -1731.404 7        43.003
C13        45.000                                                                                                                                    37775964.635 7 196709454.49407      -589.970 7        45.058    37775964.842 6 152108130.15506      -456.091 6        40.322    37775963.026 7 159842496.15707      -479.464 7        42.063
C08        46.000                                                                                                                                    37802465.200 6 196847399.15406      -842.521 6        36.284    37802462.697 6 152214771.86106      -651.587 6        36.643    37802472.256 4 159954658.46104      -685.039 4        29.251
C38        49.000                                                                                                                                    38798060.465 6 202031665.05806     -1330.013 6        37.841                                                                    38798052.291 5 164167259.83205     -1080.692 5        32.138
C23        55.000                                                                                                                                    22871115.789 8 119096156.58808     -2209.794 8        50.318                                                                    22871105.723 7  96775259.06607     -1795.726 7        43.367
I06        58.000    38810249.938 6 152299911.33406      -630.267 6        36.476
> 2025 01 01 17 45 25.0000000  0 34
G18         1.000    20599177.748 7 108249640.26807      -643.465 7        42.914                                    20599174.551 5  84350244.26905      -501.401 5        33.689    20599175.801 7  84350255.27607      -501.464 7        47.977
G23         4.000                                                                                                                                                                    23550428.140 6  96435129.23106      1992.124 6        36.129
G31         5.000    23262288.407 5 122244256.60105     -3708.782 5        31.509                                    23262286.265 4  95255354.99204     -2889.960 4        24.586    23262285.524 6  95255160.03706     -2890.228 6        39.613
G28         6.000    24559902.201 5 129063150.54405     -4325.002 5        34.310                                    24559901.325 2 100568688.06502     -3370.080 2        12.242    24559903.854 5 100568716.04905     -3369.990 5        34.133
G27         7.000    23958666.104 5 125903658.97505      2426.753 5        32.198
G29         8.000    22176749.398 5 116539740.40205     -3262.296 5        35.848                                    22176744.541 5  90810386.77905     -2542.045 5        31.789    22176744.798 6  90810053.79106     -2542.124 6        39.024
E15        10.000    23946454.672 7 125839464.61507     -2019.872 7        44.892                                                                    23946455.146 7  93971034.00907     -1508.331 7        46.164    23946453.810 7  96422489.93107     -1547.702 7        42.497
G05        11.000    23323510.093 3                     -2445.235 3        20.357                                                                                                    23323486.298 4  95505743.86804     -1906.225 4        28.341
E34        12.000                                                                                                                                                                                                    27739560.579 4                     -2856.761 4        29.460
E27        15.000    24164480.209 8 126985314.03908     -2459.550 8        48.012                                                                    24164479.934 8  94826727.63608     -1836.666 8        50.435    24164479.629 8  97300577.98608     -1884.572 8        51.721
E13        16.000    24086918.535 6 126577687.96406       872.102 6        41.044                                                                    24086919.390 7  94522293.40507       651.178 7        45.153    24086920.411 8  96988046.89308       668.136 8        48.421
R17        17.000    20484198.274 8 109615191.33508     -3497.410 8        53.100                                                                    20484194.916 7  85256044.28707     -2720.176 7        44.530
G16        18.000    21625235.720 7 113641412.66007      1563.203 7        47.878                                    21625228.501 4  88551706.35704      1218.077 4        29.460
R15        20.000    21393132.789 6 114318377.30806     -4752.098 6        39.643                                                                    21393132.191 5  88914309.43705     -3696.029 5        35.181
E21        22.000    24142713.380 7 126870917.87007       370.396 7        42.808                                                                    24142711.367 7  94741204.83907       276.666 7        44.414    24142712.266 7  97212740.79807       283.795 7        46.685
S36        23.000    38299326.283 6 201264192.99606      -854.189 6        36.215
S23        24.000    38252360.215 6 201017529.91606      -856.775 6        38.327
G26        25.000    20594443.668 8 108224552.40008      -627.469 8        50.510                                    20594441.960 7  84330834.60007      -488.937 7        47.354    20594441.789 7  84330877.63507      -488.982 7        43.668
C34        28.000                                                                                                                                    23289484.192 5 121274489.99305     -3149.946 5        34.971                                                                    23289479.051 6  98545602.21406     -2559.678 6        40.815
R19        29.000    21749821.748 4 116346877.15404      2215.570 4        28.294                                                                    21749824.371 6  90492031.48906      1723.199 6        36.397
R18        30.000    19393264.660 7 103522523.59907      -311.922 7        43.060                                                                    19393264.939 6  80517642.33306      -242.500 6        40.646
R16        33.000    19460676.599 8 103955666.85608      -980.150 8        48.743                                                                    19460676.233 7  80854249.21007      -762.375 7        43.924
R09        34.000    22213276.438 6 118617666.48906      2787.641 6        41.521                                                                    22213280.063 6  92258201.31706      2168.046 6        39.018
C37        36.000                                                                                                                                    24183639.598 7 125930568.31107       827.999 7        44.311                                                                    24183641.172 6 102328961.07906       672.729 6        39.826
S21        38.000    38527872.500 5 202465526.74505      -854.992 5        33.964
C28        40.000                                                                                                                                    24665324.267 6 128439030.38806      1823.927 6        38.709                                                                    24665320.367 5 104367032.59905      1482.199 5        32.737
C25        41.000                                                                                                                                                                                                                                                                    24929529.146 4 105485010.52104     -3445.971 4        29.848
C43        42.000                                                                                                                                    21578412.634 8 112364486.38608      -855.733 8        50.271                                                                    21578411.113 7  91305499.44207      -695.481 7        46.928
C11        44.000                                                                                                                                    22036135.626 7 114748010.00107     -2132.168 7        44.805    22036131.439 7  88730530.78307     -1648.752 7        46.067    22036130.090 7  93242248.53307     -1732.593 7        43.134
C13        45.000                                                                                                                                    37776531.898 7 196712406.97007      -590.988 7        45.047    37776531.682 6 152110413.21006      -456.913 6        40.429    37776529.963 7 159844895.32807      -480.341 7        42.070
C08        46.000                                                                                                                                    37803276.075 5 196851615.04305      -843.573 5        35.976    37803272.038 6 152218031.86106      -652.441 6        36.885    37803281.307 5 159958084.22505      -685.538 5        30.491
C38        49.000                                                                                                                                    38799338.513 6 202038317.56906     -1330.863 6        38.468                                                                    38799330.370 5 164172665.57705     -1081.375 5        32.587
C23        55.000                                                                                                                                    22873239.037 8 119107212.30808     -2212.425 8        50.183                                                                    22873228.910 7  96784242.78507     -1797.890 7        43.691
I06        58.000    38811052.930 6 152303062.72706      -630.414 6        36.650
> 2025 01 01 17 45 30.0000000  0 34
G18         1.000    20599791.605 7 108252865.25807      -646.372 7        42.021                                    20599788.027 5  84352757.25305      -503.674 5        33.395    20599789.354 7  84352768.26407      -503.649 7        47.607
G23         4.000    23548039.792 4                      2555.424 4        24.632                                                                                                    23547996.162 5  96425169.90105      1991.710 5        35.405
G31         5.000    23265821.565 4 122262806.22204     -3711.143 4        29.735                                    23265817.062 3  95269809.25103     -2891.807 3        22.381    23265815.119 6  95269614.20506     -2891.387 6        39.411
G28         6.000    24564016.799 5 129084776.77405     -4325.240 5        33.449                                    24564016.497 1 100585539.63601     -3370.348 1        11.185    24564019.776 5 100585567.65205     -3370.525 5        33.467
G27         7.000    23956354.658 5 125891527.65305      2425.670 5        33.156
G29         8.000    22179855.361 6 116556055.65806     -3263.663 6        37.622                                    22179849.470 5  90823099.95005     -2543.103 5        31.042    22179849.337 6  90822766.95306     -2543.013 6        38.856
E15        10.000    23948377.753 7 125849568.27407     -2021.601 7        44.942                                                                    23948378.045 7  93978578.93807     -1509.692 7        46.347    23948376.520 7  96430231.68607     -1548.987 7        42.504
G05        11.000                                                                                                                                                                    23325821.650 4  95515284.71004     -1909.418 4        28.199
E34        12.000                                                                                                                                    27743081.797 3                     -2783.793 3        19.433    27743108.646 4                     -2856.798 4        28.057
E27        15.000    24166821.189 7 126997616.28107     -2461.292 7        47.586                                                                    24166820.942 8  94835914.37808     -1837.975 8        50.389    24166820.676 8  97310004.37808     -1885.912 8        51.782
E13        16.000    24086090.444 6 126573332.77806       870.066 6        39.883                                                                    24086090.625 7  94519041.15807       649.859 7        45.412    24086091.665 8  96984709.79608       666.767 8        48.109
R17        17.000    20487466.836 8 109632682.73908     -3499.078 8        52.923                                                                    20487463.422 7  85269648.69707     -2721.547 7        43.846
G16        18.000    21623749.064 7 113633602.37007      1561.031 7        47.830                                    21623742.701 4  88545620.41904      1216.388 4        29.801
R15        20.000    21397580.364 6 114342143.18406     -4754.219 6        39.495                                                                    21397579.997 5  88932794.03905     -3697.726 5        34.776
E21        22.000    24142361.652 7 126869070.19807       368.701 7        42.859                                                                    24142360.002 7  94739825.08807       275.312 7        44.543    24142360.553 7  97211325.04407       282.542 7        46.519
S36        23.000    38300140.736 6 201268464.29206      -854.372 6        36.510
S23        24.000    38253177.171 6 201021813.30506      -856.413 6        38.634
G26        25.000    20595042.085 8 108227697.39008      -630.525 8        50.547                                    20595040.058 7  84333285.24607      -491.319 7        47.625    20595040.080 7  84333328.26907      -491.315 7        43.211
C34        28.000                                                                                                                                    23292508.175 6 121290242.18506     -3150.751 6        37.217                                                                    23292504.190 6  98558402.18206     -2560.309 6        40.870
R19        29.000    21747745.335 4 116335804.68804      2213.578 4        29.033                                                                    21747752.819 6  90483419.59006      1721.636 6        36.023
