     3.04           OBSERVATION DATA    M                   RINEX VERSION / TYPE
ssrcrin-15.6.1x                         20250101 031500 UTC PGM / RUN BY / DATE 
(00000000023479385599111004) Septentrio proprietary         COMMENT             
ract                                                        MARKER NAME         
01                                                          MARKER NUMBER       
geodetic                                                    MARKER TYPE         
NFB                 CLIMERS@TUW                             OBSERVER / AGENCY   
3296359             SEPT ASTERX SB3 PROB4.14.4              REC # / TYPE / VERS 
Unknown             Unknown                                 ANT # / TYPE        
  4127446.6599  1206914.9303  4695543.9744                  APPROX POSITION XYZ 
        0.0000        0.0000        0.0000                  ANTENNA: DELTA H/E/N
G   23 X1  C1C L1C D1C S1C C1W S1W C2W L2W D2W S2W C2L L2L  SYS / # / OBS TYPES 
       D2L S2L C5Q L5Q D5Q S5Q C1L L1L D1L S1L              SYS / # / OBS TYPES 
E   21 X1  C1C L1C D1C S1C C6C L6C D6C S6C C5Q L5Q D5Q S5Q  SYS / # / OBS TYPES 
       C7Q L7Q D7Q S7Q C8Q L8Q D8Q S8Q                      SYS / # / OBS TYPES 
S    9 X1  C1C L1C D1C S1C C5I L5I D5I S5I                  SYS / # / OBS TYPES 
R   17 X1  C1C L1C D1C S1C C2P L2P D2P S2P C2C L2C D2C S2C  SYS / # / OBS TYPES 
       C3Q L3Q D3Q S3Q                                      SYS / # / OBS TYPES 
C   25 X1  C1P L1P D1P S1P C5P L5P D5P S5P C2I L2I D2I S2I  SYS / # / OBS TYPES 
       C7I L7I D7I S7I C6I L6I D6I S6I C7D L7D D7D S7D      SYS / # / OBS TYPES 
J   17 X1  C1C L1C D1C S1C C2L L2L D2L S2L C5Q L5Q D5Q S5Q  SYS / # / OBS TYPES 
       C1L L1L D1L S1L                                      SYS / # / OBS TYPES 
I    5 X1  C5A L5A D5A S5A                                  SYS / # / OBS TYPES 
SEPTENTRIO RECEIVERS OUTPUT ALIGNED CARRIER PHASES.         COMMENT             
NO FURTHER PHASE SHIFT APPLIED IN THE RINEX ENCODER.        COMMENT             
G L1C                                                       SYS / PHASE SHIFT   
G L2W                                                       SYS / PHASE SHIFT   
G L2L  0.00000                                              SYS / PHASE SHIFT   
G L5Q  0.00000                                              SYS / PHASE SHIFT   
G L1L  0.00000                                              SYS / PHASE SHIFT   
E L1C  0.00000                                              SYS / PHASE SHIFT   
E L6C  0.00000                                              SYS / PHASE SHIFT   
E L5Q  0.00000                                              SYS / PHASE SHIFT   
E L7Q  0.00000                                              SYS / PHASE SHIFT   
E L8Q  0.00000                                              SYS / PHASE SHIFT   
S L1C                                                       SYS / PHASE SHIFT   
S L5I                                                       SYS / PHASE SHIFT   
R L1C                                                       SYS / PHASE SHIFT   
R L2P  0.00000                                              SYS / PHASE SHIFT   
R L2C                                                       SYS / PHASE SHIFT   
R L3Q  0.00000                                              SYS / PHASE SHIFT   
C L1P  0.00000                                              SYS / PHASE SHIFT   
C L5P  0.00000                                              SYS / PHASE SHIFT   
C L2I                                                       SYS / PHASE SHIFT   
C L7I                                                       SYS / PHASE SHIFT   
C L6I                                                       SYS / PHASE SHIFT   
C L7D                                                       SYS / PHASE SHIFT   
J L1C                                                       SYS / PHASE SHIFT   
J L2L  0.00000                                              SYS / PHASE SHIFT   
J L5Q  0.00000                                              SYS / PHASE SHIFT   
J L1L  0.00000                                              SYS / PHASE SHIFT   
I L5A                                                       SYS / PHASE SHIFT   
  2025     1     1     3    15    0.0000000     GPS         TIME OF FIRST OBS   
 C1C    0.000 C2C    0.000 C2P    0.000                     GLONASS COD/PHS/BIS 
DBHZ                                                        SIGNAL STRENGTH UNIT
    18                                                      LEAP SECONDS        
 24 R01  1 R02 -4 R03  5 R04  6 R05  1 R06 -4 R07  5 R08  6 GLONASS SLOT / FRQ #
    R09 -2 R10 -7 R11  0 R12 -1 R13 -2 R14 -7 R15  0 R16 -1 GLONASS SLOT / FRQ #
    R17  4 R18 -3 R19  3 R20  2 R21  4 R22 -3 R23  3 R24  2 GLONASS SLOT / FRQ #
                                                            END OF HEADER       
> 2025 01 01 03 15  0.0000000  0 38
G19         3.000    23631587.788 6 124184867.79806     -3389.734 6        37.898                                    23631568.067 1  96767348.50801     -2641.349 1         8.286
G31         4.000                                                                                                                                                                    23753760.413 4                     -2907.238 4        25.098
G07         5.000    24004651.208 7 126145277.51507      2493.721 7        44.348                                    24004643.180 4  98294955.27304      1943.158 4        29.033    24004643.694 5  98295004.33105      1943.104 5        34.810
E34         6.000    24562691.199 6 129077826.08106       396.173 6        40.248                                                                    24562689.019 5  96389328.46805       295.783 5        35.962    24562698.038 6  98903800.69006       303.581 6        36.318
E04         7.000    26900800.104 5 141364653.06505     -3390.861 5        30.687                                                                    26900787.417 4 105564449.10704     -2531.713 4        26.419    26900806.718 5 108318383.53205     -2598.154 5        33.359
G03         8.000    21549580.220 7 113243942.16407     -3174.104 7        42.372                                    21549584.465 4  88241971.10104     -2473.323 4        28.844    21549576.517 5  88241929.03805     -2473.414 5        35.276
G09         9.000    20444535.405 7 107436752.20607       375.526 7        44.378                                    20444534.704 6  83716960.27406       292.620 6        41.852    20444533.257 7  83716951.27507       292.624 7        45.183
G04        11.000    20325319.797 8 106810300.57308     -1510.662 8        48.954                                    20325316.024 6  83228752.32306     -1177.144 6        37.285    20325315.825 7  83228771.32107     -1177.118 7        46.108
E09        12.000    23828518.685 7 125219675.50507     -1685.348 7        44.178                                                                    23828519.155 8  93508296.07908     -1258.510 8        50.542    23828517.070 8  95947619.74308     -1291.339 8        48.266
E06        14.000    24798451.733 6 130316777.53006     -2712.482 6        38.931                                                                    24798450.155 7  97314461.21007     -2025.652 7        43.748    24798449.909 7  99853067.55707     -2078.534 7        42.112
E11        15.000    27502053.896 3                     -4034.497 3        20.905                                                                    27502062.734 4                     -3012.208 4        25.504
E15        16.000    28461443.602 5                      2128.988 5        31.509                                                                    28461448.615 5 111688835.79105      1589.726 5        31.306    28461448.438 5 114602476.21505      1631.179 5        31.411
G06        19.000    21633899.594 7 113686888.47507       541.487 7        43.310                                    21633897.828 5  88587173.29405       421.931 5        33.449    21633898.564 6  88587197.35306       421.975 6        37.962
E36        20.000    24247287.836 7 127420493.28807     -2562.417 7        47.346                                                                    24247288.107 8  95151547.58308     -1913.467 8        48.988    24247287.833 8  97633793.08908     -1963.447 8        49.273
E05        21.000    23111607.168 7 121452337.53007       923.536 7        43.033                                                                    23111606.336 7  90694956.85807       689.639 7        43.697    23111605.950 7  93060899.64507       707.597 7        47.322
G17        22.000    24981330.752 4                     -3733.511 4        26.251
R07        23.000    20518855.520 8 109839155.17708      1015.106 8        51.424                                                                    20518852.496 5  85430374.35405       789.358 5        35.367
S23        24.000    38333267.383 6 201442580.21606      -820.535 6        40.667
S36        25.000    38389051.510 6 201735777.63706      -824.777 6        36.045
G11        26.000                                                                                                                                                                    24399794.692 6  99913087.78806      1876.720 6        37.074
R06        29.000    19869365.587 5                     -1955.989 5        32.030
C19        33.000                                                                                                                                    22092200.938 7 115039891.42607      -616.345 7        46.226                                                                    22092196.475 8  93479301.38408      -500.759 8        48.608
R21        34.000    21781666.919 6 116558144.90406     -4868.477 6        38.024                                                                    21781667.568 6  90656338.10006     -3786.666 6        36.537
R22        37.000    20301140.709 7 108368806.50407      -905.858 7        47.242                                                                    20301139.020 7  84286875.68107      -704.620 7        46.620
C39        38.000                                                                                                                                    39914999.205 4                     -1847.860 4        29.318                                                                    39914990.340 5 168893372.45105     -1501.956 5        31.109
R16        39.000                                                                                                                                    22133301.435 4                      1458.862 4        27.018
C06        41.000                                                                                                                                    38732364.107 5 201689655.26205     -1461.547 5        32.024                                                                    38732367.606 5 163889291.94005     -1187.645 5        30.974
C29        43.000                                                                                                                                    26340244.817 3                     -4195.334 3        21.095
R23        44.000    22530775.621 6 120524618.29106      2451.139 6        41.359
C16        45.000                                                                                                                                    39280976.146 5 204546473.74605     -1526.037 5        34.790    39280980.058 4 158168186.48004     -1180.300 4        29.299    39280973.726 5                     -1240.336 5        31.162
C09        46.000                                                                                                                                    38660773.344 6 201316795.14806      -981.790 6        37.191    38660767.855 6 155670918.78706      -759.319 6        39.727    38660764.895 5 163586359.68705      -797.564 5        34.771
C44        48.000                                                                                                                                                                                                                                                                    24317112.910 5 102893551.94505      -147.985 5        31.955
C37        49.000                                                                                                                                    24894801.442 5 129633926.00905      -866.980 5        32.102                                                                    24894822.307 6 105338131.05106      -704.455 6        39.267
C22        50.000                                                                                                                                    24348892.960 6 126791091.45406      1619.002 6        39.976                                                                    24348885.416 4                      1315.853 4        29.754
C35        51.000                                                                                                                                    23837334.299 5 124127520.14105     -2738.885 5        34.109                                                                    23837340.494 6 100863577.24206     -2225.363 6        36.420
C20        55.000                                                                                                                                    23719377.727 8 123513011.83308     -2915.363 8        48.404                                                                    23719372.321 7 100364517.60807     -2368.774 7        44.859
C12        56.000                                                                                                                                    25751150.383 6 134093033.74606      1217.600 6        40.188    25751152.223 7 103689202.35007       941.548 7        46.502    25751146.949 7 108961587.93507       989.537 7        42.191
I09        58.000    37696737.644 6 147930095.20106      -906.196 6        39.691
> 2025 01 01 03 15  5.0000000  0 39
G19         3.000    23634809.571 5 124201820.66005     -3391.650 5        31.298                                    23634793.734 1  96780558.57401     -2642.885 1         7.375
G31         4.000    23757352.331 4                     -3732.997 4        24.241                                                                                                    23757310.551 3                     -2908.147 3        23.905
G07         5.000    24002278.961 7 126132810.33707      2492.732 7        43.793                                    24002271.467 4  98285240.59604      1942.382 4        29.592    24002271.360 5  98285289.60405      1942.344 5        35.295
E34         6.000    24562315.366 6 129075849.97206       393.831 6        40.920                                                                    24562312.718 5  96387852.80805       294.060 5        35.971    24562325.698 5  98902286.50705       301.853 5        34.362
E04         7.000    26904026.958 5 141381606.76705     -3390.733 5        30.385                                                                                                                                    26904031.791 5 108331374.07105     -2598.612 5        33.126
G03         8.000    21552601.215 7 113259816.21207     -3176.040 7        42.749                                    21552602.971 5  88254340.47905     -2474.828 5        30.981    21552598.389 6  88254298.42606     -2474.932 6        36.314
G09         9.000    20444179.028 7 107434879.90407       372.996 7        43.841                                    20444178.736 7  83715501.33207       290.642 7        43.177    20444176.972 7  83715492.35207       290.501 7        44.906
G04        11.000    20326758.204 8 106817859.12108     -1513.177 8        49.141                                    20326754.281 6  83234642.10906     -1179.095 6        37.599    20326754.364 7  83234661.10007     -1179.115 7        46.454
E09        12.000    23830122.814 7 125228104.93807     -1686.949 7        44.385                                                                    23830123.229 8  93514590.78508     -1259.689 8        50.478    23830121.217 8  95954078.66308     -1292.542 8        48.154
E06        14.000    24801033.284 6 130330342.72206     -2713.673 6        40.114                                                                    24801031.640 7  97324591.06507     -2026.478 7        44.099    24801031.208 6  99863461.67606     -2079.340 6        41.828
E11        15.000    27505892.417 3                     -4037.092 3        21.310                                                                    27505900.070 4                     -3011.885 4        26.395
E15        16.000    28459418.256 5                      2128.533 5        30.740                                                                    28459422.899 5 111680887.21705      1589.330 5        31.102    28459422.970 5 114594320.29705      1630.764 5        30.966
G06        19.000    21633385.389 7 113684187.94307       538.354 7        42.519                                    21633383.502 5  88585068.98405       419.487 5        32.719    21633383.788 6  88585093.05906       419.526 6        36.234
E36        20.000    24249726.641 7 127433310.15307     -2564.627 7        47.376                                                                    24249727.099 8  95161118.62508     -1915.203 8        49.153    24249726.820 8  97643613.80508     -1965.145 8        49.239
E05        21.000    23110728.904 7 121447722.85807       921.966 7        42.732                                                                    23110728.134 7  90691510.81507       688.560 7        43.833    23110727.854 7  93057363.71107       706.440 7        47.291
G17        22.000    24984887.055 4                     -3733.190 4        28.853
R07        23.000    20517908.480 8 109834083.87908      1012.981 8        51.721                                                                    20517905.953 6  85426430.01706       787.776 6        37.395
S23        24.000    38334048.464 6 201446682.57306      -820.733 6        40.527
S36        25.000    38389834.857 6 201739902.44406      -825.335 6        36.563
G11        26.000    24397506.478 5 128209826.87215      2407.256 5        30.023                                    24397504.722 2  99903736.62512      1875.788 2        13.818    24397504.787 6  99903706.62206      1875.697 6        37.800
R15        28.000    22510688.587 5                     -1752.423 5        32.281
R06        29.000    19871194.772 4                     -1957.936 4        29.839
C19        33.000                                                                                                                                    22092793.538 7 115042976.44507      -618.101 7        46.128                                                                    22092788.823 8  93481808.19808      -502.227 8        48.409
R21        34.000    21786213.668 6 116582491.99906     -4870.604 6        36.484                                                                    21786216.507 5  90675274.80905     -3788.356 5        32.898
R22        37.000    20301989.979 7 108373347.33307      -910.831 7        47.419                                                                    20301990.127 7  84290407.46607      -708.475 7        46.887
C39        38.000                                                                                                                                    39916770.191 4                     -1848.070 4        27.701                                                                    39916763.359 5 168900880.09205     -1501.335 5        30.174
R16        39.000                                                                                                                                    22131541.986 4                      1456.954 4        26.168
C06        41.000                                                                                                                                    38733770.273 5 201696966.06105     -1462.789 5        32.778    38733798.530 4                     -1130.902 4        26.527    38733771.965 5 163895232.53805     -1188.492 5        31.728
C29        43.000                                                                                                                                    26344276.982 3                     -4195.645 3        19.522
R23        44.000    22528485.633 6 120512369.66106      2447.958 6        40.446
C16        45.000                                                                                                                                    39282440.290 5 204554105.10105     -1526.768 5        33.671    39282444.309 4 158174087.49204     -1180.860 4        26.371    39282439.895 5                     -1240.486 5        31.525
C09        46.000                                                                                                                                    38661715.970 6 201321705.75806      -982.733 6        38.471    38661710.901 6 155674715.99706      -760.006 6        39.697    38661707.647 5 163590349.97405      -798.701 5        34.438
C44        48.000                                                                                                                                    24317260.499 5 126626494.34515      -185.410 5        31.977                                                                    24317286.929 5 102894298.81605      -150.400 5        32.198
C37        49.000                                                                                                                                    24895643.518 5 129638267.36205      -869.924 5        33.365                                                                    24895653.225 6 105341658.75706      -706.875 6        39.402
C22        50.000                                                                                                                                    24347339.545 6 126782997.74706      1618.109 6        39.874                                                                    24347331.549 4                      1314.776 4        29.289
C35        51.000                                                                                                                                    23839971.602 5 124141218.38905     -2740.918 5        33.377                                                                    23839972.382 6 100874708.21906     -2227.435 6        36.911
C20        55.000                                                                                                                                    23722177.241 8 123527590.22308     -2916.418 8        48.321                                                                    23722171.912 7 100376363.73307     -2369.820 7        44.942
C12        56.000                                                                                                                                    25749983.631 6 134086950.53506      1215.162 6        40.279    25749984.746 7 103684498.43607       939.732 7        47.186    25749978.826 7 108956644.81707       987.596 7        42.470
I09        58.000    37697892.553 6 147934625.98506      -906.570 6        40.231
> 2025 01 01 03 15 10.0000000  0 39
G19         3.000    23638038.841 4 124218783.53104     -3393.252 4        27.784                                    23638021.324 1  96793776.39901     -2644.019 1         4.714
G31         4.000    23760902.500 4                     -3734.534 4        26.814                                                                                                    23760866.197 3                     -2910.970 3        23.143
G07         5.000    23999906.259 7 126120347.12807      2492.408 7        43.554                                    23999900.282 4  98275529.00804      1942.124 4        29.573    23999900.346 5  98275578.01205      1942.055 5        35.248
E34         6.000    24561940.879 7 129073884.71607       392.201 7        42.017                                                                    24561938.449 5  96386385.23005       292.981 5        35.795    24561955.886 5  98900780.62305       300.548 5        32.593
E04         7.000    26907255.026 4 141398562.40904     -3390.984 4        28.047                                                                                                                                    26907257.815 5 108344366.02005     -2598.624 5        32.737
G03         8.000    21555622.707 6 113275698.77706     -3177.110 6        41.840                                    21555623.588 5  88266716.48905     -2475.668 5        32.222    21555621.692 6  88266674.44706     -2475.661 6        36.030
G09         9.000    20443825.155 7 107433019.64207       371.072 7        45.056                                    20443824.910 7  83714051.77207       289.152 7        44.178    20443822.623 7  83714042.77107       289.121 7        44.980
G04        11.000    20328198.617 8 106825429.61508     -1515.145 8        49.653                                    20328194.886 6  83240541.20206     -1180.636 6        37.792    20328194.867 7  83240560.18907     -1180.631 7        46.641
E09        12.000    23831728.392 7 125236541.86807     -1688.062 7        44.766                                                                    23831728.628 8  93520891.08508     -1260.507 8        50.443    23831726.901 8  95960543.31708     -1293.343 8        48.310
E06        14.000    24803615.401 6 130343913.02006     -2714.324 6        40.467                                                                    24803614.114 7  97334724.72707     -2026.959 7        44.289    24803613.174 6  99873859.69406     -2079.792 6        41.828
E11        15.000                                                                                                                                    27509739.208 4                     -3012.530 4        26.671
E15        16.000    28457394.400 5                      2128.042 5        32.174                                                                    28457397.413 5 111672940.90405      1589.365 5        32.263    28457398.275 5 114586166.71405      1630.377 5        31.887
G06        19.000    21632873.803 6 113681503.00706       535.627 6        41.261                                    21632872.029 5  88582976.82905       417.365 5        31.932    21632873.367 5  88583000.83405       417.576 5        34.281
E36        20.000    24252167.400 7 127446137.59307     -2566.339 7        47.314                                                                    24252168.024 8  95170697.55408     -1916.449 8        49.415    24252167.793 8  97653442.61608     -1966.394 8        48.990
E05        21.000    23109851.641 7 121443115.14007       921.062 7        42.720                                                                    23109851.334 7  90688069.99907       687.729 7        43.537    23109851.065 7  93053833.12907       705.683 7        47.253
G17        22.000    24988439.393 4                     -3733.373 4        29.033
R07        23.000    20516961.748 8 109829022.15208      1011.632 8        50.907                                                                    20516959.034 6  85422493.14806       786.676 6        38.099
S23        24.000    38334827.031 6 201450785.62706      -820.613 6        40.410
S36        25.000    38390619.891 6 201744027.25406      -824.725 6        36.707
G11        26.000    24395212.181 4 128197795.30904      2405.699 4        28.265                                    24395214.254 2  99894361.37002      1874.581 2        12.909    24395214.783 6  99894331.31206      1874.680 6        37.837
R15        28.000    22512322.298 5                     -1756.703 5        32.162                                                                    22512294.368 4  93565867.41314     -1366.807 4        28.900
R06        29.000    19873025.414 4                     -1959.666 4        29.422
C19        33.000                                                                                                                                    22093387.573 7 115046069.11307      -619.134 7        46.059                                                                    22093382.646 8  93484321.24408      -503.079 8        48.459
R21        34.000    21790764.869 6 116606850.35206     -4872.741 6        37.233                                                                    21790767.671 4  90694220.09204     -3789.602 4        28.294
R22        37.000    20302845.095 8 108377911.86708      -915.136 8        48.246                                                                    20302845.038 7  84293957.64307      -711.737 7        46.313
C39        38.000                                                                                                                                    39918548.788 4                     -1848.361 4        29.024                                                                    39918535.751 4 168908389.69304     -1502.008 4        29.289
R16        39.000    22129819.803 5                      1869.855 5        34.867                                                                    22129792.330 4                      1454.567 4        25.850
C06        41.000                                                                                                                                    38735176.106 5 201704280.20905     -1463.122 5        33.683                                                                    38735176.961 5 163901175.87005     -1188.642 5        31.977
R08        42.000    24319110.207 4                      2478.529 4        25.233
R23        44.000    22526199.595 6 120500136.23206      2445.441 6        40.791
C16        45.000                                                                                                                                    39283905.422 5 204561739.44705     -1527.104 5        34.086    39283909.024 4 158179990.86804     -1181.005 4        26.527    39283906.637 5                     -1240.632 5        30.898
C09        46.000                                                                                                                                    38662660.621 6 201326620.11006      -983.051 6        38.429    38662655.010 6 155678516.06006      -760.174 6        39.892    38662651.601 5 163594343.27705      -798.856 5        34.900
C44        48.000                                                                                                                                    24317443.539 5 126627427.95305      -187.591 5        31.253                                                                    24317463.645 5 102895057.42505      -152.442 5        31.426
C37        49.000                                                                                                                                    24896484.384 5 129642623.17105      -872.608 5        34.667                                                                    24896487.002 6 105345198.21806      -708.904 6        39.027
C22        50.000                                                                                                                                    24345785.158 6 126774907.81706      1617.807 6        38.435                                                                    24345776.860 4                      1314.509 4        29.393
C35        51.000                                                                                                                                                                                                                                                                    23842606.174 6 100885848.37706     -2228.843 6        37.463
C20        55.000                                                                                                                                    23724977.926 8 123542173.21508     -2916.866 8        48.405                                                                    23724972.384 7 100388213.60807     -2370.247 7        45.102
C12        56.000                                                                                                                                    25748818.401 6 134080878.79206      1213.421 6        40.815    25748818.410 7 103679803.41907       938.228 7        46.868    25748812.881 7 108951711.06307       986.022 7        42.559
I09        58.000    37699046.998 6 147939157.66406      -906.305 6        39.817
> 2025 01 01 03 15 15.0000000  0 39
G31         4.000                                                                                                                                                                    23764418.038 3                     -2911.279 3        23.219
G07         5.000    23997534.879 7 126107887.22707      2491.519 7        43.287                                    23997529.441 4  98265819.99704      1941.443 4        29.100    23997528.691 5  98265869.01305      1941.590 5        35.190
E34         6.000    24561568.397 7 129071929.66707       389.827 7        42.180                                                                    24561566.362 6  96384925.27206       291.174 6        36.454    24561590.423 5  98899282.51105       299.118 5        31.102
E04         7.000                                                                                                                                    26910462.630 4 105602433.43904     -2532.554 4        24.271    26910483.970 5 108357358.81005     -2598.538 5        32.820
G03         8.000    21558645.671 6 113291589.25606     -3178.928 6        40.779                                    21558645.797 5  88279098.65705     -2477.083 5        31.894    21558644.781 5  88279056.60805     -2477.330 5        35.648
G09         9.000    20443473.540 7 107431170.67507       368.601 7        45.825                                    20443473.056 7  83712611.02607       287.222 7        44.843    20443470.863 7  83712602.02907       287.143 7        44.703
G04        11.000    20329641.463 8 106833011.39808     -1517.551 8        50.041                                    20329637.798 6  83246449.08906     -1182.503 6        37.860    20329637.744 7  83246468.06607     -1182.542 7        46.722
E09        12.000    23833335.589 7 125244985.61607     -1689.491 7        45.016                                                                    23833335.356 8  93527196.48708     -1261.629 8        50.413    23833333.621 8  95967013.20808     -1294.557 8        48.357
E06        14.000    24806198.669 6 130357487.73306     -2715.500 6        41.766                                                                    24806197.548 7  97344861.68107     -2027.755 7        44.549    24806196.474 7  99884261.10507     -2080.753 7        42.381
E11        15.000                                                                                                                                    27513577.971 4                     -3013.035 4        28.607    27513579.998 3                     -3091.449 3        22.971
E15        16.000    28455370.047 5                      2127.522 5        32.994                                                                    28455372.760 5 111664996.22305      1588.912 5        31.147    28455373.550 5 114578014.78105      1629.764 5        31.728
G06        19.000    21632365.577 6 113678832.98106       532.363 6        40.372                                    21632363.449 5  88580896.30305       414.831 5        31.147    21632366.504 5  88580920.32205       414.857 5        35.124
E36        20.000    24254610.309 7 127458974.92607     -2568.505 7        47.178                                                                    24254610.827 8  95180283.87308     -1918.008 8        49.450    24254610.526 8  97663279.01108     -1968.114 8        49.110
E05        21.000    23108976.099 7 121438513.75107       919.624 7        42.127                                                                    23108975.587 7  90684633.90207       686.704 7        43.710    23108975.350 7  93050307.39607       704.531 7        47.133
G17        22.000    24991990.371 4                     -3733.686 4        29.384                                                                                                    24991966.222 3                     -2910.312 3        18.687
R07        23.000    20516016.808 8 109823969.24508      1009.583 8        50.840                                                                    20516015.571 6  85418563.14106       785.257 6        38.453
S23        24.000    38335608.510 6 201454888.30506      -820.573 6        40.224
S36        25.000    38391401.575 6 201748151.53406      -824.909 6        36.624
G11        26.000    24392929.695 4 128185770.41504      2404.166 4        28.825                                    24392925.440 2  99884991.36502      1873.387 2        13.697    24392927.004 6  99884961.32506      1873.473 6        38.339
R15        28.000    22513962.816 5                     -1761.180 5        30.506                                                                    22513944.893 5  93572707.89105     -1370.132 5        30.257
R06        29.000    19874858.184 5                     -1961.865 5        31.057
C19        33.000                                                                                                                                    22093983.104 7 115049168.79007      -620.750 7        46.815                                                                    22093977.876 8  93486839.98308      -504.435 8        48.396
R21        34.000    21795321.524 6 116631219.31506     -4875.030 6        40.822
R22        37.000    20303705.507 8 108382499.41708      -919.942 8        49.108                                                                    20303703.940 7  84297525.73807      -715.451 7        44.808
C39        38.000                                                                                                                                    39920331.051 4                     -1848.731 4        28.038                                                                    39920309.726 5 168915900.56705     -1502.395 5        30.317
R16        39.000    22128068.147 6 118204192.21416      1866.656 6        36.427                                                                    22128046.689 4                      1452.400 4        26.623
C06        41.000                                                                                                                                    38736581.556 5 201711596.99605     -1463.588 5        33.335    38736594.729 4                     -1131.989 4        29.905    38736580.764 5 163907121.36305     -1189.476 5        32.168
R08        42.000    24316793.128 4                      2476.406 4        26.108
C29        43.000                                                                                                                                    26352329.493 3                     -4195.400 3        19.164
R23        44.000    22523916.024 6 120487917.36106      2442.318 6        41.111
C16        45.000                                                                                                                                    39285373.385 5 204569376.17705     -1527.690 5        32.844    39285377.037 4 158185896.08404     -1181.598 4        28.076    39285372.685 5                     -1241.368 5        31.653
C09        46.000                                                                                                                                    38663604.698 6 201331537.57606      -983.856 6        38.664    38663598.958 6 155682318.53506      -760.703 6        40.010    38663595.761 5 163598339.09005      -799.462 5        35.071
C44        48.000                                                                                                                                    24317630.653 5 126628375.23405      -190.977 5        33.497                                                                    24317643.513 5 102895827.16705      -155.540 5        30.626
C37        49.000                                                                                                                                    24897321.972 5 129646992.73705      -875.443 5        34.757                                                                    24897322.887 6 105348748.83306      -711.316 6        38.135
C22        50.000                                                                                                                                    24344232.660 6 126766821.03806      1617.039 6        38.408                                                                    24344222.140 4                      1313.990 4        28.578
C35        51.000                                                                                                                                    23845274.814 5 124168648.51205     -2745.142 5        30.083                                                                    23845242.022 6 100896997.26106     -2230.706 6        37.051
C20        55.000                                                                                                                                    23727779.514 8 123556760.14708     -2917.879 8        48.681                                                                    23727773.300 7 100400066.67007     -2370.919 7        44.810
C12        56.000                                                                                                                                    25747655.510 6 134074817.94606      1210.961 6        41.650    25747652.963 7 103675116.77307       936.430 7        46.659    25747648.736 7 108946786.11007       983.982 7        42.423
I09        58.000    37700201.499 6 147943689.77406      -906.555 6        40.081
> 2025 01 01 03 15 20.0000000  0 39
G19         3.000    23644525.895 5 124252736.66205     -3397.237 5        32.503                                    23644482.166 1  96820233.14901     -2647.179 1         4.000
G31         4.000                                                                                                                                                                    23767973.390 3                     -2911.609 3        21.119
G07         5.000    23995164.521 7 126095430.04707      2491.181 7        42.009                                    23995158.891 4  98256113.09804      1941.185 4        28.550    23995157.306 5  98256162.12405      1940.956 5        34.448
E34         6.000    24561198.105 7 129069984.15807       388.036 7        42.252                                                                    24561195.575 5  96383472.46805       289.827 5        35.886    24561224.302 4  98897791.80904       296.978 4        27.952
E04         7.000                                                                                                                                    26913691.330 4 105615096.29104     -2531.701 4        24.301    26913711.046 5 108370352.07705     -2598.913 5        30.928
G03         8.000    21561671.230 6 113307486.95006     -3180.366 6        39.838                                    21561669.445 5  88291486.45505     -2478.201 5        31.434    21561669.562 5  88291444.39705     -2478.174 5        33.719
G09         9.000    20443124.167 7 107429332.44607       366.508 7        45.881                                    20443123.030 7  83711178.63007       285.589 7        45.517    20443121.616 7  83711169.62907       285.658 7        44.745
G04        11.000    20331085.953 8 106840603.83008     -1519.579 8        49.158                                    20331082.812 6  83252365.27306     -1184.083 6        37.902    20331082.558 7  83252384.25107     -1184.100 7        46.750
E09        12.000    23834943.856 7 125253435.57607     -1690.646 7        46.191                                                                    23834943.279 8  93533506.51408     -1262.397 8        50.021    23834941.567 8  95973487.84708     -1295.402 8        48.644
E06        14.000    24808782.374 7 130371066.23907     -2716.062 7        42.455                                                                    24808781.565 7  97355001.45807     -2028.251 7        44.683    24808780.335 7  99894665.41307     -2081.217 7        42.872
E11        15.000    27517411.643 3                     -4035.764 3        20.381                                                                    27517416.908 4                     -3012.233 4        27.257    27517420.326 3                     -3090.793 3        23.448
E15        16.000    28453346.857 5                      2127.349 5        32.874                                                                    28453349.055 5 111657052.76905      1588.971 5        30.030    28453348.823 5 114569864.09005      1630.239 5        30.332
G06        19.000    21631860.682 6 113676177.22606       529.706 6        39.237                                    21631857.709 5  88578826.89205       412.756 5        30.634    21631861.963 6  88578850.94206       412.672 6        36.393
E36        20.000    24257054.939 7 127471821.53007     -2570.312 7        47.013                                                                    24257055.523 8  95189877.12308     -1919.396 8        49.502    24257055.009 8  97673122.51208     -1969.448 8        48.888
E05        21.000    23108101.766 6 121433918.07306       918.585 6        41.516                                                                    23108101.036 7  90681202.05707       686.003 7        42.671    23108100.521 7  93046786.01007       703.893 7        46.188
G17        22.000    24995543.625 4                     -3733.316 4        29.858
R07        23.000    20515074.517 8 109818924.63108      1008.099 8        50.829                                                                    20515073.791 6  85414639.53006       783.883 6        38.532
S23        24.000    38336387.945 6 201458990.03506      -820.179 6        40.176
S36        25.000    38392186.944 6 201752275.03606      -824.692 6        36.336
G11        26.000    24390645.880 5 128173751.79005      2403.201 5        31.841                                    24390638.138 2  99875626.21602      1872.639 2        14.714    24390639.780 6  99875596.22306      1872.459 6        38.417
R15        28.000    22515610.466 5                     -1765.131 5        31.592                                                                    22515595.354 5                     -1372.569 5        30.672
R06        29.000    19876701.669 5                     -1963.510 5        33.868
C19        33.000                                                                                                                                    22094579.665 7 115052274.84407      -621.890 7        46.632                                                                    22094574.286 8  93489363.89108      -505.384 8        48.234
R21        34.000    21799884.156 6 116655598.10506     -4876.699 6        38.949
R22        37.000    20304569.032 8 108387109.37008      -924.233 8        48.308                                                                    20304566.798 7  84301111.25007      -718.831 7        43.843
C39        38.000                                                                                                                                    39922110.202 4                     -1848.856 4        28.853                                                                    39922083.709 4 168923412.23604     -1502.395 4        29.592
R16        39.000    22126315.873 6                      1863.665 6        38.273                                                                    22126301.048 4                      1449.270 4        28.133
C06        41.000                                                                                                                                    38737987.007 5 201718915.84105     -1464.192 5        33.072    38737998.855 5                     -1131.978 5        31.691    38737984.801 5 163913068.53005     -1189.536 5        32.042
R08        42.000    24314475.817 4                      2476.573 4        24.842
R23        44.000    22521635.037 7 120475712.33407      2439.669 7        42.193
C16        45.000                                                                                                                                    39286839.404 5 204577014.72005     -1527.919 5        32.162    39286839.329 4                     -1181.648 4        26.467    39286837.347 5                     -1241.706 5        31.042
C09        46.000                                                                                                                                    38664548.814 6 201336457.50306      -984.284 6        38.153    38664543.614 6 155686122.94006      -761.057 6        40.155    38664540.836 5 163602336.93305      -799.936 5        34.695
C44        48.000                                                                                                                                    24317815.892 5 126629335.60605      -193.440 5        35.271                                                                    24317823.553 5 102896607.42905      -157.398 5        31.328
C37        49.000                                                                                                                                    24898162.184 5 129651375.44605      -877.800 5        34.733                                                                    24898163.078 6 105352310.16806      -713.546 6        37.943
C22        50.000                                                                                                                                    24342680.801 6 126758736.77406      1616.469 6        38.171                                                                    24342670.384 5                      1313.437 5        30.853
C35        51.000                                                                                                                                                                                                                                                                    23847879.530 6 100908154.31706     -2232.414 6        36.510
C20        55.000                                                                                                                                    23730581.159 8 123571350.40008     -2918.403 8        48.763                                                                    23730575.291 7 100411922.43907     -2371.510 7        44.745
C12        56.000                                                                                                                                    25746493.475 6 134068767.32506      1209.062 6        40.756    25746489.936 7 103670438.05707       934.930 7        46.050    25746486.900 7 108941869.48307       982.418 7        42.296
I09        58.000    37701356.327 6 147948221.83206      -906.356 6        39.535
> 2025 01 01 03 15 25.0000000  0 39
G19         3.000    23647751.880 5 124269726.98805     -3399.050 5        32.138                                    23647715.319 1  96833472.44401     -2648.622 1         5.714
G31         4.000    23771538.366 5                     -3741.776 5        30.347
G07         5.000    23992794.493 6 126082976.24406      2490.414 6        40.977                                    23992788.631 4  98246408.84804      1940.571 4        27.784    23992787.668 5  98246457.89305      1940.218 5        32.461
E34         6.000    24560829.400 7 129068048.88907       386.041 7        42.694                                                                    24560827.707 6  96382027.33006       288.113 6        36.102    24560858.503 4  98896308.99204       296.337 4        26.443
E04         7.000    26916942.299 3                     -3392.343 3        22.571                                                                    26916918.786 4 105627760.16004     -2532.782 4        25.023    26916937.277 5 108383346.27805     -2598.919 5        30.151
G03         8.000    21564698.481 6 113323392.54706     -3181.903 6        40.820                                    21564694.699 5  88303880.41205     -2479.405 5        31.072    21564696.838 5  88303838.36205     -2479.399 5        32.072
G09         9.000    20442775.685 7 107427505.58707       364.195 7        45.041                                    20442775.040 7  83709755.09807       283.789 7        45.764    20442774.213 7  83709746.09807       283.712 7        45.011
G04        11.000    20332532.641 8 106848207.56108     -1521.901 8        48.396                                    20332529.985 6  83258290.25506     -1185.895 6        37.440    20332529.503 7  83258309.23807     -1185.917 7        46.689
E09        12.000    23836553.313 7 125261892.37607     -1692.083 7        47.332                                                                    23836552.541 8  93539821.66008     -1263.524 8        49.942    23836550.912 8  95979967.73908     -1296.575 8        48.704
E06        14.000    24811367.012 7 130384649.18707     -2717.036 7        42.059                                                                    24811366.185 7  97365144.55307     -2028.948 7        44.713    24811365.198 7  99905073.13007     -2081.992 7        43.524
E11        15.000    27521250.388 3                     -4036.483 3        21.071                                                                    27521257.401 4                     -3013.701 4        27.054    27521259.326 3                     -3091.437 3        23.790
E15        16.000    28451323.475 5                      2126.600 5        33.317                                                                    28451323.865 5 111649111.14705      1588.280 5        30.498    28451324.669 5 114561715.28205      1629.486 5        31.804
G06        19.000    21631358.706 6 113673536.47006       526.676 6        39.000                                    21631355.063 5  88576769.15405       410.391 5        30.015    21631358.334 6  88576793.17806       410.559 6        36.681
E36        20.000    24259501.451 7 127484678.05407     -2572.306 7        47.274                                                                    24259501.975 8  95199477.78408     -1920.886 8        49.574    24259501.532 8  97682973.61608     -1971.004 8        49.037
E05        21.000    23107228.645 7 121429328.74707       917.149 7        42.830                                                                    23107227.782 7  90677774.97107       684.874 7        42.483    23107226.868 7  93043269.50607       702.818 7        45.380
G17        22.000    24999098.176 4                     -3733.561 4        28.578
R07        23.000    20514133.904 8 109813888.90608      1006.193 8        50.625                                                                    20514134.007 6  85410722.85006       782.593 6        38.102
S23        24.000    38337166.857 6 201463091.56206      -820.352 6        39.739
S36        25.000    38392979.101 6 201756398.34606      -824.579 6        37.289
G11        26.000    24388361.959 5 128161740.11605      2401.606 5        35.057                                    24388352.249 2  99866266.46202      1871.369 2        15.381    24388353.419 6  99866236.47906      1871.447 6        38.477
R15        28.000    22517252.938 5                     -1769.749 5        32.341                                                                    22517251.146 5                     -1376.201 5        31.562
R06        29.000    19878540.529 5 106075714.59015     -1965.819 5        33.958
C19        33.000                                                                                                                                    22095178.072 7 115055387.94707      -623.341 7        46.489                                                                    22095172.110 8  93491893.54808      -506.428 8        48.029
R21        34.000    21804449.703 6 116679987.40406     -4878.856 6        36.756
R22        37.000    20305436.258 8 108391742.33208      -928.975 8        48.065                                                                    20305434.358 7  84304714.69407      -722.485 7        43.960
C39        38.000                                                                                                                                    39923885.472 4                     -1849.261 4        27.904                                                                    39923860.986 4 168930925.34104     -1502.490 4        29.621
R16        39.000                                                                                                                                    22124557.736 4                      1447.211 4        29.308
C06        41.000                                                                                                                                    38739391.827 5 201726237.32705     -1464.149 5        31.192    38739407.460 5                     -1132.633 5        30.257    38739389.895 5 163919017.89105     -1190.192 5        31.441
R08        42.000    24312162.557 4                      2475.789 4        25.414
R23        44.000    22519357.056 7 120463522.02707      2436.629 7        42.612
C16        45.000                                                                                                                                    39288303.642 5 204584655.56205     -1528.292 5        30.491    39288306.835 4                     -1182.064 4        25.519    39288305.663 5                     -1241.863 5        30.000
C09        46.000                                                                                                                                    38665493.679 6 201341380.54806      -984.902 6        38.036    38665489.476 6 155689929.74806      -761.619 6        39.847    38665486.263 5 163606337.32405      -800.396 5        35.010
C44        48.000                                                                                                                                    24318001.976 6 126630309.70906      -196.248 6        36.767                                                                    24318007.956 5 102897398.93105      -159.763 5        31.585
C37        49.000                                                                                                                                    24899009.222 5 129655771.97605      -880.715 5        34.348                                                                    24899007.917 6 105355882.73506      -715.730 6        37.327
C22        50.000                                                                                                                                    24341131.272 6 126750655.67206      1615.906 6        38.598                                                                    24341119.071 5                      1313.028 5        30.898
