     3.04           OBSERVATION DATA    M                   RINEX VERSION / TYPE
ssrcrin-15.6.1x                         20250101 051500 UTC PGM / RUN BY / DATE 
(00000000023479385599111004) Septentrio proprietary         COMMENT             
ract                                                        MARKER NAME         
01                                                          MARKER NUMBER       
geodetic                                                    MARKER TYPE         
NFB                 CLIMERS@TUW                             OBSERVER / AGENCY   
3296359             SEPT ASTERX SB3 PROB4.14.4              REC # / TYPE / VERS 
Unknown             Unknown                                 ANT # / TYPE        
  4127445.1776  1206914.7046  4695542.9668                  APPROX POSITION XYZ 
        0.0000        0.0000        0.0000                  ANTENNA: DELTA H/E/N
G   23 X1  C1C L1C D1C S1C C1W S1W C2W L2W D2W S2W C2L L2L  SYS / # / OBS TYPES 
       D2L S2L C5Q L5Q D5Q S5Q C1L L1L D1L S1L              SYS / # / OBS TYPES 
E   21 X1  C1C L1C D1C S1C C6C L6C D6C S6C C5Q L5Q D5Q S5Q  SYS / # / OBS TYPES 
       C7Q L7Q D7Q S7Q C8Q L8Q D8Q S8Q                      SYS / # / OBS TYPES 
S    9 X1  C1C L1C D1C S1C C5I L5I D5I S5I                  SYS / # / OBS TYPES 
R   17 X1  C1C L1C D1C S1C C2P L2P D2P S2P C2C L2C D2C S2C  SYS / # / OBS TYPES 
       C3Q L3Q D3Q S3Q                                      SYS / # / OBS TYPES 
C   25 X1  C1P L1P D1P S1P C5P L5P D5P S5P C2I L2I D2I S2I  SYS / # / OBS TYPES 
       C7I L7I D7I S7I C6I L6I D6I S6I C7D L7D D7D S7D      SYS / # / OBS TYPES 
J   17 X1  C1C L1C D1C S1C C2L L2L D2L S2L C5Q L5Q D5Q S5Q  SYS / # / OBS TYPES 
       C1L L1L D1L S1L                                      SYS / # / OBS TYPES 
I    5 X1  C5A L5A D5A S5A                                  SYS / # / OBS TYPES 
SEPTENTRIO RECEIVERS OUTPUT ALIGNED CARRIER PHASES.         COMMENT             
NO FURTHER PHASE SHIFT APPLIED IN THE RINEX ENCODER.        COMMENT             
G L1C                                                       SYS / PHASE SHIFT   
G L2W                                                       SYS / PHASE SHIFT   
G L2L  0.00000                                              SYS / PHASE SHIFT   
G L5Q  0.00000                                              SYS / PHASE SHIFT   
G L1L  0.00000                                              SYS / PHASE SHIFT   
E L1C  0.00000                                              SYS / PHASE SHIFT   
E L6C  0.00000                                              SYS / PHASE SHIFT   
E L5Q  0.00000                                              SYS / PHASE SHIFT   
E L7Q  0.00000                                              SYS / PHASE SHIFT   
E L8Q  0.00000                                              SYS / PHASE SHIFT   
S L1C                                                       SYS / PHASE SHIFT   
S L5I                                                       SYS / PHASE SHIFT   
R L1C                                                       SYS / PHASE SHIFT   
R L2P  0.00000                                              SYS / PHASE SHIFT   
R L2C                                                       SYS / PHASE SHIFT   
R L3Q  0.00000                                              SYS / PHASE SHIFT   
C L1P  0.00000                                              SYS / PHASE SHIFT   
C L5P  0.00000                                              SYS / PHASE SHIFT   
C L2I                                                       SYS / PHASE SHIFT   
C L7I                                                       SYS / PHASE SHIFT   
C L6I                                                       SYS / PHASE SHIFT   
C L7D                                                       SYS / PHASE SHIFT   
J L1C                                                       SYS / PHASE SHIFT   
J L2L  0.00000                                              SYS / PHASE SHIFT   
J L5Q  0.00000                                              SYS / PHASE SHIFT   
J L1L  0.00000                                              SYS / PHASE SHIFT   
I L5A                                                       SYS / PHASE SHIFT   
  2025     1     1     5    15    0.0000000     GPS         TIME OF FIRST OBS   
 C1C    0.000 C2C    0.000 C2P    0.000                     GLONASS COD/PHS/BIS 
DBHZ                                                        SIGNAL STRENGTH UNIT
    18                                                      LEAP SECONDS        
 24 R01  1 R02 -4 R03  5 R04  6 R05  1 R06 -4 R07  5 R08  6 GLONASS SLOT / FRQ #
    R09 -2 R10 -7 R11  0 R12 -1 R13 -2 R14 -7 R15  0 R16 -1 GLONASS SLOT / FRQ #
    R17  4 R18 -3 R19  3 R20  2 R21  4 R22 -3 R23  3 R24  2 GLONASS SLOT / FRQ #
                                                            END OF HEADER       
> 2025 01 01 05 15  0.0000000  0 37
G16         1.000    23787247.073 3                     -1935.107 3        22.457
G30         3.000    22181920.146 6 116566711.40906      1929.517 6        38.850                                    22181898.649 4  90831245.50904      1503.498 4        26.695    22181903.531 5  90831230.54105      1503.671 5        35.262
G07         5.000    20945696.498 8 110070403.61808      -238.106 8        50.055                                    20945689.950 7  85769148.51207      -185.537 7        44.643    20945691.491 7  85769120.51507      -185.622 7        43.348
E34         6.000    25151796.988 6 132173775.66606     -2964.982 6        41.566                                                                    25151792.050 6  98701089.67806     -2214.125 6        37.183    25151793.730 7 101275856.12107     -2271.959 7        44.248
G05         7.000    24662984.264 5                      2807.013 5        30.257                                                                                                    24662996.512 5 100990859.05505      2187.285 5        32.545
G09         9.000    20891507.849 7 109785605.48907     -2594.588 7        47.266                                    20891506.023 7  85547234.72207     -2021.756 7        46.894    20891505.690 7  85547225.72307     -2021.920 7        44.599
G04        11.000                                                                                                                                                                    22920142.439 4                     -2838.014 4        25.008
E09        12.000    25949622.596 7 136366133.93707     -2927.054 7        42.593                                                                    25949622.130 7 101831946.83607     -2185.895 7        45.344    25949622.510 7 104488409.70207     -2242.890 7        44.340
E31        13.000    26397314.725 5 138718822.22605      -425.766 5        34.138                                                                    26397324.041 5 103588769.93005      -317.930 5        34.395    26397340.882 4                      -326.455 4        26.754
E24        15.000                                                                                                                                    26952222.251 4                      1301.477 4        27.293    26952182.364 4 108525295.41104      1335.781 4        24.571
E15        16.000    25581564.597 6 134432033.55006      -184.881 6        39.856                                                                    25581556.139 6 100387561.07506      -138.097 6        38.850    25581556.567 5 103006384.62505      -141.846 5        35.557
G06        19.000    22855962.014 7 120108876.53407     -3768.863 7        42.847                                    22855957.842 4  93591326.23204     -2936.771 4        29.052    22855958.142 6  93591347.24806     -2936.868 6        36.507
E36        20.000    27997075.915 4                     -4146.638 4        25.158                                                                                                                                    27997075.659 3                     -3177.347 3        22.971
E05        21.000    21925453.290 7 115219031.93007      -888.973 7        46.667                                                                    21925452.278 8  86040240.47208      -663.830 8        48.435    21925450.856 7  88284755.69407      -681.192 7        46.718
R07        23.000    19815567.228 7 106074375.09007     -1828.723 7        47.657                                                                    19815565.951 6  82502217.00406     -1422.307 6        41.971
S23        24.000    38261541.448 6 201065675.91706      -827.465 6        40.455
S36        25.000    38323153.177 5 201389582.11605      -831.199 5        33.240
G11        26.000    22308968.968 7 117234122.24707     -1605.083 7        44.242                                    22308957.055 3  91351472.56703     -1250.701 3        23.943    22308961.632 6  91351465.54906     -1250.663 6        39.294
E03        27.000    25594333.368 7 134499129.43207      1163.421 7        43.852                                                                    25594331.939 6 100437690.13206       868.813 6        40.188    25594332.153 5 103057840.54205       891.422 5        32.766
R10        30.000    21587149.147 6 115071645.75406      3049.449 6        36.832
R24        31.000    22690642.868 7 121337028.09207       433.742 7        43.537                                                                    22690637.403 6  94373372.83906       337.452 6        41.449
R09        32.000    20122013.044 7 107450425.03007       -72.062 7        44.585                                                                    20122011.999 6  83572543.04306       -56.026 6        37.285
C19        33.000                                                                                                                                    23170122.209 7 120652893.41407     -2665.972 7        45.243                                                                    23170115.800 5  98040322.77105     -2166.416 5        35.305
C34        34.000                                                                                                                                    25719745.485 5 133929514.45705     -1425.281 5        32.359                                                                    25719751.384 6 108828673.19606     -1158.510 6        41.170
R08        35.000    20470702.756 8 109619722.07508      1242.235 8        49.503                                                                    20470700.228 7  85259768.68207       966.164 7        46.029
C05        36.000                                                                                                                                                                                                    39327348.250 5 158354944.21605      -679.908 5        33.725
R22        37.000    23916378.885 3                     -5077.932 3        20.571
R16        39.000    22403401.254 6 119675308.95806     -4003.197 6        36.378                                                                    22403394.403 5                     -3113.415 5        30.091
C06        41.000                                                                                                                                                                                                    39937639.877 4                     -1456.445 4        27.629
C36        42.000                                                                                                                                    22843115.010 8 118950079.17308      1264.992 8        49.436                                                                    22843119.442 8  96656730.80108      1027.832 8        50.039
R23        44.000    21989567.046 6 117629333.81506     -3547.819 6        37.573
C09        46.000                                                                                                                                    39319768.419 4 204748325.06004     -1582.713 4        24.090    39319760.299 5 158324375.05605     -1223.528 5        33.772    39319749.107 3                     -1285.250 3        23.581
C44        48.000                                                                                                                                    25899598.041 5                     -3373.195 5        30.521
C22        50.000                                                                                                                                    21803827.465 8 113538219.62308       116.435 8        51.362                                                                    21803820.798 7  92259094.95607        94.513 7        47.760
C12        56.000                                                                                                                                    25497700.537 6 132773182.48406     -2562.767 6        37.849    25497694.372 6 102668632.17606     -1981.540 6        38.997    25497691.139 5 107889141.75805     -2082.185 5        34.876
I09        59.000    38314162.193 5                     -1075.867 5        33.982
I06        60.000    38075608.909 6 149416869.72406      -609.822 6        36.771
> 2025 01 01 05 15  5.0000000  0 38
G16         1.000    23789097.765 4                     -1939.199 4        25.023
G30         3.000    22180093.399 6 116557067.28306      1927.728 6        36.125                                    22180064.001 4  90823730.66404      1502.126 4        24.256    22180067.407 5  90823715.68505      1502.221 5        35.752
G07         5.000    20945923.836 8 110071599.93408      -240.651 8        49.936                                    20945918.016 7  85770080.70207      -187.524 7        45.287    20945919.363 7  85770052.71107      -187.595 7        43.441
E34         6.000    25154618.589 6 132188605.08606     -2967.003 6        41.139                                                                    25154615.503 6  98712163.58306     -2215.656 6        38.474    25154616.182 7 101287218.92307     -2273.396 7        44.572
G05         7.000    24660313.874 5                      2806.865 5        30.038                                                                                                    24660328.860 5 100979922.90505      2186.930 5        32.114
G09         9.000    20893977.197 7 109798582.04307     -2596.264 7        46.895                                    20893975.392 7  85557346.32107     -2023.061 7        46.659    20893974.860 7  85557337.31607     -2022.990 7        44.214
G20        10.000    21861052.698 7 114880519.89317      1606.380 7        42.233                                    21861034.776 3  89517328.07813      1251.740 3        18.239
G04        11.000                                                                                                                                                                    22923613.634 4                     -2838.479 4        24.872
E09        12.000    25952407.563 7 136380770.21707     -2927.628 7        43.183                                                                    25952407.348 7 101842876.53107     -2186.281 7        45.389    25952407.823 7 104499624.51107     -2243.180 7        44.182
E31        13.000    26397720.189 5 138720957.14605      -428.443 5        32.916                                                                    26397729.224 5 103590364.29005      -319.995 5        34.910    26397748.891 4                      -328.236 4        26.216
E24        15.000                                                                                                                                    26950561.906 4                      1300.574 4        28.464    26950523.096 3 108518620.35603      1335.525 3        23.467
E15        16.000    25581742.375 6 134432963.76406      -187.356 6        38.556                                                                    25581733.216 6 100388255.75006      -140.035 6        38.102    25581731.363 5 103007097.38505      -143.673 5        34.919
G06        19.000    22859548.709 7 120127724.48207     -3770.697 7        43.086                                    22859543.922 4  93606012.93404     -2938.200 4        29.526    22859543.923 5  93606033.91705     -2938.129 5        35.781
E36        20.000    28001021.813 4                     -4147.056 4        24.195                                                                                                                                    28001026.583 3                     -3177.225 3        23.181
E05        21.000    21926299.781 7 115223478.61507      -890.049 7        47.182                                                                    21926298.500 8  86043561.05408      -664.614 8        48.351    21926297.183 7  88288162.89407      -681.969 7        46.984
R07        23.000    19817276.008 8 106083523.27808     -1830.772 8        48.106                                                                    19817274.496 6  82509332.27006     -1424.083 6        41.526
S23        24.000    38262330.913 6 201069812.71706      -827.493 6        40.396
S36        25.000    38323936.453 5 201393737.34305      -831.441 5        33.293
G11        26.000    22310497.220 7 117242154.55707     -1608.305 7        44.405                                    22310486.425 4  91357731.50304     -1253.221 4        24.541    22310489.967 6  91357724.49806     -1253.062 6        40.250
E03        27.000    25593226.541 7 134493313.42507      1162.667 7        43.917                                                                    25593225.184 6 100433347.01806       868.229 6        40.617    25593226.061 5 103053384.13905       890.725 5        33.713
R10        30.000    21584291.160 6 115056403.73106      3047.172 6        37.267
R24        31.000    22690236.283 7 121334869.45107       429.424 7        44.147                                                                    22690233.881 6  94371693.90006       334.109 6        40.572
R09        32.000    20122082.198 7 107450795.57407       -76.576 7        45.085                                                                    20122082.640 6  83572831.26906       -59.504 6        37.834
C19        33.000                                                                                                                                    23172682.632 7 120666226.18607     -2667.427 7        45.350                                                                    23172676.364 5  98051156.72805     -2167.014 5        34.900
C34        34.000                                                                                                                                    25721114.727 5 133936648.57605     -1428.339 5        31.049                                                                    25721121.298 6 108834470.25006     -1160.541 6        40.577
R08        35.000    20469544.082 8 109613513.64008      1240.827 8        50.594                                                                    20469540.766 7  85254939.89207       965.193 7        46.252
C05        36.000                                                                                                                                                                                                    39328192.734 5 158358343.23905      -679.865 5        33.605
R22        37.000    23921147.218 3                     -5079.645 3        20.524                                                                    23921161.996 3                     -3948.776 3        20.000
R16        39.000    22407147.733 5 119695331.39215     -4006.283 5        34.571                                                                    22407141.430 5                     -3115.788 5        30.415
C06        41.000                                                                                                                                                                                                    39939446.779 4                     -1456.110 4        27.796
C36        42.000                                                                                                                                    22841901.522 8 118943759.05308      1262.817 8        49.145                                                                    22841905.798 8  96651595.19908      1026.190 8        50.028
R23        44.000    21992882.326 6 117647079.87106     -3551.171 6        36.650
C09        46.000                                                                                                                                    39321287.124 3 204756237.12103     -1582.337 3        23.371    39321279.519 5 158330493.18605     -1223.800 5        33.210    39321268.296 3                     -1286.827 3        23.524
C44        48.000                                                                                                                                    25902838.510 4                     -3373.899 4        29.772
C22        50.000                                                                                                                                    21803716.372 8 113537640.77208       114.833 8        51.564                                                                    21803709.590 7  92258624.60907        93.370 7        47.751
C12        56.000                                                                                                                                    25500161.617 6 132786000.09006     -2564.773 6        37.599    25500157.399 6 102678543.58206     -1983.225 6        38.541    25500152.688 5 107899557.15805     -2084.029 5        34.305
I09        59.000    38315533.982 5                     -1075.872 5        33.455
I06        60.000    38076385.892 6 149419917.90106      -609.792 6        36.904
> 2025 01 01 05 15 10.0000000  0 38
G16         1.000    23790944.657 4                     -1943.075 4        26.922
G30         3.000    22178265.359 4 116547432.55904      1925.635 4        29.374                                    22178230.855 3  90816223.17903      1500.479 3        20.976    22178234.093 5  90816208.20405      1500.934 5        35.900
G07         5.000    20946154.051 8 110072809.36308      -243.121 8        49.845                                    20946148.604 7  85771023.11207      -189.443 7        45.893    20946149.221 7  85770995.11507      -189.364 7        43.589
E34         6.000    25157441.334 6 132203444.53706     -2968.925 6        39.312                                                                    25157440.061 6  98723244.95706     -2216.851 6        39.652    25157440.431 7 101298589.40107     -2274.820 7        44.883
G05         7.000    24657644.172 5                      2805.768 5        31.879                                                                                                    24657663.170 5 100968988.95705      2186.427 5        30.234
G09         9.000    20896447.945 7 109811567.16107     -2597.696 7        46.516                                    20896446.232 7  85567464.58507     -2024.179 7        46.422    20896445.084 7  85567455.59707     -2024.277 7        43.496
G20        10.000    21859527.054 7 114872492.64607      1604.449 7        44.020                                    21859506.975 3  89511073.01903      1250.206 3        19.343
E09        12.000    25955193.207 7 136395409.28907     -2927.980 7        43.367                                                                    25955193.157 7 101853808.30207     -2186.538 7        45.631    25955193.554 7 104510841.46507     -2243.613 7        43.833
E31        13.000    26398124.031 5 138723104.78005      -430.487 5        31.645                                                                    26398137.431 5 103591968.02705      -321.689 5        35.619    26398157.807 4                      -329.348 4        24.737
E24        15.000                                                                                                                                    26948904.602 4                      1299.897 4        28.834    26948862.923 3                      1334.822 3        22.038
E15        16.000    25581918.455 6 134433907.05306      -190.012 6        36.382                                                                    25581912.624 6 100388960.15906      -141.948 6        38.021    25581909.490 5 103007820.17905      -145.419 5        34.552
G06        19.000    22863137.046 7 120146582.06207     -3772.423 7        42.802                                    22863132.006 4  93620707.13704     -2939.542 4        29.991    22863133.665 5  93620728.15705     -2939.707 5        35.833
E36        20.000    28004967.278 4                     -4146.564 4        24.226
E05        21.000    21927147.308 7 115227931.42707      -891.104 7        47.162                                                                    21927145.916 8  86046886.20508      -665.443 8        48.382    21927144.497 7  88291574.78307      -682.792 7        46.995
R07        23.000    19818987.268 8 106092682.80008     -1832.845 8        48.244                                                                    19818987.019 7  82516456.34307     -1425.582 7        42.595
S23        24.000    38263119.278 6 201073950.20106      -827.494 6        40.474
S36        25.000    38324734.812 5 201397893.72205      -831.365 5        33.347
G11        26.000    22312028.326 7 117250203.86907     -1611.467 7        43.973                                    22312019.016 4  91364003.68804     -1255.693 4        25.023    22312021.342 6  91363996.70606     -1255.673 6        41.216
E03        27.000    25592120.181 7 134487501.31107      1162.172 7        42.918                                                                    25592119.479 6 100429006.80106       867.845 6        41.395    25592121.070 5 103048930.71905       890.324 5        34.414
R10        30.000    21581434.239 6 115041173.65706      3044.852 6        36.367
R24        31.000    22689836.357 7 121332732.47007       425.323 7        44.265                                                                    22689834.258 6  94370031.81206       330.763 6        40.858
R09        32.000    20122158.633 7 107451189.18607       -80.953 7        45.770                                                                    20122157.399 6  83573137.40306       -62.796 6        38.946
C19        33.000                                                                                                                                    23175243.957 7 120679566.34107     -2668.657 7        45.926                                                                    23175238.395 5  98061996.72705     -2168.670 5        34.843
C34        34.000                                                                                                                                                                                                                                                                    25722493.903 6 108840278.17106     -1162.693 6        40.219
R08        35.000    20468386.892 8 109607312.97108      1239.449 8        51.617                                                                    20468382.864 7  85250117.12807       964.006 7        46.403
C05        36.000                                                                                                                                                                                                    39329036.686 5 158361742.73105      -679.824 5        33.611
R22        37.000    23925910.708 3                     -5079.276 3        20.286
R16        39.000    22410900.548 4 119715369.33804     -4009.014 4        29.810                                                                    22410896.739 5                     -3118.220 5        30.408
C06        41.000                                                                                                                                                                                                    39941252.157 4                     -1456.286 4        27.353
C36        42.000                                                                                                                                    22840689.652 8 118937450.49308      1260.643 8        48.802                                                                    22840694.388 8  96646468.97308      1024.369 8        50.048
R23        44.000    21996200.894 5 117664843.19905     -3554.327 5        34.038
C09        46.000                                                                                                                                    39322805.904 4 204764150.60504     -1582.917 4        24.481    39322798.784 5 158336612.31105     -1223.802 5        33.455    39322788.540 4                     -1286.042 4        24.647
C21        47.000                                                                                                                                                                                                                                                                    25491583.129 5 107863235.83115      1602.693 5        32.269
C44        48.000                                                                                                                                    25906078.988 4                     -3374.997 4        28.891
C22        50.000                                                                                                                                    21803607.048 8 113537070.17508       113.401 8        51.778                                                                    21803600.034 7  92258160.95707        92.055 7        47.931
C12        56.000                                                                                                                                    25502623.926 6 132798828.76906     -2566.653 6        37.263    25502622.540 6 102688463.55006     -1984.868 6        37.433    25502617.089 5 107909981.54105     -2085.769 5        34.395
I09        59.000    38316905.129 5                     -1076.023 5        33.245
I06        60.000    38077162.864 6 149422966.69106      -609.790 6        36.783
> 2025 01 01 05 15 15.0000000  0 39
G16         1.000    23792799.370 5                     -1946.862 5        30.075
G30         3.000                                                                                                                                                                    22176401.425 5  90808707.80205      1499.203 5        34.681
G07         5.000    20946386.622 8 110074031.61708      -245.929 8        50.087                                    20946381.625 7  85771975.51807      -191.630 7        46.305    20946382.357 7  85771947.51607      -191.693 7        43.342
E34         6.000    25160266.186 6 132218293.56806     -2971.099 6        36.677                                                                    25160265.797 6  98734333.51006     -2218.556 6        40.498    25160266.442 7 101309967.22607     -2276.466 7        45.126
G05         7.000    24654977.198 5                      2805.380 5        33.317                                                                                                    24654994.822 4 100958056.93004      2186.488 4        29.488
G09         9.000    20898920.231 7 109824560.40007     -2599.647 7        46.808                                    20898918.475 7  85577589.18807     -2025.700 7        46.128    20898917.937 7  85577580.18907     -2025.695 7        42.889
G20        10.000    21857995.658 7 114864475.62507      1602.151 7        44.408                                    21857980.976 3  89504826.00103      1248.420 3        20.000
G04        11.000    22930526.362 5                     -3644.884 5        32.479                                                                                                    22930564.534 4                     -2840.241 4        27.090
E09        12.000    25957979.373 7 136410050.73607     -2928.652 7        43.460                                                                    25957979.411 7 101864741.84407     -2187.020 7        45.965    25957979.841 7 104522060.23207     -2244.106 7        43.598
E31        13.000    26398540.012 5 138725264.62205      -433.416 5        32.503                                                                    26398547.858 6 103593580.94206      -323.621 6        36.038    26398567.560 4                      -331.723 4        24.977
E24        15.000                                                                                                                                    26947248.930 4                      1298.685 4        27.114    26947205.243 3                      1331.076 3        22.229
E15        16.000    25582099.564 5 134434862.96905      -192.468 5        33.934                                                                    25582094.517 6 100389674.02906      -143.822 6        37.868    25582091.526 5 103008552.66605      -147.498 5        33.545
G06        19.000    22866727.474 7 120165448.85907     -3774.493 7        42.252                                    22866722.147 4  93635408.51904     -2941.159 4        29.943    22866725.073 6  93635429.50806     -2940.866 6        36.151
E36        20.000    28008913.776 4                     -4147.054 4        24.256                                                                                                                                    28008936.723 4                     -3178.443 4        24.602
E05        21.000    21927995.449 7 115232389.93007      -892.474 7        46.726                                                                    21927994.283 8  86050215.60308      -666.413 8        48.513    21927992.895 7  88294991.04007      -683.894 7        47.011
R07        23.000    19820700.758 7 106101853.02507     -1835.324 7        47.830                                                                    19820700.559 7  82523588.72607     -1427.468 7        43.202
S23        24.000    38263905.014 6 201078087.91706      -827.725 6        40.577
S36        25.000    38325524.389 5 201402050.30005      -831.446 5        33.455
G11        26.000    22313563.190 7 117258269.79707     -1615.090 7        42.144                                    22313554.790 4  91370288.82204     -1258.513 4        25.038    22313555.776 6  91370281.82906     -1258.444 6        40.896
E03        27.000    25591014.437 6 134481692.64706      1161.271 6        41.669                                                                    25591014.370 7 100424669.17107       867.080 7        42.099    25591016.066 5 103044479.94005       889.708 5        34.905
R10        30.000    21578577.533 5 115025955.17805      3042.289 5        33.742
R24        31.000    22689440.226 7 121330616.82107       420.839 7        42.106                                                                    22689438.712 6  94368386.34106       327.289 6        40.570
R09        32.000    20122238.444 7 107451605.33107       -85.629 7        44.808                                                                    20122235.617 6  83573461.06406       -66.576 6        40.501
C19        33.000                                                                                                                                    23177807.519 7 120692913.47307     -2670.344 7        46.430                                                                    23177801.696 5  98072842.34605     -2169.950 5        35.176
C34        34.000                                                                                                                                    25723890.755 5 133950956.64205     -1433.816 5        30.989                                                                    25723868.543 6 108846096.63106     -1164.983 6        39.444
R08        35.000    20467230.898 8 109601119.63908      1237.725 8        51.662                                                                    20467225.924 7  85245300.09407       962.679 7        46.127
C05        36.000                                                                                                                                                                                                    39329881.250 5 158365142.41005      -680.174 5        33.677
R22        37.000                                                                                                                                    23930671.756 3                     -3951.137 3        20.857
R16        39.000                                                                                                                                    22414653.027 5                     -3120.715 5        31.147
C06        41.000                                                                                                                                                                                                    39943060.047 4                     -1456.086 4        27.186
C36        42.000                                                                                                                                    22839479.667 8 118931153.07508      1258.188 8        48.353                                                                    22839485.028 8  96641351.79508      1022.359 8        49.859
R23        44.000    21999525.205 5 117682623.47005     -3558.016 5        33.503
C09        46.000                                                                                                                                    39324323.949 4 204772064.93004     -1583.267 4        24.376    39324318.376 5 158342732.14705     -1224.102 5        33.551    39324309.147 4                     -1286.653 4        25.173
C21        47.000                                                                                                                                                                                                                                                                    25489690.702 5 107855223.39205      1601.998 5        32.916
C44        48.000                                                                                                                                    25909320.038 4                     -3376.578 4        27.737
C22        50.000                                                                                                                                    21803498.920 8 113536507.44008       111.613 8        51.958                                                                    21803491.861 7  92257703.67407        90.675 7        47.932
C12        56.000                                                                                                                                    25505088.334 6 132811668.05606     -2569.030 6        36.336    25505085.202 5 102698391.67705     -1986.588 5        35.948    25505083.068 5 107920414.47605     -2087.555 5        34.348
I09        59.000    38318276.027 5 150369138.66915     -1076.643 5        32.778
I06        60.000    38077939.658 6 149426015.75806      -609.846 6        36.775
> 2025 01 01 05 15 20.0000000  0 39
G16         1.000    23794659.892 5                     -1949.899 5        31.660
G30         3.000    22174576.118 5 116528190.42105      1922.240 5        35.552                                    22174569.571 3  90801229.54803      1497.857 3        20.952    22174570.575 5  90801214.59105      1497.910 5        33.437
G07         5.000    20946621.695 8 110075266.86808      -248.506 8        49.920                                    20946617.056 7  85772938.04607      -193.639 7        46.507    20946617.604 7  85772910.04807      -193.689 7        43.145
E34         6.000    25163093.839 5 132233152.35305     -2972.727 5        34.267                                                                    25163093.291 6  98745429.36506     -2220.068 6        41.213    25163094.222 7 101321352.54207     -2277.978 7        45.720
G05         7.000    24652307.331 5                      2805.124 5        33.545                                                                                                    24652322.485 4 100947127.19504      2185.235 4        28.673
G09         9.000    20901394.875 7 109837561.96307     -2601.363 7        47.087                                    20901392.177 7  85587720.27907     -2027.036 7        45.752    20901392.204 7  85587711.28607     -2027.070 7        42.591
G20        10.000    21856463.027 7 114856469.07407      1600.077 7        44.178                                    21856457.091 3  89498587.14903      1246.808 3        21.429
G04        11.000    22934004.059 5 120518978.23315     -3645.770 5        34.810                                                                                                    22934039.459 4                     -2840.192 4        26.299
E09        12.000    25960765.999 7 136424694.74807     -2929.216 7        43.827                                                                    25960766.372 7 101875677.29707     -2187.357 7        46.167    25960766.574 7 104533280.95607     -2244.465 7        43.437
E31        13.000    26398961.733 5 138727436.88905      -435.646 5        33.904                                                                    26398961.571 5 103595203.11505      -325.346 5        35.695    26398976.539 4                      -333.555 4        24.466
E24        15.000                                                                                                                                    26945595.793 4                      1298.612 4        25.504    26945548.601 3                      1331.944 3        21.143
E15        16.000    25582288.559 5 134435831.77005      -194.990 5        32.647                                                                    25582278.837 6 100390397.52006      -145.901 6        37.743    25582276.572 5 103009295.03305      -149.477 5        33.539
G06        19.000    22870319.828 6 120184325.04206     -3776.240 6        41.714                                    22870314.299 4  93650117.20704     -2942.517 4        29.592    22870317.070 6  93650138.21306     -2942.505 6        36.681
E36        20.000    28012860.206 3                     -4147.137 3        23.771                                                                                                                                    28012878.981 4                     -3177.842 4        25.143
E05        21.000    21928844.722 7 115236854.31807      -893.565 7        46.658                                                                    21928843.777 8  86053549.39908      -667.304 8        48.486    21928842.331 7  88298411.80007      -684.735 7        47.297
R07        23.000    19822416.412 8 106111034.25008     -1837.504 8        48.035                                                                    19822415.617 7  82530729.68407     -1429.136 7        43.788
S23        24.000    38264690.338 6 201082225.80206      -827.930 6        40.534
S36        25.000    38326316.689 5 201406206.85705      -831.609 5        33.575
G11        26.000    22315100.471 6 117266352.46806     -1618.360 6        41.492                                    22315093.713 4  91376587.01204     -1261.060 4        25.549    22315094.123 6  91376580.00606     -1261.083 6        41.292
E03        27.000    25589909.189 6 134475887.65606      1160.376 6        41.128                                                                    25589910.200 7 100420334.26507       866.603 7        42.483    25589911.955 5 103040031.95005       889.205 5        35.719
R10        30.000    21575721.747 4 115010748.38204      3040.248 4        29.754
R24        31.000    22689043.772 6 121328522.53406       416.562 6        39.321                                                                    22689047.432 6  94366757.46206       323.885 6        41.046
R09        32.000    20122320.492 7 107452044.27407       -90.246 7        43.450                                                                    20122318.680 6  83573802.49606       -70.167 6        41.123
C19        33.000                                                                                                                                    23180372.343 7 120706267.75607     -2671.742 7        46.490                                                                    23180366.294 6  98083693.79806     -2171.078 6        36.011
C34        34.000                                                                                                                                    25725263.917 5 133958130.30805     -1436.216 5        30.189                                                                    25725245.699 6 108851925.82506     -1167.155 6        38.513
R08        35.000    20466074.518 8 109594933.94508      1236.211 8        51.291                                                                    20466070.289 7  85240489.00507       961.547 7        46.091
C05        36.000                                                                                                                                                                                                    39330725.931 5 158368542.35305      -679.977 5        33.898
R22        37.000                                                                                                                                    23935428.373 3                     -3949.313 3        22.133
R16        39.000    22418405.588 5                     -4015.058 5        32.515                                                                    22418412.106 5                     -3122.789 5        32.108
C06        41.000                                                                                                                                                                                                    39944870.204 4                     -1456.113 4        27.198
C36        42.000                                                                                                                                    22838272.071 7 118924867.00107      1255.912 7        47.897                                                                    22838277.996 8  96636243.85508      1020.439 8        49.824
R23        44.000    22002853.888 5 117700420.74605     -3561.200 5        35.357
C09        46.000                                                                                                                                    39325844.165 4                     -1582.642 4        24.481    39325839.482 5 158348852.84305     -1224.342 5        33.569    39325830.433 4                     -1286.366 4        25.098
C21        47.000                                                                                                                                                                                                                                                                    25487797.605 5 107847212.28205      1601.914 5        33.940
C44        48.000                                                                                                                                    25912561.602 4                     -3376.357 4        26.359
C22        50.000                                                                                                                                    21803392.268 8 113535952.73308       109.964 8        52.121                                                                    21803385.449 8  92257252.93808        89.274 8        48.028
C12        56.000                                                                                                                                    25507554.123 6 132824518.15806     -2571.304 6        36.019    25507549.066 5 102708328.16705     -1988.175 5        35.095    25507550.502 5 107930856.26305     -2089.242 5        34.505
I09        59.000    38319646.865 5 150374520.24905     -1076.506 5        32.006
I06        60.000    38078717.176 6 149429065.28606      -610.081 6        36.741
> 2025 01 01 05 15 25.0000000  0 39
G16         1.000    23796523.167 5                     -1953.357 5        32.569
G30         3.000    22172752.461 6 116518582.12906      1920.582 6        36.060                                    22172741.370 3  90793742.57603      1496.559 3        22.057    22172741.647 5  90793727.61505      1496.726 5        32.934
G07         5.000    20946858.737 8 110076513.83308      -250.795 8        49.291                                    20946854.624 7  85773909.70307      -195.427 7        46.488    20946855.077 7  85773881.70207      -195.394 7        43.697
E34         6.000    25165923.750 5 132248019.65005     -2974.674 5        30.589                                                                    25165922.454 7  98756531.55407     -2221.193 7        42.129    25165923.608 7 101332744.37207     -2279.224 7        46.243
G05         7.000    24649636.332 5                      2804.471 5        32.168                                                                                                    24649658.142 4 100936198.46004      2186.244 4        26.731
G09         9.000    20903870.182 7 109850570.56207     -2602.778 7        47.505                                    20903867.202 7  85597856.85407     -2028.136 7        45.422    20903867.304 7  85597847.84807     -2027.959 7        42.580
G20        10.000    21854939.952 7 114848471.83607      1598.323 7        43.541                                    21854934.897 3  89492355.54403      1245.459 3        21.524
G04        11.000    22937470.572 5 120537206.72005     -3646.270 5        35.633                                                                                                    22937505.306 3                     -2840.583 3        23.981
E09        12.000    25963553.084 7 136439340.06807     -2929.481 7        43.954                                                                    25963553.396 7 101886613.72907     -2187.552 7        46.483    25963553.498 7 104544502.68707     -2244.671 7        43.437
E31        13.000    26399379.915 5 138729620.40805      -438.268 5        33.862                                                                    26399377.433 5 103596833.68405      -327.217 5        35.424    26399384.932 3                      -335.617 3        23.562
E24        15.000                                                                                                                                    26943943.685 3                      1297.458 3        22.095    26943895.536 3                      1333.532 3        21.857
E15        16.000    25582477.192 5 134436812.22105      -197.382 5        30.860                                                                    25582465.170 6 100391129.64206      -147.544 6        37.629    25582464.234 5 103010046.26005      -151.244 5        33.683
G06        19.000    22873914.243 6 120203209.36406     -3777.982 6        41.547                                    22873908.254 4  93664832.22804     -2943.869 4        29.545    22873910.652 6  93664853.21006     -2943.865 6        37.724
E36        20.000    28016804.781 3                     -4146.241 3        22.267                                                                                                                                    28016822.483 4                     -3177.396 4        25.414
E05        21.000    21929695.003 7 115241323.35107      -894.510 7        46.362                                                                    21929694.144 8  86056886.65608      -668.001 8        48.523    21929692.705 7  88301836.11407      -685.421 7        47.600
R07        23.000    19824133.573 8 106120225.15708     -1839.410 8        48.066                                                                    19824132.525 7  82537878.16207     -1430.619 7        44.761
S23        24.000    38265478.350 6 201086362.76206      -827.490 6        40.396
S36        25.000    38327103.949 5 201410363.28905      -831.169 5        33.527
G11        26.000    22316643.310 7 117274450.64307     -1621.386 7        43.041                                    22316635.506 4  91382897.28004     -1263.424 4        26.443    22316636.071 7  91382890.28307     -1263.500 7        42.011
E03        27.000    25588804.550 6 134470085.04906      1160.052 6        40.102                                                                    25588806.273 7 100416001.13107       866.294 7        43.289    25588807.902 6 103035585.81006       888.617 6        36.469
R10        30.000    21572866.804 4 114995552.17004      3037.579 4        24.797
R24        31.000    22688654.022 6 121326448.49206       412.548 6        38.003                                                                    22688658.946 6  94365144.33906       320.845 6        41.125
R09        32.000    20122402.576 6 107452504.82406       -94.513 6        39.444                                                                    20122405.097 7  83574160.67607       -73.452 7        42.154
C19        33.000                                                                                                                                    23182937.744 7 120719627.96207     -2672.849 7        45.866                                                                    23182932.142 6  98094550.02706     -2171.910 6        37.051
C34        34.000                                                                                                                                    25726641.635 4 133965315.94804     -1438.717 4        28.739                                                                    25726625.232 6 108857764.67206     -1168.920 6        37.648
R08        35.000    20464918.668 8 109588754.49008      1234.962 8        50.610                                                                    20464916.160 7  85235682.77407       960.543 7        45.362
C05        36.000                                                                                                                                                                                                    39331570.455 5 158371941.66005      -680.043 5        33.946
R22        37.000                                                                                                                                    23940177.187 3                     -3951.378 3        23.219
R16        39.000                                                                                                                                    22422172.946 5                     -3125.101 5        31.834
C06        41.000                                                                                                                                                                                                    39946677.326 4                     -1456.671 4        27.078
C36        42.000                                                                                                                                    22837066.809 7 118918591.01207      1254.038 7        47.384                                                                    22837072.776 8  96631144.07908      1018.968 8        49.718
R23        44.000    22006185.854 6 117718233.70706     -3564.423 6        37.127
C09        46.000                                                                                                                                    39327366.268 4                     -1582.847 4        24.827    39327360.248 5 158354973.39205     -1224.108 5        33.808    39327351.916 4                     -1286.170 4        26.156
C21        47.000                                                                                                                                                                                                                                                                    25485904.670 5 107839201.47105      1601.974 5        34.333
C44        48.000                                                                                                                                    25915802.088 3                     -3377.274 3        23.486
C22        50.000                                                                                                                                    21803287.142 8 113535404.82908       108.663 8        52.064                                                                    21803280.291 8  92256807.70608        88.296 8        48.267
C12        56.000                                                                                                                                    25510024.587 6 132837377.82406     -2573.289 6        36.820    25510019.987 5 102718272.06705     -1989.774 5        34.629    25510019.772 5 107941305.78505     -2090.908 5        34.895
I09        59.000    38321018.948 5 150379901.71505     -1076.445 5        31.132
I06        60.000    38079493.247 6 149432114.27806      -609.848 6        36.616
> 2025 01 01 05 15 30.0000000  0 38
G16         1.000    23798389.484 5                     -1956.644 5        33.485
G30         3.000    22170924.024 5 116508982.80305      1918.725 5        34.871                                    22170914.815 3  90786262.65603      1495.100 3        21.262    22170915.584 5  90786247.70605      1495.341 5        32.910
G07         5.000    20947098.336 8 110077773.55908      -253.236 8        48.997                                    20947094.522 7  85774891.30207      -197.324 7        46.212    20947094.782 7  85774863.29007      -197.340 7        43.776
E34         6.000    25168762.217 4 132262896.49104     -2976.337 4        26.683                                                                    25168753.563 7  98767640.87907     -2222.534 7        42.415    25168754.803 7 101344143.50407     -2280.567 7        46.420
G05         7.000    24646966.103 4                      2804.017 4        28.882
G09         9.000    20906346.651 7 109863587.24407     -2604.209 7        47.621                                    20906343.806 7  85607999.72507     -2029.252 7        45.145    20906344.473 7  85607990.72607     -2029.189 7        42.883
G20        10.000    21853422.188 7 114840484.90807      1596.368 7        42.667                                    21853414.698 3  89486131.97003      1243.919 3        22.038
G04        11.000    22940942.329 6 120555439.07306     -3646.853 6        36.495
E09        12.000    25966340.678 7 136453987.71907     -2929.776 7        44.262                                                                    25966340.792 7 101897551.90807     -2187.813 7        46.656    25966340.784 7 104555726.20007     -2244.942 7        42.961
E31        13.000    26399796.573 5 138731816.17705      -440.275 5        33.108                                                                    26399796.588 5 103598473.34205      -328.982 5        34.514    26399799.935 3                      -338.644 3        23.638
E24        15.000                                                                                                                                    26942295.481 3                      1292.938 3        19.493    26942244.488 3                      1327.760 3        19.701
