     3.04           OBSERVATION DATA    M                   RINEX VERSION / TYPE
ssrcrin-15.6.1x                         20250101 101500 UTC PGM / RUN BY / DATE 
(00000000023479385599111004) Septentrio proprietary         COMMENT             
ract                                                        MARKER NAME         
01                                                          MARKER NUMBER       
geodetic                                                    MARKER TYPE         
NFB                 CLIMERS@TUW                             OBSERVER / AGENCY   
3296359             SEPT ASTERX SB3 PROB4.14.4              REC # / TYPE / VERS 
Unknown             Unknown                                 ANT # / TYPE        
  4127447.8403  1206915.2107  4695544.3756                  APPROX POSITION XYZ 
        0.0000        0.0000        0.0000                  ANTENNA: DELTA H/E/N
G   23 X1  C1C L1C D1C S1C C1W S1W C2W L2W D2W S2W C2L L2L  SYS / # / OBS TYPES 
       D2L S2L C5Q L5Q D5Q S5Q C1L L1L D1L S1L              SYS / # / OBS TYPES 
E   21 X1  C1C L1C D1C S1C C6C L6C D6C S6C C5Q L5Q D5Q S5Q  SYS / # / OBS TYPES 
       C7Q L7Q D7Q S7Q C8Q L8Q D8Q S8Q                      SYS / # / OBS TYPES 
S    9 X1  C1C L1C D1C S1C C5I L5I D5I S5I                  SYS / # / OBS TYPES 
R   17 X1  C1C L1C D1C S1C C2P L2P D2P S2P C2C L2C D2C S2C  SYS / # / OBS TYPES 
       C3Q L3Q D3Q S3Q                                      SYS / # / OBS TYPES 
C   25 X1  C1P L1P D1P S1P C5P L5P D5P S5P C2I L2I D2I S2I  SYS / # / OBS TYPES 
       C7I L7I D7I S7I C6I L6I D6I S6I C7D L7D D7D S7D      SYS / # / OBS TYPES 
J   17 X1  C1C L1C D1C S1C C2L L2L D2L S2L C5Q L5Q D5Q S5Q  SYS / # / OBS TYPES 
       C1L L1L D1L S1L                                      SYS / # / OBS TYPES 
I    5 X1  C5A L5A D5A S5A                                  SYS / # / OBS TYPES 
SEPTENTRIO RECEIVERS OUTPUT ALIGNED CARRIER PHASES.         COMMENT             
NO FURTHER PHASE SHIFT APPLIED IN THE RINEX ENCODER.        COMMENT             
G L1C                                                       SYS / PHASE SHIFT   
G L2W                                                       SYS / PHASE SHIFT   
G L2L  0.00000                                              SYS / PHASE SHIFT   
G L5Q  0.00000                                              SYS / PHASE SHIFT   
G L1L  0.00000                                              SYS / PHASE SHIFT   
E L1C  0.00000                                              SYS / PHASE SHIFT   
E L6C  0.00000                                              SYS / PHASE SHIFT   
E L5Q  0.00000                                              SYS / PHASE SHIFT   
E L7Q  0.00000                                              SYS / PHASE SHIFT   
E L8Q  0.00000                                              SYS / PHASE SHIFT   
S L1C                                                       SYS / PHASE SHIFT   
S L5I                                                       SYS / PHASE SHIFT   
R L1C                                                       SYS / PHASE SHIFT   
R L2P  0.00000                                              SYS / PHASE SHIFT   
R L2C                                                       SYS / PHASE SHIFT   
R L3Q  0.00000                                              SYS / PHASE SHIFT   
C L1P  0.00000                                              SYS / PHASE SHIFT   
C L5P  0.00000                                              SYS / PHASE SHIFT   
C L2I                                                       SYS / PHASE SHIFT   
C L7I                                                       SYS / PHASE SHIFT   
C L6I                                                       SYS / PHASE SHIFT   
C L7D                                                       SYS / PHASE SHIFT   
J L1C                                                       SYS / PHASE SHIFT   
J L2L  0.00000                                              SYS / PHASE SHIFT   
J L5Q  0.00000                                              SYS / PHASE SHIFT   
J L1L  0.00000                                              SYS / PHASE SHIFT   
I L5A                                                       SYS / PHASE SHIFT   
  2025     1     1    10    15    0.0000000     GPS         TIME OF FIRST OBS   
 C1C    0.000 C2C    0.000 C2P    0.000                     GLONASS COD/PHS/BIS 
DBHZ                                                        SIGNAL STRENGTH UNIT
    18                                                      LEAP SECONDS        
 24 R01  1 R02 -4 R03  5 R04  6 R05  1 R06 -4 R07  5 R08  6 GLONASS SLOT / FRQ #
    R09 -2 R10 -7 R11  0 R12 -1 R13 -2 R14 -7 R15  0 R16 -1 GLONASS SLOT / FRQ #
    R17  4 R18 -3 R19  3 R20  2 R21  4 R22 -3 R23  3 R24  2 GLONASS SLOT / FRQ #
                                                            END OF HEADER       
> 2025 01 01 10 15  0.0000000  0 35
G19         1.000    22517785.010 6 118331735.14306      1930.415 6        39.171                                    22517787.333 3  92206566.05203      1504.229 3        20.167
G13         2.000    20937834.901 7 110029046.82007     -3364.834 7        44.838                                    20937838.995 4  85736916.97804     -2621.956 4        27.293
G14         4.000    22138982.118 7 116341102.48607     -3577.460 7        43.065                                    22138984.999 3  90655436.91403     -2787.619 3        22.533    22138986.444 6  90655428.90906     -2787.479 6        39.306
G17         5.000    21962870.889 6 115415626.29506      -304.621 6        38.045                                    21962868.196 1  89934271.22701      -237.351 1        11.926
G15         6.000    20270260.522 7 106520957.86507     -1940.018 7        47.292                                    20270260.578 7  83003655.74907     -1511.698 7        46.897    20270260.917 7  83003331.73707     -1511.729 7        46.115
G12         9.000    24049362.002 4 126379995.16004      2875.534 4        28.872                                                                                                    24049327.472 4                      2240.795 4        25.338
G23        10.000    23017630.578 7 120958508.04207     -1228.120 7        42.991                                    23017635.245 1  94253330.31101      -956.890 1         9.810    23017632.256 4  94253375.34304      -957.300 4        26.407
E30        11.000    26713097.009 4                      1922.496 4        28.891                                                                    26713096.582 5 104827934.31205      1435.122 5        34.262    26713093.538 5 107562585.49505      1472.542 5        30.143
G10        12.000    24904548.846 6 130874259.73306      1134.207 6        36.219                                    24904553.404 2 101979932.47902       883.781 2        17.811    24904572.967 5                       883.909 5        33.964
E02        13.000    23208759.743 7 121962900.74407       -79.698 7        45.952                                                                    23208764.201 7  91076287.06907       -59.557 7        45.922    23208763.074 8  93452194.87708       -61.085 8        48.298
E25        14.000    24623922.141 6 129399542.68106     -2754.747 6        39.736                                                                    24623927.790 6  96629641.93306     -2057.036 6        40.212    24623930.555 7  99150337.55307     -2110.865 7        45.595
G24        16.000    21211180.746 6 111465640.07106      1521.724 6        40.601                                    21211188.108 4  86856347.46604      1185.761 4        28.427    21211183.930 5  86856279.52705      1185.520 5        32.515
E08        17.000    23431142.992 7 123131495.05107      -719.637 7        45.809                                                                    23431147.381 8  91948859.10308      -537.470 8        48.866    23431146.348 8  94347562.52908      -551.374 8        48.888
E07        18.000    26132396.604 6 137327023.87606      1651.214 6        39.685                                                                    26132406.402 7 102549176.79107      1233.184 7        45.719    26132403.265 6 105224373.16206      1265.292 6        38.784
S23        24.000    38073244.704 5 200076269.46705      -829.958 5        35.786
R20        26.000                                                                                                                                    23246711.551 4                     -1484.988 4        29.924
E03        27.000                                                                                                                                    24963535.591 7  97962286.04007     -2429.357 7        45.443    24963533.800 7 100517699.25507     -2492.729 7        46.118
R11        28.000    21943965.136 3                     -4179.480 3        20.095
R21        30.000    22734199.006 4                      1312.708 4        28.303
R12        31.000    19222868.829 8 102685131.65608     -1036.352 8        50.039                                                                    19222872.465 7  79866221.38607      -806.072 7        45.944
C10        32.000                                                                                                                                    38416977.737 5 200047292.36805      -798.818 5        32.192    38416982.959 5                      -617.868 5        32.168    38416976.668 4 162554814.13004      -649.384 4        27.713
R03        33.000    21144312.340 8 113187195.18508      2104.415 8        49.074                                                                    21144318.280 7  88034506.96607      1636.739 7        44.792
C24        34.000                                                                                                                                    23936011.062 7 124641277.67707      1699.873 7        44.042                                                                    23936005.637 5 101281088.64705      1381.336 5        32.138
C26        37.000                                                                                                                                    21607818.406 7 112517694.14307      -474.912 7        42.116                                                                    21607823.455 7  91429872.52507      -385.922 7        46.036
R01        38.000    22069891.078 6 117976224.95606     -5179.313 6        36.514                                                                    22069895.516 5  91759300.21905     -4028.518 5        34.290
C42        41.000                                                                                                                                                                                                                                                                    22804957.629 7  96495231.17807     -1709.884 7        42.709
R02        43.000    19494120.131 8 104024359.04708     -2057.506 8        50.188                                                                    19494122.876 7  80907828.70807     -1600.367 7        44.397
C40        44.000                                                                                                                                    38906707.769 6 202597438.54006     -1357.740 6        36.405                                                                    38906711.256 5 164627061.33605     -1103.146 5        30.121
C33        46.000                                                                                                                                    24532211.659 7 127745789.93407      1046.510 7        47.476                                                                    24532229.718 7 103803838.56207       850.413 7        44.575
C21        47.000                                                                                                                                    24947410.574 7 129907710.71107     -4207.689 7        42.595                                                                    24947413.386 5 105560679.56405     -3419.341 5        34.895
C14        48.000                                                                                                                                    23151341.235 5 120555134.00905      -437.376 5        33.461    23151348.862 7  93221043.31707      -338.369 7        45.055    23151343.675 6  97960913.31506      -355.469 6        38.276
C45        49.000                                                                                                                                    23489886.931 7 122317854.51807     -3149.162 7        46.167                                                                    23489883.489 7  99393425.09307     -2558.929 7        45.612
C07        53.000                                                                                                                                                                                                    38827639.136 5 156342782.44405      -913.194 5        32.964    38827625.484 3                      -960.587 3        19.313
I02        56.000    36946530.638 5 144986140.56605      -408.189 5        34.071
I06        57.000    38130224.138 5 149631194.44005      -720.527 5        35.781
> 2025 01 01 10 15  5.0000000  0 34
G19         1.000    22515948.379 6 118322087.02106      1928.891 6        37.860                                    22515951.928 3  92199048.01403      1503.049 3        19.910
G13         2.000    20941037.324 7 110045876.06507     -3366.817 7        43.663                                    20941041.159 4  85750030.68204     -2623.490 4        26.862
G14         4.000    22142386.061 6 116358992.49106     -3578.581 6        41.831                                    22142389.732 3  90669377.16503     -2788.521 3        22.000    22142390.113 6  90669369.16606     -2788.453 6        39.150
G15         6.000    20272108.209 8 106530665.89408     -1943.096 8        48.086                                    20272107.890 7  83011220.43607     -1514.100 7        46.563    20272107.905 7  83010896.43607     -1514.146 7        45.983
G12         9.000                                                                                                                                                                    24046590.414 4                      2240.247 4        27.198
G23        10.000    23018800.310 6 120964655.93106     -1230.987 6        41.793                                    23018804.789 1  94258120.87301      -959.195 1         8.381    23018803.288 4  94258165.82004      -959.510 4        26.934
E30        11.000    26711266.550 4                      1921.452 4        28.739                                                                    26711268.044 5 104820758.63905      1434.802 5        34.276    26711266.740 5 107555222.60805      1472.266 5        30.475
G10        12.000    24903470.880 6 130868594.70606      1132.013 6        37.486                                    24903476.615 3 101975518.16703       882.088 3        18.746    24903495.856 5                       881.812 5        33.443
E02        13.000    23208836.738 7 121963303.20607       -81.246 7        46.062                                                                    23208840.903 7  91076587.61207       -60.663 7        46.191    23208839.525 7  93452503.25407       -62.218 7        47.788
E25        14.000    24626544.610 6 129413319.00106     -2755.708 6        40.529                                                                    24626549.514 6  96639929.41706     -2057.746 6        40.124    24626551.968 7  99160893.39907     -2111.419 7        45.079
G24        16.000    21209733.290 6 111458034.65606      1520.442 6        41.097                                    21209740.711 4  86850421.16304      1184.754 4        25.519    21209737.930 5  86850353.19905      1184.938 5        31.940
E08        17.000    23431828.982 7 123135097.87207      -721.438 7        45.871                                                                    23431833.051 8  91951549.52408      -538.718 8        49.046    23431831.869 8  94350323.13508      -552.766 8        48.733
E07        18.000    26130825.573 6 137318769.05506      1650.715 6        39.823                                                                    26130835.487 7 102543012.49307      1232.636 7        45.484    26130832.770 6 105218048.06106      1264.637 6        38.697
S23        24.000    38074037.313 5 200080418.11505      -829.733 5        35.819
E03        27.000    24966649.320 3                     -3254.335 3        21.690                                                                    24966631.380 7  97974434.95607     -2430.121 7        45.412    24966629.664 7 100530165.09207     -2493.524 7        46.057
R11        28.000                                                                                                                                    21947887.761 4  91219996.04214     -3251.339 4        25.594
R13        29.000    21080453.159 4 112568456.18814      1855.777 4        27.748
R21        30.000    22732969.886 4                      1308.902 4        29.659
R12        31.000    19223840.086 8 102690319.18908     -1038.633 8        50.369                                                                    19223843.318 7  79870256.11707      -807.861 7        45.652
C10        32.000                                                                                                                                    38417744.542 5 200051289.28305      -799.902 5        32.269    38417750.097 5                      -618.509 5        32.042    38417743.863 4 162558061.90304      -649.879 4        27.030
R03        33.000    21142347.641 8 113176680.41208      2101.569 8        48.007                                                                    21142353.608 7  88026328.82707      1634.572 7        45.508
C24        34.000                                                                                                                                    23934376.147 7 124632779.44207      1699.393 7        43.153                                                                    23934375.506 5 101274183.12505      1381.238 5        33.449
C26        37.000                                                                                                                                    21608275.300 6 112520072.18106      -476.216 6        41.316                                                                    21608280.076 7  91431804.88607      -387.085 7        45.968
R01        38.000    22074735.161 6 118002124.90106     -5180.513 6        36.079                                                                    22074743.075 5  91779444.58205     -4029.265 5        34.800
C42        41.000                                                                                                                                                                                                                                                                    22806979.072 7  96503785.89307     -1712.006 7        43.026
R02        43.000    19496048.969 8 104034656.96908     -2061.666 8        49.169                                                                    19496053.307 7  80915838.18307     -1603.499 7        44.322
C40        44.000                                                                                                                                    38908011.049 6 202604228.65506     -1358.203 6        36.136                                                                    38908015.924 5 164632578.88805     -1103.930 5        30.204
C33        46.000                                                                                                                                    24531207.922 7 127740562.51707      1044.527 7        47.562                                                                    24531226.147 7 103799590.87707       848.703 7        44.536
C21        47.000                                                                                                                                    24951451.126 7 129928751.02507     -4208.215 7        42.438                                                                    24951453.544 5 105577776.53605     -3419.738 5        34.743
C14        48.000                                                                                                                                    23151765.407 5 120557328.78105      -440.354 5        34.629    23151769.733 7  93222740.44307      -340.441 7        45.011    23151765.518 6  97962696.76506      -357.859 6        38.336
C45        49.000                                                                                                                                    23492910.447 7 122333601.62507     -3149.625 7        45.783                                                                    23492907.803 7  99406220.90707     -2559.372 7        46.078
C07        53.000                                                                                                                                    38828930.968 3                     -1179.648 3        18.896    38828773.570 5 156347349.61805      -913.443 5        32.982    38828762.349 3                      -958.086 3        20.310
I02        56.000    36947051.068 5 144988182.56505      -408.401 5        34.457
I06        57.000    38131141.134 5 149634795.93405      -720.287 5        35.910
> 2025 01 01 10 15 10.0000000  0 35
G19         1.000    22514112.731 6 118312448.22706      1927.146 6        36.749                                    22514118.165 3  92191537.25403      1501.689 3        19.343
G13         2.000    20944242.349 7 110062716.72207     -3369.234 7        43.253                                    20944245.609 4  85763153.27004     -2625.385 4        26.180
G14         4.000    22145792.638 6 116376889.33206     -3579.934 6        40.968                                    22145796.053 3  90683322.72903     -2789.573 3        22.057    22145795.985 6  90683314.73706     -2789.604 6        38.790
G15         6.000    20273958.902 7 106540390.94107     -1946.587 7        47.672                                    20273958.413 7  83018798.38907     -1516.818 7        46.213    20273958.565 7  83018474.39807     -1516.854 7        45.815
G12         9.000    24043876.328 3 126351247.20203      2874.248 3        23.771                                                                                                    24043854.599 4                      2239.287 4        29.128
G23        10.000    23019972.743 6 120970820.23406     -1234.530 6        38.694                                    23019977.683 1  94262924.22001      -961.994 1         9.905    23019978.242 5  94262969.17605      -961.951 5        30.966
E30        11.000    26709439.391 4                      1920.899 4        29.479                                                                    26709440.656 5 104813585.99905      1434.216 5        33.916    26709441.469 5 107547862.91005      1471.453 5        31.404
G10        12.000    24902396.638 6 130862942.60406      1129.247 6        39.120                                    24902402.634 3 101971113.93603       879.923 3        18.985    24902415.718 5                       879.902 5        32.569
E02        13.000    23208915.249 7 121963715.00707       -83.144 7        46.561                                                                    23208919.429 7  91076895.12807       -62.102 7        46.525    23208917.623 7  93452818.79507       -63.752 7        47.187
E25        14.000    24629167.597 6 129427101.20306     -2756.998 6        41.533                                                                    24629172.332 6  96650221.31806     -2058.833 6        40.265    24629174.484 7  99171453.77607     -2112.440 7        44.751
G24        16.000    21208287.410 7 111450437.54207      1518.761 7        42.260                                    21208294.713 3  86844501.32303      1183.435 3        21.881
E08        17.000    23432516.329 7 123138711.01907      -723.560 7        45.427                                                                    23432520.761 8  91954247.64508      -540.241 8        49.166    23432519.328 8  94353091.64908      -554.418 8        48.632
E07        18.000    26129255.626 6 137310518.69606      1649.702 6        40.260                                                                    26129265.169 7 102536851.51707      1231.922 7        45.050    26129263.113 6 105211726.35906      1264.054 6        38.673
S23        24.000    38074825.924 5 200084566.76105      -829.719 5        35.776
E03        27.000    24969743.115 4                     -3255.812 4        27.760                                                                    24969728.536 7  97986588.81207     -2431.217 7        45.213    24969726.672 7 100542635.99807     -2494.543 7        45.892
R11        28.000    21951801.002 4                     -4180.782 4        29.251                                                                    21951797.965 4                     -3251.092 4        24.692
R13        29.000    21078716.596 5 112559184.99605      1853.686 5        34.262
R21        30.000    22731744.451 4                      1305.250 4        27.629
R12        31.000    19224813.658 8 102695519.73808     -1041.286 8        50.502                                                                    19224816.970 7  79874300.98407      -809.966 7        44.959
C10        32.000                                                                                                                                    38418513.922 5 200055289.26805      -799.964 5        32.760    38418518.072 5                      -618.935 5        31.736    38418511.285 4 162561312.28504      -650.995 4        26.000
R03        33.000    21140386.187 7 113166181.23507      2098.319 7        47.285                                                                    21140392.454 7  88018162.81907      1631.999 7        46.056
C24        34.000                                                                                                                                    23932743.828 7 124624285.39607      1698.427 7        42.730                                                                    23932745.803 5 101267281.05105      1380.196 5        34.481
C26        37.000                                                                                                                                    21608733.866 6 112522458.35606      -477.868 6        41.199                                                                    21608738.205 7  91433743.83907      -388.285 7        46.031
R01        38.000    22079578.424 5 118028032.14105     -5182.047 5        34.600                                                                    22079591.426 5  91799594.63805     -4030.396 5        34.248
C29        39.000                                                                                                                                    24731016.052 5                       321.193 5        31.592
C42        41.000                                                                                                                                                                                                                                                                    22809003.173 7  96512351.51807     -1714.243 7        43.484
R02        43.000    19497982.158 7 104044977.18007     -2066.154 7        47.823                                                                    19497986.595 7  80923865.00907     -1607.028 7        43.401
C40        44.000                                                                                                                                    38909315.497 6 202611022.49806     -1359.075 6        36.310                                                                    38909319.790 5 164638099.40505     -1104.083 5        30.747
C33        46.000                                                                                                                                    24530206.464 7 127735346.90807      1042.046 7        47.873                                                                    24530224.760 7 103795352.78207       846.783 7        44.612
C21        47.000                                                                                                                                    24955492.029 7 129949795.16007     -4209.144 7        42.146                                                                    24955494.751 5 105594876.57505     -3420.323 5        34.819
C14        48.000                                                                                                                                    23152194.602 5 120559538.00305      -443.148 5        35.862    23152193.266 7  93224448.80507      -342.702 7        44.862    23152189.788 6  97964491.98406      -360.100 6        38.580
C45        49.000                                                                                                                                    23495933.956 7 122349352.49207     -3150.485 7        45.391                                                                    23495932.766 7  99419019.75407     -2559.930 7        46.320
C07        53.000                                                                                                                                                                                                    38829908.250 5 156351919.07405      -914.065 5        32.982    38829901.987 3                      -956.525 3        20.833
I02        56.000    36947572.135 5 144990225.35805      -408.449 5        34.776
I06        57.000    38132059.553 6 149638397.39306      -720.329 6        36.204
> 2025 01 01 10 15 15.0000000  0 35
G19         1.000    22512281.196 6 118302818.51706      1925.076 6        37.977                                    22512286.123 3  92184033.59503      1500.062 3        18.269
G13         2.000    20947449.830 7 110079568.48407     -3371.453 7        44.382                                    20947452.388 4  85776284.51104     -2627.091 4        26.251
G14         4.000    22149200.833 6 116394792.65806     -3581.451 6        41.254                                    22149203.595 3  90697273.38703     -2790.731 3        21.976    22149202.964 6  90697265.35806     -2790.440 6        38.556
G15         6.000    20275812.394 7 106550132.77007     -1950.175 7        46.176                                    20275812.133 7  83026389.42007     -1519.614 7        45.628    20275812.324 7  83026065.42007     -1519.588 7        45.532
G12         9.000    24041140.219 4 126336878.83604      2873.699 4        26.575                                                                                                    24041119.303 5                      2238.746 5        30.317
G23        10.000    23021147.425 5 120977000.66005     -1237.719 5        35.362                                    23021153.733 1  94267740.06901      -964.426 1        10.370    23021158.459 5  94267785.09105      -964.472 5        33.018
E30        11.000    26707612.765 5                      1920.004 5        30.936                                                                    26707614.187 5 104806416.16205      1433.581 5        33.904    26707617.357 5 107540505.99505      1470.995 5        32.389
G10        12.000    24901324.878 6 130857303.10106      1126.509 6        39.727                                    24901331.609 3 101966719.52203       877.799 3        18.627    24901339.819 5                       877.907 5        31.140
E02        13.000    23208995.218 7 121964135.86607       -85.133 7        47.332                                                                    23208999.634 7  91077209.40907       -63.632 7        46.790    23208997.405 7  93453141.28007       -65.275 7        46.577
E25        14.000    24631791.358 7 129440889.00607     -2758.196 7        42.819                                                                    24631796.217 6  96660517.37606     -2059.617 6        40.598    24631798.101 7  99182018.43807     -2113.430 7        44.156
G24        16.000    21206844.441 7 111442848.47107      1516.887 7        42.097                                    21206850.133 2  86838587.68502      1182.004 2        17.019
E08        17.000    23433205.647 7 123142334.18607      -725.665 7        44.989                                                                    23433210.312 8  91956953.25408      -541.978 8        49.341    23433208.563 8  94355867.83708      -556.098 8        48.440
E07        18.000    26127686.410 6 137302272.50706      1648.777 6        40.789                                                                    26127695.514 7 102530693.65607      1231.235 7        44.668    26127694.260 6 105205407.87006      1263.388 6        38.925
S23        24.000    38075617.902 6 200088715.04006      -829.743 6        36.174
E03        27.000    24972840.666 5                     -3257.064 5        30.974                                                                    24972826.899 7  97998747.39907     -2432.259 7        45.237    24972825.199 7 100555111.77007     -2495.749 7        45.723
R11        28.000    21955719.717 5                     -4181.395 5        31.464
R13        29.000    21076981.470 6 112549922.76406      1851.329 6        36.854
R21        30.000                                                                                                                                    22730463.652 5                      1013.002 5        30.558
R12        31.000    19225789.327 8 102700733.00608     -1044.021 8        49.867                                                                    19225792.842 7  79878355.73507      -811.985 7        44.885
C10        32.000                                                                                                                                    38419283.117 5 200059292.05105      -800.997 5        32.982    38419286.793 5                      -619.374 5        31.879    38419279.296 4 162564564.82404      -650.565 4        25.940
R03        33.000    21138427.719 7 113155697.64307      2095.111 7        46.708                                                                    21138434.181 7  88010008.92707      1629.548 7        45.901
C24        34.000                                                                                                                                    23931113.540 7 124615795.22807      1697.483 7        42.652                                                                    23931115.912 6 101260382.11606      1379.536 6        36.257
C26        37.000                                                                                                                                    21609193.984 6 112524852.35706      -479.590 6        41.538                                                                    21609197.799 7  91435689.15407      -389.509 7        45.892
R01        38.000    22084428.306 5 118053946.34005     -5183.605 5        31.902                                                                    22084435.228 5  91819750.09605     -4031.686 5        33.683
C29        39.000                                                                                                                                    24730714.669 5                       318.814 5        31.826
C42        41.000                                                                                                                                    22811009.966 6 118783438.28116     -2112.395 6        41.466                                                                    22811029.733 7  96520927.82507     -1716.182 7        43.917
R02        43.000    19499920.521 7 104055319.45707     -2070.716 7        47.583                                                                    19499924.624 7  80931908.99107     -1610.578 7        43.649
C40        44.000                                                                                                                                    38910620.176 6 202617819.77106     -1359.657 6        36.352                                                                    38910626.104 5 164643622.75105     -1104.952 5        31.170
C33        46.000                                                                                                                                    24529207.178 8 127730142.84908      1039.575 8        48.472                                                                    24529225.501 7 103791124.05607       844.932 7        44.727
C21        47.000                                                                                                                                    24959533.467 6 129970842.81706     -4209.829 6        41.738                                                                    24959536.881 5 105611979.46605     -3420.652 5        34.109
C14        48.000                                                                                                                                    23152621.574 6 120561761.47606      -446.093 6        36.915    23152620.246 7  93226168.15007      -345.039 7        44.989    23152617.318 6  97966298.75106      -362.353 6        38.586
C45        49.000                                                                                                                                    23498958.744 7 122365106.82107     -3151.368 7        45.123                                                                    23498958.301 7  99431821.41307     -2560.530 7        46.449
C07        53.000                                                                                                                                                                                                    38831042.185 5 156356490.55305      -914.539 5        32.850    38831038.839 3                      -959.917 3        20.690
I02        56.000    36948093.239 5 144992269.68805      -408.981 5        34.824
I06        57.000    38132976.761 5 149641998.69305      -720.573 5        35.633
> 2025 01 01 10 15 20.0000000  0 35
G19         1.000    22510451.191 6 118293198.25206      1922.982 6        39.483                                    22510455.844 2  92176537.24602      1498.446 2        16.641
G13         2.000    20950659.324 7 110096431.67707     -3373.838 7        46.163                                    20950661.475 4  85789424.66604     -2628.967 4        26.527
G14         4.000    22152609.467 6 116412702.82006     -3582.655 6        41.850                                    22152612.492 3  90711229.35503     -2791.694 3        21.952    22152611.972 6  90711221.32806     -2791.811 6        38.691
G15         6.000    20277669.261 7 106559891.66307     -1953.462 7        44.858                                    20277669.144 7  83033993.74307     -1522.176 7        45.232    20277669.443 7  83033669.73407     -1522.170 7        45.404
G12         9.000    24038409.090 4 126322514.64704      2872.325 4        29.820                                                                                                    24038381.982 5                      2238.402 5        30.513
G23        10.000    23022326.726 5 120983197.53205     -1241.008 5        31.162                                    23022333.052 1  94272568.78101      -967.004 1         9.905    23022345.219 5  94272613.81505      -966.823 5        33.731
E30        11.000    26705785.955 5                      1919.083 5        32.521                                                                    26705788.306 5 104799249.38605      1432.885 5        34.019    26705794.558 5 107533152.25705      1470.575 5        32.904
G10        12.000    24900254.250 6 130851676.56206      1123.918 6        39.895                                    24900263.361 3 101962335.19503       875.782 3        18.955    24900268.901 5                       875.883 5        30.158
E02        13.000    23209077.065 7 121964566.07907       -86.991 7        47.977                                                                    23209081.553 7  91077530.67807       -65.018 7        47.188    23209078.712 7  93453470.92607       -66.661 7        45.964
E25        14.000    24634415.899 7 129454682.73207     -2759.301 7        43.560                                                                    24634421.525 6  96670817.86106     -2060.481 6        40.958    24634422.775 7  99192587.63807     -2114.309 7        43.460
G24        16.000    21205402.297 6 111435267.74306      1515.383 6        40.262                                    21205407.959 2  86832680.36102      1180.789 2        12.182
E08        17.000    23433896.851 7 123145967.69707      -727.768 7        44.685                                                                    23433901.744 8  91959666.58008      -543.416 8        49.518    23433899.822 8  94358651.94908      -557.614 8        48.315
E07        18.000    26126117.949 6 137294030.81906      1647.899 6        40.551                                                                    26126126.908 7 102524539.16607      1230.623 7        44.092    26126126.169 6 105199092.83006      1262.609 6        39.210
S23        24.000    38076404.210 6 200092863.26906      -829.598 6        36.072
E03        27.000    24975936.737 5                     -3258.346 5        32.485                                                                    24975926.483 7  98010910.93907     -2433.183 7        45.070    24975925.006 7 100567592.62307     -2496.702 7        45.696
R11        28.000    21959639.609 4                     -4181.875 4        29.943                                                                    21959630.189 3                     -3252.949 3        23.752
R13        29.000    21075247.845 6 112540669.74006      1849.946 6        38.634
R21        30.000    22729293.421 5                      1298.388 5        30.649
R12        31.000    19226767.789 8 102705959.24908     -1046.587 8        49.526                                                                    19226771.475 7  79882420.59907      -813.988 7        45.473
C10        32.000                                                                                                                                    38420052.926 5 200063298.03105      -801.666 5        33.760    38420056.015 5                      -619.920 5        31.487
R03        33.000    21136472.874 7 113145229.72707      2091.978 7        46.228                                                                    21136477.932 7  88001867.21607      1626.990 7        45.886
C24        34.000                                                                                                                                    23929484.564 7 124607309.27207      1696.881 7        42.008                                                                    23929486.074 6 101253486.61806      1378.568 6        37.841
C26        37.000                                                                                                                                    21609656.036 6 112527254.52306      -481.326 6        40.953                                                                    21609659.061 7  91437641.11507      -391.117 7        45.953
R01        38.000    22089274.990 4 118079868.10604     -5185.156 4        29.384                                                                    22089282.634 5  91839911.46205     -4032.959 5        32.832
C29        39.000                                                                                                                                    24730420.870 4                       316.227 4        29.223
C42        41.000                                                                                                                                    22813046.092 7 118794006.16707     -2114.985 7        42.978                                                                    22813059.219 7  96529515.09707     -1718.524 7        44.155
R02        43.000    19501863.631 7 104065683.73007     -2075.155 7        47.610                                                                    19501867.175 7  80939970.07707     -1614.022 7        44.214
C40        44.000                                                                                                                                    38911926.732 5 202624620.84805     -1360.547 5        35.848                                                                    38911932.052 5 164649149.16605     -1105.676 5        31.547
C33        46.000                                                                                                                                    24528210.294 8 127724950.64608      1037.249 8        48.357                                                                    24528228.440 7 103786904.97407       842.783 7        44.638
C21        47.000                                                                                                                                    24963576.544 6 129991894.30906     -4210.708 6        40.818                                                                    24963579.491 5 105629085.48105     -3421.675 5        33.515
C14        48.000                                                                                                                                    23153051.246 6 120563999.55106      -449.189 6        37.353    23153049.650 7  93227898.77407      -347.278 7        44.572    23153047.260 6  97968117.37206      -364.976 6        38.727
C45        49.000                                                                                                                                    23501984.541 7 122380864.91407     -3151.994 7        44.808                                                                    23501984.466 7  99444626.13907     -2561.247 7        46.508
C07        53.000                                                                                                                                                                                                    38832178.335 5 156361064.41205      -915.026 5        32.916    38832173.165 3                      -963.106 3        22.800
I02        56.000    36948614.039 5 144994315.11605      -409.148 5        35.024
I06        57.000    38133894.248 5 149645600.04205      -720.209 5        35.600
> 2025 01 01 10 15 25.0000000  0 35
G19         1.000    22508623.748 6 118283587.49606      1921.227 6        40.694                                    22508627.004 2  92169048.35202      1497.061 2        14.524
G13         2.000    20953870.615 7 110113306.37907     -3376.102 7        47.142                                    20953872.646 4  85802573.78004     -2630.727 4        26.850
G14         4.000    22156018.909 7 116430619.88907     -3584.064 7        42.239                                    22156022.690 3  90725190.70203     -2792.784 3        22.286    22156021.384 6  90725182.66606     -2792.747 6        38.474
G15         6.000    20279530.112 7 106569667.67007     -1956.861 7        43.898                                    20279529.495 7  83041611.40207     -1524.826 7        44.892    20279529.936 7  83041287.40407     -1524.846 7        45.720
G12         9.000    24035678.776 5 126308154.54505      2871.879 5        31.155                                                                                                    24035649.968 5                      2237.825 5        30.732
G23        10.000    23023501.537 3                     -1244.340 3        20.143                                                                                                    23023530.382 5  94277455.38305      -969.606 5        32.641
E30        11.000    26703959.812 5                      1918.186 5        33.192                                                                    26703963.438 5 104792085.74605      1432.468 5        34.443    26703971.150 5 107525801.74805      1469.663 5        33.162
G10        12.000    24899185.138 6 130846063.04206      1121.449 6        39.562                                    24899197.491 3 101957960.99703       873.871 3        18.896    24899200.326 4                       873.842 4        28.436
E02        13.000    23209160.712 8 121965005.75608       -88.852 8        48.295                                                                    23209165.360 7  91077859.00907       -66.335 7        47.552    23209161.888 7  93453807.82607       -68.055 7        45.083
E25        14.000    24637041.916 7 129468482.46307     -2760.437 7        43.907                                                                    24637048.021 6  96681122.82306     -2061.361 6        41.118    24637048.739 7  99203161.42307     -2115.158 7        42.563
G24        16.000    21203959.673 6 111427695.49306      1513.606 6        36.333                                    21203967.788 2  86826779.79502      1179.424 2        14.333    21204033.503 4  86826712.00804      1179.824 4        25.353
E08        17.000    23434590.536 7 123149611.65507      -729.813 7        44.838                                                                    23434595.289 8  91962387.71108      -544.964 8        49.578    23434593.036 8  94361444.07108      -559.206 8        48.070
E07        18.000    26124550.396 6 137285793.73606      1647.029 6        40.353                                                                    26124559.006 7 102518388.11307      1229.790 7        43.200    26124559.101 6 105192781.28806      1262.082 6        39.604
S23        24.000    38077191.730 5 200097011.50405      -829.768 5        35.848
R20        26.000                                                                                                                                    23255709.587 3                     -1500.508 3        22.857
E03        27.000    24979031.819 5                     -3259.710 5        32.677                                                                    24979027.245 7  98023079.52107     -2434.224 7        44.819    24979025.981 7 100580078.64607     -2497.750 7        45.588
R11        28.000                                                                                                                                    21963539.339 4                     -3253.107 4        25.594
R13        29.000    21073516.791 6 112531425.98206      1847.749 6        36.284
R12        31.000    19227748.816 8 102711198.69408     -1049.174 8        50.115                                                                    19227752.570 7  79886495.72507      -816.037 7        45.994
C10        32.000                                                                                                                                    38420824.693 5 200067307.16105      -802.193 5        34.576    38420825.205 5                      -619.988 5        31.389    38420818.917 4 162571077.86404      -652.581 4        25.023
R03        33.000    21134520.713 7 113134777.84007      2088.886 7        45.335                                                                    21134525.265 7  87993737.98607      1624.613 7        45.189
C24        34.000                                                                                                                                    23927855.151 6 124598827.64106      1695.983 6        41.142                                                                    23927857.516 6 101246594.63106      1378.256 6        38.967
C26        37.000                                                                                                                                    21610119.524 6 112529664.95106      -482.873 6        40.379                                                                    21610121.927 7  91439599.79807      -392.180 7        46.073
R01        38.000    22094123.440 5 118105797.12605     -5186.623 5        30.838                                                                    22094134.543 5  91860078.48305     -4034.452 5        31.721
C29        39.000                                                                                                                                    24730121.124 4                       313.924 4        26.731
C42        41.000                                                                                                                                    22815080.180 7 118804587.60407     -2117.553 7        44.012                                                                    22815091.344 7  96538113.41207     -1720.581 7        44.539
R02        43.000    19503809.844 8 104076070.46408     -2079.534 8        48.102                                                                    19503813.376 7  80948048.63407     -1617.370 7        43.503
C40        44.000                                                                                                                                    38913232.415 5 202631425.76605     -1361.363 5        35.486                                                                    38913239.768 5 164654678.72905     -1106.167 5        32.419
C33        46.000                                                                                                                                    24527215.355 7 127719770.41307      1034.875 7        47.943                                                                    24527233.597 7 103782695.61907       841.047 7        44.652
C21        47.000                                                                                                                                    24967619.955 6 130012949.68306     -4211.421 6        40.241                                                                    24967623.018 5 105646194.70905     -3422.129 5        32.772
C14        48.000                                                                                                                                    23153484.673 6 120566252.24806      -451.987 6        37.883    23153481.519 7  93229640.68607      -349.457 7        43.426    23153480.283 6  97969947.88406      -367.127 6        39.021
C45        49.000                                                                                                                                    23505011.467 7 122396626.88007     -3152.756 7        44.831                                                                    23505011.343 7  99457434.04707     -2561.673 7        46.537
C07        53.000                                                                                                                                                                                                    38833315.557 5 156365640.63505      -915.535 5        33.216    38833312.717 3                      -962.888 3        23.295
I02        56.000    36949136.034 5 144996361.67705      -409.151 5        35.495
I06        57.000    38134811.869 5 149649201.46505      -720.062 5        35.310
> 2025 01 01 10 15 30.0000000  0 34
G19         1.000    22506800.268 6 118273986.38506      1919.336 6        41.061                                    22506799.657 1  92161566.91901      1495.627 1        11.778
G13         2.000    20957083.594 7 110130192.72607     -3378.381 7        47.704                                    20957085.936 4  85815731.96104     -2632.505 4        27.126
G14         4.000    22159429.517 7 116448543.97007     -3585.406 7        42.364                                    22159434.167 3  90739157.50603     -2793.836 3        22.381    22159432.458 6  90739149.46506     -2793.902 6        38.141
G15         6.000    20281393.970 7 106579460.93207     -1960.219 7        44.030                                    20281393.192 7  83049242.50107     -1527.444 7        44.597    20281393.653 7  83048918.48907     -1527.438 7        46.195
G12         9.000    24032946.991 5 126293798.73405      2870.873 5        31.630                                                                                                    24032921.804 5                      2237.141 5        30.408
E30        11.000    26702135.229 5 140320667.03215      1917.425 5        34.281                                                                    26702139.383 5 104784925.33205      1431.741 5        34.976    26702147.294 5 107518454.54905      1469.144 5        32.659
G10        12.000    24898122.162 6 130840462.66106      1118.917 6        38.138                                    24898134.327 3 101953597.05803       871.908 3        18.030    24898137.846 4                       871.688 4        27.904
E02        13.000    23209246.380 8 121965455.01408       -90.739 8        48.544                                                                    23209250.785 7  91078194.50407       -67.787 7        47.895    23209246.765 7  93454152.07507       -69.531 7        44.093
E25        14.000    24639669.116 7 129482288.30007     -2761.654 7        44.146                                                                    24639675.591 6  96691432.34606     -2062.284 6        41.492    24639675.743 6  99213739.90006     -2116.100 6        41.974
G24        16.000    21202518.049 5 111420131.78705      1511.930 5        32.491                                    21202529.316 2  86820885.98202      1178.166 2        15.048
E08        17.000    23435286.553 7 123153266.17707      -731.888 7        45.606                                                                    23435290.767 8  91965116.73408      -546.474 8        49.684    23435288.258 7  94364244.28807      -560.747 7        47.782
E07        18.000    26122983.612 6 137277561.38906      1646.060 6        39.991                                                                    26122992.120 7 102512240.57907      1229.250 7        42.455    26122992.655 6 105186473.41306      1261.151 6        39.961
S23        24.000    38077979.576 5 200101159.89305      -829.424 5        35.881
E03        27.000    24982127.492 5                     -3261.164 5        32.754                                                                    24982129.270 7  98035253.20907     -2435.081 7        44.698    24982128.245 7 100592569.90907     -2498.679 7        45.419
R11        28.000                                                                                                                                    21967448.655 4                     -3253.115 4        27.234
R13        29.000    21071785.309 5 112522191.67205      1845.860 5        33.790
R21        30.000                                                                                                                                    22726890.803 5                      1004.537 5        30.249
R12        31.000    19228732.292 8 102716451.33208     -1051.750 8        51.163                                                                    19228735.817 7  79890581.10207      -818.023 7        46.233
