     3.04           OBSERVATION DATA    M                   RINEX VERSION / TYPE
ssrcrin-15.6.1x                         20250101 204500 UTC PGM / RUN BY / DATE 
(00000000023479385599111004) Septentrio proprietary         COMMENT             
ract                                                        MARKER NAME         
01                                                          MARKER NUMBER       
geodetic                                                    MARKER TYPE         
NFB                 CLIMERS@TUW                             OBSERVER / AGENCY   
3296359             SEPT ASTERX SB3 PROB4.14.4              REC # / TYPE / VERS 
Unknown             Unknown                                 ANT # / TYPE        
  4127445.7134  1206915.0267  4695543.3924                  APPROX POSITION XYZ 
        0.0000        0.0000        0.0000                  ANTENNA: DELTA H/E/N
G   23 X1  C1C L1C D1C S1C C1W S1W C2W L2W D2W S2W C2L L2L  SYS / # / OBS TYPES 
       D2L S2L C5Q L5Q D5Q S5Q C1L L1L D1L S1L              SYS / # / OBS TYPES 
E   21 X1  C1C L1C D1C S1C C6C L6C D6C S6C C5Q L5Q D5Q S5Q  SYS / # / OBS TYPES 
       C7Q L7Q D7Q S7Q C8Q L8Q D8Q S8Q                      SYS / # / OBS TYPES 
S    9 X1  C1C L1C D1C S1C C5I L5I D5I S5I                  SYS / # / OBS TYPES 
R   17 X1  C1C L1C D1C S1C C2P L2P D2P S2P C2C L2C D2C S2C  SYS / # / OBS TYPES 
       C3Q L3Q D3Q S3Q                                      SYS / # / OBS TYPES 
C   25 X1  C1P L1P D1P S1P C5P L5P D5P S5P C2I L2I D2I S2I  SYS / # / OBS TYPES 
       C7I L7I D7I S7I C6I L6I D6I S6I C7D L7D D7D S7D      SYS / # / OBS TYPES 
J   17 X1  C1C L1C D1C S1C C2L L2L D2L S2L C5Q L5Q D5Q S5Q  SYS / # / OBS TYPES 
       C1L L1L D1L S1L                                      SYS / # / OBS TYPES 
I    5 X1  C5A L5A D5A S5A                                  SYS / # / OBS TYPES 
SEPTENTRIO RECEIVERS OUTPUT ALIGNED CARRIER PHASES.         COMMENT             
NO FURTHER PHASE SHIFT APPLIED IN THE RINEX ENCODER.        COMMENT             
G L1C                                                       SYS / PHASE SHIFT   
G L2W                                                       SYS / PHASE SHIFT   
G L2L  0.00000                                              SYS / PHASE SHIFT   
G L5Q  0.00000                                              SYS / PHASE SHIFT   
G L1L  0.00000                                              SYS / PHASE SHIFT   
E L1C  0.00000                                              SYS / PHASE SHIFT   
E L6C  0.00000                                              SYS / PHASE SHIFT   
E L5Q  0.00000                                              SYS / PHASE SHIFT   
E L7Q  0.00000                                              SYS / PHASE SHIFT   
E L8Q  0.00000                                              SYS / PHASE SHIFT   
S L1C                                                       SYS / PHASE SHIFT   
S L5I                                                       SYS / PHASE SHIFT   
R L1C                                                       SYS / PHASE SHIFT   
R L2P  0.00000                                              SYS / PHASE SHIFT   
R L2C                                                       SYS / PHASE SHIFT   
R L3Q  0.00000                                              SYS / PHASE SHIFT   
C L1P  0.00000                                              SYS / PHASE SHIFT   
C L5P  0.00000                                              SYS / PHASE SHIFT   
C L2I                                                       SYS / PHASE SHIFT   
C L7I                                                       SYS / PHASE SHIFT   
C L6I                                                       SYS / PHASE SHIFT   
C L7D                                                       SYS / PHASE SHIFT   
J L1C                                                       SYS / PHASE SHIFT   
J L2L  0.00000                                              SYS / PHASE SHIFT   
J L5Q  0.00000                                              SYS / PHASE SHIFT   
J L1L  0.00000                                              SYS / PHASE SHIFT   
I L5A                                                       SYS / PHASE SHIFT   
  2025     1     1    20    45    0.0000000     GPS         TIME OF FIRST OBS   
 C1C    0.000 C2C    0.000 C2P    0.000                     GLONASS COD/PHS/BIS 
DBHZ                                                        SIGNAL STRENGTH UNIT
    18                                                      LEAP SECONDS        
 24 R01  1 R02 -4 R03  5 R04  6 R05  1 R06 -4 R07  5 R08  6 GLONASS SLOT / FRQ #
    R09 -2 R10 -7 R11  0 R12 -1 R13 -2 R14 -7 R15  0 R16 -1 GLONASS SLOT / FRQ #
    R17  4 R18 -3 R19  3 R20  2 R21  4 R22 -3 R23  3 R24  2 GLONASS SLOT / FRQ #
                                                            END OF HEADER       
> 2025 01 01 20 45  0.0000000  0 37
G18         1.000                                                                                                                                                                    24595037.500 3                     -3098.972 3        21.857
G10         2.000    20769854.251 7 109146565.57707      -435.884 7        42.722                                    20769865.599 4  85049047.13904      -339.659 4        27.365    20769854.859 5  85049079.18805      -339.675 5        30.649
G23         4.000    21795974.238 7 114538625.40807     -3136.525 7        46.043                                    21795969.669 5  89250841.17305     -2444.040 5        30.558    21795969.675 7  89250888.16507     -2444.058 7        44.062
G08         6.000    20906747.036 6 109866134.86706       951.944 6        41.001                                    20906806.408 1  85609961.07301       741.818 1         7.375    20906739.548 6  85609621.98006       741.948 6        39.643
G27         7.000    20139905.041 8 105835947.88708     -1372.950 8        50.081                                    20139901.522 7  82469505.93707     -1069.826 7        45.178    20139901.692 6  82469564.93206     -1069.800 6        40.541
G21         8.000    22609252.699 5 118812416.91305      1588.728 5        31.215
G02         9.000    24768863.960 5 130161138.57905      1999.293 5        35.433
E08        12.000                                                                                                                                    26622747.880 5 104473395.90605       648.615 5        34.571    26622746.331 5                       665.846 5        30.468
E13        16.000    24156632.338 7 126944036.42807     -2281.252 7        44.533                                                                    24156630.331 7  94795868.25807     -1703.540 7        43.890    24156631.732 7  97268758.14707     -1748.057 7        47.786
E31        17.000    26869688.929 5 141201131.83205      1145.217 5        34.424                                                                    26869684.974 5 105442533.87005       855.384 5        34.495    26869684.230 5 108193101.30205       877.621 5        33.060
G16        18.000    23077235.904 5 121271704.23105     -4340.173 5        34.495
E26        19.000    23815526.749 7 125151444.10307       109.965 7        46.873                                                                    23815523.469 7  93457303.79907        82.045 7        44.603    23815523.432 8  95895313.19408        84.238 8        48.606
E03        21.000    27499701.680 4                     -1497.136 4        26.563
E21        22.000    26013376.904 5 136701242.43605     -3725.823 5        33.497                                                                    26013382.314 4 102082095.84004     -2782.386 4        29.735    26013372.536 5 104745082.17405     -2854.663 5        32.928
S36        23.000    38247078.826 6 200989634.64006      -852.468 6        36.446
S23        24.000    38202580.248 6 200755888.90506      -852.384 6        41.452
R20        26.000    20884099.535 4                      1429.941 4        24.707                                                                    20884113.084 6  86859674.70806      1113.316 6        40.679
E33        28.000    27245840.990 5 143177809.92105      1519.725 5        30.755                                                                    27245833.040 4                      1135.041 4        29.270    27245809.874 5 109707606.32905      1164.288 5        30.528
R19        29.000    20148116.768 5                     -2293.575 5        30.875                                                                    20148119.000 6  83827968.50406     -1783.829 6        36.008
R18        30.000    22765354.453 5                     -3931.192 5        33.234                                                                    22765363.571 3                     -3054.833 3        22.381
R04        31.000    20541656.834 7 109999577.29507      1375.901 7        44.253                                                                    20541643.061 6  85555234.29406      1070.221 6        38.132
R03        32.000    21341473.054 6 114242547.25706     -2550.130 6        41.211                                                                    21341483.723 5  88855327.13305     -1983.552 5        35.790
R09        34.000    22770260.352 5 121591995.21505     -4799.514 5        31.034
R10        35.000    21584164.187 6 115055770.24606     -2556.988 6        40.100
C33        37.000                                                                                                                                    23029959.491 7 119922999.25607       636.781 7        42.337                                                                    23029970.045 5  97447353.46005       517.286 5        35.210
C37        38.000                                                                                                                                    26244322.360 4 136661025.39504     -3751.950 4        27.042
C28        40.000                                                                                                                                    21489104.885 8 111899670.25408      -766.797 8        50.786                                                                    21489102.920 7  90927427.45207      -623.044 7        43.852
R11        41.000    22755923.281 6 121600878.12606      1194.984 6        41.197                                                                    22755924.945 6  94578556.50506       929.443 6        38.952
C43        42.000                                                                                                                                    24587907.353 6 128035690.23806     -3453.568 6        36.662                                                                    24587925.294 5 104039572.43705     -2806.687 5        34.314
C13        45.000                                                                                                                                    38861827.283 5 202363722.40905     -1868.145 5        30.151    38861819.585 5 156480484.03305     -1444.230 5        30.732    38861816.653 4 164437077.02804     -1518.082 4        28.227
C08        46.000                                                                                                                                    39425365.470 4                     -2082.498 4        28.047                                                                    39425357.633 4                     -1692.021 4        27.078
C14        47.000                                                                                                                                    23146288.959 6 120528777.74006     -1033.007 6        40.717    23146281.306 7  93200784.07007      -798.896 7        44.256    23146280.199 7  97939518.10707      -839.397 7        42.935
C41        49.000                                                                                                                                    25244662.917 6 131455632.61306      2576.352 6        38.886                                                                    25244668.150 7 106818471.68607      2093.521 7        43.604
C27        52.000                                                                                                                                                                                                                                                                    23202767.986 5  98178539.13205      1121.367 5        33.240
C42        54.000                                                                                                                                    24386092.949 5 126984960.06405     -2582.990 5        34.667                                                                    24386098.419 5 103185558.23005     -2098.850 5        35.881
C36        56.000                                                                                                                                                                                                                                                                    26394676.360 4 111684486.45004       293.333 4        26.671
I06        58.000    38625758.601 6 151575932.57206      -553.151 6        39.312
> 2025 01 01 20 45  5.0000000  0 36
G18         1.000                                                                                                                                                                    24598820.059 3                     -3097.646 3        23.029
G10         2.000    20770269.900 7 109148751.97507      -438.847 7        42.076                                    20770280.620 4  85050750.85304      -341.972 4        27.689    20770270.646 5  85050782.89605      -342.141 5        34.352
G23         4.000    21798958.987 7 114554313.19407     -3138.804 7        45.299                                    21798955.336 5  89263065.41805     -2445.821 5        31.004    21798954.823 7  89263112.40807     -2445.844 7        43.674
G08         6.000    20905846.541 6 109861380.00506       949.878 6        40.141                                    20905901.155 1  85606255.78101       740.206 1         8.952    20905834.615 6  85605916.92506       740.094 6        38.964
G27         7.000    20141212.848 8 105842819.11408     -1375.714 8        50.406                                    20141209.024 7  82474860.13607     -1071.986 7        45.857    20141209.836 6  82474919.13206     -1071.976 6        41.461
G21         8.000    22607740.114 4 118804477.04104      1587.308 4        28.872
E08        12.000                                                                                                                                    26621920.948 5 104470155.31405       647.038 5        33.479    26621920.284 5                       664.296 5        30.634
E13        16.000    24158802.914 7 126955444.47007     -2282.141 7        43.710                                                                    24158800.910 7  94804387.23007     -1704.115 7        43.740    24158802.506 7  97277499.35607     -1748.597 7        47.616
E31        17.000    26868598.891 6 141195408.29506      1143.688 6        36.529                                                                    26868596.102 5 105438259.82505       854.136 5        35.238    26868595.360 5 108188715.76205       876.251 5        33.838
G16        18.000    23081366.795 5 121293406.46205     -4341.231 5        34.938
E26        19.000    23815422.576 7 125150896.65307       108.856 7        47.395                                                                    23815419.265 7  93456894.97907        81.205 7        44.128    23815419.493 8  95894893.70908        83.424 8        48.798
E03        21.000    27501125.458 3                     -1498.120 3        23.486                                                                                                                                    27501220.782 3                     -1152.598 3        18.119
E21        22.000    26016922.488 5 136719872.91905     -3726.666 5        34.076                                                                    26016926.771 4 102096008.29004     -2783.075 4        29.043    26016917.258 5 104759357.45405     -2855.310 5        32.754
S36        23.000    38247889.831 5 200993897.46005      -852.813 5        35.895
S23        24.000    38203391.704 6 200760150.14606      -852.307 6        41.461
R20        26.000    20882767.596 4                      1430.296 4        26.874                                                                    20882775.196 6  86854110.94816      1112.276 6        39.105
E33        28.000    27244386.551 5 143170211.86405      1519.336 5        31.494                                                                    27244387.293 4                      1134.576 4        29.147    27244364.885 5 109701784.46405      1164.390 5        31.638
R19        29.000    20150262.222 5                     -2295.313 5        33.868                                                                    20150264.537 5  83836891.02405     -1785.326 5        33.772
R18        30.000    22769034.156 5                     -3931.892 5        33.545                                                                    22769048.568 3                     -3060.988 3        20.667
R04        31.000    20540368.600 7 109992707.42807      1371.861 7        43.676                                                                    20540360.489 6  85549891.10806      1067.183 6        39.075
R03        32.000    21343860.998 6 114255308.41606     -2554.387 6        38.901                                                                    21343863.465 5  88865252.44405     -1986.774 5        35.286
R09        34.000    22774753.283 4 121615996.88204     -4800.713 4        28.569
R10        35.000    21586563.442 6 115068564.87406     -2561.095 6        39.450
C33        37.000                                                                                                                                    23029351.153 7 119919821.59007       634.168 7        44.193                                                                    23029360.079 5  97444771.37405       515.277 5        34.676
C37        38.000                                                                                                                                    26247921.903 4 136679787.91804     -3752.567 4        27.126
C28        40.000                                                                                                                                    21489841.989 8 111903507.83608      -768.406 8        50.855                                                                    21489839.998 7  90930545.81407      -624.181 7        43.644
R11        41.000    22754799.765 6 121594911.50506      1191.436 6        39.090                                                                    22754807.923 6  94573915.79406       926.778 6        37.217
C43        42.000                                                                                                                                    24591221.113 5 128052960.76605     -3454.530 5        35.414                                                                    24591240.605 5 104053606.15605     -2807.067 5        33.204
C13        45.000                                                                                                                                    38863619.781 4 202373062.08304     -1867.812 4        29.062    38863613.810 5 156487706.07805     -1444.673 5        30.906    38863610.370 4 164444666.20804     -1517.773 4        29.716
C08        46.000                                                                                                                                    39427369.723 4                     -2081.920 4        27.485    39427358.000 3                     -1608.934 3        23.219    39427356.636 4                     -1692.045 4        26.060
C14        47.000                                                                                                                                    23147279.793 6 120533950.19606     -1036.001 6        40.279    23147274.713 7  93204783.73407      -801.187 7        45.883    23147273.491 7  97943721.15707      -841.727 7        42.643
C41        49.000                                                                                                                                    25242189.596 6 131442752.22206      2575.652 6        39.030                                                                    25242194.656 7 106808005.31107      2093.137 7        43.776
C27        52.000                                                                                                                                    23201447.083 6 120816026.00216      1379.246 6        38.853                                                                    23201440.913 5  98172933.31305      1120.979 5        31.260
C42        54.000                                                                                                                                    24388576.837 5 126997880.85105     -2585.431 5        34.519                                                                    24388579.976 6 103196057.42106     -2100.699 6        36.397
C36        56.000                                                                                                                                                                                                                                                                    26394332.084 4 111683025.39104       291.795 4        25.744
I06        58.000    38626463.036 6 151578698.36306      -553.074 6        39.351
> 2025 01 01 20 45 10.0000000  0 34
G10         2.000    20770688.968 7 109150953.04807      -441.656 7        43.422                                    20770697.594 4  85052465.99104      -344.149 4        28.000    20770690.359 5  85052497.96305      -343.894 5        34.824
G23         4.000    21801946.113 7 114570011.92507     -3140.842 7        44.650                                    21801943.019 5  89275298.20005     -2447.415 5        30.574    21801942.536 7  89275345.18807     -2447.442 7        43.211
G08         6.000    20904942.674 6 109856636.02706       947.872 6        38.129                                    20904997.973 1  85602559.06101       738.653 1        11.407    20904931.532 6  85602220.29606       738.524 6        38.345
G27         7.000    20142522.738 8 105849704.24608     -1378.443 8        50.232                                    20142519.250 7  82480225.17207     -1074.108 7        46.084    20142520.367 7  82480284.16407     -1074.157 7        42.227
G21         8.000    22606228.513 4 118796543.13504      1586.241 4        26.096
E08        12.000                                                                                                                                    26621096.133 5 104466921.48505       645.944 5        32.228    26621093.441 4                       662.936 4        29.299
E13        16.000    24160974.425 7 126966856.29007     -2282.883 7        42.760                                                                    24160972.449 7  94812909.02307     -1704.633 7        43.562    24160974.244 7  97286243.47107     -1749.172 7        47.941
E31        17.000    26867511.107 6 141189693.23806      1142.252 6        37.947                                                                    26867509.041 6 105433992.11406       852.762 6        36.057    26867508.152 5 108184336.69005       875.249 5        34.062
G16        18.000    23085497.485 5 121315114.41005     -4342.222 5        35.586
E26        19.000    23815319.183 7 125150354.42207       107.891 7        47.579                                                                    23815315.973 7  93456490.05707        80.573 7        43.668    23815316.565 8  95894478.23108        82.659 8        49.239
E03        21.000    27502549.974 3                     -1501.816 3        21.738
E21        22.000    26020468.896 5 136738508.31005     -3727.704 5        34.271                                                                    26020469.175 4 102109924.33804     -2783.456 4        27.916    26020463.157 5 104773636.49505     -2856.332 5        32.024
S36        23.000    38248705.566 5 200998159.99305      -852.179 5        35.538
S23        24.000    38204200.983 6 200764411.11306      -852.068 6        40.887
R20        26.000                                                                                                                                    20881436.462 6  86848552.00416      1111.263 6        37.720
E33        28.000    27242934.266 5 143162615.71705      1518.487 5        30.838                                                                    27242944.135 4                      1134.211 4        29.062    27242919.803 5 109695964.07505      1163.873 5        33.030
R19        29.000    20152410.197 5                     -2297.092 5        33.826                                                                    20152409.393 5  83845820.46205     -1786.942 5        31.826
R18        30.000    22772717.534 5 121562301.46815     -3932.717 5        34.019
R04        31.000    20539084.327 7 109985857.13507      1368.138 7        43.873                                                                    20539081.833 6  85544563.16306      1064.115 6        39.982
R03        32.000    21346244.451 5 114268090.10805     -2558.552 5        35.514                                                                    21346244.345 5  88875193.79405     -1989.902 5        33.832
R10        35.000    21588966.408 6 115081379.24506     -2564.795 6        38.393
C33        37.000                                                                                                                                    23028744.184 7 119916657.00107       631.630 7        44.424                                                                    23028752.625 5  97442199.85005       513.210 5        34.395
C37        38.000                                                                                                                                    26251523.843 4                     -3754.336 4        24.105
C28        40.000                                                                                                                                    21490580.215 8 111907353.20208      -769.868 8        50.340                                                                    21490578.357 7  90933670.49607      -625.546 7        43.564
R11        41.000    22753676.542 6 121588963.86606      1187.588 6        38.258                                                                    22753688.745 6  94569289.95306       923.590 6        36.843
C43        42.000                                                                                                                                    24594538.755 5 128070234.79805     -3455.371 5        34.052                                                                    24594557.358 5 104067642.79805     -2807.785 5        32.551
C13        45.000                                                                                                                                    38865413.702 5 202382402.09605     -1868.410 5        30.241    38865406.486 5 156494928.30905     -1444.634 5        30.974    38865404.029 4 164452255.66104     -1517.763 4        29.280
C08        46.000                                                                                                                                    39429376.591 4                     -2082.457 4        26.874    39429363.183 3                     -1612.220 3        20.738    39429357.298 4                     -1691.057 4        25.684
C14        47.000                                                                                                                                    23148276.387 6 120539137.25606     -1038.919 6        40.782    23148271.113 7  93208794.69007      -803.338 7        46.734    23148269.205 7  97947936.07207      -844.024 7        42.482
C41        49.000                                                                                                                                    25239717.343 6 131429874.84406      2575.023 6        39.369                                                                    25239721.736 7 106797541.40807      2092.563 7        43.918
C27        52.000                                                                                                                                                                                                                                                                    23200116.648 5  98167330.70405      1120.041 5        30.868
C42        54.000                                                                                                                                    24391063.514 6 127010813.55906     -2587.892 6        36.567                                                                    24391063.666 6 103206566.31206     -2102.701 6        37.282
C36        56.000                                                                                                                                                                                                                                                                    26393986.392 3                       290.176 3        21.071
I06        58.000    38627167.261 6 151581463.83206      -553.140 6        39.309
> 2025 01 01 20 45 15.0000000  0 37
G18         1.000                                                                                                                                                                    24606366.356 3                     -3098.865 3        20.548
G10         2.000    20771110.615 7 109153169.42107      -444.740 7        44.740                                    20771117.399 4  85054193.04504      -346.544 4        29.374    20771110.441 5  85054225.00905      -346.476 5        35.714
G23         4.000    21804935.703 7 114585722.25707     -3143.168 7        43.930                                    21804932.773 5  89287540.01205     -2449.222 5        30.098    21804932.179 7  89287587.00807     -2449.266 7        42.622
G08         6.000    20904037.865 5 109851903.56205       945.165 5        35.386                                    20904097.088 1  85598871.31101       736.484 1        10.889    20904030.646 6  85598532.63706       736.537 6        36.870
G27         7.000    20143835.422 8 105856603.92008     -1381.421 8        49.929                                    20143832.391 7  82485601.54007     -1076.429 7        46.446    20143833.675 7  82485660.52207     -1076.426 7        42.954
G21         8.000    22604717.718 4                      1584.080 4        26.754
G02         9.000    24763186.451 4 130131158.94004      1997.615 4        26.491
G30        10.000    25873436.085 3                     -1656.250 3        20.357
E08        12.000    26620301.514 4                       863.210 4        25.278                                                                    26620274.593 4 104463694.99704       644.586 4        29.829    26620270.515 4                       660.961 4        27.413
E13        16.000    24163146.706 7 126978272.50607     -2283.760 7        42.398                                                                    24163144.828 7  94821434.10407     -1705.365 7        43.536    24163146.759 8  97294990.95908     -1749.888 8        48.004
E31        17.000    26866425.051 6 141183987.35806      1140.254 6        37.698                                                                    26866423.799 6 105429731.23906       851.401 6        37.890    26866422.696 5 108179964.67305       873.673 5        34.376
G16        18.000    23089630.665 5 121336828.57305     -4343.550 5        35.652
E26        19.000    23815216.786 7 125149818.06807       106.645 7        47.473                                                                    23815213.848 7  93456089.53507        79.665 7        43.513    23815214.701 8  95894067.25908        81.763 8        49.669
E03        21.000    27503968.882 3                     -1501.232 3        20.405
E21        22.000    26024015.488 5 136757149.16005     -3728.710 5        35.162                                                                    26024013.898 4 102123844.50704     -2784.254 4        25.549    26024009.955 5 104787919.73205     -2857.031 5        31.396
S36        23.000    38249510.298 5 201002422.68005      -852.815 5        35.767
S23        24.000    38205015.033 6 200768672.42806      -852.294 6        40.779
R20        26.000    20880113.482 4                      1427.194 4        28.550                                                                    20880095.523 6  86842998.30616      1110.363 6        36.420
E33        28.000    27241482.919 5 143155022.15205      1518.068 5        31.215                                                                    27241498.540 5                      1134.049 5        30.000    27241475.291 5 109690145.64905      1163.539 5        34.019
R19        29.000    20154556.580 5                     -2299.045 5        33.533                                                                    20154560.874 5  83854757.09105     -1787.926 5        32.078
R18        30.000    22776401.650 5 121581966.03505     -3933.386 5        33.114                                                                    22776433.341 3                     -3058.010 3        23.886
R04        31.000    20537810.229 7 109979027.28707      1363.863 7        43.778                                                                    20537806.312 6  85539251.07306      1060.809 6        39.955
R03        32.000    21348632.816 4 114280893.12304     -2562.934 4        26.527                                                                    21348632.483 5  88885151.89105     -1993.388 5        32.629
R10        35.000    21591373.757 6 115094214.00406     -2568.929 6        38.180
C33        37.000                                                                                                                                    23028138.094 7 119913506.17607       628.749 7        43.831                                                                    23028148.051 5  97439639.55305       510.867 5        34.300
C37        38.000                                                                                                                                    26255128.552 3                     -3752.950 3        21.714
C28        40.000                                                                                                                                    21491320.112 8 111911207.00908      -771.643 8        49.750                                                                    21491318.400 7  90936802.01407      -627.028 7        43.297
R11        41.000    22752571.643 6 121583036.04906      1183.456 6        41.630                                                                    22752576.302 6  94564679.38406       920.700 6        36.329
C43        42.000                                                                                                                                    24597857.632 5 128087513.07505     -3456.082 5        30.128                                                                    24597875.066 5 104081682.84405     -2808.423 5        31.902
C13        45.000                                                                                                                                    38867211.764 4 202391743.08704     -1868.331 4        29.735    38867198.939 5 156502151.33005     -1445.005 5        31.570    38867198.205 4 164459845.96504     -1518.216 4        29.848
C08        46.000                                                                                                                                    39431373.944 4                     -2083.639 4        26.204    39431371.948 3                     -1613.618 3        22.667    39431354.781 4                     -1692.161 4        24.857
C14        47.000                                                                                                                                    23149276.296 6 120544339.52606     -1042.024 6        41.004    23149270.035 7  93212817.42407      -805.772 7        47.921    23149267.974 6  97952163.34306      -846.636 6        41.883
C41        49.000                                                                                                                                    25237245.005 6 131417001.14106      2574.398 6        39.399                                                                    25237249.477 7 106787080.47907      2091.921 7        43.863
C27        52.000                                                                                                                                    23198818.714 6 120802240.88206      1377.454 6        37.819                                                                    23198793.129 5  98161731.82005      1119.277 5        30.868
C42        54.000                                                                                                                                    24393549.564 5 127023758.81105     -2590.203 5        35.505                                                                    24393549.583 6 103217085.39206     -2104.762 6        37.792
I06        58.000    38627872.517 6 151584229.47006      -553.058 6        39.036
I01        59.000   368523927.434 6 143026240.69416     -2077.837 6        36.888
> 2025 01 01 20 45 20.0000000  0 35
G10         2.000    20771535.220 7 109155400.70607      -447.784 7        45.225                                    20771540.115 5  85055931.70805      -348.909 5        31.615    20771535.160 6  85055963.67506      -348.900 6        36.253
G23         4.000    21807927.568 7 114601443.77807     -3145.353 7        44.169                                    21807924.476 4  89299790.54304     -2450.924 4        29.024    21807923.712 6  89299837.52906     -2450.958 6        41.836
G08         6.000    20903132.599 5 109847182.16005       942.884 5        32.808                                    20903198.574 1  85595192.27001       734.669 1        10.222    20903132.939 5  85594853.64805       735.001 5        35.181
G27         7.000    20145151.084 8 105863517.72308     -1384.215 8        49.591                                    20145148.274 7  82490988.91207     -1078.611 7        46.665    20145149.234 7  82491047.90807     -1078.674 7        43.619
G21         8.000    22603210.602 4                      1583.356 4        27.545
G30        10.000    25875013.642 3                     -1660.746 3        23.276
E08        12.000    26619483.627 4                       861.663 4        27.365                                                                    26619455.671 4 104460475.49004       643.156 4        28.275    26619449.319 4                       660.102 4        26.240
E13        16.000    24165320.197 7 126989692.71707     -2284.441 7        42.100                                                                    24165318.179 7  94829962.17907     -1705.945 7        43.776    24165320.155 8  97303741.52308     -1750.515 8        48.353
E31        17.000    26865339.989 6 141178290.31406      1138.547 6        37.626                                                                    26865340.215 6 105425476.95106       850.295 6        38.853    26865338.629 5 108175599.39705       872.345 5        34.843
G16        18.000    23093763.204 5 121358548.62105     -4344.460 5        33.479                                    23093764.439 1  94565103.61711     -3385.403 1         7.375
E26        19.000    23815115.795 7 125149287.19807       105.654 7        47.162                                                                    23815112.779 7  93455693.11007        78.799 7        43.107    23815113.858 8  95893660.48708        80.974 8        49.994
E21        22.000    26027563.447 6 136775795.10806     -3729.711 6        36.934                                                                    26027559.147 4 102137768.44304     -2784.929 4        25.233    26027558.545 5 104802206.87805     -2857.941 5        31.109
S36        23.000    38250322.067 5 201006685.99905      -852.673 5        35.819
S23        24.000    38205825.684 6 200772933.80006      -852.219 6        41.006
R20        26.000    20878780.961 4                      1426.092 4        29.706                                                                    20878756.169 5  86837449.40715      1109.314 5        33.952
E33        28.000    27240042.355 5 143147430.73805      1518.221 5        30.966                                                                    27240045.996 5                      1133.431 5        31.887    27240031.230 5 109684328.91405      1162.981 5        34.871
R19        29.000    20156703.411 5 107824785.68315     -2300.574 5        34.071                                                                    20156708.592 5  83863700.67405     -1789.574 5        31.404
R18        30.000    22780087.526 5 121601633.99805     -3933.891 5        30.792                                                                    22780120.869 4                     -3059.720 4        25.489
R04        31.000    20536539.161 7 109972217.29707      1359.957 7        43.505                                                                    20536533.419 6  85533954.43906      1057.649 6        39.162
R03        32.000    21351023.152 4 114293717.01604     -2566.872 4        27.545                                                                    21351030.696 5  88895126.05005     -1996.530 5        33.096
R09        34.000                                                                                                                                    22788239.844 6  94646488.39616     -3736.977 6        36.756
R10        35.000    21593786.821 6 115107068.76806     -2572.952 6        37.607
C33        37.000                                                                                                                                    23027536.535 7 119910368.68307       626.213 7        43.628                                                                    23027545.887 5  97437090.05805       508.824 5        34.390
C37        38.000                                                                                                                                    26258740.997 4                     -3753.827 4        24.692
C28        40.000                                                                                                                                    21492061.755 8 111915068.85108      -773.176 8        49.568                                                                    21492059.955 7  90939940.08107      -628.398 7        43.060
R11        41.000    22751469.348 7 121577127.58507      1179.723 7        43.877                                                                    22751472.304 5  94560083.92605       917.585 5        34.381
C43        42.000                                                                                                                                    24601177.129 4 128104795.18204     -3456.946 4        29.554                                                                    24601193.859 5 104095725.99905     -2808.916 5        32.413
C13        45.000                                                                                                                                    38869005.567 4 202401084.58604     -1868.417 4        27.114    38868993.230 5 156509374.76905     -1444.908 5        30.408    38868992.259 5 164467436.67505     -1518.112 5        30.460
C08        46.000                                                                                                                                    39433370.399 4                     -2082.456 4        26.910                                                                    39433348.637 4                     -1690.481 4        24.391
C14        47.000                                                                                                                                    23150277.221 6 120549556.61606     -1044.938 6        41.266    23150272.347 8  93216851.61708      -807.969 8        49.041    23150269.728 6  97956402.67606      -849.189 6        41.604
C41        49.000                                                                                                                                    25234774.174 6 131404130.75906      2573.819 6        39.309                                                                    25234778.002 7 106776622.25007      2091.368 7        43.577
C27        52.000                                                                                                                                    23197494.986 6 120795354.76906      1376.795 6        38.276                                                                    23197470.459 5  98156136.34005      1118.559 5        30.574
C42        54.000                                                                                                                                    24396037.743 5 127036716.24205     -2592.644 5        34.167                                                                    24396037.585 6 103227614.36706     -2106.942 6        38.261
I06        58.000    38628577.335 6 151586994.96906      -553.156 6        39.249
I01        59.000   368526573.496 6 143036628.59306     -2077.730 6        36.586
> 2025 01 01 20 45 25.0000000  0 37
G18         1.000                                                                                                                                                                    24613937.989 3                     -3097.222 3        19.075
G10         2.000    20771962.589 7 109157646.74007      -450.676 7        45.932                                    20771965.737 5  85057681.84705      -351.169 5        33.305    20771961.671 5  85057713.80705      -351.383 5        35.995
G23         4.000    21810921.268 7 114617176.31507     -3147.620 7        44.340                                    21810918.116 4  89312049.66704     -2452.688 4        27.904    21810917.325 6  89312096.64106     -2452.693 6        41.347
G08         6.000    20902235.680 5 109842471.72505       941.043 5        30.619                                    20902302.067 1  85591521.74801       733.326 1         6.375    20902237.888 5  85591183.24505       732.818 5        34.086
G27         7.000    20146469.476 8 105870445.52708     -1386.979 8        49.117                                    20146466.843 7  82496387.19007     -1080.764 7        46.940    20146467.455 7  82496446.18407     -1080.861 7        43.966
G21         8.000    22601704.336 4                      1581.878 4        26.168
G30        10.000    25876593.569 3                     -1661.119 3        21.143
E08        12.000    26618676.410 4                       858.724 4        24.226                                                                                                                                    26618630.641 4                       658.501 4        26.036
E13        16.000    24167494.579 7 127001116.82607     -2285.314 7        42.027                                                                    24167492.241 7  94838493.15007     -1706.505 7        44.205    24167494.198 8  97312495.05108     -1751.064 8        48.679
E31        17.000    26864256.354 6 141172601.89806      1136.843 6        36.847                                                                    26864258.384 6 105421229.11206       849.147 6        39.757    26864255.913 5 108171240.73605       871.283 5        35.438
G16        18.000    23097893.656 4 121380274.45304     -4346.042 4        29.564                                    23097897.622 1  94582032.80701     -3386.500 1         6.500
E26        19.000    23815016.228 7 125148761.66207       104.517 7        46.732                                                                    23815012.707 7  93455300.65207        78.175 7        42.732    23815013.959 8  95893257.79808        80.155 8        50.010
E21        22.000    26031112.276 6 136794445.99006     -3730.506 6        37.652                                                                    26031107.873 4 102151696.09904     -2786.494 4        25.098    26031107.950 5 104816497.81105     -2858.503 5        31.102
S36        23.000    38251137.767 5 201010949.52305      -852.532 5        35.819
S23        24.000    38206635.674 6 200777195.02806      -852.218 6        41.211
R20        26.000    20877446.128 5                      1424.858 5        30.906                                                                    20877424.284 4  86831905.25014      1108.509 4        29.071
E33        28.000    27238606.422 5 143139841.39405      1517.197 5        30.075                                                                    27238597.244 5                      1133.173 5        32.545    27238587.433 5 109678513.70505      1162.731 5        35.786
R19        29.000    20158855.288 5 107836293.44805     -2302.540 5        34.924                                                                    20158851.245 4  83872651.07904     -1790.922 4        28.284
R18        30.000    22783774.753 4 121621305.30714     -3935.013 4        28.834
R04        31.000    20535272.930 7 109965427.15307      1355.907 7        44.525                                                                    20535265.730 6  85528673.21006      1054.725 6        39.279
R03        32.000    21353426.998 5 114306562.07805     -2571.146 5        34.643                                                                    21353432.757 5  88905116.51405     -1999.918 5        31.275
R09        34.000    22792829.855 6 121712067.97606     -4806.214 6        36.163                                                                    22792744.744 6  94665176.25506     -3738.034 6        36.087
R10        35.000    21596201.250 6 115119943.42006     -2577.063 6        37.251
C33        37.000                                                                                                                                    23026937.461 7 119907244.41207       623.575 7        43.763                                                                    23026946.184 5  97434551.30605       506.974 5        34.290
C37        38.000                                                                                                                                    26262348.528 4                     -3754.613 4        25.308
C28        40.000                                                                                                                                    21492805.280 8 111918938.58308      -774.758 8        49.164                                                                    21492802.998 7  90943084.55007      -629.497 7        42.933
R11        41.000    22750368.891 7 121571238.31807      1175.929 7        44.104                                                                    22750370.399 5  94555503.38005       914.702 5        34.995
C43        42.000                                                                                                                                    24604502.216 5 128122080.87205     -3457.302 5        33.090                                                                    24604514.527 5 104109772.13305     -2809.492 5        32.970
C13        45.000                                                                                                                                    38870800.651 4 202410426.45704     -1868.948 4        26.192    38870785.756 4 156516598.46504     -1444.762 4        29.934    38870785.626 4 164475027.78504     -1518.504 4        29.592
C08        46.000                                                                                                                                    39435372.724 4                     -2082.175 4        28.370                                                                    39435346.030 3                     -1691.854 3        22.324
C14        47.000                                                                                                                                    23151281.171 6 120554788.41706     -1047.865 6        41.383    23151277.564 8  93220897.17408      -810.226 8        49.557    23151274.438 6  97960653.93606      -851.423 6        41.499
C41        49.000                                                                                                                                    25232303.321 6 131391263.56906      2573.195 6        38.513                                                                    25232307.025 7 106766166.58307      2090.878 7        43.445
C27        52.000                                                                                                                                    23196164.696 6 120788472.66606      1376.035 6        38.538                                                                    23196150.401 5  98150544.13705      1117.872 5        30.415
C42        54.000                                                                                                                                                                                                                                                                    24398528.371 6 103238153.06906     -2108.672 6        38.913
C36        56.000                                                                                                                                                                                                                                                                    26392960.704 4                       282.976 4        24.962
I06        58.000    38629281.822 6 151589760.20606      -553.058 6        38.979
I01        59.000   368529220.180 6 143047017.95006     -2077.969 6        36.136
> 2025 01 01 20 45 30.0000000  0 36
G10         2.000    20772393.395 7 109159908.04707      -453.557 7        46.488                                    20772394.468 5  85059443.88405      -353.416 5        34.981    20772392.332 6  85059475.86206      -353.601 6        36.888
G23         4.000    21813917.063 7 114632920.36807     -3149.735 7        43.060                                    21813913.857 4  89324317.77404     -2454.348 4        26.527    21813913.385 6  89324364.73506     -2454.413 6        40.260
G08         6.000    20901344.271 5 109837772.76205       938.944 5        34.448                                    20901407.465 1  85587859.88801       731.642 1         6.500    20901343.503 5  85587521.67405       731.667 5        33.479
G27         7.000    20147790.666 8 105877387.83308     -1389.658 8        48.322                                    20147788.163 7  82501796.77507     -1082.849 7        47.143    20147788.495 7  82501855.75707     -1082.850 7        43.727
G21         8.000    22600201.280 4                      1583.729 4        28.360
G30        10.000    25878177.628 3                     -1664.484 3        21.762
E08        12.000                                                                                                                                                                                                    26617813.792 4                       656.900 4        24.346
E13        16.000    24169669.252 6 127012545.28806     -2286.008 6        41.630                                                                    24169666.962 7  94847027.37707     -1707.008 7        44.265    24169668.798 8  97321251.92008     -1751.512 8        48.763
E31        17.000    26863175.160 5 141166922.63405      1135.107 5        35.924                                                                    26863177.600 6 105416988.11306       847.607 6        40.346    26863175.349 5 108166889.10805       869.733 5        35.605
G16        18.000    23102025.664 4 121402006.47504     -4346.917 4        24.707                                    23102032.648 1  94598966.91301     -3387.274 1         5.429
E26        19.000    23814917.210 7 125148241.95807       103.645 7        46.895                                                                    23814913.700 7  93454912.55907        77.367 7        42.663    23814915.064 8  95892859.58608        79.346 8        50.120
E21        22.000    26034662.511 6 136813102.33406     -3731.498 6        38.670                                                                                                                                    26034658.518 5 104830792.88705     -2859.318 5        30.626
S36        23.000    38251944.582 6 201015212.70206      -852.566 6        36.888
S23        24.000    38207444.590 6 200781456.56406      -852.044 6        40.937
R20        26.000    20876115.136 5                      1423.732 5        31.743
E33        28.000    27237163.625 4 143132254.61404      1517.265 4        26.311                                                                    27237154.658 5                      1132.959 5        33.760    27237144.088 6 109672700.43206      1162.810 6        36.019
R19        29.000    20161009.299 5 107847810.66105     -2303.990 5        34.133                                                                    20161002.972 4  83881608.91104     -1791.886 4        28.521
R18        30.000    22787462.848 4 121640980.51514     -3934.485 4        24.286
R04        31.000    20534014.834 7 109958657.25307      1352.173 7        44.612                                                                    20534001.051 6  85523407.76906      1051.689 6        36.775
R03        32.000    21355833.230 6 114319428.26106     -2575.303 6        37.130                                                                    21355830.951 5  88915123.48705     -2002.772 5        30.589
R09        34.000                                                                                                                                    22797249.629 5  94683869.32905     -3738.978 5        34.748
R10        35.000    21598620.467 6 115132838.29306     -2580.692 6        37.989
C33        37.000                                                                                                                                    23026340.064 7 119904133.82007       620.958 7        43.767                                                                    23026349.213 5  97432023.68305       504.717 5        34.505
C37        38.000                                                                                                                                    26265951.475 4                     -3754.902 4        27.317
C28        40.000                                                                                                                                    21493550.175 8 111922816.70508      -776.174 8        49.385                                                                    21493547.667 7  90946235.85107      -630.787 7        42.845
