     3.04           OBSERVATION DATA    M                   RINEX VERSION / TYPE
ssrcrin-15.6.1x                         20250101 053000 UTC PGM / RUN BY / DATE 
(00000000023479385599111004) Septentrio proprietary         COMMENT             
ract                                                        MARKER NAME         
01                                                          MARKER NUMBER       
geodetic                                                    MARKER TYPE         
NFB                 CLIMERS@TUW                             OBSERVER / AGENCY   
3296359             SEPT ASTERX SB3 PROB4.14.4              REC # / TYPE / VERS 
Unknown             Unknown                                 ANT # / TYPE        
  4127445.0959  1206914.4843  4695542.6759                  APPROX POSITION XYZ 
        0.0000        0.0000        0.0000                  ANTENNA: DELTA H/E/N
G   23 X1  C1C L1C D1C S1C C1W S1W C2W L2W D2W S2W C2L L2L  SYS / # / OBS TYPES 
       D2L S2L C5Q L5Q D5Q S5Q C1L L1L D1L S1L              SYS / # / OBS TYPES 
E   21 X1  C1C L1C D1C S1C C6C L6C D6C S6C C5Q L5Q D5Q S5Q  SYS / # / OBS TYPES 
       C7Q L7Q D7Q S7Q C8Q L8Q D8Q S8Q                      SYS / # / OBS TYPES 
S    9 X1  C1C L1C D1C S1C C5I L5I D5I S5I                  SYS / # / OBS TYPES 
R   17 X1  C1C L1C D1C S1C C2P L2P D2P S2P C2C L2C D2C S2C  SYS / # / OBS TYPES 
       C3Q L3Q D3Q S3Q                                      SYS / # / OBS TYPES 
C   25 X1  C1P L1P D1P S1P C5P L5P D5P S5P C2I L2I D2I S2I  SYS / # / OBS TYPES 
       C7I L7I D7I S7I C6I L6I D6I S6I C7D L7D D7D S7D      SYS / # / OBS TYPES 
J   17 X1  C1C L1C D1C S1C C2L L2L D2L S2L C5Q L5Q D5Q S5Q  SYS / # / OBS TYPES 
       C1L L1L D1L S1L                                      SYS / # / OBS TYPES 
I    5 X1  C5A L5A D5A S5A                                  SYS / # / OBS TYPES 
SEPTENTRIO RECEIVERS OUTPUT ALIGNED CARRIER PHASES.         COMMENT             
NO FURTHER PHASE SHIFT APPLIED IN THE RINEX ENCODER.        COMMENT             
G L1C                                                       SYS / PHASE SHIFT   
G L2W                                                       SYS / PHASE SHIFT   
G L2L  0.00000                                              SYS / PHASE SHIFT   
G L5Q  0.00000                                              SYS / PHASE SHIFT   
G L1L  0.00000                                              SYS / PHASE SHIFT   
E L1C  0.00000                                              SYS / PHASE SHIFT   
E L6C  0.00000                                              SYS / PHASE SHIFT   
E L5Q  0.00000                                              SYS / PHASE SHIFT   
E L7Q  0.00000                                              SYS / PHASE SHIFT   
E L8Q  0.00000                                              SYS / PHASE SHIFT   
S L1C                                                       SYS / PHASE SHIFT   
S L5I                                                       SYS / PHASE SHIFT   
R L1C                                                       SYS / PHASE SHIFT   
R L2P  0.00000                                              SYS / PHASE SHIFT   
R L2C                                                       SYS / PHASE SHIFT   
R L3Q  0.00000                                              SYS / PHASE SHIFT   
C L1P  0.00000                                              SYS / PHASE SHIFT   
C L5P  0.00000                                              SYS / PHASE SHIFT   
C L2I                                                       SYS / PHASE SHIFT   
C L7I                                                       SYS / PHASE SHIFT   
C L6I                                                       SYS / PHASE SHIFT   
C L7D                                                       SYS / PHASE SHIFT   
J L1C                                                       SYS / PHASE SHIFT   
J L2L  0.00000                                              SYS / PHASE SHIFT   
J L5Q  0.00000                                              SYS / PHASE SHIFT   
J L1L  0.00000                                              SYS / PHASE SHIFT   
I L5A                                                       SYS / PHASE SHIFT   
  2025     1     1     5    30    0.0000000     GPS         TIME OF FIRST OBS   
 C1C    0.000 C2C    0.000 C2P    0.000                     GLONASS COD/PHS/BIS 
DBHZ                                                        SIGNAL STRENGTH UNIT
    18                                                      LEAP SECONDS        
 24 R01  1 R02 -4 R03  5 R04  6 R05  1 R06 -4 R07  5 R08  6 GLONASS SLOT / FRQ #
    R09 -2 R10 -7 R11  0 R12 -1 R13 -2 R14 -7 R15  0 R16 -1 GLONASS SLOT / FRQ #
    R17  4 R18 -3 R19  3 R20  2 R21  4 R22 -3 R23  3 R24  2 GLONASS SLOT / FRQ #
                                                            END OF HEADER       
> 2025 01 01 05 30  0.0000000  0 37
G30         3.000    21580430.799 6 113405947.94106      1586.464 6        40.472                                    21580432.202 5  88368211.22705      1236.204 5        34.019    21580430.530 5  88368264.23005      1236.270 5        35.343
G07         5.000    20725512.565 8 108913331.99908      -689.666 8        50.173                                    20725508.683 7  84867534.25107      -537.401 7        42.728    20725507.787 6  84867506.23306      -537.396 6        40.284
E34         6.000                                                                                                                                    25387631.451 6  99626560.77606     -2450.050 6        39.640    25387633.674 7 102225468.90907     -2514.106 7        43.130
G05         7.000    23891706.539 5 125551673.09105      2688.125 5        32.042                                    23891694.702 2  97832544.70202      2094.646 2        13.758    23891681.869 5  97832477.74305      2094.184 5        34.090
G09         9.000    21060115.682 6 110671645.93206     -2871.199 6        41.588                                    21060113.476 5  86237655.12305     -2237.299 5        34.738    21060113.848 6  86237646.11306     -2237.317 6        37.369
G20        10.000    21320631.608 7 112040642.20607      1208.044 7        45.938                                    21320627.503 4  87304437.38304       941.330 4        24.812
G04        11.000    23255015.873 4                     -3764.596 4        29.659                                                                                                    23255018.412 5                     -2933.723 5        33.156
E09        12.000    26157832.059 5                     -3003.296 5        32.832                                                                    26157825.917 6 102648968.56006     -2242.693 6        36.684    26157833.315 6 105326704.19906     -2301.081 6        37.463
E31        13.000    26208172.898 6 137724902.80806      -867.359 6        36.541                                                                    26208188.861 5                      -647.645 5        30.174    26208174.236 5 105529508.52905      -664.639 5        34.905
E24        15.000    26372568.960 6 138588790.40206      1515.485 6        37.629                                                                    26372566.258 6 103491680.37406      1131.879 6        37.826    26372565.047 5 106191396.25905      1161.067 5        31.758
E15        16.000    25352571.614 5 133228685.18505      -644.137 5        32.946                                                                    25352568.424 4  99488946.58704      -481.176 4        29.374    25352573.045 6 102084287.82406      -493.340 6        41.781
G06        19.000    23227162.989 5 122059618.82605     -4051.488 5        34.390                                    23227205.583 1  95111365.33101     -3156.982 1         7.875    23227186.542 5                     -3156.926 5        33.796
E05        21.000    21794929.905 8 114533132.82008     -1086.568 8        48.669                                                                    21794929.459 7  85528042.84007      -811.407 7        44.727    21794929.719 8  87759196.32208      -832.525 8        48.228
E13        22.000                                                                                                                                                                                                    28297512.808 5 113942359.76405      1252.618 5        30.445
R07        23.000    19855635.686 8 106288851.58408     -2214.475 8        49.129                                                                    19855633.170 7  82669031.32107     -1722.370 7        45.324
S23        24.000    38103550.746 6 200235440.96706      -828.260 6        40.522
S36        25.000    38165830.258 5 200562844.54805      -831.984 5        33.760
G11        26.000    22333752.128 7 117364363.47707     -2177.917 7        43.831                                    22333748.015 4  91452958.96004     -1697.078 4        27.425    22333749.358 6  91452952.90106     -1697.126 6        38.721
E03        27.000    25105706.006 6 131931398.19506      1041.260 6        37.248                                                                    25105706.221 6  98520216.50806       777.595 6        41.723    25105707.362 7 101090345.96707       798.033 7        43.054
R10        30.000    20810766.667 6 110933145.05906      2575.693 6        38.931
R24        31.000    22382974.697 7 119691865.46007      -345.165 7        42.051                                                                    22382975.647 6  93093778.90606      -268.464 6        40.470
R09        32.000    19903072.472 8 106281269.87908      -888.874 8        48.066                                                                    19903074.567 7  82663223.52207      -691.417 7        43.048
C19        33.000                                                                                                                                    23352224.140 7 121601140.05807     -2908.766 7        46.564                                                                    23352219.263 7  98810886.35807     -2363.676 7        44.542
C34        34.000                                                                                                                                    25705521.758 5 133855412.65805     -1872.561 5        33.479                                                                    25705581.272 4                     -1521.958 4        25.850
R08        35.000    19985271.706 7 107020243.26607       959.987 7        45.037                                                                    19985265.353 7  83237951.95007       746.559 7        46.311
C05        36.000                                                                                                                                                                                                    39179764.347 5 157760678.44905      -681.630 5        33.269
R01        38.000    24113404.408 5 128899931.60405      2693.071 5        33.413
R16        39.000    22820343.245 5 121902259.88205     -4484.771 5        34.471
C06        41.000                                                                                                                                                                                                    39963582.183 4                     -1457.315 4        27.665
C36        42.000                                                                                                                                    22360292.185 8 116435894.50908       845.943 8        48.086                                                                    22360296.639 8  94613749.73808       687.257 8        48.158
C09        46.000                                                                                                                                    39295667.906 5                     -1605.633 5        31.660    39295652.754 4                     -1241.653 4        29.318    39295644.159 4                     -1305.012 4        28.427
C21        47.000                                                                                                                                    24859462.514 6 129449798.38206      1912.603 6        37.569                                                                    24859437.282 5 105188446.41405      1554.124 5        35.357
C45        49.000                                                                                                                                    25242371.559 5 131443604.44105      2634.588 5        34.376                                                                    25242353.761 5 106808665.82605      2140.559 5        35.443
C22        50.000                                                                                                                                    21508713.235 8 112001482.87008      -174.689 8        49.275                                                                    21508705.867 6  91010370.49506      -142.009 6        41.490
C44        51.000                                                                                                                                    26195328.677 4 136405895.12104     -3504.991 4        27.389
C12        56.000                                                                                                                                    25671750.894 4                     -2909.236 4        24.782
I06        60.000    37916496.984 5 148792480.07905      -616.968 5        35.490
> 2025 01 01 05 30  5.0000000  0 39
G16         1.000    23873480.823 3                     -2537.893 3        22.324
G30         3.000    21578921.716 6 113398020.75906      1584.476 6        41.290                                    21578923.212 5  88362034.19505      1234.658 5        32.988    21578921.298 5  88362087.22305      1234.521 5        33.922
G07         5.000    20726169.936 8 108916786.95008      -692.272 8        50.399                                    20726165.766 7  84870226.41307      -539.432 7        42.609    20726164.755 6  84870198.38706      -539.447 6        40.374
E34         6.000                                                                                                                                    25390753.345 6  99638814.61406     -2451.287 6        38.685    25390756.734 7 102238042.41307     -2515.317 7        43.647
G05         7.000    23889148.364 5 125538234.74205      2687.305 5        32.605                                    23889135.489 2  97822073.34302      2094.014 2        15.286    23889124.517 5  97822006.33205      2093.949 5        33.323
G09         9.000    21062847.749 6 110686005.40106     -2872.551 6        41.015                                    21062845.879 5  86248844.31405     -2238.357 5        34.443    21062846.381 6  86248835.32306     -2238.366 6        37.607
G20        10.000    21319483.201 7 112034608.51407      1205.520 7        46.638                                    21319480.089 4  87299735.80404       939.361 4        25.444
G04        11.000    23258598.824 5                     -3766.082 5        30.725                                                                                                    23258605.994 5                     -2934.168 5        33.629
E09        12.000    26160693.007 5 137475372.14715     -3003.678 5        33.868                                                                    26160683.908 6 102660183.05306     -2242.991 6        36.991    26160691.558 6 105338211.26906     -2301.601 6        37.006
E31        13.000    26209000.279 6 137729246.21806      -869.899 6        36.000                                                                    26209016.817 5                      -649.650 5        30.181    26209000.717 5 105532836.59505      -666.692 5        34.981
E24        15.000    26371128.193 6 138581217.01206      1514.131 6        38.703                                                                    26371125.389 6 103486024.91706      1130.637 6        38.225    26371123.194 5 106185593.23205      1160.130 5        30.234
E15        16.000    25353187.225 5 133231911.47705      -646.470 5        34.824                                                                    25353182.743 4  99491355.88704      -482.993 4        28.730    25353187.166 6 102086759.93506      -495.436 6        41.449
G06        19.000    23231018.577 5 122079880.17605     -4052.856 5        32.030                                    23231062.393 1  95127153.47201     -3158.001 1         6.625    23231042.736 5  95127234.45215     -3158.135 5        34.090
E05        21.000    21795964.116 8 114538568.66208     -1087.668 8        48.869                                                                    21795963.983 7  85532102.07207      -812.227 7        44.852    21795964.241 8  87763361.44808      -833.404 8        48.396
E13        22.000                                                                                                                                    28295999.778 4                      1219.766 4        25.985    28295960.401 5 113936100.89805      1250.953 5        30.279
R07        23.000    19857705.316 8 106299929.85108     -2216.717 8        48.769                                                                    19857702.167 7  82677647.73907     -1724.118 7        44.479
S23        24.000    38104337.256 6 200239582.40906      -828.325 6        40.513
S36        25.000    38166623.908 5 200567004.89505      -831.940 5        33.635
G11        26.000    22335826.712 7 117375261.25007     -2181.080 7        44.525                                    22335821.502 4  91461450.70804     -1699.542 4        27.988    22335823.082 6  91461444.64606     -1699.315 6        37.648
E03        27.000    25104713.627 6 131926193.86006      1040.460 6        36.072                                                                    25104716.097 6  98516330.15606       776.994 6        41.754    25104716.938 7 101086358.23207       797.257 7        43.147
R10        30.000    20808352.915 6 110920274.24006      2572.770 6        38.099
R24        31.000    22383302.084 7 119693602.65107      -349.648 7        43.414                                                                    22383300.957 6  93095130.06306      -271.993 6        40.215
R09        32.000    19903907.797 8 106285726.11608      -893.475 8        48.541                                                                    19903908.430 7  82666689.47107      -694.959 7        43.443
C19        33.000                                                                                                                                    23355018.887 7 121615687.32707     -2910.176 7        47.193                                                                    23355012.650 7  98822707.20607     -2364.637 7        44.179
C34        34.000                                                                                                                                    25707321.736 5 133864782.27005     -1875.199 5        30.853                                                                    25707382.326 4                     -1524.254 4        25.805
R08        35.000    19984373.857 7 107015448.44507       958.148 7        45.550                                                                    19984369.864 7  83234222.65407       745.273 7        46.194
C05        36.000                                                                                                                                                                                                    39180610.932 5 157764087.85405      -681.834 5        33.245
R01        38.000    24110883.911 4 128886466.52204      2693.209 4        29.791
R16        39.000    22824544.711 5 121924689.52205     -4487.203 5        35.733
C06        41.000                                                                                                                                                                                                    39965391.057 4                     -1456.617 4        26.838
C36        42.000                                                                                                                                    22359481.623 7 116431671.54107       843.380 7        47.706                                                                    22359485.676 7  94610318.21807       685.370 7        47.937
R23        44.000    22337694.579 4                     -4088.357 4        26.790
C09        46.000                                                                                                                                    39297210.379 5                     -1605.980 5        32.257    39297193.067 4                     -1242.093 4        29.289    39297186.958 4                     -1304.934 4        28.057
C21        47.000                                                                                                                                    24857625.133 6 129440236.54306      1912.246 6        38.051                                                                    24857601.305 5 105180676.69605      1554.032 5        35.167
C45        49.000                                                                                                                                    25239839.286 5 131430432.98805      2634.214 5        35.124                                                                    25239824.413 5 106797962.94605      2140.317 5        35.395
C22        50.000                                                                                                                                    21508882.007 8 112002361.22008      -176.513 8        48.604                                                                    21508874.708 6  91011084.23106      -143.415 6        41.733
C44        51.000                                                                                                                                    26198689.645 3                     -3505.888 3        22.419
C12        56.000                                                                                                                                    25674538.718 3                     -2911.639 3        23.200
I06        60.000    37917283.135 5 148795564.98805      -617.009 5        35.443
> 2025 01 01 05 30 10.0000000  0 38
G16         1.000    23875897.807 3                     -2542.328 3        23.029
G30         3.000    21577415.908 6 113390104.24906      1582.137 6        41.528                                    21577415.931 5  88355865.48905      1232.828 5        31.517    21577415.399 5  88355918.51905      1233.093 5        32.748
G07         5.000    20726829.932 8 108920254.83308      -694.989 8        50.051                                    20726825.451 7  84872928.65407      -541.546 7        42.400    20726825.053 6  84872900.63306      -541.458 6        40.949
E34         6.000    25393895.338 5 133445737.83215     -3284.363 5        32.689                                                                    25393877.099 6  99651074.88506     -2452.733 6        37.758    25393881.170 7 102250622.53707     -2516.747 7        44.221
G05         7.000    23886591.901 5 125524801.29105      2686.092 5        33.874                                    23886576.983 2  97811605.77902      2093.045 2        17.660    23886568.231 5  97811538.80205      2093.215 5        32.976
G09         9.000    21065582.523 6 110700372.85706     -2874.374 6        40.200                                    21065579.963 5  86260039.72205     -2239.776 5        34.310    21065581.055 6  86260030.73406     -2239.785 6        38.270
G20        10.000    21318337.531 7 112028587.47407      1202.884 7        46.758                                    21318335.005 4  87295044.08104       937.308 4        25.729
G04        11.000    23262180.070 5                     -3766.588 5        30.891                                                                                                    23262191.315 5                     -2934.843 5        33.497
E09        12.000    26163542.844 5 137490392.44005     -3004.546 5        34.771                                                                    26163542.704 6 102671399.46206     -2243.413 6        37.350    26163551.002 6 105349720.29506     -2302.105 6        36.817
E31        13.000    26209829.261 5 137733602.55305      -872.962 5        35.195                                                                    26209848.155 4                      -651.396 4        28.796    26209830.353 5 105536174.55505      -668.533 5        35.214
E24        15.000    26369689.144 6 138573651.35606      1512.318 6        39.237                                                                    26369685.877 6 103480375.23406      1129.477 6        38.315    26369682.625 5 106179796.17205      1158.836 5        30.928
E15        16.000    25353803.646 5 133235151.25405      -649.317 5        35.405                                                                    25353799.890 4  99493775.17604      -484.956 4        29.118    25353803.586 6 102089242.38206      -497.646 6        41.671
G06        19.000    23234878.915 4 122100148.62604     -4054.446 4        29.886                                    23234920.585 1  95142947.24101     -3159.254 1         5.286    23234899.778 5  95143028.13305     -3159.566 5        33.443
E05        21.000    21797000.016 8 114544010.50108     -1089.045 8        48.876                                                                    21796999.534 7  85536165.78607      -813.236 7        44.712    21796999.718 8  87767531.17608      -834.515 8        48.687
E13        22.000                                                                                                                                    28294441.525 4                      1218.107 4        24.872    28294407.987 5 113929847.72105      1250.186 5        30.370
R07        23.000    19859776.028 7 106311019.47707     -2219.139 7        47.998                                                                    19859773.510 7  82686273.00607     -1726.020 7        43.736
S23        24.000    38105126.819 6 200243724.36506      -828.485 6        40.582
S36        25.000    38167412.671 5 200571165.92905      -832.532 5        33.874
G11        26.000    22337903.809 7 117386174.86107     -2184.376 7        44.576                                    22337897.971 4  91469954.80304     -1702.106 4        27.772    22337900.200 6  91469948.74706     -1701.993 6        36.862
E03        27.000    25103724.526 6 131920993.53606      1039.781 6        36.068                                                                    25103726.695 6  98512446.80506       776.389 6        41.597    25103727.163 7 101082373.57607       796.655 7        43.596
R10        30.000    20805941.473 6 110907419.02206      2569.505 6        38.342
R24        31.000    22383632.464 7 119695362.52807      -354.277 7        44.101                                                                    22383630.960 6  93096498.82506      -275.476 6        39.018
R09        32.000    19904747.058 8 106290205.63108      -898.278 8        48.990                                                                    19904746.465 7  82670173.53807      -698.668 7        43.829
C19        33.000                                                                                                                                    23357814.636 7 121630241.78607     -2911.717 7        47.845                                                                    23357807.582 7  98834533.90207     -2366.018 7        43.835
C34        34.000                                                                                                                                    25709129.713 4 133874164.42304     -1877.519 4        29.649                                                                    25709183.312 4                     -1526.626 4        24.421
R08        35.000    19983478.745 7 107010662.69907       956.156 7        45.983                                                                    19983475.985 7  83230500.42007       743.707 7        46.546
C05        36.000                                                                                                                                                                                                    39181457.960 5 157767497.78005      -682.258 5        33.509
R01        38.000    24108366.326 4 128873000.93604      2692.695 4        27.557
R16        39.000    22828746.790 5                     -4489.708 5        34.676
C06        41.000                                                                                                                                                                                                    39967197.356 4                     -1457.260 4        26.778
C36        42.000                                                                                                                                    22358672.994 7 116427461.37707       840.678 7        47.518                                                                    22358677.260 7  94606897.10107       683.143 7        47.689
R23        44.000    22341520.996 5                     -4091.801 5        30.325
C09        46.000                                                                                                                                    39298753.907 5                     -1606.283 5        32.599    39298735.513 4                     -1242.179 4        29.706    39298728.014 4                     -1304.917 4        27.665
C21        47.000                                                                                                                                    24855787.106 6 129430677.37306      1911.521 6        38.913                                                                    24855765.943 5 105172909.11305      1553.411 5        35.276
C45        49.000                                                                                                                                    25237307.937 5 131417264.70805      2633.405 5        35.614                                                                    25237295.384 5 106787262.62905      2139.562 5        35.067
C22        50.000                                                                                                                                    21509052.670 7 112003248.62007      -178.493 7        47.725                                                                    21509045.229 7  91011805.30007      -144.906 7        42.188
C12        56.000                                                                                                                                    25677327.311 4                     -2912.958 4        24.421                                                                    25677352.896 6 108649196.78316     -2367.240 6        36.049
I06        60.000    37918068.457 5 148798650.56305      -617.225 5        35.252
> 2025 01 01 05 30 15.0000000  0 36
G30         3.000    21575910.913 7 113382198.54007      1580.003 7        42.686                                    21575910.202 5  88349705.19105      1231.170 5        30.008    21575910.797 5  88349758.23805      1231.227 5        30.891
G07         5.000    20727492.328 8 108923735.75008      -697.529 8        49.336                                    20727487.730 7  84875641.05307      -543.528 7        42.286    20727487.517 6  84875613.05306      -543.656 6        41.166
E34         6.000    25397009.325 5 133462164.52005     -3286.205 5        33.245                                                                    25397002.635 6  99663341.66006     -2454.219 6        36.624    25397006.669 7 102263209.32907     -2518.140 7        44.518
G05         7.000    23884038.471 6 125511372.89706      2684.942 6        36.703                                    23884019.059 3  97801142.15003      2092.157 3        19.940    23884014.301 5  97801075.13805      2092.591 5        33.707
G09         9.000    21068319.185 6 110714748.32706     -2876.023 6        40.129                                    21068315.653 5  86271241.38305     -2241.052 5        34.505    21068316.643 6  86271232.36606     -2241.053 6        38.387
G20        10.000    21317194.397 7 112022579.19707      1200.338 7        47.125                                    21317192.175 4  87290362.29704       935.329 4        25.534
G04        11.000    23265766.030 5                     -3767.225 5        32.102                                                                                                    23265773.379 5                     -2935.516 5        32.742
E09        12.000    26166398.083 5 137505415.37405     -3005.040 5        34.757                                                                    26166402.044 6 102682617.87506     -2243.788 6        37.716    26166411.866 6 105361231.38106     -2302.471 6        36.994
E31        13.000    26210661.425 5 137737971.86605      -875.079 5        34.252                                                                    26210684.362 4                      -653.505 4        28.626    26210663.354 5 105539522.49905      -670.794 5        35.652
E24        15.000    26368250.722 6 138566093.49606      1510.794 6        39.700                                                                    26368247.930 6 103474731.37006      1128.243 6        38.793    26368244.229 5 106174005.08305      1157.809 5        30.860
E15        16.000    25354421.352 5 133238404.59405      -651.989 5        34.457                                                                    25354419.576 5  99496204.70705      -487.292 5        30.355    25354422.733 6 102091735.23106      -499.670 6        41.816
G06        19.000                                                                                                                                                                    23238761.825 5  95158827.40505     -3160.928 5        31.774
E05        21.000    21798037.053 8 114549458.43408     -1090.226 8        49.050                                                                    21798036.170 7  85540234.04807      -814.155 7        44.935    21798036.346 8  87771705.56908      -835.393 8        48.954
E13        22.000    28292868.567 4 148680026.50414      1629.853 4        27.880                                                                    28292885.248 4                      1216.805 4        24.737    28292857.434 5 113923600.55405      1248.353 5        30.121
R07        23.000    19861848.911 7 106322120.64507     -2221.437 7        47.259                                                                    19861846.935 7  82694907.23307     -1727.709 7        43.160
S23        24.000    38105917.496 6 200247867.10606      -828.761 6        40.534
S36        25.000    38168205.642 5 200575327.69305      -832.348 5        34.105
G11        26.000    22339983.782 7 117397104.40607     -2187.527 7        45.195                                    22339977.383 4  91478471.31604     -1704.552 4        27.413    22339980.255 5  91478465.28505     -1704.623 5        35.924
E03        27.000    25102735.212 5 131915797.37805      1038.672 5        35.405                                                                    25102738.108 6  98508566.55806       775.733 6        41.957    25102738.274 7 101078392.10307       795.964 7        43.973
R10        30.000    20803532.640 6 110894579.23606      2566.501 6        38.078
R24        31.000    22383966.062 7 119697145.01907      -358.875 7        44.852                                                                    22383965.715 6  93097885.20506      -279.163 6        38.396
R09        32.000    19905590.694 8 106294708.86008      -903.064 8        48.807                                                                    19905589.683 7  82673676.03107      -702.333 7        45.023
C19        33.000                                                                                                                                    23360610.990 8 121644803.54708     -2913.170 8        48.198                                                                    23360604.027 7  98846366.54307     -2367.322 7        42.959
C34        34.000                                                                                                                                    25710935.887 4 133883559.07604     -1879.769 4        28.114                                                                    25710986.632 3                     -1528.032 3        21.143
R08        35.000    19982587.502 7 107005886.14407       954.323 7        46.230                                                                    19982584.157 7  83226785.31807       742.302 7        46.718
C05        36.000                                                                                                                                                                                                    39182305.163 5 157770908.25005      -682.131 5        33.431
R16        39.000    22832952.748 5                     -4492.037 5        34.633                                                                    22832993.183 3                     -3494.747 3        22.552
C06        41.000                                                                                                                                                                                                    39969006.087 4                     -1456.740 4        26.946
C36        42.000                                                                                                                                    22357867.345 7 116423264.13507       838.069 7        47.699                                                                    22357871.296 7  94603486.49407       681.002 7        47.237
R23        44.000    22345343.992 3                     -4094.252 3        21.500
C09        46.000                                                                                                                                    39300297.221 5                     -1606.523 5        32.461    39300277.579 4                     -1241.910 4        29.384    39300269.623 4                     -1305.025 4        26.108
C21        47.000                                                                                                                                    24853948.763 6 129421120.97206      1910.936 6        39.769                                                                    24853930.863 5 105165143.77405      1552.693 5        34.933
C45        49.000                                                                                                                                    25234779.621 5 131404099.68105      2632.634 5        35.948                                                                    25234767.187 5 106776564.93305      2139.456 5        34.976
C22        50.000                                                                                                                                    21509224.834 7 112004145.16307      -180.300 7        46.600                                                                    21509217.492 7  91012533.82407      -146.659 7        42.199
C12        56.000                                                                                                                                    25680129.127 4                     -2915.321 4        26.144                                                                    25680141.662 6 108661035.87006     -2368.666 6        36.507
I06        60.000    37918855.841 5 148801736.81605      -617.401 5        34.995
> 2025 01 01 05 30 20.0000000  0 36
G30         3.000    21574408.795 7 113374303.05807      1578.001 7        44.071                                    21574406.221 4  88343552.86304      1229.615 4        28.142    21574408.575 4  88343605.89904      1229.762 4        29.839
G07         5.000    20728156.994 8 108927229.15108      -699.937 8        48.505                                    20728152.503 7  84878363.17907      -545.410 7        42.148    20728151.893 6  84878335.18106      -545.477 6        41.521
E34         6.000    25400131.400 5 133478599.44605     -3287.754 5        32.419                                                                    25400129.518 5  99675614.48905     -2455.100 5        35.129    25400133.710 7 102275802.33607     -2519.287 7        44.594
G05         7.000    23881483.786 6 125497948.88606      2684.271 6        37.372                                    23881462.588 3  97790681.91203      2091.632 3        21.429    23881460.522 5  97790614.90105      2091.653 5        34.276
G09         9.000    21071056.927 6 110729131.22306     -2877.265 6        40.174                                    21071052.693 5  86282448.82405     -2242.028 5        35.019    21071053.240 6  86282439.82506     -2242.274 6        38.583
G20        10.000    21316053.213 7 112016583.11207      1198.019 7        47.637                                    21316051.830 4  87285690.00404       933.533 4        25.684
G04        11.000    23269351.578 5                     -3767.493 5        31.955                                                                                                    23269353.861 5                     -2935.869 5        31.449
E09        12.000    26169258.125 5 137520440.37605     -3005.077 5        34.600                                                                    26169261.382 6 102693837.85706     -2244.282 6        37.788    26169272.843 6 105372744.08706     -2302.933 6        36.843
E31        13.000    26211496.072 5 137742353.67705      -877.610 5        33.790                                                                    26211525.219 4                      -655.264 4        29.820    26211498.709 5 105542879.97005      -672.276 5        35.510
E24        15.000    26366813.431 6 138558542.92606      1509.394 6        39.760                                                                    26366811.247 6 103469092.95806      1127.114 6        38.835    26366807.957 5 106168219.58005      1156.897 5        31.743
E15        16.000    25355042.986 5 133241670.96405      -654.649 5        34.957                                                                    25355041.110 5  99498643.92505      -488.936 5        32.198    25355044.209 6 102094238.04606      -501.602 6        41.790
G06        19.000    23242614.196 3                     -4057.441 3        23.733                                                                                                    23242629.161 4  95174631.81904     -3161.066 4        27.772
E05        21.000    21799074.834 8 114554911.87308     -1091.191 8        49.279                                                                    21799074.023 7  85544306.41407      -814.832 7        45.097    21799073.968 8  87775884.17808      -836.117 8        49.047
E13        22.000    28291315.597 4 148671880.70404      1628.639 4        27.916                                                                                                                                    28291307.185 5 113917358.85805      1247.964 5        30.574
R07        23.000    19863924.603 7 106333232.51507     -2223.542 7        45.947                                                                    19863922.914 7  82703549.81607     -1729.299 7        42.455
S23        24.000    38106702.462 6 200252010.07206      -828.547 6        40.603
S36        25.000    38168997.700 5 200579489.93105      -832.243 5        33.856
G11        26.000    22342066.604 7 117408049.29407     -2190.607 7        45.428                                    22342059.679 4  91486999.79104     -1706.972 4        26.826    22342062.477 6  91486993.75606     -1706.882 6        36.091
E03        27.000    25101745.803 5 131910604.79905      1038.211 5        34.910                                                                    25101749.889 6  98504688.96406       775.252 6        41.850    25101749.887 7 101074413.35007       795.480 7        44.080
R10        30.000    20801125.919 6 110881754.51506      2563.315 6        37.478
R24        31.000    22384302.623 7 119698949.58107      -363.068 7        44.996                                                                    22384302.482 6  93099288.75406      -282.483 6        38.568
R09        32.000    19906438.483 8 106299234.76208      -907.463 8        48.402                                                                    19906437.712 7  82677196.18807      -705.849 7        45.061
C19        33.000                                                                                                                                    23363408.219 7 121659372.03007     -2914.405 7        47.896                                                                    23363401.595 7  98858204.61407     -2368.249 7        42.506
C34        34.000                                                                                                                                    25712748.334 4 133892965.65804     -1882.354 4        29.204                                                                    25712791.625 3                     -1538.725 3        18.776
R08        35.000    19981696.790 7 107001118.20107       952.737 7        46.889                                                                    19981693.240 7  83223076.92107       740.995 7        46.308
C05        36.000                                                                                                                                                                                                    39183151.918 5 157774318.86405      -682.185 5        33.275
R16        39.000    22837164.216 5 121992051.63015     -4494.161 5        32.551                                                                    22837200.300 4                     -3495.177 4        25.789
C06        41.000                                                                                                                                                                                                    39970813.087 4                     -1456.770 4        27.725
C36        42.000                                                                                                                                    22357063.327 7 116419079.23207       835.726 7        47.583                                                                    22357067.704 7  94600085.89607       679.089 7        47.246
C09        46.000                                                                                                                                    39301842.108 5                     -1606.372 5        32.766    39301820.512 4                     -1242.203 4        29.583    39301812.570 4                     -1305.332 4        26.084
C21        47.000                                                                                                                                    24852112.745 6 129411566.72406      1910.638 6        40.005                                                                    24852096.638 5 105157380.16605      1552.650 5        35.252
C45        49.000                                                                                                                                    25232251.868 5 131390937.30205      2632.110 5        35.905                                                                    25232239.452 5 106765869.45905      2138.835 5        35.233
C22        50.000                                                                                                                                    21509398.737 7 112005050.27507      -181.832 7        45.543                                                                    21509391.333 7  91013269.27607      -147.901 7        42.781
C44        51.000                                                                                                                                    26208786.931 3                     -3507.409 3        21.619
C12        56.000                                                                                                                                    25682934.730 4                     -2916.773 4        27.593                                                                    25682938.728 6 108672882.06906     -2370.042 6        36.495
I06        60.000    37919642.596 5 148804823.32405      -617.303 5        34.957
> 2025 01 01 05 30 25.0000000  0 36
G16         1.000    23883111.808 4                     -2551.959 4        29.545
G30         3.000    21572909.141 7 113366417.16407      1576.151 7        44.044                                    21572904.176 4  88337408.01104      1228.164 4        26.024    21572906.867 4  88337461.03104      1228.611 4        28.986
G07         5.000    20728824.248 8 108930734.41608      -702.285 8        48.016                                    20728819.576 7  84881094.55407      -547.232 7        42.104    20728818.882 6  84881066.55206      -547.194 6        41.685
E34         6.000    25403260.161 5 133495041.89005     -3289.705 5        32.988                                                                    25403257.790 5  99687892.91005     -2456.463 5        34.176    25403262.044 7 102288401.07207     -2520.408 7        44.855
G05         7.000    23878928.362 6 125484528.58506      2683.633 6        37.096                                    23878907.453 3  97780224.54803      2091.140 3        22.400    23878907.670 5  97780157.54305      2091.335 5        35.029
G09         9.000    21073795.518 6 110743520.94006     -2878.805 6        40.605                                    21073791.007 5  86293661.58405     -2243.221 5        35.643    21073791.337 6  86293652.57306     -2243.144 6        38.859
G20        10.000    21314914.373 7 112010598.62407      1195.613 7        47.405                                    21314913.391 4  87281026.74804       931.639 4        25.519
G04        11.000    23272937.412 5                     -3768.085 5        30.891                                                                                                    23272937.093 5                     -2936.376 5        30.143
E09        12.000    26172119.125 5 137535466.87705     -3005.710 5        35.086                                                                    26172120.858 6 102705058.88306     -2244.295 6        38.486    26172133.359 6 105384257.87206     -2302.793 6        36.420
E31        13.000    26212332.227 5 137746747.28605      -880.049 5        33.455                                                                    26212366.148 5                      -657.207 5        31.758    26212337.580 5 105546246.50305      -674.311 5        35.100
E24        15.000    26365377.995 6 138550998.95806      1508.086 6        39.934                                                                    26365375.732 6 103463459.47106      1126.138 6        39.087    26365373.849 5 106162439.13505      1155.890 5        32.958
E15        16.000    25355667.886 6 133244949.70906      -657.092 6        36.491                                                                    25355665.553 5  99501092.34705      -490.587 5        34.343    25355668.020 6 102096750.35006      -503.442 6        41.645
E05        21.000    21800113.619 8 114560370.19908     -1092.312 8        49.783                                                                    21800112.593 7  85548382.42507      -815.640 7        45.508    21800112.522 8  87780066.52408      -836.889 8        49.003
E13        22.000    28289765.928 4 148663741.41504      1626.623 4        28.190                                                                    28289767.490 4                      1214.944 4        27.341    28289757.552 5 113911122.31105      1246.436 5        30.347
R07        23.000    19866002.361 7 106344354.59407     -2225.528 7        44.719                                                                    19865999.658 6  82712200.30606     -1730.860 6        41.020
S23        24.000    38107493.814 6 200256152.44006      -828.437 6        40.515
S36        25.000    38169788.037 5 200583651.42405      -832.456 5        34.186
G11        26.000    22344152.032 7 117419008.88407     -2193.498 7        45.114                                    22344144.940 4  91495539.71904     -1709.219 4        26.108    22344148.268 6  91495533.67406     -1709.332 6        36.106
E03        27.000    25100757.668 5 131905415.13505      1037.586 5        33.473                                                                    25100761.997 7  98500813.56007       774.842 7        42.064    25100762.296 7 101070436.84007       794.969 7        44.170
R10        30.000    20798723.093 6 110868944.11206      2560.668 6        36.480
R24        31.000    22384643.219 7 119700775.61307      -367.557 7        45.374                                                                    22384643.751 6  93100709.00506      -285.816 6        38.577
R09        32.000    19907289.795 7 106303782.81007      -911.932 7        47.076                                                                    19907289.073 7  82680733.56907      -709.255 7        45.093
C19        33.000                                                                                                                                    23366206.190 7 121673946.60607     -2915.603 7        47.111                                                                    23366200.321 6  98870047.64806     -2369.235 6        41.976
C34        34.000                                                                                                                                    25714560.544 5 133902383.61605     -1884.815 5        32.353
R08        35.000    19980807.684 8 106996358.15008       951.119 8        48.125                                                                    19980803.687 7  83219374.65407       739.731 7        46.234
C05        36.000                                                                                                                                                                                                    39183999.425 5 157777729.10105      -682.133 5        33.485
R01        38.000    24100772.168 4                      2693.549 4        29.128
C06        41.000                                                                                                                                                                                                    39972622.914 4                     -1457.069 4        28.540
C36        42.000                                                                                                                                    22356261.711 7 116414906.04907       833.361 7        47.664                                                                    22356266.432 7  94596694.84907       677.193 7        47.198
C09        46.000                                                                                                                                    39303385.864 5                     -1606.589 5        32.976    39303362.654 4                     -1242.218 4        29.545    39303354.569 4                     -1305.453 4        26.551
C21        47.000                                                                                                                                    24850278.054 6 129402014.05406      1910.247 6        39.354                                                                    24850262.116 5 105149617.88605      1551.969 5        35.733
C45        49.000                                                                                                                                    25229724.056 5 131377777.00105      2631.428 5        35.957                                                                    25229712.567 5 106755175.67505      2138.396 5        35.724
C22        50.000                                                                                                                                    21509574.261 7 112005963.32607      -183.381 7        44.922                                                                    21509566.900 7  91014011.20807      -149.102 7        43.293
C44        51.000                                                                                                                                    26212149.730 3                     -3505.381 3        20.262
C12        56.000                                                                                                                                                                                                                                                                    25685738.565 6 108684734.85606     -2371.278 6        36.306
I06        60.000    37920428.750 5 148807909.67005      -617.207 5        34.752
> 2025 01 01 05 30 30.0000000  0 36
G30         3.000    21571408.939 7 113358541.04107      1574.390 7        42.718                                    21571403.978 3  88331270.77703      1226.776 3        23.829    21571408.090 5  88331323.84105      1226.869 5        30.838
G07         5.000    20729493.996 8 108934251.66908      -704.505 8        48.219                                    20729488.888 6  84883835.27006      -548.961 6        41.952    20729488.216 6  84883807.25706      -549.050 6        40.815
E34         6.000    25406390.423 5 133511491.96405     -3290.611 5        33.305                                                                    25406387.199 5  99700177.03305     -2457.204 5        33.461    25406391.931 7 102301005.65207     -2521.483 7        44.977
G05         7.000    23876373.106 5 125471112.28405      2683.096 5        35.800                                    23876353.450 3  97769770.29303      2090.719 3        22.076    23876354.706 5  97769703.29105      2090.709 5        35.619
G09         9.000    21076534.408 6 110757917.62806     -2879.989 6        40.944                                    21076530.681 6  86304879.77306     -2244.148 6        36.250    21076530.898 6  86304870.76106     -2244.214 6        38.898
G20        10.000    21313777.831 7 112004625.88707      1193.508 7        47.393                                    21313777.299 4  87276372.65604       930.012 4        24.586
G04        11.000    23276521.248 4                     -3768.402 4        28.464                                                                                                    23276520.320 4                     -2936.881 4        29.062
E09        12.000    26174979.831 5 137550494.94605     -3005.682 5        35.462                                                                    26174980.776 6 102716281.14606     -2244.461 6        38.784    26174994.554 5 105395772.91005     -2303.146 5        35.910
E31        13.000    26213171.049 5 137751152.85505      -882.218 5        33.060                                                                    26213206.576 5                      -658.814 5        33.036    26213178.935 5 105549622.17905      -676.024 5        34.329
