     3.04           OBSERVATION DATA    M                   RINEX VERSION / TYPE
ssrcrin-15.6.1x                         20250101 043000 UTC PGM / RUN BY / DATE 
(00000000023479385599111004) Septentrio proprietary         COMMENT             
ract                                                        MARKER NAME         
01                                                          MARKER NUMBER       
geodetic                                                    MARKER TYPE         
NFB                 CLIMERS@TUW                             OBSERVER / AGENCY   
3296359             SEPT ASTERX SB3 PROB4.14.4              REC # / TYPE / VERS 
Unknown             Unknown                                 ANT # / TYPE        
  4127446.8503  1206915.0127  4695543.4812                  APPROX POSITION XYZ 
        0.0000        0.0000        0.0000                  ANTENNA: DELTA H/E/N
G   23 X1  C1C L1C D1C S1C C1W S1W C2W L2W D2W S2W C2L L2L  SYS / # / OBS TYPES 
       D2L S2L C5Q L5Q D5Q S5Q C1L L1L D1L S1L              SYS / # / OBS TYPES 
E   21 X1  C1C L1C D1C S1C C6C L6C D6C S6C C5Q L5Q D5Q S5Q  SYS / # / OBS TYPES 
       C7Q L7Q D7Q S7Q C8Q L8Q D8Q S8Q                      SYS / # / OBS TYPES 
S    9 X1  C1C L1C D1C S1C C5I L5I D5I S5I                  SYS / # / OBS TYPES 
R   17 X1  C1C L1C D1C S1C C2P L2P D2P S2P C2C L2C D2C S2C  SYS / # / OBS TYPES 
       C3Q L3Q D3Q S3Q                                      SYS / # / OBS TYPES 
C   25 X1  C1P L1P D1P S1P C5P L5P D5P S5P C2I L2I D2I S2I  SYS / # / OBS TYPES 
       C7I L7I D7I S7I C6I L6I D6I S6I C7D L7D D7D S7D      SYS / # / OBS TYPES 
J   17 X1  C1C L1C D1C S1C C2L L2L D2L S2L C5Q L5Q D5Q S5Q  SYS / # / OBS TYPES 
       C1L L1L D1L S1L                                      SYS / # / OBS TYPES 
I    5 X1  C5A L5A D5A S5A                                  SYS / # / OBS TYPES 
SEPTENTRIO RECEIVERS OUTPUT ALIGNED CARRIER PHASES.         COMMENT             
NO FURTHER PHASE SHIFT APPLIED IN THE RINEX ENCODER.        COMMENT             
G L1C                                                       SYS / PHASE SHIFT   
G L2W                                                       SYS / PHASE SHIFT   
G L2L  0.00000                                              SYS / PHASE SHIFT   
G L5Q  0.00000                                              SYS / PHASE SHIFT   
G L1L  0.00000                                              SYS / PHASE SHIFT   
E L1C  0.00000                                              SYS / PHASE SHIFT   
E L6C  0.00000                                              SYS / PHASE SHIFT   
E L5Q  0.00000                                              SYS / PHASE SHIFT   
E L7Q  0.00000                                              SYS / PHASE SHIFT   
E L8Q  0.00000                                              SYS / PHASE SHIFT   
S L1C                                                       SYS / PHASE SHIFT   
S L5I                                                       SYS / PHASE SHIFT   
R L1C                                                       SYS / PHASE SHIFT   
R L2P  0.00000                                              SYS / PHASE SHIFT   
R L2C                                                       SYS / PHASE SHIFT   
R L3Q  0.00000                                              SYS / PHASE SHIFT   
C L1P  0.00000                                              SYS / PHASE SHIFT   
C L5P  0.00000                                              SYS / PHASE SHIFT   
C L2I                                                       SYS / PHASE SHIFT   
C L7I                                                       SYS / PHASE SHIFT   
C L6I                                                       SYS / PHASE SHIFT   
C L7D                                                       SYS / PHASE SHIFT   
J L1C                                                       SYS / PHASE SHIFT   
J L2L  0.00000                                              SYS / PHASE SHIFT   
J L5Q  0.00000                                              SYS / PHASE SHIFT   
J L1L  0.00000                                              SYS / PHASE SHIFT   
I L5A                                                       SYS / PHASE SHIFT   
  2025     1     1     4    30    0.0000000     GPS         TIME OF FIRST OBS   
 C1C    0.000 C2C    0.000 C2P    0.000                     GLONASS COD/PHS/BIS 
DBHZ                                                        SIGNAL STRENGTH UNIT
    18                                                      LEAP SECONDS        
 24 R01  1 R02 -4 R03  5 R04  6 R05  1 R06 -4 R07  5 R08  6 GLONASS SLOT / FRQ #
    R09 -2 R10 -7 R11  0 R12 -1 R13 -2 R14 -7 R15  0 R16 -1 GLONASS SLOT / FRQ #
    R17  4 R18 -3 R19  3 R20  2 R21  4 R22 -3 R23  3 R24  2 GLONASS SLOT / FRQ #
                                                            END OF HEADER       
> 2025 01 01 04 30  0.0000000  0 38
G30         3.000    23681847.459 6 124448986.60206      2658.832 6        40.825                                    23681843.776 4  96973176.32904      2071.808 4        26.287    23681842.955 5  96973205.35105      2071.900 5        33.892
G07         5.000    21470127.601 6 112826294.13406      1088.049 6        41.218                                    21470120.374 5  87916595.07205       847.827 5        30.604    21470119.309 5  87916552.05105       847.933 5        34.452
E34         6.000    24223999.032 6 127297980.87906     -1763.315 6        39.168                                                                    24223998.618 7  95060222.63307     -1316.764 7        43.081    24223993.605 5  97540022.75005     -1350.823 5        30.506
G03         8.000    23903419.691 5                     -4299.806 5        30.966
G09         9.000    20099615.275 8 105624188.21808     -1619.772 8        51.205                                    20099613.206 8  82304572.86208     -1262.160 8        50.140    20099613.356 7  82304563.86807     -1262.122 7        44.567
G20        10.000    23217024.214 7 122006253.85007      2392.602 7        44.691                                    23217017.986 4  95069847.28904      1864.360 4        25.068
G04        11.000    21473899.043 7 112846162.36607     -3109.727 7        45.986                                    21473893.949 4  87932058.70204     -2423.157 4        27.138    21473895.422 6  87932007.70406     -2423.255 6        38.580
E09        12.000    24818747.231 6 130423346.62106     -2619.666 6        41.719                                                                    24818745.267 7  97394153.86007     -1956.159 7        47.426    24818744.463 7  99934847.87307     -2007.256 7        47.289
E31        13.000    26797600.083 5 140822340.46405       768.895 5        34.310                                                                    26797601.221 4                       574.130 4        24.000
E06        14.000    26479026.255 5 139148137.56605     -3210.145 5        33.671                                                                    26479012.222 6 103909334.36006     -2397.162 6        36.412    26479017.316 5 106620063.94705     -2459.440 5        34.276
E15        16.000    26113697.522 8 137228389.60908      1036.264 8        48.068                                                                    26113697.380 7 102475795.65907       773.737 7        46.542    26113695.880 7 105149093.86207       793.983 7        45.269
G06        19.000    21536960.986 7 113177668.08207     -2420.819 7        43.560                                    21536958.316 6  88190389.46506     -1886.355 6        39.685    21536960.271 7  88190278.48507     -1886.451 7        42.080
E36        20.000    26201967.750 5 137692287.32305     -3925.154 5        30.604                                                                    26201966.498 5 102822186.02505     -2931.189 5        30.611    26201967.918 5 105504469.71905     -3007.792 5        34.324
E05        21.000    21929624.090 6 115240982.23106      -251.082 6        38.814                                                                    21929623.115 7  86056608.70307      -187.511 7        45.309    21929622.275 7  88301550.92807      -192.336 7        45.288
R07        23.000    19479003.023 8 104272716.69408      -706.671 8        49.101                                                                    19479001.412 7  81100927.84207      -549.653 7        44.453
S23        24.000    38137567.354 6 200414180.69406      -822.770 6        40.453
S36        25.000    38197068.597 5 200726941.56405      -826.954 5        34.467
G11        26.000    22253641.538 5 116943554.97405       218.437 5        32.084                                    22253596.185 1  91124770.23201       170.158 1         8.667    22253592.461 5  91124731.32505       170.290 5        34.524
E03        27.000    26581976.222 4 139689203.56004      1506.718 4        29.915                                                                    26581970.397 6 104313353.48506      1125.238 6        37.792
R06        29.000    21267302.983 6 113486411.01606     -3387.954 6        38.775
R24        31.000                                                                                                                                    23732531.830 5                      1844.369 5        30.574
R09        32.000    20957399.260 6 111911527.78006      2071.818 6        37.017                                                                    20957396.708 6  87042189.31506      1611.419 6        36.370
C19        33.000                                                                                                                                    22283815.325 7 116037665.72507     -1904.991 7        42.561                                                                    22283809.211 7  94290074.03007     -1547.920 7        42.811
C20        34.000                                                                                                                                    25617100.013 5 133394961.16005     -3509.932 5        35.614
R08        35.000    21568001.745 7 115495668.76007      1873.070 7        45.860                                                                    21568014.200 6  89829960.61806      1456.810 6        40.091
R22        37.000    21774857.328 4 116235707.49104     -4374.955 4        27.868
R16        39.000    21170629.093 6 113089749.72706     -1927.661 6        36.408                                                                    21170622.946 6  87958732.63806     -1499.296 6        40.236
C06        41.000                                                                                                                                    39274006.527 3                     -1819.121 3        22.724    39273945.856 5 158139893.16805     -1405.155 5        35.195    39273933.118 4                     -1476.788 4        25.654
C36        42.000                                                                                                                                    24064202.646 6 125308875.09006      2196.181 6        38.703                                                                    24064204.995 5 101823547.49205      1784.141 5        35.095
C16        45.000                                                                                                                                    39854671.507 3                     -1826.701 3        22.267    39854561.766 4 160477833.61904     -1413.175 4        28.948
C09        46.000                                                                                                                                    38830624.353 6 202201285.52506     -1443.961 6        39.832    38830623.689 6 156354796.14206     -1116.466 6        38.156    38830619.411 4                     -1173.315 4        29.450
C44        48.000                                                                                                                                    24639619.872 6 128304835.23606     -2539.030 6        39.859
C37        49.000                                                                                                                                    25779144.542 5 134238790.75505     -3125.407 5        35.867
C22        50.000                                                                                                                                    22360357.723 7 116436217.50407       835.382 7        45.986                                                                    22360351.083 6  94613992.40406       678.722 6        40.405
C11        52.000                                                                                                                                                                                                    26821571.986 5 107999396.23205       978.314 5        30.196
C12        56.000                                                                                                                                                                                                    24805245.591 4  99880453.68204      -928.912 4        29.479    24805233.490 3                      -974.617 3        23.105
I01        59.000   339076132.626 6  27466773.98106     -3121.873 6        36.091
I06        60.000    37964055.280 6 148979114.19306      -586.731 6        36.605
> 2025 01 01 04 30  5.0000000  0 40
G30         3.000    23679317.985 6 124435695.13106      2658.005 6        40.953                                    23679315.132 4  96962819.36004      2071.163 4        26.790    23679313.328 5  96962848.39605      2071.209 5        34.414
G07         5.000    21469092.471 6 112820859.54806      1085.713 6        40.813                                    21469085.972 5  87912360.33105       846.005 5        30.574    21469085.343 5  87912317.32005       846.118 5        34.929
E34         6.000    24225678.121 6 127306803.32406     -1765.525 6        38.760                                                                    24225677.635 7  95066810.85007     -1318.557 7        43.418    24225672.465 5  97546782.83005     -1353.066 5        30.053
G03         8.000    23907511.700 4                     -4300.784 4        28.863
G09         9.000    20101157.614 8 105632292.24708     -1621.724 8        51.217                                    20101155.352 8  82310887.69508     -1263.680 8        50.557    20101155.505 7  82310878.69507     -1263.669 7        45.120
G20        10.000    23214748.313 7 121994292.71007      2391.792 7        43.194                                    23214741.778 4  95060526.91704      1863.744 4        24.391
G04        11.000    21476858.191 7 112861714.30007     -3111.015 7        45.619                                    21476853.452 4  87944177.08504     -2424.169 4        27.006    21476855.308 6  87944126.08606     -2424.322 6        38.628
E09        12.000    24821239.664 7 130436446.64407     -2620.256 7        42.502                                                                    24821238.220 7  97403936.35007     -1956.719 7        47.565    24821237.395 7  99944885.55807     -2007.842 7        47.215
E31        13.000    26796866.822 5 140818500.39405       767.031 5        34.143                                                                    26796871.483 3                       572.420 3        23.924
E06        14.000    26482081.850 5 139164189.09605     -3210.818 5        33.269                                                                    26482067.552 6 103921320.90906     -2397.296 6        36.480    26482070.770 5 106632363.18105     -2459.939 5        33.629
E15        16.000    26112712.494 8 137223213.48108      1034.312 8        48.123                                                                    26112712.540 7 102471930.37007       772.369 7        46.845    26112710.785 7 105145127.74507       792.522 7        45.031
G06        19.000    21539266.152 7 113189780.22407     -2423.967 7        44.190                                    21539263.115 6  88199827.50906     -1888.808 6        40.246    21539265.552 6  88199716.51606     -1888.845 6        41.957
E36        20.000    26205704.106 4 137711916.41004     -3926.433 4        28.749                                                                    26205702.561 5 102836844.08805     -2931.624 5        31.155    26205703.522 5 105519510.18205     -3008.317 5        33.856
E05        21.000    21929863.350 6 115242240.41506      -252.287 6        37.762                                                                    21929862.490 7  86057548.26907      -188.376 7        45.391    21929861.909 7  88302515.00107      -193.205 7        45.446
R07        23.000    19479664.740 8 104276254.99908      -708.633 8        49.784                                                                    19479662.575 7  81103679.86207      -551.279 7        44.143
S23        24.000    38138348.663 6 200418293.94906      -822.524 6        40.338
S36        25.000    38197850.738 5 200731076.19005      -826.970 5        34.514
G11        26.000                                                                                                                                                                    22253385.982 5  91123885.96505       167.624 5        34.986
E03        27.000                                                                                                                                    26580536.678 6 104307728.32306      1124.863 6        37.667    26580562.990 4 107028885.69614      1154.285 4        28.853
R15        28.000    24484340.518 4                     -4670.034 4        24.195
R06        29.000    21270477.307 6 113503354.37106     -3389.347 6        39.622
R24        31.000                                                                                                                                    23730314.263 4                      1842.262 4        29.431
R09        32.000    20955460.011 6 111901177.10106      2068.653 6        36.397                                                                    20955456.048 5  87034138.80605      1608.960 5        35.862
C19        33.000                                                                                                                                    22285644.556 7 116047193.80807     -1906.242 7        43.473                                                                    22285639.103 7  94297816.36307     -1549.099 7        43.403
C20        34.000                                                                                                                                    25620468.957 5 133412511.77405     -3510.391 5        34.819
R08        35.000    21566252.860 7 115486305.77507      1872.203 7        44.993                                                                    21566266.766 6  89822678.29606      1456.122 6        38.682
R22        37.000    21778954.920 3                     -4378.004 3        22.781
R16        39.000    21172431.046 5 113099399.28505     -1932.105 5        32.198                                                                    21172429.243 6  87966237.89406     -1502.727 6        39.736
C06        41.000                                                                                                                                    39275746.958 3                     -1815.425 3        22.286    39275689.708 5 158146918.79205     -1405.193 5        35.143    39275678.576 4                     -1476.615 4        25.579
C36        42.000                                                                                                                                    24062094.424 6 125297898.01806      2194.886 6        39.162                                                                    24062096.974 5 101814627.68905      1783.265 5        35.305
C16        45.000                                                                                                                                    39856419.473 3                     -1827.677 3        23.143    39856317.408 4 160484897.83604     -1413.140 4        29.185
C09        46.000                                                                                                                                    38832010.985 6 202208505.88806     -1444.242 6        39.946    38832011.769 6 156360379.39506     -1116.809 6        38.306    38832005.730 4                     -1173.568 4        28.825
C44        48.000                                                                                                                                    24642056.518 6 128317535.51606     -2541.153 6        40.486
C37        49.000                                                                                                                                    25782145.251 5 134254423.04005     -3127.364 5        34.871
C22        50.000                                                                                                                                    22359555.922 7 116432043.82907       834.247 7        45.806                                                                    22359549.360 6  94610600.94506       677.816 6        39.670
C35        51.000                                                                                                                                    25918496.883 3                     -3848.103 3        19.791
C11        52.000                                                                                                                                                                                                    26820345.813 4 107994508.44004       976.865 4        29.403
C12        56.000                                                                                                                                                                                                    24806400.964 4  99885103.94804      -931.189 4        28.720    24806390.970 3                      -977.168 3        22.933
I01        59.000   339080110.552 5  27482384.07505     -3122.149 5        35.700
I06        60.000    37964802.460 6 148982047.03606      -586.305 6        36.340
> 2025 01 01 04 30 10.0000000  0 40
G30         3.000    23676789.202 6 124422408.26806      2657.193 6        40.918                                    23676787.095 4  96952465.97904      2070.533 4        26.611    23676785.774 5  96952494.99805      2070.411 5        34.857
G07         5.000    21468060.695 6 112815436.56006      1083.563 6        41.964                                    21468053.917 5  87908134.62405       844.334 5        30.596    21468053.771 5  87908091.64205       844.232 5        35.190
E34         6.000    24227358.652 6 127315638.32406     -1768.307 6        37.747                                                                    24227359.122 7  95073408.42007     -1320.297 7        43.477    24227354.140 4  97553552.52204     -1354.415 4        29.355
G03         8.000    23911599.805 4                     -4301.601 4        26.970
G09         9.000    20102701.768 8 105640406.51408     -1623.722 8        50.798                                    20102699.426 8  82317210.50208     -1265.240 8        50.896    20102699.672 7  82317201.50907     -1265.215 7        45.198
G20        10.000    23212473.291 6 121982336.27906      2390.954 6        40.984                                    23212466.706 3  95051210.22903      1863.091 3        23.486
G04        11.000    21479819.226 7 112877272.70107     -3112.188 7        44.950                                    21479814.207 4  87956300.51104     -2425.086 4        26.754    21479815.606 6  87956249.50806     -2425.023 6        39.069
E09        12.000    24823733.058 7 130449550.44507     -2621.045 7        42.781                                                                    24823731.835 7  97413721.65307     -1957.201 7        47.935    24823730.920 7  99954926.13007     -2008.268 7        47.210
E31        13.000    26796137.525 5 140814670.10105       765.286 5        33.377                                                                    26796147.237 3                       571.370 3        22.743
E06        14.000    26485137.463 5 139180242.13105     -3210.913 5        31.706                                                                    26485122.233 6 103933308.56106     -2397.489 6        36.299    26485124.000 5 106644663.54305     -2460.328 5        33.192
E15        16.000    26111729.344 8 137218047.26608      1032.418 8        48.254                                                                    26111729.515 7 102468072.48207       770.999 7        47.078    26111727.563 7 105141169.22807       791.016 7        44.826
G06        19.000    21541574.237 7 113201907.89907     -2427.027 7        44.427                                    21541570.880 6  88209277.65206     -1891.198 6        40.439    21541572.850 6  88209166.65106     -1891.146 6        41.254
E36        20.000    26209441.887 4 137731550.02104     -3927.266 4        28.882                                                                    26209439.776 5 102851505.59105     -2932.610 5        31.532    26209440.408 5 105534554.13605     -3008.985 5        33.982
E05        21.000    21930103.530 6 115243505.08606      -253.580 6        37.777                                                                    21930103.075 7  86058492.64907      -189.263 7        45.526    21930102.778 7  88303484.02907      -194.218 7        45.711
R07        23.000    19480327.987 8 104279803.60808      -710.686 8        49.940                                                                    19480325.571 7  81106439.88107      -552.739 7        43.873
S23        24.000    38139130.450 6 200422407.44606      -822.489 6        40.148
S36        25.000    38198639.755 5 200735211.11905      -826.720 5        34.448
G11        26.000                                                                                                                                                                    22253181.425 5  91123053.49805       165.070 5        35.062
E03        27.000                                                                                                                                    26579103.786 6 104302105.56206      1124.539 6        37.187    26579132.748 4 107023116.25504      1154.213 4        24.135
R06        29.000    21273655.205 6 113520304.45606     -3390.587 6        39.892
R24        31.000                                                                                                                                    23728101.982 4                      1840.386 4        28.294
R09        32.000    20953525.826 6 111890842.70806      2065.211 6        36.461                                                                    20953519.354 5  87026100.88705      1606.348 5        33.742
C19        33.000                                                                                                                                    22287475.790 7 116056729.27707     -1907.716 7        44.470                                                                    22287470.504 7  94305564.71607     -1550.062 7        44.050
C20        34.000                                                                                                                                    25623837.487 5 133430065.19705     -3510.925 5        34.190
R08        35.000    21564507.131 7 115476947.66607      1871.218 7        45.369
R22        37.000    21783059.784 4                     -4380.154 4        26.156                                                                    21783028.805 4                     -3406.809 4        28.322
R16        39.000    21174236.684 5 113109071.39005     -1936.226 5        34.119                                                                    21174240.192 6  87973760.67206     -1506.087 6        39.453
C06        41.000                                                                                                                                    39277488.307 3                     -1821.834 3        20.524    39277434.732 5 158153945.41205     -1405.412 5        34.681    39277424.972 4                     -1476.432 4        25.594
C36        42.000                                                                                                                                    24059987.090 6 125286927.11106      2193.671 6        40.470                                                                    24059990.225 5 101805712.92005      1782.555 5        35.719
C21        43.000                                                                                                                                    26835008.845 3                      2023.279 3        20.786
C16        45.000                                                                                                                                    39858164.873 4                     -1827.566 4        24.767    39858071.505 4 160491962.79204     -1412.431 4        28.265
C09        46.000                                                                                                                                    38833398.056 6 202215728.26806     -1444.716 6        40.262    38833400.797 6 156365964.19606     -1117.124 6        38.526    38833392.738 5                     -1173.850 5        30.106
C44        48.000                                                                                                                                    24644495.857 6 128330246.48706     -2543.106 6        41.354                                                                    24644480.945 5 104278908.08115     -2066.355 5        35.371
C37        49.000                                                                                                                                    25785147.413 5 134270065.19705     -3129.490 5        33.970
C22        50.000                                                                                                                                    22358754.571 7 116427876.05407       833.059 7        45.512                                                                    22358748.864 6  94607214.28506       676.935 6        39.126
C35        51.000                                                                                                                                    25922192.710 3                     -3852.051 3        21.976
C11        52.000                                                                                                                                                                                                    26819130.681 4 107989628.71404       975.390 4        28.370
C12        56.000                                                                                                                                                                                                    24807561.440 4  99889765.29604      -933.297 4        29.706
I01        59.000   339084088.125 5  27497995.00805     -3121.890 5        35.771
I06        60.000    37965550.193 6 148984980.32106      -586.800 6        36.359
> 2025 01 01 04 30 15.0000000  0 41
G30         3.000    23674262.082 6 124409125.58006      2656.036 6        40.610                                    23674259.631 4  96942115.84104      2069.649 4        27.162    23674257.688 5  96942144.86105      2069.551 5        35.010
G07         5.000    21467031.940 7 112810024.66907      1081.352 7        43.518                                    21467023.982 5  87903917.57605       842.610 5        31.042    21467023.277 5  87903874.57105       842.461 5        35.238
E34         6.000    24229040.916 6 127324485.42806     -1770.618 6        36.684                                                                    24229042.586 7  95080015.01307     -1322.197 7        43.234    24229038.324 5  97560331.46805     -1356.510 5        30.143
G03         8.000    23915690.074 4                     -4302.290 4        27.006
G09         9.000    20104247.858 8 105648530.53908     -1625.708 8        51.037                                    20104245.346 8  82323540.91308     -1266.786 8        51.458    20104245.556 7  82323531.91507     -1266.767 7        45.219
G20        10.000    23210198.061 6 121970384.12906      2389.995 6        39.177                                    23210192.461 3  95041896.86203      1862.339 3        22.819
G04        11.000    21482781.086 7 112892837.12107     -3113.390 7        44.009                                    21482776.362 4  87968428.63604     -2426.025 4        26.407    21482777.690 6  87968377.61406     -2426.042 6        39.030
E09        12.000    24826227.048 7 130462657.55707     -2621.709 7        43.253                                                                    24826226.163 8  97423509.42708     -1957.754 8        48.112    24826225.122 7  99964969.24007     -2008.829 7        47.255
E31        13.000    26795406.877 5 140810849.10605       763.485 5        31.155                                                                    26795427.753 4                       570.600 4        24.917
E06        14.000    26488193.481 5 139196296.24405     -3210.995 5        30.241                                                                    26488177.411 6 103945297.04506     -2397.665 6        36.064    26488177.128 5 106656964.74605     -2460.402 5        33.162
E15        16.000    26110747.841 8 137212890.49908      1030.518 8        48.177                                                                    26110748.275 7 102464221.66607       769.497 7        47.225    26110746.177 7 105137217.95007       789.636 7        44.700
G06        19.000    21543885.236 7 113214050.64207     -2429.974 7        44.411                                    21543881.559 6  88218739.52906     -1893.487 6        40.591    21543883.481 6  88218628.52606     -1893.495 6        40.672
E36        20.000    26213178.555 4 137751187.75504     -3927.926 4        29.118                                                                    26213176.720 5 102866170.16005     -2933.411 5        31.479    26213177.206 5 105549601.22405     -3009.870 5        34.167
E05        21.000    21930346.397 6 115244775.74806      -254.549 6        38.450                                                                    21930344.797 7  86059441.51407      -190.174 7        45.792    21930344.946 7  88304457.64707      -195.195 7        46.011
R07        23.000    19480992.269 8 104283361.98008      -712.566 8        50.001                                                                    19480989.786 7  81109207.50907      -554.158 7        43.575
S23        24.000    38139914.455 6 200426520.83506      -822.557 6        40.322
S36        25.000    38199427.776 5 200739345.51905      -826.879 5        34.567
G11        26.000                                                                                                                                                                    22252982.101 5  91122233.58305       162.720 5        35.538
E03        27.000    26577708.487 4 139666614.15704      1505.262 4        29.867                                                                    26577671.522 6 104296484.86706      1123.912 6        37.316
R15        28.000    24493104.219 4                     -4674.726 4        26.443
R06        29.000    21276832.699 6 113537260.61106     -3391.841 6        39.649
R24        31.000    23725864.605 5                      2362.809 5        32.659
R09        32.000    20951597.917 5 111880524.22005      2062.169 5        33.443                                                                    20951586.391 5  87018075.36305      1603.893 5        32.222
C19        33.000                                                                                                                                    22289307.709 7 116066271.67907     -1909.069 7        44.406                                                                    22289303.326 7  94313318.67807     -1551.268 7        44.302
C20        34.000                                                                                                                                    25627209.179 5 133447620.96805     -3511.291 5        33.000
R08        35.000    21562761.312 7 115467593.96807      1870.344 7        45.416                                                                    21562756.990 6  89808124.65006      1454.906 6        39.096
R22        37.000    21787169.872 4                     -4382.570 4        25.639                                                                    21787142.425 5                     -3408.477 5        34.195
R16        39.000    21176053.605 5 113118765.78105     -1941.031 5        35.700                                                                    21176054.623 6  87981300.72006     -1509.689 6        38.697
C06        41.000                                                                                                                                                                                                    39279180.673 5 158160972.75805     -1405.589 5        34.876    39279170.041 4                     -1476.848 4        25.759
C36        42.000                                                                                                                                    24057879.933 6 125275961.95106      2192.559 6        41.397                                                                    24057884.751 6 101796802.80706      1781.814 6        36.106
R23        44.000    21037877.097 5 112538414.75015     -1318.105 5        31.509
C16        45.000                                                                                                                                                                                                    39859825.426 4 160499028.20704     -1412.766 4        28.114
C09        46.000                                                                                                                                    38834786.202 6 202222952.15306     -1444.790 6        40.253    38834790.559 6 156371550.15306     -1117.258 6        38.595    38834780.167 5                     -1174.208 5        30.174
C44        48.000                                                                                                                                    24646938.279 6 128342967.70606     -2545.122 6        41.263                                                                    24646926.277 5 104289245.11905     -2068.151 5        35.443
C37        49.000                                                                                                                                    25788151.448 5 134285716.72405     -3131.122 5        32.886
C22        50.000                                                                                                                                    22357955.088 7 116423713.68307       832.068 7        44.898                                                                    22357949.719 6  94603832.02306       676.175 6        38.568
C35        51.000                                                                                                                                    25925888.502 4                     -3850.057 4        24.256
C11        52.000                                                                                                                                                                                                    26817923.858 4 107984756.76904       973.825 4        27.437
C12        56.000                                                                                                                                    24808766.666 4 129185640.98614     -1210.139 4        25.173
I01        59.000   339088065.965 5  27513606.54705     -3122.521 5        35.519
I06        60.000    37966297.825 6 148987913.61906      -586.721 6        36.571
> 2025 01 01 04 30 20.0000000  0 39
G30         3.000    23671735.330 6 124395846.89306      2655.353 6        39.793                                    23671732.624 4  96931768.82904      2069.107 4        26.946    23671730.595 5  96931797.82705      2069.165 5        35.419
G07         5.000    21466004.459 7 112804623.77907      1079.106 7        44.116                                    21465996.215 5  87899709.09905       840.856 5        31.630    21465996.294 5  87899666.09905       840.849 5        34.829
E34         6.000    24230726.514 6 127333344.43706     -1772.967 6        36.866                                                                    24230728.407 7  95086630.51707     -1323.911 7        43.350    24230725.617 5  97567119.51705     -1358.281 5        30.136
G03         8.000    23919776.605 4                     -4302.891 4        27.509
G09         9.000    20105795.775 8 105656664.19708     -1627.677 8        51.012                                    20105793.104 8  82329878.83008     -1268.319 8        51.822    20105793.582 7  82329869.83607     -1268.334 7        45.389
G20        10.000    23207924.715 6 121958436.08106      2389.178 6        39.162                                    23207918.842 3  95032586.68703      1861.690 3        21.952
G04        11.000    21485743.395 7 112908407.40907     -3114.667 7        42.677                                    21485739.590 4  87980561.32504     -2427.021 4        25.789    21485740.159 6  87980510.32406     -2427.125 6        38.766
E09        12.000    24828721.809 7 130475767.84307     -2622.276 7        43.657                                                                    24828721.016 8  97433299.56708     -1958.161 8        48.386    24828719.963 7  99975014.79007     -2009.305 7        47.143
E31        13.000    26794681.373 5 140807037.33705       761.520 5        30.083                                                                    26794705.881 4                       568.715 4        24.887    26794688.277 5 107891106.26715       583.843 5        30.000
E06        14.000    26491249.254 4 139212351.33904     -3211.062 4        28.427                                                                    26491232.649 5 103957286.20905     -2397.927 5        35.290    26491229.939 5 106669266.63905     -2460.093 5        32.808
E15        16.000    26109768.065 7 137207743.06207      1028.528 7        47.802                                                                    26109768.794 7 102460377.79807       768.081 7        47.378    26109766.512 7 105133273.81607       788.170 7        44.305
G06        19.000    21546199.268 7 113226208.33007     -2433.077 7        44.295                                    21546195.029 6  88228213.04706     -1895.904 6        40.670    21546197.769 6  88228102.04606     -1895.890 6        40.708
E36        20.000    26216921.063 4 137770829.38004     -3928.853 4        28.209                                                                    26216914.497 5 102880837.59805     -2933.515 5        31.698    26216915.056 5 105564651.32705     -3010.091 5        34.481
E05        21.000    21930589.379 6 115246052.26406      -255.872 6        39.090                                                                    21930587.611 7  86060394.75507      -191.122 7        46.102    21930588.175 7  88305435.75107      -196.065 7        46.085
R07        23.000    19481658.574 8 104286930.03708      -714.600 8        50.183                                                                    19481656.350 7  81111982.66207      -555.773 7        43.664
S23        24.000    38140697.074 6 200430633.89206      -822.553 6        40.274
S36        25.000    38200215.877 5 200743480.38205      -826.989 5        34.976
G11        26.000    22252791.183 6 116939313.20706       205.537 6        36.571                                    22252789.097 2  91121465.06002       160.161 2        13.939    22252784.942 5  91121426.13005       160.230 5        35.143
E03        27.000    26576272.074 4 139659089.82204      1504.838 4        28.967                                                                    26576239.539 6 104290866.09806      1123.438 6        37.202    26576279.373 3                      1152.526 3        22.857
R15        28.000    24497487.742 4                     -4675.511 4        25.910
R06        29.000    21280011.233 6 113554222.87206     -3392.993 6        38.913
R09        32.000    20949669.379 4 111870221.30104      2058.938 4        28.863                                                                    20949658.441 5  87010062.06705      1601.633 5        31.155
C19        33.000                                                                                                                                    22291140.879 7 116075820.84807     -1910.496 7        44.089                                                                    22291137.210 7  94321078.16507     -1552.455 7        44.689
C20        34.000                                                                                                                                    25630581.946 5 133465178.95305     -3511.461 5        32.653
R08        35.000    21561014.734 7 115458244.59107      1869.514 7        45.413                                                                    21561011.739 6  89800852.91206      1454.170 6        39.213
R22        37.000    21791281.390 4                     -4385.158 4        25.023                                                                    21791251.967 6  90473570.47116     -3410.274 6        36.681
R16        39.000    21177874.117 6 113128482.04806     -1945.463 6        36.238                                                                    21177874.241 6  87988857.80506     -1513.129 6        38.453
C06        41.000                                                                                                                                                                                                    39280925.377 5 158168000.62605     -1405.618 5        34.629    39280914.984 4                     -1477.425 4        24.992
C36        42.000                                                                                                                                    24055774.368 7 125265002.41307      2191.335 7        42.080                                                                    24055780.602 6 101787897.31406      1780.399 6        36.295
C16        45.000                                                                                                                                    39861659.898 4                     -1827.672 4        25.609    39861582.723 4 160506094.03404     -1413.138 4        28.104
C09        46.000                                                                                                                                    38836173.843 6 202230177.46006     -1445.274 6        40.408    38836180.710 6 156377137.20806     -1117.508 6        39.141    38836167.885 5                     -1174.451 5        30.581
C44        48.000                                                                                                                                    24649382.357 6 128355699.06206     -2547.287 6        40.207                                                                    24649371.323 5 104299590.41105     -2069.861 5        35.619
C37        49.000                                                                                                                                    25791158.018 5 134301377.57405     -3133.165 5        31.872
C22        50.000                                                                                                                                    22357157.167 7 116419556.59807       830.963 7        43.642                                                                    22357151.542 6  94600454.07206       675.026 6        38.432
C35        51.000                                                                                                                                    25929588.930 4                     -3848.021 4        24.586
C11        52.000                                                                                                                                                                                                    26816716.094 4 107979892.38604       972.090 4        26.180
C12        56.000                                                                                                                                                                                                                                                                    24809898.752 4                      -985.134 4        28.768
I01        59.000   339092044.800 5  27529218.43805     -3122.354 5        35.295
I06        60.000    37967044.410 6 148990846.86106      -586.672 6        36.393
> 2025 01 01 04 30 25.0000000  0 40
G30         3.000    23669209.123 6 124382572.36306      2654.431 6        38.348                                    23669206.273 4  96921425.03704      2068.380 4        26.647    23669205.031 5  96921454.04405      2068.271 5        35.314
G07         5.000    21464977.797 7 112799234.01107      1076.828 7        44.095                                    21464970.559 5  87895509.28505       839.085 5        32.168    21464970.564 5  87895466.29605       838.769 5        34.929
E34         6.000    24232415.939 6 127342215.46806     -1775.524 6        38.538                                                                    24232416.604 7  95093255.00907     -1325.905 7        42.995    24232415.160 5  97573916.81705     -1360.212 5        30.453
G03         8.000    23923865.470 4                     -4303.717 4        28.682
G09         9.000    20107345.329 8 105664807.56308     -1629.759 8        51.069                                    20107342.727 8  82336224.31008     -1269.943 8        52.023    20107343.531 7  82336215.31707     -1270.014 7        45.652
G20        10.000    23205652.760 6 121946492.26406      2388.251 6        40.381                                    23205646.131 3  95023279.80903      1860.996 3        21.167
G04        11.000    21488707.573 6 112923983.66606     -3116.000 6        41.797                                    21488704.034 4  87992698.66004     -2428.056 4        24.677    21488704.203 6  87992647.65606     -2428.189 6        38.577
E09        12.000    24831217.276 7 130488881.39107     -2623.145 7        44.355                                                                    24831216.520 8  97443092.15608     -1958.850 8        48.461    24831215.334 7  99985062.83207     -2009.974 7        47.097
E31        13.000    26793960.125 4 140803234.78904       759.746 4        26.802                                                                    26793982.757 4                       566.522 4        25.504    26793961.409 4 107888192.60704       582.212 4        29.005
E06        14.000    26494305.357 4 139228407.40104     -3211.213 4        27.796                                                                    26494287.320 5 103969276.13905     -2398.391 5        34.657    26494283.783 5 106681569.29105     -2460.725 5        32.371
E15        16.000    26108790.167 7 137202605.05007      1026.519 7        47.405                                                                    26108791.127 7 102456540.97307       766.555 7        47.230    26108788.776 7 105129336.90607       786.570 7        44.185
G06        19.000    21548515.494 7 113238381.01607     -2436.178 7        44.685                                    21548511.276 6  88237698.25806     -1898.319 6        40.861    21548514.039 6  88237587.26206     -1898.286 6        40.892
E36        20.000                                                                                                                                    26220652.787 5 102895508.13005     -2934.532 5        31.887    26220653.486 5 105579704.55205     -3011.090 5        35.086
E05        21.000    21930832.427 6 115247334.72806      -257.274 6        38.907                                                                    21930831.652 7  86061352.43707      -192.059 7        46.368    21930832.469 7  88306418.42307      -197.105 7        46.335
R07        23.000    19482326.598 8 104290508.08808      -716.685 8        49.412                                                                    19482324.074 7  81114765.59107      -557.499 7        43.363
S23        24.000    38141479.711 6 200434746.68306      -822.763 6        40.262
S36        25.000    38201000.759 5 200747614.98805      -826.984 5        34.529
G11        26.000    22252598.366 6 116938293.02106       202.174 6        38.027                                    22252594.711 2  91120670.12002       157.528 2        15.810    22252590.196 5  91120631.20205       157.627 5        34.148
E03        27.000    26574841.798 4 139651568.28104      1504.428 4        29.649                                                                    26574808.516 6 104285249.36406      1123.009 6        37.561    26574850.614 4                      1152.441 4        27.257
R15        28.000    24501859.674 4                     -4677.683 4        26.108
R06        29.000    21283190.544 6 113571191.22506     -3394.372 6        38.901
R24        31.000    23721478.404 5                      2357.703 5        33.371                                                                    23721509.267 4                      1833.039 4        26.180
R09        32.000                                                                                                                                    20947730.813 5  87002061.00205      1599.156 5        31.766
C19        33.000                                                                                                                                    22292976.041 7 116085376.91007     -1911.989 7        43.498                                                                    22292972.312 7  94328843.25607     -1553.677 7        45.014
C20        34.000                                                                                                                                    25633956.388 5 133482739.27305     -3512.212 5        32.377
R08        35.000    21559270.231 7 115448899.58407      1868.362 7        46.855                                                                    21559268.013 6  89793584.57806      1453.104 6        38.760
R22        37.000    21795387.167 4                     -4387.204 4        28.256                                                                    21795362.263 6  90490626.67716     -3412.310 6        36.760
R16        39.000    21179698.468 6 113138220.47006     -1950.075 6        38.192                                                                    21179696.436 6  87996432.12406     -1516.777 6        38.273
C06        41.000                                                                                                                                    39282661.719 3                     -1815.877 3        23.010    39282671.392 5 158175029.14005     -1405.955 5        34.557    39282660.894 4                     -1476.815 4        25.038
C36        42.000                                                                                                                                    24053670.487 6 125254048.59806      2190.040 6        41.831                                                                    24053677.422 6 101778996.47006      1779.387 6        36.960
C16        45.000                                                                                                                                    39863415.524 4                     -1828.118 4        25.128    39863336.096 4 160513160.24804     -1413.301 4        28.246
C09        46.000                                                                                                                                    38837561.679 6 202237404.24506     -1445.563 6        40.503    38837570.272 6 156382725.42606     -1117.839 6        39.192    38837555.783 5                     -1174.500 5        30.370
C44        48.000                                                                                                                                    24651826.879 6 128368440.58806     -2549.365 6        38.904                                                                    24651816.642 5 104309943.99505     -2071.794 5        35.819
C37        49.000                                                                                                                                    25794169.526 5 134317047.71805     -3134.897 5        31.019
C22        50.000                                                                                                                                    22356359.947 6 116415404.92706       829.686 6        41.511                                                                    22356354.879 6  94597080.49906       674.148 6        38.541
C35        51.000                                                                                                                                    25933282.835 3                     -3850.196 3        23.581
C11        52.000                                                                                                                                                                                                    26815507.107 4 107975035.80004       969.700 4        25.654
C12        56.000                                                                                                                                    24811051.437 5 129197766.06605     -1215.260 5        33.826    24811089.686 4  99903813.00204      -939.701 4        29.204    24811054.313 4                      -987.710 4        29.412
I01        59.000   339096023.209 5  27544830.82205     -3122.687 5        35.186
I06        60.000    37967792.661 6 148993780.11206      -586.771 6        36.185
> 2025 01 01 04 30 30.0000000  0 38
G30         3.000    23666683.296 6 124369302.23906      2653.365 6        36.760                                    23666680.589 4  96911084.68904      2067.544 4        25.835    23666680.306 5  96911113.68505      2067.798 5        35.286
G07         5.000    21463953.492 7 112793855.64707      1074.452 7        44.226                                    21463947.277 5  87891318.35705       837.231 5        32.581    21463947.108 6  87891275.35806       837.081 6        36.106
E34         6.000    24234107.023 6 127351098.82206     -1778.139 6        40.067                                                                    24234107.283 7  95099888.69707     -1327.837 7        42.859    24234106.663 5  97580723.59005     -1362.195 5        31.328
G03         8.000    23927963.314 4                     -4304.727 4        28.701
G09         9.000    20108896.719 8 105672960.93608     -1631.780 8        51.115                                    20108894.255 8  82342577.58908     -1271.516 8        52.037    20108894.655 7  82342568.59307     -1271.554 7        46.103
G20        10.000    23203381.515 6 121934552.96806      2387.358 6        41.538                                    23203374.225 3  95013976.48703      1860.268 3        20.619
