     3.04           OBSERVATION DATA    M                   RINEX VERSION / TYPE
ssrcrin-15.6.1x                         20250101 151500 UTC PGM / RUN BY / DATE 
(00000000023479385599111004) Septentrio proprietary         COMMENT             
ract                                                        MARKER NAME         
01                                                          MARKER NUMBER       
geodetic                                                    MARKER TYPE         
NFB                 CLIMERS@TUW                             OBSERVER / AGENCY   
3296359             SEPT ASTERX SB3 PROB4.14.4              REC # / TYPE / VERS 
Unknown             Unknown                                 ANT # / TYPE        
  4127445.8268  1206915.2543  4695544.5724                  APPROX POSITION XYZ 
        0.0000        0.0000        0.0000                  ANTENNA: DELTA H/E/N
G   23 X1  C1C L1C D1C S1C C1W S1W C2W L2W D2W S2W C2L L2L  SYS / # / OBS TYPES 
       D2L S2L C5Q L5Q D5Q S5Q C1L L1L D1L S1L              SYS / # / OBS TYPES 
E   21 X1  C1C L1C D1C S1C C6C L6C D6C S6C C5Q L5Q D5Q S5Q  SYS / # / OBS TYPES 
       C7Q L7Q D7Q S7Q C8Q L8Q D8Q S8Q                      SYS / # / OBS TYPES 
S    9 X1  C1C L1C D1C S1C C5I L5I D5I S5I                  SYS / # / OBS TYPES 
R   17 X1  C1C L1C D1C S1C C2P L2P D2P S2P C2C L2C D2C S2C  SYS / # / OBS TYPES 
       C3Q L3Q D3Q S3Q                                      SYS / # / OBS TYPES 
C   25 X1  C1P L1P D1P S1P C5P L5P D5P S5P C2I L2I D2I S2I  SYS / # / OBS TYPES 
       C7I L7I D7I S7I C6I L6I D6I S6I C7D L7D D7D S7D      SYS / # / OBS TYPES 
J   17 X1  C1C L1C D1C S1C C2L L2L D2L S2L C5Q L5Q D5Q S5Q  SYS / # / OBS TYPES 
       C1L L1L D1L S1L                                      SYS / # / OBS TYPES 
I    5 X1  C5A L5A D5A S5A                                  SYS / # / OBS TYPES 
SEPTENTRIO RECEIVERS OUTPUT ALIGNED CARRIER PHASES.         COMMENT             
NO FURTHER PHASE SHIFT APPLIED IN THE RINEX ENCODER.        COMMENT             
G L1C                                                       SYS / PHASE SHIFT   
G L2W                                                       SYS / PHASE SHIFT   
G L2L  0.00000                                              SYS / PHASE SHIFT   
G L5Q  0.00000                                              SYS / PHASE SHIFT   
G L1L  0.00000                                              SYS / PHASE SHIFT   
E L1C  0.00000                                              SYS / PHASE SHIFT   
E L6C  0.00000                                              SYS / PHASE SHIFT   
E L5Q  0.00000                                              SYS / PHASE SHIFT   
E L7Q  0.00000                                              SYS / PHASE SHIFT   
E L8Q  0.00000                                              SYS / PHASE SHIFT   
S L1C                                                       SYS / PHASE SHIFT   
S L5I                                                       SYS / PHASE SHIFT   
R L1C                                                       SYS / PHASE SHIFT   
R L2P  0.00000                                              SYS / PHASE SHIFT   
R L2C                                                       SYS / PHASE SHIFT   
R L3Q  0.00000                                              SYS / PHASE SHIFT   
C L1P  0.00000                                              SYS / PHASE SHIFT   
C L5P  0.00000                                              SYS / PHASE SHIFT   
C L2I                                                       SYS / PHASE SHIFT   
C L7I                                                       SYS / PHASE SHIFT   
C L6I                                                       SYS / PHASE SHIFT   
C L7D                                                       SYS / PHASE SHIFT   
J L1C                                                       SYS / PHASE SHIFT   
J L2L  0.00000                                              SYS / PHASE SHIFT   
J L5Q  0.00000                                              SYS / PHASE SHIFT   
J L1L  0.00000                                              SYS / PHASE SHIFT   
I L5A                                                       SYS / PHASE SHIFT   
  2025     1     1    15    15    0.0000000     GPS         TIME OF FIRST OBS   
 C1C    0.000 C2C    0.000 C2P    0.000                     GLONASS COD/PHS/BIS 
DBHZ                                                        SIGNAL STRENGTH UNIT
    18                                                      LEAP SECONDS        
 24 R01  1 R02 -4 R03  5 R04  6 R05  1 R06 -4 R07  5 R08  6 GLONASS SLOT / FRQ #
    R09 -2 R10 -7 R11  0 R12 -1 R13 -2 R14 -7 R15  0 R16 -1 GLONASS SLOT / FRQ #
    R17  4 R18 -3 R19  3 R20  2 R21  4 R22 -3 R23  3 R24  2 GLONASS SLOT / FRQ #
                                                            END OF HEADER       
> 2025 01 01 15 15  0.0000000  0 36
G18         1.000    24816218.138 4 130410054.06704      2947.182 4        24.647
G25         3.000    20126442.827 8 105765230.03908     -1890.420 8        49.009                                    20126443.604 6  82414443.49706     -1473.058 6        41.518    20126443.518 6  82414490.49906     -1473.053 6        39.907
G11         4.000    23092847.964 6 121353811.89506     -2846.580 6        41.940                                                                                                    23092853.857 4                     -2218.380 4        28.663
G31         5.000    22737664.835 7 119487287.15107      1597.902 7        44.826                                    22737664.747 5  93107041.91905      1245.110 5        33.611    22737667.574 5  93107213.93805      1245.303 5        35.400
G28         6.000    21531368.476 7 113148139.94107        28.144 7        45.117                                    21531370.327 4  88167401.12704        21.931 4        24.992    21531369.139 6  88167434.15806        22.068 6        36.945
G12         7.000    22713745.077 6 119361513.59106     -3758.682 6        36.446                                    22713738.320 2  93008895.75002     -2928.805 2        15.905    22713736.093 4                     -2929.463 4        24.180
G29         8.000    20660751.984 7 108573060.46607       163.040 7        44.698                                    20660751.893 7  84602567.53307       127.042 7        45.937    20660752.582 7  84602369.54007       127.012 7        46.668
E30         9.000    24457619.115 5                     -2166.755 5        32.874                                                                    24457614.214 7  95976996.77307     -1617.967 7        45.439    24457611.920 7  98480747.37907     -1660.173 7        44.975
E15        10.000    25285523.236 6 132876347.18106      1755.436 6        38.048                                                                    25285527.662 5  99225908.18205      1310.670 5        32.826    25285533.836 5 101814551.75005      1345.371 5        33.150
G32        11.000    25050344.410 4                     -3716.119 4        24.722                                                                                                    25050289.765 3                     -2893.046 3        18.866
E34        12.000    24628868.513 7 129425571.72807      -910.756 7        45.518                                                                    24628873.334 7  96649026.88407      -680.084 7        42.773    24628873.561 7  99170286.50507      -697.935 7        44.926
E19        14.000    26854313.093 5 141120408.84105     -1057.982 5        34.138                                                                    26854324.950 6 105382153.47006      -790.024 6        38.997    26854320.988 5 108131242.22205      -810.634 5        33.497
E27        15.000    23967658.752 7 125950922.03507       243.674 7        43.206                                                                    23967664.719 7  94054278.54307       181.919 7        46.509    23967663.847 7  96507980.69907       186.714 7        42.853
R17        17.000    20513327.085 7 109770960.24407      2265.885 7        47.290                                                                    20513329.887 5  85377457.97105      1762.189 5        34.090
E36        19.000                                                                                                                                                                                                    27615525.877 5 111196298.00205     -2557.307 5        34.095
R15        20.000    19965425.867 7 106689850.96207      1315.402 7        46.632                                                                    19965431.612 8  82980739.81708      1022.979 8        48.028
R24        21.000    19630842.153 6 104974936.93706     -1997.652 6        39.811                                                                    19630846.203 6  81647210.19206     -1553.855 6        39.162
E21        22.000    27808823.778 4                      1652.256 4        25.925                                                                    27808834.292 4                      1234.225 4        28.635    27808829.858 5                      1266.145 5        31.691
S36        23.000    38332125.733 6 201436528.87906      -856.734 6        36.389
S23        24.000    38278942.388 6 201157158.43406      -860.599 6        36.023
G26        25.000    24505772.329 6 128778714.37506      2530.477 6        37.490                                    24505778.475 2 100347033.40002      1971.786 2        12.545    24505820.423 4                      1971.658 4        28.322
E29        26.000                                                                                                                                    27016947.994 5 106020299.59205     -2220.360 5        34.667    27016940.688 5 108785997.89405     -2277.988 5        32.515
C34        28.000                                                                                                                                    21653388.488 8 112755325.32308        65.443 8        50.930                                                                    21653392.233 8  91622705.19608        53.194 8        51.793
R06        30.000    23764332.971 4                     -2102.260 4        27.665
C24        34.000                                                                                                                                    23591569.932 5 122847549.62505     -3599.277 5        35.138                                                                    23591575.766 7  99823668.22507     -2924.652 7        42.339
R14        35.000    19786903.851 7 105475552.49907     -2541.489 7        47.304                                                                    19786909.494 6  82036499.17506     -1976.725 6        38.045
S21        38.000    38559754.901 5 202632875.64005      -856.455 5        34.871
C44        39.000                                                                                                                                    23128922.218 7 120438482.85307     -3074.110 7        43.033                                                                    23128919.457 6  97866080.18006     -2498.017 6        39.796
R07        40.000    24220742.030 5                       847.821 5        30.038
C25        41.000                                                                                                                                    21532946.399 8 112127706.26408      -831.861 8        48.548                                                                    21532948.427 8  91113012.03208      -675.936 8        48.764
C12        43.000                                                                                                                                    22148844.741 6 115334877.08006     -1718.628 6        41.268    22148847.773 6  89184308.83806     -1329.020 6        41.924    22148842.212 7  93719004.19307     -1396.593 7        42.717
C11        44.000                                                                                                                                    22793883.779 6 118693723.03706      1461.748 6        37.059    22793883.559 5  91781571.07405      1130.218 5        30.815    22793886.549 6  96448431.04406      1187.511 6        37.902
C38        49.000                                                                                                                                    39540999.671 5                       481.465 5        32.048
C23        55.000                                                                                                                                    24493113.826 7 127542437.09807      1825.049 7        47.405                                                                    24493111.934 7 103638604.61907      1482.929 7        45.895
I02        57.000    37716122.359 5 148006206.36305     -1010.375 5        33.281
I06        58.000    38776222.196 5 152166238.23505      -703.389 5        32.796
> 2025 01 01 15 15  5.0000000  0 36
G18         1.000    24813414.927 3 130395314.70703      2948.184 3        23.314
G25         3.000    20128242.298 7 105774687.82707     -1892.826 7        47.790                                    20128243.235 6  82421813.20906     -1474.929 6        40.989    20128243.511 6  82421860.19806     -1474.935 6        38.631
G11         4.000    23095556.947 6 121368051.62706     -2849.278 6        41.843                                                                                                    23095560.011 5                     -2219.998 5        30.528
G31         5.000    22736145.504 7 119479303.62307      1595.518 7        43.805                                    22736145.227 5  93100821.03705      1243.251 5        33.329    22736148.137 6  93100993.07106      1243.303 6        36.215
G28         6.000    21531342.556 7 113148006.64007        25.086 7        43.780                                    21531344.123 3  88167297.26703        19.547 3        23.638    21531343.597 5  88167330.27905        19.643 5        34.881
G12         7.000    22717322.279 5 119380310.24505     -3759.899 5        35.914                                    22717314.523 2  93023542.38902     -2929.828 2        15.714    22717315.211 3                     -2928.470 3        22.114
G29         8.000    20660597.656 7 108572250.98107       160.728 7        44.655                                    20660597.935 7  84601936.78007       125.244 7        45.543    20660598.337 7  84601738.77807       125.194 7        46.739
E30         9.000    24459680.891 5 128536490.20215     -2168.005 5        35.557                                                                    24459676.248 7  95985088.54507     -1618.774 7        45.816    24459673.756 7  98489050.24207     -1661.066 7        44.951
E15        10.000    25283853.331 5 132867573.60505      1754.086 5        35.257                                                                    25283858.014 5  99219356.50505      1309.724 5        32.653    25283859.213 5 101807829.22605      1343.909 5        31.909
G32        11.000                                                                                                                                                                    25053837.980 3                     -2894.021 3        20.619
E34        12.000    24629736.182 7 129430131.69507      -913.297 7        45.309                                                                    24629740.509 7  96652432.06307      -682.050 7        42.597    24629741.704 7  99173780.50407      -699.739 7        44.566
E19        14.000    26855320.170 5 141125704.65705     -1060.418 5        34.243                                                                    26855332.795 6 105386108.11606      -791.830 6        39.237    26855328.818 5 108135300.03805      -812.384 5        33.066
E27        15.000    23967426.934 7 125949706.39607       242.651 7        43.746                                                                    23967433.460 7  94053370.76907       181.181 7        46.750    23967432.524 7  96507049.24007       185.966 7        43.012
R17        17.000    20511207.400 7 109759638.36207      2262.855 7        47.559                                                                    20511211.172 5  85368652.14205      1759.732 5        32.742
E36        19.000                                                                                                                                    27618701.840 4 108381773.81914     -2492.601 4        25.158    27618700.994 5 111209085.91405     -2558.403 5        33.910
R15        20.000    19964197.354 7 106683279.75007      1312.995 7        47.236                                                                    19964201.494 7  82975628.86707      1021.137 7        47.857
R24        21.000    19632712.065 6 104984935.22906     -2001.558 6        41.471                                                                    19632715.915 6  81654986.58706     -1556.816 6        38.889
E21        22.000                                                                                                                                    27807262.799 4                      1234.215 4        28.626    27807258.400 5                      1266.378 5        31.864
S36        23.000    38332937.346 6 201440811.04506      -856.241 6        36.174
S23        24.000    38279760.963 6 201161461.33006      -860.496 6        36.125
G26        25.000    24503362.580 6 128766062.29106      2530.215 6        37.157                                    24503370.944 1 100337174.86401      1971.484 1        11.185
E29        26.000    27019850.099 4                     -2974.620 4        24.511                                                                    27019776.984 5 106031403.28805     -2221.194 5        34.676    27019769.404 5 108797391.32805     -2279.411 5        32.389
C34        28.000                                                                                                                                    21653326.817 8 112755003.92608        63.065 8        51.295                                                                    21653330.531 8  91622444.04808        51.296 8        51.693
R06        30.000    23766308.940 4                     -2106.323 4        29.185
R16        33.000    24110640.787 4                      3128.901 4        25.203
C24        34.000                                                                                                                                    23595028.569 6 122865548.80206     -3600.466 6        36.200                                                                    23595032.406 6  99838294.04406     -2925.621 6        41.993
R14        35.000    19789289.318 7 105488267.69707     -2544.571 7        46.704                                                                    19789294.454 6  82046388.76806     -1978.982 6        36.609
S21        38.000    38560571.906 5 202637158.11105      -856.732 5        34.843
C44        39.000                                                                                                                                    23131874.543 7 120453857.45407     -3075.789 7        44.352                                                                    23131871.634 6  97878573.34106     -2499.084 6        39.450
C25        41.000                                                                                                                                    21533746.814 8 112131870.88008      -834.130 8        48.654                                                                    21533748.273 8  91116396.13108      -677.768 8        48.656
C12        43.000                                                                                                                                    22150495.072 6 115343476.00906     -1720.942 6        41.738    22150498.903 6  89190958.10406     -1330.772 6        40.696    22150493.837 7  93725991.50207     -1398.314 7        43.077
C11        44.000                                                                                                                                    22792486.925 6 118686419.79506      1459.659 6        39.808    22792485.314 5  91775923.70605      1128.796 5        34.067    22792485.011 6  96442496.53506      1186.241 6        38.736
C38        49.000                                                                                                                                    39540545.850 5                       480.878 5        32.060
C23        55.000                                                                                                                                    24491361.967 7 127533314.30207      1824.010 7        47.409                                                                    24491359.995 7 103631191.63507      1482.155 7        45.636
I02        57.000    37717409.555 5 148011257.79205     -1010.341 5        33.934
I06        58.000    38777119.216 5 152169755.97805      -703.451 5        32.611
> 2025 01 01 15 15 10.0000000  0 36
G18         1.000    24810616.653 3                      2948.319 3        23.390
G25         3.000    20130043.611 7 105784156.60307     -1895.035 7        45.910                                    20130045.018 6  82429191.47606     -1476.649 6        40.384    20130045.913 6  82429238.46506     -1476.499 6        38.132
G11         4.000    23098269.514 6 121382304.21006     -2852.082 6        41.225                                                                                                    23098273.097 5                     -2222.330 5        32.796
G31         5.000    22734628.200 7 119471331.50407      1593.065 7        42.546                                    22734628.144 5  93094609.04405      1241.339 5        32.976    22734630.229 6  93094781.06706      1241.267 6        37.690
G28         6.000    21531319.573 7 113147888.78207        21.923 7        43.642                                    21531320.701 3  88167205.43803        17.069 3        21.952    21531320.050 5  88167238.46405        16.956 5        32.257
G12         7.000    22720899.352 5 119399112.14705     -3761.198 5        34.867                                    22720891.960 2  93038193.14302     -2930.772 2        15.095
G29         8.000    20660445.959 7 108571452.80107       158.350 7        43.632                                    20660446.039 7  84601314.83007       123.390 7        45.424    20660446.185 7  84601116.84107       123.400 7        46.655
E30         9.000    24461741.080 6 128547330.83406     -2168.704 6        37.153                                                                    24461739.204 7  95993183.81207     -1619.503 7        45.881    24461736.570 7  98497356.68907     -1661.816 7        44.992
E15        10.000    25282185.946 5 132858806.75805      1752.837 5        31.057                                                                    25282190.879 5  99212809.84805      1308.535 5        33.407    25282184.047 5 101801111.84305      1342.833 5        31.811
G32        11.000    25057394.862 4                     -3716.185 4        27.066                                                                                                    25057375.637 3                     -2896.803 3        21.429
E34        12.000    24630606.407 7 129434703.55107      -915.787 7        45.148                                                                    24630609.621 6  96655846.11706      -683.825 6        41.967    24630612.017 7  99177283.62707      -701.637 7        44.372
E19        14.000    26856330.576 5 141131011.69105     -1062.604 5        33.958                                                                    26856342.453 6 105390071.18406      -793.414 6        39.189    26856339.084 5 108139366.48705      -814.037 5        32.611
E27        15.000    23967196.526 7 125948495.01407       241.604 7        44.518                                                                    23967203.078 7  94052466.17307       180.436 7        46.736    23967202.041 7  96506121.04707       185.111 7        42.933
R17        17.000    20509093.533 7 109748330.77207      2259.908 7        47.974                                                                    20509099.560 5  85359857.45905      1757.331 5        32.066
E36        19.000    27621881.710 3                     -3338.485 3        20.357                                                                    27621880.965 3 108394241.26303     -2494.620 3        23.486    27621878.092 5 111221878.53505     -2559.288 5        33.748
R15        20.000    19962970.501 8 106676719.79708      1310.716 8        48.311                                                                    19962973.846 8  82970526.67608      1019.447 8        48.227
R24        21.000    19634585.289 6 104994952.80806     -2005.585 6        41.650                                                                    19634589.244 6  81662778.04606     -1559.859 6        39.613
E21        22.000    27805661.683 4                      1652.671 4        27.090                                                                    27805689.306 4                      1234.627 4        28.095    27805686.611 5                      1266.346 5        32.144
S36        23.000    38333754.401 6 201445091.95906      -856.138 6        36.775
S23        24.000    38280574.937 6 201165763.27106      -860.235 6        36.253
G26        25.000    24500953.056 5 128753410.97405      2530.163 5        35.871                                    24500963.485 1 100327316.91701      1971.530 1        10.889
E29        26.000    27022679.599 4                     -2975.798 4        25.429                                                                    27022607.224 5 106042511.74905     -2222.027 5        34.886    27022600.602 5 108808789.54405     -2280.457 5        32.653
C34        28.000                                                                                                                                    21653267.580 8 112754693.88308        60.713 8        51.639                                                                    21653271.034 8  91622192.13408        49.406 8        51.703
R06        30.000    23768289.060 5                     -2110.422 5        30.174
R16        33.000                                                                                                                                    24107687.184 4                      2433.950 4        25.293
C24        34.000                                                                                                                                    23598488.006 6 122883553.92206     -3601.859 6        36.828                                                                    23598490.167 6  99852924.68306     -2926.634 6        41.714
R14        35.000    19791677.665 7 105500997.54607     -2547.636 7        46.025                                                                    19791681.124 5  82056289.76205     -1981.140 5        34.195
S21        38.000    38561388.143 5 202641439.69005      -856.365 5        35.262
C44        39.000                                                                                                                                    23134827.777 7 120469239.28407     -3077.275 7        45.940                                                                    23134825.757 6  97891072.38206     -2500.455 6        39.420
C25        41.000                                                                                                                                    21534549.482 8 112136046.62108      -836.383 8        48.919                                                                    21534550.114 8  91119789.27908      -679.570 8        48.666
C12        43.000                                                                                                                                    22152151.088 7 115352086.12907     -1723.309 7        42.104    22152145.023 6  89197615.93606     -1332.606 6        40.825    22152147.659 7  93732987.92907     -1400.175 7        43.659
C11        44.000                                                                                                                                    22791090.255 6 118679125.28406      1457.880 6        41.199    22791088.205 6  91770283.15606      1127.295 6        37.108    22791085.304 6  96436569.17206      1184.771 6        39.462
C38        49.000                                                                                                                                    39540087.505 5                       479.803 5        32.347
C23        55.000                                                                                                                                    24489610.903 7 127524195.96407      1823.041 7        46.961                                                                    24489608.865 7 103623782.28607      1481.453 7        45.707
I02        57.000    37718695.999 5 148016309.10405     -1010.575 5        34.281
I06        58.000    38778014.913 5 152173272.91405      -703.392 5        32.629
> 2025 01 01 15 15 15.0000000  0 35
G18         1.000    24807817.458 3                      2947.367 3        22.210
G25         3.000    20131847.499 7 105793637.01807     -1897.133 7        45.074                                    20131849.071 6  82436578.81106     -1478.282 6        39.483    20131850.528 6  82436625.81106     -1478.414 6        38.312
G11         4.000    23100984.244 6 121396570.27006     -2854.440 6        40.710                                    23100985.981 2  94594675.79712     -2224.285 2        15.190    23100991.101 5  94594696.80215     -2224.178 5        34.076
G31         5.000    22733113.058 6 119463371.46006      1590.979 6        41.759                                    22733113.507 5  93088406.46105      1239.717 5        32.617    22733115.531 6  93088578.48706      1239.591 6        38.471
G28         6.000    21531301.215 7 113147787.04107        18.919 7        43.570                                    21531300.145 3  88167126.17903        14.747 3        20.405    21531297.784 4  88167159.24404        14.528 4        26.826
G12         7.000    22724478.729 5 119417919.91805     -3761.946 5        34.095                                    22724471.042 2  93052848.47202     -2931.330 2        13.515    22724485.092 4                     -2931.460 4        28.303
G29         8.000    20660296.586 7 108570666.52207       156.213 7        43.826                                    20660296.320 7  84600702.16007       121.719 7        45.440    20660296.787 7  84600504.16407       121.740 7        46.157
E30         9.000    24463805.257 6 128558176.75306     -2169.504 6        37.921                                                                    24463803.170 7  96001283.04607     -1620.063 7        46.164    24463800.533 7  98505667.21007     -1662.360 7        44.972
E15        10.000    25280527.428 5 132850047.09105      1751.523 5        30.128                                                                    25280524.102 5  99206268.67605      1307.884 5        34.271    25280517.073 5 101794400.04805      1342.031 5        32.353
G32        11.000    25060926.764 4                     -3716.237 4        28.493                                                                                                    25060914.086 3                     -2896.207 3        21.524
E34        12.000    24631478.603 7 129439287.93307      -917.980 7        45.029                                                                    24631481.393 6  96659269.53506      -685.435 6        41.218    24631484.632 7  99180796.36407      -703.338 7        44.033
E19        14.000    26857343.286 5 141136330.64305     -1065.108 5        33.629                                                                    26857354.816 6 105394043.08806      -795.113 6        39.240    26857351.266 5 108143442.00305      -815.972 5        32.742
E27        15.000    23966966.771 7 125947288.49007       240.966 7        45.207                                                                    23966973.530 7  94051565.21507       179.960 7        46.861    23966972.531 7  96505196.59207       184.648 7        43.050
R17        17.000    20506984.691 8 109737038.18208      2257.225 8        48.561                                                                    20506988.029 5  85351074.36705      1755.594 5        32.976
E36        19.000    27625060.699 3                     -3342.000 3        21.881                                                                                                                                    27625056.118 5 111234676.28105     -2560.040 5        32.982
R15        20.000    19961745.047 8 106670171.76608      1308.571 8        48.275                                                                    19961748.323 8  82965433.77708      1017.804 8        48.227
R24        21.000    19636461.924 7 105004990.13307     -2009.315 7        43.058                                                                    19636467.085 6  81670584.86906     -1562.794 6        39.931
E21        22.000    27804094.353 4                      1652.755 4        28.701                                                                    27804116.248 4                      1234.475 4        28.142    27804115.641 5                      1266.328 5        33.395
S36        23.000    38334569.488 6 201449371.62706      -855.681 6        36.609
S23        24.000    38281395.372 6 201170065.10306      -860.232 6        36.155
G26        25.000    24498543.314 5 128740761.07505      2530.145 5        33.012                                    24498556.290 1 100317460.07901      1971.479 1         9.619    24498576.238 4                      1972.008 4        25.173
E29        26.000                                                                                                                                    27025439.237 5 106053625.41705     -2222.898 5        35.176    27025434.280 5 108820193.17005     -2281.246 5        32.587
C34        28.000                                                                                                                                    21653210.413 8 112754395.82008        58.530 8        51.881                                                                    21653213.843 8  91621949.97708        47.433 8        51.734
R06        30.000    23770275.100 5                     -2113.918 5        30.347
C24        34.000                                                                                                                                    23601947.356 6 122901565.53906     -3602.914 6        37.531                                                                    23601948.756 6  99867560.62606     -2927.746 6        40.968
R14        35.000    19794067.868 7 105513742.47907     -2550.391 7        45.461                                                                    19794072.153 5  82066202.45805     -1983.588 5        31.336
S21        38.000    38562198.924 5 202645721.14105      -855.953 5        35.186
C44        39.000                                                                                                                                    23137782.654 7 120484628.95507     -3078.599 7        47.070                                                                    23137780.827 6  97903577.79406     -2501.713 6        39.063
C25        41.000                                                                                                                                    21535353.860 8 112140234.10008      -838.481 8        49.344                                                                    21535354.162 8  91123191.99008      -681.495 8        48.620
C12        43.000                                                                                                                                    22153807.541 7 115360708.02607     -1725.483 7        42.055    22153800.065 7  89204282.89207     -1334.182 7        42.548    22153803.783 7  93739993.95907     -1402.157 7        44.397
C11        44.000                                                                                                                                    22789691.562 7 118671840.21707      1456.299 7        42.025    22789690.201 6  91764649.91806      1126.006 6        40.014    22789686.697 6  96430649.49806      1183.159 6        40.298
C38        49.000                                                                                                                                    39539625.116 5                       479.083 5        31.743
C23        55.000                                                                                                                                    24487860.348 7 127515082.70807      1822.337 7        46.569                                                                    24487858.883 7 103616377.09607      1480.576 7        45.845
I02        57.000    37719984.099 5 148021361.04905     -1010.262 5        34.200
I06        58.000    38778912.297 5 152176789.58105      -703.286 5        32.533
> 2025 01 01 15 15 20.0000000  0 36
G25         3.000    20133654.594 7 105803130.01807     -1899.897 7        45.347                                    20133655.518 6  82443975.95606     -1480.438 6        38.736    20133657.243 6  82444022.95506     -1480.404 6        38.177
G11         4.000    23103701.667 6 121410850.82606     -2857.842 6        39.883                                    23103703.162 2  94605803.55602     -2226.872 2        13.394    23103705.013 5  94605824.51705     -2226.560 5        34.781
G31         5.000    22731601.726 6 119455424.50106      1587.898 6        41.130                                    22731601.518 5  93082214.07505      1237.319 5        32.353    22731603.088 6  93082386.09606      1237.210 6        38.823
G28         6.000    21531285.085 7 113147702.37007        15.119 7        42.415                                    21531283.139 3  88167060.22603        11.789 3        19.045    21531280.824 4  88167093.26704        12.201 4        26.335
G12         7.000    22728061.075 5 119436734.58705     -3763.642 5        31.940                                    22728051.564 2  93067509.20202     -2932.729 2        12.545    22728064.836 5                     -2932.553 5        31.147
G29         8.000    20660149.629 7 108569893.20807       153.285 7        46.016                                    20660148.989 7  84600099.58807       119.444 7        46.078    20660149.426 7  84599901.59807       119.438 7        45.782
E30         9.000    24465869.885 6 128569029.02306     -2171.140 6        37.369                                                                    24465868.412 7  96009387.00607     -1621.252 7        46.252    24465865.657 7  98513982.57307     -1663.540 7        45.169
E15        10.000    25278863.770 5 132841295.82105      1749.614 5        31.441                                                                    25278858.991 5  99199733.78805      1306.230 5        34.929    25278854.740 5 101787694.69405      1340.199 5        33.072
G32        11.000    25064466.644 4                     -3716.366 4        25.835                                                                                                    25064450.249 3                     -2896.972 3        22.267
E34        12.000    24632353.642 7 129443885.84607      -921.047 7        44.584                                                                    24632356.173 6  96662703.04306      -687.726 6        40.350    24632359.563 7  99184319.44807      -705.681 7        43.890
E19        14.000    26858357.508 5 141141662.41405     -1067.788 5        33.790                                                                    26858369.438 6 105398024.58706      -797.353 6        39.198    26858365.950 5 108147527.37105      -818.143 5        32.832
E27        15.000    23966738.395 7 125946087.87107       239.426 7        45.535                                                                    23966745.095 7  94050668.65107       178.779 7        46.857    23966744.020 7  96504276.63007       183.548 7        43.046
R17        17.000    20504878.983 8 109725761.71408      2253.601 8        48.633                                                                    20504883.144 5  85342303.85805      1752.845 5        34.510
E36        19.000    27628237.089 3                     -3344.094 3        19.731                                                                    27628241.240 3 108419191.72403     -2495.188 3        23.333    27628236.130 5 111247479.95605     -2561.434 5        32.742
R15        20.000    19960520.696 8 106663636.66908      1305.657 8        48.026                                                                    19960524.898 7  82960350.95107      1015.518 7        47.653
R24        21.000    19638343.647 7 105015048.43507     -2013.839 7        45.163                                                                    19638346.494 6  81678407.96406     -1566.355 6        38.997
E21        22.000    27802524.505 5                      1652.498 5        31.577                                                                    27802542.849 4                      1233.635 4        28.455    27802544.326 5 111949324.78015      1265.899 5        34.143
S36        23.000    38335385.157 6 201453651.30506      -855.957 6        36.718
S23        24.000    38282215.061 6 201174367.92906      -860.836 6        36.284
G26        25.000                                                                                                                                                                    24496174.096 3                      1971.643 3        21.833
E29        26.000                                                                                                                                    27028272.795 6 106064745.05106     -2224.626 6        36.034    27028268.619 5 108831602.86405     -2282.644 5        34.005
C34        28.000                                                                                                                                    21653155.147 8 112754110.72008        55.719 8        51.612                                                                    21653159.180 8  91621718.31108        45.265 8        51.684
R06        30.000    23772260.209 4                     -2117.855 4        29.223
R16        33.000    24101772.705 5                      3129.449 5        34.986                                                                    24101782.827 5                      2434.147 5        34.457
C24        34.000                                                                                                                                    23605408.304 6 122919584.62806     -3604.582 6        37.335                                                                    23605408.714 6  99882202.61906     -2929.113 6        40.200
R14        35.000    19796462.382 7 105526503.69607     -2553.977 7        46.905                                                                    19796466.026 4  82076127.79204     -1986.967 4        26.946
S21        38.000    38563014.937 5 202650003.53605      -856.738 5        35.152
C44        39.000                                                                                                                                    23140739.285 7 120500027.45807     -3080.671 7        47.492                                                                    23140737.792 6  97916090.35106     -2503.296 6        38.601
R07        40.000    24217530.958 4                       833.447 4        29.526
C25        41.000                                                                                                                                    21536160.638 8 112144434.32208      -841.459 8        49.678                                                                    21536160.706 8  91126605.00908      -683.703 8        48.635
C12        43.000                                                                                                                                    22155463.191 6 115369342.70906     -1728.383 6        41.843    22155461.703 7  89210959.81207     -1336.395 7        44.691    22155462.317 7  93747010.33207     -1404.310 7        45.013
C11        44.000                                                                                                                                    22788290.978 7 118664565.52707      1453.820 7        42.167    22788293.822 7  91759024.72007      1124.151 7        43.075    22788289.185 6  96424738.21206      1181.435 6        40.732
C38        49.000                                                                                                                                    39539163.779 5                       477.858 5        31.419
C23        55.000                                                                                                                                    24486111.535 7 127505975.53607      1820.759 7        45.934                                                                    24486110.038 7 103608976.79507      1479.465 7        45.964
I02        57.000    37721272.158 5 148026414.12305     -1010.592 5        34.529
I06        58.000    38779807.503 5 152180306.58405      -703.244 5        32.485
> 2025 01 01 15 15 25.0000000  0 34
G25         3.000    20135463.199 7 105812635.05307     -1902.178 7        45.553                                    20135464.222 6  82451382.47406     -1482.217 6        38.150    20135465.639 6  82451429.46906     -1482.185 6        37.875
G11         4.000    23106422.247 6 121425145.26206     -2860.259 6        38.438                                    23106423.112 2  94616942.10702     -2228.746 2        12.303    23106425.003 5  94616963.11105     -2228.778 5        34.010
G31         5.000    22730091.530 6 119447490.07006      1585.737 6        39.652                                    22730091.934 5  93076031.43305      1235.623 5        32.066    22730092.777 6  93076203.46906      1235.647 6        38.498
G28         6.000    21531270.000 6 113147634.25206        12.076 6        39.447                                    21531269.684 3  88167007.14103         9.398 3        18.000    21531271.281 5  88167040.20105         9.323 5        31.094
G12         7.000    22731644.879 4 119455555.62204     -3765.235 4        27.605                                    22731633.195 1  93082174.85301     -2933.867 1        10.815    22731648.081 5                     -2933.601 5        32.245
G29         8.000    20660004.918 7 108569132.22707       151.051 7        47.764                                    20660003.970 7  84599506.63007       117.703 7        46.816    20660004.835 7  84599308.64107       117.701 7        45.880
E30         9.000    24467934.238 5 128579887.01605     -2171.928 5        35.943                                                                    24467934.496 7  96017495.24407     -1622.000 7        46.365    24467931.976 7  98522302.33107     -1664.295 7        45.065
E15        10.000    25277199.042 5 132832552.42005      1748.136 5        31.457                                                                    25277195.092 5  99193204.70805      1305.034 5        34.910    25277192.062 5 101780995.26205      1339.624 5        33.784
E34        12.000    24633231.446 7 129448496.72407      -923.475 7        44.433                                                                    24633233.522 6  96666146.24206      -689.515 6        39.862    24633236.616 7  99187852.46107      -707.465 7        43.130
E19        14.000    26859375.337 5 141147006.52805     -1069.947 5        34.386                                                                    26859386.620 6 105402015.29306      -799.047 6        39.234    26859383.206 5 108151622.17505      -820.006 5        32.940
E27        15.000    23966511.058 7 125944892.55707       238.484 7        45.868                                                                    23966517.584 7  94049776.05107       178.163 7        46.763    23966516.447 7  96503360.75307       182.823 7        42.773
R17        17.000    20502775.181 8 109714500.77808      2250.732 8        49.225                                                                    20502781.621 5  85333545.38005      1750.604 5        35.629
E36        19.000    27631417.065 3                     -3345.031 3        21.548                                                                    27631420.962 3                     -2497.108 3        22.971    27631417.128 5 111260289.14105     -2562.417 5        31.766
R15        20.000    19959298.913 7 106657114.00707      1303.317 7        47.072                                                                    19959303.936 7  82955277.77807      1013.732 7        47.030
R24        21.000    19640229.554 7 105025126.99207     -2017.761 7        45.427                                                                    19640231.562 6  81686246.82606     -1569.526 6        38.688
E21        22.000    27800953.821 5 146094996.74215      1652.284 5        34.214                                                                    27800970.170 4                      1233.669 4        29.062    27800971.845 5 111942994.25005      1266.092 5        35.152
S36        23.000    38336198.210 6 201457930.97806      -855.888 6        36.888
S23        24.000    38283034.673 6 201178670.86106      -860.570 6        36.408
E29        26.000                                                                                                                                    27031107.731 6 106075870.19106     -2225.473 6        36.325    27031103.773 5 108843018.22505     -2283.825 5        34.381
C34        28.000                                                                                                                                    21653102.299 8 112753838.02808        53.292 8        51.088                                                                    21653106.856 8  91621496.73008        43.391 8        51.805
R06        30.000    23774240.490 4                     -2122.092 4        26.551
R23        31.000    23582170.377 3                     -5124.478 3        23.429
R16        33.000    24098842.600 6 128731697.21816      3129.695 6        37.214                                                                    24098847.404 6 100124700.15116      2434.146 6        36.590
C24        34.000                                                                                                                                    23608868.671 6 122937610.70106     -3605.946 6        36.730                                                                    23608870.310 6  99896850.25906     -2930.002 6        39.120
R14        35.000    19798860.808 7 105539280.66007     -2556.860 7        47.698                                                                    19798859.266 4  82086065.43704     -1988.872 4        25.789
S21        38.000    38563826.541 5 202654285.86605      -856.302 5        35.057
C44        39.000                                                                                                                                    23143697.079 7 120515434.21507     -3082.173 7        47.119                                                                    23143696.278 6  97928609.61506     -2504.512 6        38.396
C25        41.000                                                                                                                                    21536969.529 8 112148646.72108      -843.583 8        50.155                                                                    21536969.549 8  91130027.92808      -685.409 8        48.698
C12        43.000                                                                                                                                    22157122.686 7 115377989.61707     -1730.712 7        42.013    22157123.712 7  89217646.15807     -1338.184 7        46.091    22157123.051 7  93754036.65307     -1406.135 7        45.785
C11        44.000                                                                                                                                    22786892.934 7 118657300.69007      1452.003 7        42.863    22786899.721 7  91753407.13007      1122.785 7        45.226    22786893.525 6  96418834.96606      1179.902 6        40.694
C38        49.000                                                                                                                                    39538707.839 5                       476.879 5        30.438
C23        55.000                                                                                                                                    24484363.958 7 127496873.90107      1819.823 7        45.097                                                                    24484362.342 7 103601580.99007      1478.904 7        46.237
I02        57.000    37722560.105 5 148031467.87305     -1010.732 5        34.848
I06        58.000    38780704.200 5 152183823.67005      -703.239 5        32.359
> 2025 01 01 15 15 30.0000000  0 35
G18         1.000    24799360.542 4                      2946.109 4        26.012
G25         3.000    20137274.276 7 105822151.94507     -1904.767 7        45.556                                    20137275.144 6  82458798.23706     -1484.236 6        37.350    20137276.292 6  82458845.23806     -1484.102 6        37.142
G11         4.000    23109143.612 6 121439453.36206     -2863.268 6        36.911                                    23109144.876 1  94628091.30801     -2231.076 1        10.148    23109143.610 5  94628112.34105     -2231.070 5        32.102
G31         5.000    22728583.227 6 119439568.02406      1582.923 6        38.345                                    22728584.787 5  93069858.45805      1233.433 5        31.260    22728585.681 6  93070030.46806      1233.539 6        37.830
G28         6.000    21531258.377 6 113147582.48106         8.696 6        36.045                                    21531259.798 2  88166966.81902         6.776 2        17.321    21531263.710 5  88166999.83205         6.764 5        34.248
G12         7.000    22735226.652 3 119474382.97103     -3765.970 3        23.143                                    22735215.720 1  93096845.33201     -2934.480 1         7.000    22735230.329 5                     -2934.609 5        32.000
G29         8.000    20659862.235 8 108568383.44508       148.428 8        48.438                                    20659861.258 7  84598923.17207       115.657 7        47.423    20659862.540 7  84598725.18307       115.633 7        46.133
E30         9.000    24469999.472 5 128590750.58505     -2173.533 5        35.543                                                                    24470001.617 7  96025607.62107     -1622.969 7        46.550    24469999.418 7  98530626.34207     -1665.341 7        45.400
E15        10.000    25275533.746 5 132823816.57305      1745.911 5        32.641                                                                    25275532.566 5  99186681.29905      1304.010 5        35.405    25275530.188 5 101774301.69305      1338.108 5        33.916
G32        11.000                                                                                                                                                                    25071537.065 3                     -2896.760 3        23.771
E34        12.000    24634110.980 7 129453120.35207      -926.126 7        44.369                                                                    24634113.551 6  96669598.95306      -691.570 6        39.006    24634115.616 7  99191395.24007      -709.705 7        42.732
E19        14.000    26860395.642 5 141152362.82105     -1072.456 5        34.924                                                                    26860405.978 6 105406015.08406      -801.033 6        39.477    26860402.681 5 108155726.30105      -821.498 5        33.275
E27        15.000    23966284.304 7 125943702.37007       237.416 7        46.112                                                                    23966291.115 7  94048887.28607       177.272 7        46.658    23966289.840 7  96502448.79307       181.931 7        42.798
R17        17.000    20500674.185 8 109703255.15108      2247.487 8        50.068                                                                    20500678.964 6  85324798.82506      1748.122 6        36.268
E36        19.000    27634601.724 3                     -3348.083 3        20.405                                                                    27634605.361 3                     -2500.139 3        22.000    27634599.718 5 111273103.68605     -2563.947 5        31.298
R15        20.000    19958080.723 7 106650603.52707      1300.707 7        47.839                                                                    19958085.741 7  82950214.08407      1011.657 7        46.653
R24        21.000    19642117.246 7 105035225.63007     -2021.896 7        44.205                                                                    19642118.885 6  81694101.31006     -1572.657 6        36.824
E21        22.000    27799380.471 5 146086735.01205      1652.187 5        35.871                                                                    27799398.547 4                      1233.686 4        29.791    27799400.012 5 111936663.95005      1265.862 5        35.819
S36        23.000    38337010.453 6 201462210.69906      -856.278 6        36.624
S23        24.000    38283851.670 6 201182973.79906      -860.840 6        36.450
G26        25.000    24491315.125 3                      2528.511 3        20.714                                                                                                    24491369.686 3                      1970.046 3        22.400
E29        26.000    27033921.343 5                     -2981.825 5        32.503                                                                    27033943.875 6 106087000.70006     -2226.732 6        36.820    27033940.305 5 108854439.06605     -2284.389 5        34.505
C34        28.000                                                                                                                                    21653051.980 8 112753577.55208        50.722 8        50.487                                                                    21653056.828 8  91621285.06908        41.281 8        51.556
R16        33.000    24095918.034 6 128716048.24806      3129.765 6        37.444                                                                    24095917.547 6 100112528.68706      2434.290 6        37.104
C24        34.000                                                                                                                                    23612330.465 6 122955643.51606     -3607.518 6        37.198                                                                    23612333.047 6  99911503.35206     -2931.316 6        38.054
