     3.04           OBSERVATION DATA    M                   RINEX VERSION / TYPE
ssrcrin-15.6.1x                         20250101 150000 UTC PGM / RUN BY / DATE 
(00000000023479385599111004) Septentrio proprietary         COMMENT             
ract                                                        MARKER NAME         
01                                                          MARKER NUMBER       
geodetic                                                    MARKER TYPE         
NFB                 CLIMERS@TUW                             OBSERVER / AGENCY   
3296359             SEPT ASTERX SB3 PROB4.14.4              REC # / TYPE / VERS 
Unknown             Unknown                                 ANT # / TYPE        
  4127445.9248  1206916.1724  4695543.8869                  APPROX POSITION XYZ 
        0.0000        0.0000        0.0000                  ANTENNA: DELTA H/E/N
G   23 X1  C1C L1C D1C S1C C1W S1W C2W L2W D2W S2W C2L L2L  SYS / # / OBS TYPES 
       D2L S2L C5Q L5Q D5Q S5Q C1L L1L D1L S1L              SYS / # / OBS TYPES 
E   21 X1  C1C L1C D1C S1C C6C L6C D6C S6C C5Q L5Q D5Q S5Q  SYS / # / OBS TYPES 
       C7Q L7Q D7Q S7Q C8Q L8Q D8Q S8Q                      SYS / # / OBS TYPES 
S    9 X1  C1C L1C D1C S1C C5I L5I D5I S5I                  SYS / # / OBS TYPES 
R   17 X1  C1C L1C D1C S1C C2P L2P D2P S2P C2C L2C D2C S2C  SYS / # / OBS TYPES 
       C3Q L3Q D3Q S3Q                                      SYS / # / OBS TYPES 
C   25 X1  C1P L1P D1P S1P C5P L5P D5P S5P C2I L2I D2I S2I  SYS / # / OBS TYPES 
       C7I L7I D7I S7I C6I L6I D6I S6I C7D L7D D7D S7D      SYS / # / OBS TYPES 
J   17 X1  C1C L1C D1C S1C C2L L2L D2L S2L C5Q L5Q D5Q S5Q  SYS / # / OBS TYPES 
       C1L L1L D1L S1L                                      SYS / # / OBS TYPES 
I    5 X1  C5A L5A D5A S5A                                  SYS / # / OBS TYPES 
SEPTENTRIO RECEIVERS OUTPUT ALIGNED CARRIER PHASES.         COMMENT             
NO FURTHER PHASE SHIFT APPLIED IN THE RINEX ENCODER.        COMMENT             
G L1C                                                       SYS / PHASE SHIFT   
G L2W                                                       SYS / PHASE SHIFT   
G L2L  0.00000                                              SYS / PHASE SHIFT   
G L5Q  0.00000                                              SYS / PHASE SHIFT   
G L1L  0.00000                                              SYS / PHASE SHIFT   
E L1C  0.00000                                              SYS / PHASE SHIFT   
E L6C  0.00000                                              SYS / PHASE SHIFT   
E L5Q  0.00000                                              SYS / PHASE SHIFT   
E L7Q  0.00000                                              SYS / PHASE SHIFT   
E L8Q  0.00000                                              SYS / PHASE SHIFT   
S L1C                                                       SYS / PHASE SHIFT   
S L5I                                                       SYS / PHASE SHIFT   
R L1C                                                       SYS / PHASE SHIFT   
R L2P  0.00000                                              SYS / PHASE SHIFT   
R L2C                                                       SYS / PHASE SHIFT   
R L3Q  0.00000                                              SYS / PHASE SHIFT   
C L1P  0.00000                                              SYS / PHASE SHIFT   
C L5P  0.00000                                              SYS / PHASE SHIFT   
C L2I                                                       SYS / PHASE SHIFT   
C L7I                                                       SYS / PHASE SHIFT   
C L6I                                                       SYS / PHASE SHIFT   
C L7D                                                       SYS / PHASE SHIFT   
J L1C                                                       SYS / PHASE SHIFT   
J L2L  0.00000                                              SYS / PHASE SHIFT   
J L5Q  0.00000                                              SYS / PHASE SHIFT   
J L1L  0.00000                                              SYS / PHASE SHIFT   
I L5A                                                       SYS / PHASE SHIFT   
  2025     1     1    15     0    0.0000000     GPS         TIME OF FIRST OBS   
 C1C    0.000 C2C    0.000 C2P    0.000                     GLONASS COD/PHS/BIS 
DBHZ                                                        SIGNAL STRENGTH UNIT
    18                                                      LEAP SECONDS        
 24 R01  1 R02 -4 R03  5 R04  6 R05  1 R06 -4 R07  5 R08  6 GLONASS SLOT / FRQ #
    R09 -2 R10 -7 R11  0 R12 -1 R13 -2 R14 -7 R15  0 R16 -1 GLONASS SLOT / FRQ #
    R17  4 R18 -3 R19  3 R20  2 R21  4 R22 -3 R23  3 R24  2 GLONASS SLOT / FRQ #
                                                            END OF HEADER       
> 2025 01 01 15 00  0.0000000  0 34
G25         3.000    19839209.759 7 104255802.41407     -1463.132 7        47.541                                    19839211.583 7  81238264.24307     -1140.105 7        46.031    19839212.794 7  81238311.24307     -1140.099 7        44.618
G11         4.000    22649192.874 7 119022558.47507     -2324.929 7        47.438                                    22649191.997 4  92744709.61904     -1811.638 4        28.834    22649192.886 6  92744726.63706     -1811.582 6        41.216
G31         5.000    23046914.266 6 121112378.00406      2000.884 6        39.649                                    23046921.893 5  94373338.66505      1559.114 5        30.717    23046922.388 6  94373510.67106      1559.210 6        37.898
G28         6.000    21585205.210 6 113431006.42806       593.230 6        39.471                                    21585207.318 3  88387828.35203       462.200 3        23.752    21585206.743 6  88387801.34806       462.292 6        41.585
G12         7.000    22089569.517 6 116081466.65006     -3525.536 6        36.454                                    22089563.647 2  90453109.47002     -2747.178 2        16.226    22089572.259 4  90453105.57004     -2747.731 4        28.777
G29         8.000    20725943.465 8 108915623.53608       597.386 8        50.146                                    20725942.970 7  84869495.11907       465.489 7        45.102    20725944.689 7  84869297.10807       465.424 7        42.108
E30         9.000    24103425.340 5 126664519.48005     -1969.676 5        32.611                                                                    24103436.048 6  94587117.08806     -1470.733 6        40.620    24103434.947 7  97054610.27307     -1509.050 7        42.523
E15        10.000    25607878.208 6 134570466.15606      2000.373 6        38.739                                                                    25607890.162 7 100490952.31907      1493.784 7        43.143    25607912.722 5 103112532.22005      1532.698 5        30.619
E34        12.000    24512215.963 6 128812632.40606      -451.107 6        40.987                                                                    24512213.814 4  96191236.56804      -337.774 4        27.341    24512221.025 6  98700554.12006      -345.686 6        40.467
E19        14.000    26710558.790 4                      -619.910 4        27.940                                                                    26710595.292 4 104818110.64104      -463.506 4        27.102    26710571.211 4 107552458.80604      -474.984 4        27.042
E27        15.000    24024442.296 7 126249309.86507       416.657 7        43.374                                                                    24024448.350 8  94277158.43208       311.164 8        49.654    24024447.085 7  96736611.53607       319.310 7        43.900
R17        17.000    20938058.692 6 112043739.51606      2770.281 6        39.120                                                                    20938061.412 5  87145208.49605      2154.656 5        33.096
E07        18.000                                                                                                                                                                                                    28128706.126 3                     -2928.150 3        22.324
E36        19.000                                                                                                                                    27066959.283 5 106216546.57805     -2284.911 5        32.210    27067036.082 3                     -2344.522 3        21.714
R15        20.000    20221231.107 8 108056772.63208      1708.396 8        51.838                                                                    20221236.795 7  84043896.31807      1328.798 7        43.454
R24        21.000    19357221.237 6 103511744.81806     -1244.697 6        41.540                                                                    19357224.043 6  80509226.94306      -968.127 6        37.565
E21        22.000                                                                                                                                    28092197.224 5 110239860.99905      1235.613 5        30.506    28092194.444 5 113115596.77505      1267.577 5        31.170
S36        23.000    38185458.968 6 200665778.42406      -856.542 6        36.703
S23        24.000    38131509.164 6 200382383.03006      -860.689 6        36.261
E29        26.000    26531420.530 5 139423611.99305     -2687.385 5        35.571                                                                    26531435.453 5 104115011.86705     -2006.782 5        31.970    26531432.646 5 106831062.22205     -2059.030 5        33.503
C34        28.000                                                                                                                                    21702343.928 7 113010214.38807       499.644 7        46.557                                                                    21702345.866 8  91829819.98008       406.029 8        48.644
R16        33.000    24636328.312 5 131602808.77205      3069.296 5        31.381                                                                    24636331.121 6 102357784.64506      2387.076 6        36.507
C24        34.000                                                                                                                                    22991279.092 6 119721662.46706     -3341.898 6        41.428                                                                    22991288.581 6  97283628.08406     -2715.541 6        38.366
R14        35.000    19404819.248 8 103438818.01108     -1983.797 8        50.063                                                                    19404823.210 7  80452370.78307     -1543.008 7        43.554
R23        36.000    22712549.468 4                     -4915.678 4        25.248
S21        38.000    38413069.753 5 201862002.63605      -856.564 5        35.043
C44        39.000                                                                                                                                    22624168.102 6 117809998.11106     -2757.603 6        36.231                                                                    22624167.667 7  95730296.98107     -2240.703 7        43.431
C25        41.000                                                                                                                                    21425667.289 7 111569062.94007      -413.340 7        47.918                                                                    21425669.985 7  90659066.18307      -335.853 7        47.762
R05        42.000    24073149.345 4                     -4320.056 4        25.023
C12        43.000                                                                                                                                                                                                    21890111.709 8  88142510.80208      -981.863 8        50.024    21890107.494 6  92624333.35506     -1031.707 6        39.673
C38        49.000                                                                                                                                    39638365.203 5 206407447.58405       643.498 5        30.249
C23        55.000                                                                                                                                    24823436.354 7 129262459.46307      1989.047 7        43.221                                                                    24823435.589 7 105036254.03307      1616.190 7        43.604
I02        57.000    37486682.760 4 147105841.76904      -990.188 4        29.583
I06        58.000    38614129.384 5 151530118.98505      -710.102 5        34.800
> 2025 01 01 15 00  5.0000000  0 37
G06         2.000    24957392.490 3                     -4101.215 3        21.714
G25         3.000    19840603.240 8 104263122.27208     -1464.985 8        48.045                                    19840604.757 7  81243968.05307     -1141.552 7        46.442    19840605.498 7  81244015.06207     -1141.536 7        45.044
G11         4.000    22651406.592 7 119034189.24407     -2327.462 7        47.945                                    22651405.697 4  92753772.58904     -1813.604 4        28.720    22651405.900 6  92753789.61806     -1813.692 6        41.309
G31         5.000    23045012.060 6 121102376.84106      1999.306 6        38.213                                    23045019.101 5  94365545.63505      1557.893 5        31.321    23045019.409 6  94365717.60906      1558.100 6        38.733
G28         6.000    21584643.546 7 113428046.45907       590.723 7        42.311                                    21584643.939 4  88385521.92704       460.296 4        24.812    21584643.164 6  88385494.94606       460.195 6        40.875
G12         7.000    22092925.276 6 116099096.15306     -3526.612 6        36.302                                    22092918.687 2  90466846.74702     -2748.020 2        16.528    22092926.651 5  90466842.77905     -2747.587 5        30.309
G29         8.000    20725375.866 8 108912640.93908       595.479 8        50.315                                    20725375.780 7  84867171.04607       464.003 7        46.188    20725377.549 7  84866973.03307       464.072 7        42.796
E30         9.000    24105301.170 4 126674367.61704     -1970.208 4        28.749                                                                    24105309.911 6  94594471.25806     -1471.190 6        40.391    24105309.012 7  97062156.27407     -1509.353 7        42.453
E15        10.000    25605975.196 6 134560465.87806      1999.645 6        38.637                                                                    25605986.947 7 100483484.68207      1493.129 7        42.918    25606010.898 5 103104869.69005      1532.481 5        30.430
G32        11.000                                                                                                                                                                    24430334.560 4                     -2766.392 4        24.707
E34        12.000    24512644.982 6 128814892.90506      -453.145 6        38.871                                                                    24512643.981 4  96192924.60204      -338.363 4        27.150    24512651.268 6  98702286.23306      -347.248 6        40.918
E19        14.000    26711149.344 4                      -621.958 4        28.853                                                                    26711185.996 4 104820428.86604      -464.080 4        25.308    26711162.204 4 107554837.46904      -475.983 4        27.485
E27        15.000    24024045.586 7 126247226.92607       416.351 7        43.397                                                                    24024051.986 8  94275603.02908       310.873 8        49.525    24024050.613 7  96735015.55307       319.069 7        43.996
R17        17.000    20935471.144 6 112029893.34806      2768.248 6        41.006                                                                    20935473.976 5  87134439.27405      2153.086 5        31.645
E07        18.000                                                                                                                                                                                                    28132344.976 3                     -2929.565 3        23.010
E36        19.000                                                                                                                                    27069871.037 5 106227973.87905     -2286.166 5        30.664    27069947.028 3                     -2345.428 3        22.438
R15        20.000    20219632.841 8 108048234.11908      1706.947 8        51.423                                                                    20219639.281 7  84037255.30207      1327.660 7        44.536
R24        21.000    19358388.107 7 103517977.19407     -1248.427 7        42.811                                                                    19358390.809 6  80514074.36806      -971.027 6        38.586
E21        22.000    28090563.464 4                      1654.570 4        28.739                                                                    28090626.004 4 110233682.63204      1236.307 4        28.758    28090618.721 5 113109257.23405      1267.875 5        30.317
S36        23.000    38186273.023 6 200670059.58106      -856.095 6        36.681
S23        24.000    38132324.104 6 200386686.02906      -860.472 6        36.023
E29        26.000    26533979.295 5 139437051.54305     -2688.677 5        35.071                                                                    26533992.536 5 104125047.89005     -2007.798 5        31.540    26533989.561 5 106841360.09205     -2060.030 5        33.760
C34        28.000                                                                                                                                    21701865.479 7 113007720.76407       497.705 7        45.177                                                                    21701867.009 8  91827793.70408       404.397 8        48.594
R06        30.000    23471577.926 3                     -1377.947 3        21.810
R16        33.000    24633458.142 4 131587459.99004      3069.836 4        29.782                                                                    24633456.646 5 102345846.91705      2387.789 5        34.948
C24        34.000                                                                                                                                    22994490.171 6 119738374.27806     -3342.945 6        41.609                                                                    22994498.504 6  97297207.78306     -2716.223 6        37.267
R14        35.000    19406681.050 8 103448743.05308     -1986.387 8        50.352                                                                    19406685.760 7  80460090.29807     -1545.007 7        44.161
R23        36.000    22717138.109 4                     -4915.479 4        26.048
S21        38.000    38413882.305 5 201866283.23305      -856.081 5        34.848
C44        39.000                                                                                                                                    22626817.054 5 117823788.78305     -2758.921 5        35.619                                                                    22626815.903 7  95741503.07507     -2241.831 7        42.868
C25        41.000                                                                                                                                    21426064.670 7 111571133.59907      -415.089 7        47.931                                                                    21426067.543 7  90660748.77307      -337.321 7        47.690
R05        42.000    24077189.326 4                     -4321.761 4        24.105
C12        43.000                                                                                                                                                                                                    21891331.459 8  88147423.93208      -983.525 8        49.984    21891327.926 6  92629496.28806     -1033.574 6        39.619
C38        49.000                                                                                                                                    39637747.795 4 206404230.12304       643.029 4        29.782
C23        55.000                                                                                                                                    24821527.278 7 129252514.63307      1988.720 7        43.272                                                                    24821525.699 7 105028173.08707      1615.997 7        43.367
I02        57.000    37487944.738 4 147110792.96204      -989.920 4        28.976
I06        58.000    38615034.258 5 151533666.72605      -709.415 5        34.914
> 2025 01 01 15 00 10.0000000  0 36
G06         2.000    24961291.316 3                     -4104.186 3        19.045                                                                                                    24961288.027 3                     -3194.105 3        20.190
G25         3.000    19841998.182 7 104270453.24207     -1467.518 7        47.864                                    19842000.020 7  81249680.51907     -1143.522 7        46.691    19842000.802 7  81249727.52207     -1143.528 7        45.347
G11         4.000    22653622.235 7 119045834.47407     -2330.691 7        47.332                                    22653622.034 4  92762846.82104     -1816.127 4        28.777    22653621.860 6  92762863.84406     -1816.212 6        41.166
G31         5.000    23043109.818 6 121092385.03906      1997.145 6        37.845                                    23043118.027 5  94357759.89405      1556.202 5        32.090    23043117.387 6  94357931.91006      1556.320 6        39.802
G28         6.000    21584082.818 7 113425100.78007       587.456 7        44.153                                    21584083.139 4  88383226.63204       457.765 4        26.012    21584082.779 6  88383199.63406       457.747 6        40.553
G12         7.000    22096279.190 5 116116731.69005     -3527.897 5        35.190                                    22096275.015 2  90480588.75602     -2749.001 2        17.132    22096282.028 5  90480584.78005     -2748.899 5        31.577
G29         8.000    20724810.573 8 108909669.52208       592.982 8        50.532                                    20724810.706 7  84864855.68507       462.057 7        47.068    20724812.224 7  84864657.68007       462.091 7        43.374
E30         9.000    24107178.421 4 126684220.50504     -1971.916 4        28.199                                                                    24107184.659 6  94601828.94106     -1472.052 6        40.210    24107183.988 7  97069705.89907     -1510.508 7        42.332
E15        10.000    25604073.580 6 134550470.90906      1998.146 6        38.613                                                                    25604084.860 7 100476020.99207      1492.202 7        42.527    25604106.200 5 103097211.19205      1531.188 5        30.777
G32        11.000    24433652.903 4                     -3551.998 4        29.052                                                                                                    24433719.399 3                     -2768.731 3        23.352
E34        12.000    24513076.304 6 128817165.41706      -456.073 6        36.862                                                                    24513076.018 4  96194621.59704      -341.238 4        28.066    24513083.987 6  98704027.52106      -349.311 6        40.958
E19        14.000    26711743.631 5                      -624.245 5        30.181                                                                                                                                    26711757.865 4 107557224.93004      -478.463 4        26.934
E27        15.000    24023649.989 7 126245147.79007       415.296 7        43.536                                                                    24023656.361 8  94274050.46708       310.131 8        49.234    24023655.125 7  96733422.49107       318.117 7        44.110
R17        17.000    20932884.093 6 112016059.12206      2765.350 6        41.895                                                                    20932888.064 5  87123679.36905      2150.858 5        32.832
E07        18.000                                                                                                                                                                                                    28135984.582 3                     -2929.734 3        23.981
E36        19.000                                                                                                                                    27072784.068 4 106239406.84504     -2287.231 4        29.175    27072862.517 3                     -2347.939 3        21.738
R15        20.000    20218035.824 8 108039704.56808      1704.780 8        51.128                                                                    20218042.917 7  84030621.24007      1325.908 7        45.609
R24        21.000    19359558.480 7 103524230.41307     -1253.018 7        42.269                                                                    19359558.458 6  80518937.95406      -974.293 6        38.081
E21        22.000    28088990.307 4                      1654.727 4        27.928                                                                    28089055.521 4 110227503.66904      1235.814 4        28.919
S36        23.000    38187084.788 6 200674340.08606      -856.110 6        36.325
S23        24.000    38133145.532 5 200390988.10905      -860.639 5        35.929
E29        26.000    26536538.637 5 139450498.99105     -2690.472 5        35.838                                                                    26536551.665 5 104135089.83805     -2009.202 5        31.351    26536548.592 5 106851664.02605     -2061.654 5        33.766
C34        28.000                                                                                                                                    21701388.327 7 113005238.29007       495.171 7        43.634                                                                    21701390.144 8  91825776.50708       402.422 8        48.344
R16        33.000    24630583.223 5 131572108.31905      3070.361 5        32.234                                                                    24630581.662 5 102333906.94905      2388.373 5        34.290
C24        34.000                                                                                                                                    22997701.691 6 119755092.87306     -3344.592 6        41.919                                                                    22997709.803 5  97310793.06605     -2717.863 5        35.029
R14        35.000    19408545.941 8 103458682.92808     -1989.638 8        50.797                                                                    19408550.237 7  80467821.32107     -1547.512 7        44.536
R23        36.000    22721737.298 4                     -4916.402 4        28.190
S21        38.000    38414692.880 5 201870563.19005      -856.254 5        34.976
C44        39.000                                                                                                                                    22629466.585 5 117837588.25405     -2761.000 5        34.919                                                                    22629465.812 7  95752716.32607     -2243.469 7        42.434
C25        41.000                                                                                                                                    21426464.077 8 111573214.79308      -417.497 8        48.011                                                                    21426467.205 7  90662439.94707      -339.185 7        47.565
R05        42.000    24081222.739 4                     -4322.473 4        25.263
C12        43.000                                                                                                                                    21892596.931 5                     -1274.436 5        30.906    21892553.985 8  88152346.45108      -985.609 8        49.923    21892550.471 6  92634669.12806     -1035.750 6        39.468
C38        49.000                                                                                                                                    39637129.461 4 206401016.32304       642.172 4        28.597
C23        55.000                                                                                                                                    24819618.272 7 129242572.97507      1987.854 7        43.073                                                                    24819616.294 7 105020094.77107      1615.315 7        43.325
I02        57.000    37489206.980 4 147115744.17504      -990.286 4        29.526
I06        58.000    38615937.942 5 151537213.77905      -709.663 5        34.448
> 2025 01 01 15 00 15.0000000  0 35
G06         2.000                                                                                                                                                                    24965195.206 3                     -3196.064 3        20.381
G25         3.000    19843395.068 7 104277795.87007     -1469.751 7        47.034                                    19843397.433 7  81255402.06307     -1145.260 7        46.809    19843398.229 7  81255449.06807     -1145.358 7        45.020
G11         4.000    22655840.399 7 119057494.66107     -2333.772 7        46.729                                    22655841.193 4  92771932.71704     -1818.532 4        28.626    22655840.883 6  92771949.73306     -1818.463 6        40.689
G31         5.000    23041211.239 6 121082403.12606      1995.132 6        38.886                                    23041218.803 5  94349981.84405      1554.638 5        32.832    23041217.514 6  94350153.83706      1554.673 6        40.052
G28         6.000    21583524.424 7 113422169.89907       584.440 7        45.196                                    21583524.897 4  88380942.86704       455.405 4        27.042    21583524.982 6  88380915.86506       455.434 6        40.522
G12         7.000    22099635.983 5 116134373.82905     -3529.232 5        34.924                                    22099633.168 3  90494335.87003     -2750.046 3        19.134    22099638.608 5  90494331.94205     -2750.405 5        32.060
G29         8.000    20724247.723 8 108906709.80408       590.595 8        50.563                                    20724247.809 7  84862549.43907       460.198 7        47.926    20724249.126 7  84862351.43207       460.218 7        43.862
E30         9.000    24109055.809 5 126694078.56005     -1972.154 5        30.008                                                                    24109060.167 6  94609190.51206     -1472.810 6        40.081    24109060.154 7  97077259.50507     -1511.238 7        42.178
E15        10.000    25602172.911 6 134540481.76806      1997.150 6        38.724                                                                    25602183.907 7 100468561.66107      1491.308 7        42.241    25602202.330 5 103089557.22705      1529.782 5        30.951
E34        12.000    24513509.931 5 128819450.40405      -458.643 5        35.095                                                                    24513511.391 4  96196327.91104      -342.116 4        28.199    24513519.003 6  98705778.40306      -351.340 6        40.903
E19        14.000    26712339.327 5                      -626.785 5        31.419                                                                    26712384.716 3                      -468.992 3        21.524
E27        15.000    24023254.960 7 126243072.99907       414.358 7        43.723                                                                    24023261.548 8  94272501.14908       309.376 8        48.960    24023260.215 7  96731832.74307       317.484 7        44.296
R17        17.000    20930300.138 7 112002237.46907      2762.889 7        42.008                                                                    20930305.898 5  87112929.26905      2148.813 5        35.067
E07        18.000                                                                                                                                                                                                    28139622.761 4                     -2928.968 4        24.271
E36        19.000                                                                                                                                    27075699.173 4 106250845.95604     -2288.743 4        27.234    27075779.758 3                     -2347.746 3        21.310
R15        20.000    20216441.915 8 108031184.57708      1702.884 8        51.012                                                                    20216447.407 7  84023994.62007      1324.444 7        46.230
R24        21.000    19360730.681 7 103530504.93607     -1257.206 7        42.110                                                                    19360731.726 6  80523818.15906      -977.931 6        37.724
E21        22.000    28087418.478 4                      1654.841 4        27.114                                                                    28087483.614 4 110221324.53504      1235.652 4        29.355    28087441.458 5 113096576.49005      1268.100 5        35.024
S36        23.000    38187900.734 6 200678619.74506      -855.993 6        36.208
S23        24.000    38133963.454 5 200395290.11905      -860.569 5        35.938
E29        26.000    26539099.813 6 139463954.85106     -2692.238 6        36.836                                                                    26539112.295 5 104145138.06405     -2010.406 5        30.906    26539109.965 5 106861974.37405     -2062.880 5        33.982
C34        28.000                                                                                                                                    21700913.146 6 113002767.48806       492.794 6        41.895                                                                    21700915.504 8  91823768.77408       400.431 8        48.220
R16        33.000    24627714.192 5 131556753.97705      3070.906 5        32.413                                                                    24627705.677 5 102321964.90505      2388.152 5        33.497
C24        34.000                                                                                                                                    23000913.096 6 119771818.78006     -3346.021 6        41.809                                                                    23000927.437 5  97324384.29605     -2719.282 5        32.874
R14        35.000    19410413.488 8 103468637.98508     -1992.712 8        51.098                                                                    19410418.178 7  80475564.16207     -1549.908 7        44.953
R23        36.000    22726335.780 4                     -4917.885 4        29.422
S21        38.000    38415511.030 5 201874842.97205      -856.295 5        34.824
C44        39.000                                                                                                                                    22632117.986 5 117851397.02505     -2762.786 5        35.262                                                                    22632117.593 7  95763937.08507     -2245.067 7        42.313
C25        41.000                                                                                                                                    21426865.735 8 111575307.02808      -419.777 8        48.157                                                                    21426868.964 7  90664140.07407      -341.085 7        47.735
R05        42.000    24085262.622 3                     -4325.209 3        22.895
C12        43.000                                                                                                                                                                                                    21893778.805 8  88157278.73908      -987.627 8        49.765    21893775.849 6  92639852.19806     -1037.787 6        39.697
C38        49.000                                                                                                                                    39636513.389 4 206397806.56104       640.414 4        28.171
C23        55.000                                                                                                                                    24817710.270 7 129232634.98107      1987.047 7        43.039                                                                    24817707.865 7 105012019.40407      1614.614 7        43.568
I02        57.000    37490468.516 4 147120695.74004      -990.255 4        29.365
I06        58.000    38616842.390 5 151540760.44805      -709.513 5        34.729
> 2025 01 01 15 00 20.0000000  0 35
G06         2.000                                                                                                                                                                    24969096.509 3                     -3197.196 3        21.286
G25         3.000    19844794.571 7 104285150.93007     -1471.873 7        46.740                                    19844797.172 7  81261133.29107     -1146.916 7        46.509    19844797.810 7  81261180.29007     -1146.923 7        44.725
G11         4.000    22658062.871 7 119069170.53407     -2336.368 7        46.389                                    22658063.281 4  92781030.82804     -1820.550 4        28.332    22658062.814 6  92781047.84406     -1820.552 6        40.327
G31         5.000    23039314.439 6 121072431.88606      1993.521 6        40.563                                    23039321.516 5  94342212.11605      1553.390 5        33.599    23039319.700 6  94342384.11706      1553.472 6        40.374
G28         6.000    21582969.230 7 113419254.58707       581.856 7        45.436                                    21582969.557 4  88378671.23404       453.385 4        27.988    21582970.341 6  88378644.22806       453.375 6        40.651
G12         7.000    22102996.554 5 116152023.30105     -3530.297 5        35.043                                    22102993.356 3  90508088.72603     -2750.899 3        20.548    22102997.648 5  90508084.78305     -2751.202 5        32.766
G29         8.000    20723686.895 8 108903762.54808       588.609 8        50.914                                    20723687.211 8  84860252.90508       458.652 8        48.358    20723688.481 7  84860054.90407       458.581 7        44.038
E30         9.000    24110934.534 5 126703942.60805     -1973.005 5        31.698                                                                    24110937.015 6  94616556.54306     -1473.390 6        39.913    24110937.343 7  97084817.68407     -1511.764 7        42.184
E15        10.000    25600273.171 6 134530499.21306      1996.080 6        38.775                                                                    25600284.157 7 100461107.24507      1490.697 7        42.245    25600299.038 5 103081908.16405      1529.984 5        30.800
E34        12.000    24513948.780 5 128821748.64405      -460.677 5        34.510                                                                    24513950.195 4  96198044.18804      -344.226 4        29.270    24513956.423 6  98707539.42406      -352.991 6        40.782
E19        14.000    26712936.902 5                      -629.397 5        32.407                                                                    26712982.129 3                      -471.064 3        22.571    26712973.283 5 107562027.64005      -481.702 5        30.249
E27        15.000    24022860.986 7 126241003.28507       413.768 7        43.280                                                                    24022867.711 8  94270955.62308       308.935 8        48.826    24022866.160 7  96730246.88407       317.016 7        44.557
R17        17.000    20927719.929 7 111988429.07507      2760.720 7        42.468                                                                    20927727.654 6  87102189.48906      2147.029 6        37.955
E07        18.000                                                                                                                                                                                                    28143260.762 4                     -2928.845 4        25.955
E36        19.000                                                                                                                                    27078615.847 4 106262291.72104     -2289.445 4        26.299    27078696.991 3                     -2348.534 3        22.590
R15        20.000    20214849.561 8 108022674.89708      1701.293 8        50.533                                                                    20214854.454 7  84017376.02207      1323.156 7        46.512
R24        21.000    19361906.239 6 103536801.52106     -1261.284 6        37.497                                                                    19361908.972 6  80528715.52706      -980.758 6        36.703
E21        22.000    28085846.443 4                      1654.800 4        26.766                                                                    28085910.406 5 110215145.65905      1236.263 5        30.166    28085871.454 5 113090236.46905      1268.346 5        35.933
S36        23.000    38188715.204 6 200682900.43206      -855.630 6        36.454
S23        24.000    38134781.350 6 200399592.64806      -860.144 6        36.030
E29        26.000    26541662.188 6 139477419.87406     -2693.567 6        37.255                                                                    26541674.293 5 104155193.13705     -2011.348 5        31.200    26541672.551 5 106872291.75105     -2063.979 5        34.462
C34        28.000                                                                                                                                    21700438.878 6 113000309.11906       490.702 6        40.689                                                                    21700443.084 7  91821771.14507       398.822 7        47.821
R06        30.000    23475404.727 4                     -1393.548 4        25.083
R16        33.000    24624839.312 5 131541397.81305      3071.558 5        30.377                                                                    24624829.161 5 102310021.35005      2389.042 5        35.600
C24        34.000                                                                                                                                    23004126.262 6 119788552.71306     -3347.186 6        41.302
R14        35.000    19412284.267 8 103478609.16908     -1995.463 8        51.676                                                                    19412288.375 7  80483319.54307     -1551.949 7        45.290
R23        36.000    22730933.552 5                     -4919.614 5        30.053
S21        38.000    38416324.808 5 201879123.24705      -855.795 5        35.029
C44        39.000                                                                                                                                    22634771.453 6 117865215.79006     -2764.564 6        36.336                                                                    22634771.423 7  95775166.01807     -2246.313 7        42.038
C25        41.000                                                                                                                                    21427269.826 8 111577411.05408      -421.594 8        48.375                                                                    21427273.003 7  90665849.81007      -342.573 7        47.659
C12        43.000                                                                                                                                                                                                    21895006.127 8  88162221.37408      -989.314 8        49.556    21895003.779 6  92645046.16906     -1039.519 6        39.808
C38        49.000                                                                                                                                    39635896.872 4 206394601.57204       640.878 4        28.019
C23        55.000                                                                                                                                    24815802.407 7 129222701.36907      1986.748 7        42.866                                                                    24815800.161 7 105003947.62507      1614.290 7        43.511
I02        57.000    37491730.548 4 147125648.21704      -990.419 4        29.261
I06        58.000    38617745.716 5 151544307.32705      -709.237 5        34.552
> 2025 01 01 15 00 25.0000000  0 35
G06         2.000                                                                                                                                                                    24972997.029 3                     -3200.082 3        20.024
G25         3.000    19846196.545 7 104292517.74107     -1474.515 7        46.764                                    19846199.066 7  81266873.68007     -1148.977 7        46.245    19846199.593 7  81266920.69807     -1149.032 7        44.483
G11         4.000    22660287.562 7 119080861.47107     -2339.630 7        46.149                                    22660288.257 4  92790140.68404     -1823.103 4        28.322    22660287.659 6  92790157.70206     -1822.981 6        39.961
G31         5.000    23037420.173 7 121062470.69607      1991.372 7        42.889                                    23037425.924 5  94334450.22005      1551.706 5        34.186    23037423.776 6  94334622.23506      1551.742 6        40.164
G28         6.000    21582416.615 7 113416354.20607       578.573 7        45.238                                    21582417.124 4  88376411.23004       450.831 4        28.294    21582418.777 6  88376384.21906       450.911 6        40.853
G12         7.000    22106356.491 5 116169679.41505     -3532.166 5        35.281                                    22106355.269 3  90521846.74903     -2752.330 3        21.524    22106358.701 5  90521842.79805     -2752.190 5        33.748
G29         8.000    20723128.179 8 108900827.15208       585.970 8        51.441                                    20723128.790 8  84857965.61008       456.594 8        48.556    20723129.227 7  84857767.59907       456.617 7        43.848
E30         9.000    24112812.589 5 126713811.96805     -1974.218 5        33.102                                                                    24112814.849 6  94623926.54606     -1474.484 6        39.679    24112815.351 7  97092379.94007     -1512.861 7        42.129
E15        10.000    25598374.893 6 134520522.61406      1994.761 6        38.667                                                                    25598385.636 6 100453657.27606      1489.653 6        41.962
E34        12.000    24514389.892 5 128824059.51605      -463.705 5        34.376                                                                    24514390.759 5  96199769.83705      -345.984 5        30.687    24514396.112 6  98709310.12506      -354.985 6        40.496
E19        14.000    26713538.527 5                      -631.774 5        33.192                                                                    26713581.318 3                      -471.224 3        23.714    26713568.683 5 107564443.23405      -483.879 5        30.755
E27        15.000    24022468.236 7 126238938.00307       412.625 7        43.111                                                                    24022474.678 8  94269413.40308       308.129 8        48.486    24022472.863 7  96728664.42807       316.121 7        44.865
R17        17.000    20925142.684 7 111974633.28707      2757.855 7        43.029                                                                    20925149.045 6  87091459.52006      2145.072 6        39.640
E07        18.000                                                                                                                                                                                                    28146897.295 4                     -2929.014 4        25.383
E36        19.000                                                                                                                                                                                                    27081614.211 3                     -2351.202 3        22.876
R15        20.000    20213258.230 8 108014174.81508      1699.018 8        50.283                                                                    20213263.765 7  84010764.88907      1321.513 7        46.507
R24        21.000    19363084.124 5 103543119.45505     -1265.646 5        32.982                                                                    19363089.296 5  80533629.54905      -984.201 5        35.276
E21        22.000    28084273.814 4                      1654.891 4        28.019                                                                    28084335.614 4 110208966.63704      1236.127 4        28.938    28084299.926 6 113083896.25606      1268.208 6        36.129
S36        23.000    38189529.857 6 200687180.04206      -855.953 6        36.427
S23        24.000    38135603.614 5 200403894.94305      -860.198 5        35.938
E29        26.000    26544225.332 6 139490893.42906     -2695.545 6        37.297                                                                    26544238.619 5 104165254.54705     -2013.018 5        30.868    26544237.178 5 106882615.63705     -2065.117 5        34.886
C34        28.000                                                                                                                                    21699968.126 6 112997862.45806       488.211 6        41.213                                                                    21699972.856 7  91819783.03307       396.829 7        47.472
R06        30.000    23476711.470 3                     -1395.659 3        21.643
R16        33.000    24621961.952 4 131526039.39904      3071.849 4        29.299                                                                    24621956.084 5 102298076.13205      2389.112 5        35.743
C24        34.000                                                                                                                                    23007341.054 6 119805294.07006     -3349.118 6        40.079                                                                    23007370.743 5  97351585.93305     -2721.248 5        30.415
R14        35.000    19414157.844 8 103488595.69008     -1998.752 8        52.056                                                                    19414161.859 7  80491086.86207     -1554.607 7        45.774
R23        36.000    22735536.555 4                     -4921.315 4        29.763
S21        38.000    38417140.387 5 201883403.47105      -855.802 5        34.714
C44        39.000                                                                                                                                    22637429.215 6 117879043.93106     -2766.514 6        37.338                                                                    22637426.831 7  95786402.54107     -2247.903 7        42.008
C25        41.000                                                                                                                                    21427676.764 8 111579526.24708      -424.118 8        48.775                                                                    21427679.146 7  90667568.58007      -344.513 7        47.678
C12        43.000                                                                                                                                    21896231.108 5                     -1282.368 5        32.988    21896236.221 8  88167173.86908      -991.457 8        49.258    21896233.767 6  92650250.45806     -1041.688 6        39.838
C38        49.000                                                                                                                                    39635283.212 4 206391400.79804       639.769 4        27.401
C23        55.000                                                                                                                                    24813894.778 7 129212771.48407      1985.644 7        42.409                                                                    24813893.126 7 104995878.82007      1613.549 7        43.733
I02        57.000    37492992.345 4 147130600.98604      -990.285 4        29.630
I06        58.000    38618648.944 5 151547853.92405      -708.990 5        34.824
> 2025 01 01 15 00 30.0000000  0 35
G06         2.000                                                                                                                                                                    24976908.514 3                     -3200.462 3        20.333
G25         3.000    19847600.670 7 104299896.33207     -1476.806 7        46.233                                    19847603.169 7  81272623.24707     -1150.760 7        46.002    19847603.861 7  81272670.25507     -1150.737 7        45.031
G11         4.000    22662515.290 7 119092567.48407     -2342.705 7        45.669                                    22662516.203 4  92799262.29304     -1825.495 4        28.190    22662514.970 6  92799279.30806     -1825.506 6        39.243
G31         5.000    23035526.257 7 121052519.53507      1989.358 7        44.686                                    23035532.134 5  94326696.13805      1550.140 5        34.876    23035529.383 6  94326868.15106      1550.100 6        40.298
G28         6.000    21581867.568 7 113413468.78607       575.624 7        45.109                                    21581867.768 4  88374162.88304       448.527 4        29.052    21581869.613 6  88374135.87406       448.604 6        41.251
G12         7.000    22109719.026 5 116187342.26705     -3533.220 5        34.976                                    22109718.117 3  90535610.02403     -2753.160 3        21.857    22109719.645 5  90535606.04305     -2752.964 5        34.505
G29         8.000    20722571.717 8 108897903.59008       583.589 8        51.238                                    20722572.529 8  84855687.53508       454.741 8        48.616    20722572.988 7  84855489.52807       454.810 7        43.761
E30         9.000    24114691.502 5 126723686.68905     -1975.459 5        34.200                                                                    24114693.841 6  94631300.53306     -1475.201 6        39.387    24114694.184 7  97099946.30207     -1513.661 7        42.095
E15        10.000    25596477.067 6 134510552.01706      1993.404 6        38.553                                                                    25596488.041 6 100446211.78406      1488.703 6        41.526    25596482.535 6 103066623.89006      1527.600 6        37.486
E34        12.000    24514832.713 5 128826382.96105      -465.554 5        34.414                                                                    24514833.771 5  96201504.95705      -347.825 5        32.234    24514837.770 6  98711090.49606      -356.845 6        39.874
E19        14.000    26714140.922 5 140383758.40815      -634.264 5        34.371                                                                    26714184.267 3                      -474.543 3        23.733    26714167.489 5 107566867.95405      -485.979 5        30.717
E27        15.000    24022076.223 7 126236877.20307       411.811 7        43.321                                                                    24022082.382 8  94267874.52208       307.473 8        48.013    24022080.535 7  96727085.39707       315.500 7        45.201
R17        17.000    20922566.845 7 111960850.32007      2755.418 7        43.316                                                                    20922573.365 6  87080739.49406      2143.082 6        40.274
E07        18.000                                                                                                                                                                                                    28150534.222 4                     -2928.369 4        26.132
E36        19.000                                                                                                                                    27084437.311 4 106285201.62504     -2291.995 4        24.150    27084533.282 3                     -2351.846 3        22.571
R15        20.000    20211669.529 8 108005684.54108      1697.169 8        50.159                                                                    20211674.823 7  84004161.38207      1320.078 7        46.454
R24        21.000    19364272.427 6 103549459.02906     -1269.957 6        38.616                                                                    19364276.350 5  80538560.30505      -987.797 5        33.533
E21        22.000    28082700.921 4                      1654.955 4        28.626                                                                    28082761.455 4 110202787.46704      1235.662 4        28.303    28082725.001 6 113077555.90306      1267.948 6        36.280
S36        23.000    38190343.948 6 200691458.82506      -855.607 6        36.348
S23        24.000    38136417.074 5 200408197.29305      -860.334 5        35.719
E29        26.000    26546790.674 6 139504375.47406     -2697.007 6        38.096                                                                    26546804.280 5 104175322.28705     -2014.072 5        31.336    26546802.932 5 106892946.06205     -2066.810 5        35.243
C34        28.000                                                                                                                                    21699498.229 7 112995427.60007       485.778 7        42.864                                                                    21699505.060 7  91817804.53007       394.787 7        47.297
R06        30.000    23478026.538 4                     -1401.549 4        25.774
R16        33.000    24619086.076 5 131510678.43305      3072.438 5        30.513                                                                    24619082.083 5 102286128.85405      2389.707 5        35.100
C24        34.000                                                                                                                                    23010557.251 6 119822042.85306     -3350.355 6        38.538
R14        35.000    19416033.924 8 103498597.49108     -2001.823 8        51.442                                                                    19416037.984 7  80498866.04907     -1556.962 7        46.010
R23        36.000    22740133.280 4                     -4922.524 4        29.403
S21        38.000    38417953.927 5 201887683.83605      -856.190 5        34.819
C44        39.000                                                                                                                                    22640089.374 6 117892881.46406     -2768.232 6        37.433                                                                    22640084.006 7  95797646.71107     -2249.713 7        42.082
C25        41.000                                                                                                                                    21428085.973 8 111581652.63708      -426.348 8        49.232                                                                    21428087.501 8  90669296.46608      -346.491 8        48.030
