     3.04           OBSERVATION DATA    M                   RINEX VERSION / TYPE
ssrcrin-15.6.1x                         20250101 171500 UTC PGM / RUN BY / DATE 
(00000000023479385599111004) Septentrio proprietary         COMMENT             
ract                                                        MARKER NAME         
01                                                          MARKER NUMBER       
geodetic                                                    MARKER TYPE         
NFB                 CLIMERS@TUW                             OBSERVER / AGENCY   
3296359             SEPT ASTERX SB3 PROB4.14.4              REC # / TYPE / VERS 
Unknown             Unknown                                 ANT # / TYPE        
  4127446.1433  1206914.5246  4695543.4646                  APPROX POSITION XYZ 
        0.0000        0.0000        0.0000                  ANTENNA: DELTA H/E/N
G   23 X1  C1C L1C D1C S1C C1W S1W C2W L2W D2W S2W C2L L2L  SYS / # / OBS TYPES 
       D2L S2L C5Q L5Q D5Q S5Q C1L L1L D1L S1L              SYS / # / OBS TYPES 
E   21 X1  C1C L1C D1C S1C C6C L6C D6C S6C C5Q L5Q D5Q S5Q  SYS / # / OBS TYPES 
       C7Q L7Q D7Q S7Q C8Q L8Q D8Q S8Q                      SYS / # / OBS TYPES 
S    9 X1  C1C L1C D1C S1C C5I L5I D5I S5I                  SYS / # / OBS TYPES 
R   17 X1  C1C L1C D1C S1C C2P L2P D2P S2P C2C L2C D2C S2C  SYS / # / OBS TYPES 
       C3Q L3Q D3Q S3Q                                      SYS / # / OBS TYPES 
C   25 X1  C1P L1P D1P S1P C5P L5P D5P S5P C2I L2I D2I S2I  SYS / # / OBS TYPES 
       C7I L7I D7I S7I C6I L6I D6I S6I C7D L7D D7D S7D      SYS / # / OBS TYPES 
J   17 X1  C1C L1C D1C S1C C2L L2L D2L S2L C5Q L5Q D5Q S5Q  SYS / # / OBS TYPES 
       C1L L1L D1L S1L                                      SYS / # / OBS TYPES 
I    5 X1  C5A L5A D5A S5A                                  SYS / # / OBS TYPES 
SEPTENTRIO RECEIVERS OUTPUT ALIGNED CARRIER PHASES.         COMMENT             
NO FURTHER PHASE SHIFT APPLIED IN THE RINEX ENCODER.        COMMENT             
G L1C                                                       SYS / PHASE SHIFT   
G L2W                                                       SYS / PHASE SHIFT   
G L2L  0.00000                                              SYS / PHASE SHIFT   
G L5Q  0.00000                                              SYS / PHASE SHIFT   
G L1L  0.00000                                              SYS / PHASE SHIFT   
E L1C  0.00000                                              SYS / PHASE SHIFT   
E L6C  0.00000                                              SYS / PHASE SHIFT   
E L5Q  0.00000                                              SYS / PHASE SHIFT   
E L7Q  0.00000                                              SYS / PHASE SHIFT   
E L8Q  0.00000                                              SYS / PHASE SHIFT   
S L1C                                                       SYS / PHASE SHIFT   
S L5I                                                       SYS / PHASE SHIFT   
R L1C                                                       SYS / PHASE SHIFT   
R L2P  0.00000                                              SYS / PHASE SHIFT   
R L2C                                                       SYS / PHASE SHIFT   
R L3Q  0.00000                                              SYS / PHASE SHIFT   
C L1P  0.00000                                              SYS / PHASE SHIFT   
C L5P  0.00000                                              SYS / PHASE SHIFT   
C L2I                                                       SYS / PHASE SHIFT   
C L7I                                                       SYS / PHASE SHIFT   
C L6I                                                       SYS / PHASE SHIFT   
C L7D                                                       SYS / PHASE SHIFT   
J L1C                                                       SYS / PHASE SHIFT   
J L2L  0.00000                                              SYS / PHASE SHIFT   
J L5Q  0.00000                                              SYS / PHASE SHIFT   
J L1L  0.00000                                              SYS / PHASE SHIFT   
I L5A                                                       SYS / PHASE SHIFT   
  2025     1     1    17    15    0.0000000     GPS         TIME OF FIRST OBS   
 C1C    0.000 C2C    0.000 C2P    0.000                     GLONASS COD/PHS/BIS 
DBHZ                                                        SIGNAL STRENGTH UNIT
    18                                                      LEAP SECONDS        
 24 R01  1 R02 -4 R03  5 R04  6 R05  1 R06 -4 R07  5 R08  6 GLONASS SLOT / FRQ #
    R09 -2 R10 -7 R11  0 R12 -1 R13 -2 R14 -7 R15  0 R16 -1 GLONASS SLOT / FRQ #
    R17  4 R18 -3 R19  3 R20  2 R21  4 R22 -3 R23  3 R24  2 GLONASS SLOT / FRQ #
                                                            END OF HEADER       
> 2025 01 01 17 15  0.0000000  0 40
G18         1.000    20859302.804 8 109616585.11108       414.655 8        48.960                                    20859299.437 6  85415393.58806       323.103 6        41.819    20859299.028 8  85415404.59208       323.101 8        50.210
G20         2.000    24727551.775 4                     -3280.523 4        28.559
G25         3.000                                                                                                                                                                    23531761.506 3                     -3483.698 3        21.381
G31         5.000    22401753.009 6 117722015.10006     -2915.202 6        36.079                                    22401743.448 3  91731392.67203     -2271.578 3        21.524    22401745.181 5  91731376.71605     -2271.574 5        35.152
G28         6.000                                                                                                                                                                    23399696.258 4                     -3132.104 4        28.645
G27         7.000    25129442.521 5                      2572.146 5        31.781
G29         8.000    21423942.953 7 112583720.79407     -2781.465 7        46.002                                    21423940.097 6  87727774.50706     -2167.377 6        38.988    21423938.217 6  87727576.53206     -2167.287 6        39.541
E30         9.000    27265524.901 5                     -3596.508 5        31.457                                                                                                                                    27265538.922 4                     -2755.747 4        26.323
E15        10.000    23665627.468 6 124363696.98506     -1301.064 6        40.868                                                                    23665628.958 7  92869153.76807      -971.718 7        44.230    23665625.526 6  95291769.11206      -997.047 6        39.318
G05        11.000    22984687.415 6 120785340.91906     -1210.220 6        36.170                                    22984667.913 2  94118365.18102      -943.012 2        12.303    22984688.031 5                      -943.545 5        31.117
E34        12.000                                                                                                                                    26773746.497 5 105065956.75305     -2635.535 5        30.966    26773744.246 4 107806796.84404     -2704.210 4        26.359
E27        15.000    23719899.151 6 124649019.63706     -1824.447 6        40.965                                                                    23719898.572 7  93082091.71207     -1362.342 7        46.106    23719898.180 7  95510429.91507     -1397.967 7        45.371
E13        16.000                                                                                                                                    24798268.014 7  97313739.67007      1108.296 7        43.304
R17        17.000    19713798.390 6 105492652.51406     -2723.726 6        39.616                                                                    19713799.016 6  82049624.22306     -2118.492 6        37.951
G16        18.000    22590315.363 6 118712948.51806      2220.686 6        40.787                                    22590313.060 3  92503550.88203      1730.383 3        19.373
R15        20.000    20232419.948 6 108116251.91506     -3736.737 6        41.874                                                                    20232419.928 5                     -2906.530 5        32.240
R24        21.000                                                                                                                                    23680045.749 4                     -3719.993 4        24.977
E21        22.000                                                                                                                                    24666561.597 7  96796917.12507       667.804 7        42.362    24666558.499 6  99322177.82006       685.348 6        40.696
S36        23.000    38302496.163 6 201280858.39706      -854.062 6        36.616
S23        24.000    38254542.729 6 201028980.78306      -857.098 6        38.643
G26        25.000    20864783.134 6 109645193.77006       435.014 6        40.558                                    20864783.819 6  85437830.54006       338.970 6        38.153    20864782.383 7  85437824.55907       339.011 7        42.061
E04        26.000    28782427.904 5                     -1900.911 5        33.395                                                                    28782402.319 4                     -1419.638 4        28.464
C34        28.000                                                                                                                                    22546200.532 7 117404114.18607     -2778.645 7        46.625                                                                    22546198.976 6  95400552.04206     -2257.758 6        39.423
R08        29.000                                                                                                                                    24015745.926 4                     -1656.731 4        29.886
R18        30.000    19775443.522 6 105562620.28606       799.836 6        41.325                                                                    19775448.665 7  82104381.33707       622.120 7        46.828
R16        33.000    19699961.880 6 105233672.98706       591.851 6        36.563                                                                    19699910.591 5  81848431.71705       459.927 5        34.176
R09        34.000    23571291.357 5 125869445.06305      3327.891 5        32.066
C37        36.000                                                                                                                                    24912032.629 7 129723497.44007      1580.765 7        44.432                                                                    24912035.070 6 105411026.77606      1284.502 6        41.666
S21        38.000    38530755.994 5 202480659.72705      -854.864 5        33.970
C28        40.000                                                                                                                                    25652657.397 3                      2084.354 3        21.095                                                                    25652651.452 4                      1696.028 4        27.772
C25        41.000                                                                                                                                    23795423.087 5 123909119.86005     -3899.811 5        34.938                                                                    23795422.509 6 100686325.45206     -3169.158 6        38.847
C43        42.000                                                                                                                                    21691506.239 8 112953386.39908      -201.251 8        48.525                                                                    21691504.048 6  91784027.46406      -163.391 6        39.838
C12        43.000                                                                                                                                    25024639.341 4                     -3670.511 4        28.701    25024653.294 5 100763798.69405     -2838.199 5        31.434    25024628.052 4                     -2983.490 4        26.395
C11        44.000                                                                                                                                    21686642.332 8 112928102.38608     -1551.034 8        49.537    21686639.758 9  87323262.07109     -1199.346 9        54.805    21686637.943 8  91763423.98908     -1260.263 8        49.597
C13        45.000                                                                                                                                    37933770.111 7 197531120.24407      -219.766 7        43.209    37933770.974 7 152743545.48107      -169.896 7        45.734    37933769.354 7 160510220.86607      -178.448 7        44.384
C08        46.000                                                                                                                                    37876916.978 6 197235065.48406      -442.130 6        39.739    37876910.071 6 152514539.17406      -342.025 6        41.523    37876909.114 7 160269668.81307      -359.243 7        43.591
C38        49.000                                                                                                                                    38689838.340 6 201468153.48406      -996.901 6        37.701                                                                    38689837.114 5 163709351.95505      -809.865 5        30.883
C23        55.000                                                                                                                                    22568637.040 7 117521073.84207     -1224.152 7        45.044                                                                    22568630.004 7  95495374.65407      -994.568 7        47.715
I06        58.000    38814173.005 5 152315291.69305      -645.611 5        35.005
I02        59.000    38515414.439 5 151142715.82405     -1170.459 5        35.319
> 2025 01 01 17 15  5.0000000  0 38
G18         1.000    20858909.490 8 109614518.37808       412.227 8        48.813                                    20858906.006 6  85413783.15006       321.217 6        41.630    20858905.758 8  85413794.15208       321.269 8        50.413
G20         2.000    24730669.064 4                     -3282.620 4        26.623
G25         3.000    23536038.413 4                     -4471.716 4        26.683                                                                                                    23536019.210 4                     -3484.660 4        24.361
G31         5.000    22404526.489 5 117736597.37805     -2917.631 5        35.590                                    22404519.150 3  91742755.43903     -2273.474 3        22.438    22404520.672 5  91742739.48605     -2273.400 5        34.214
G28         6.000    23403510.281 5 122986382.41115     -4020.419 5        33.072                                    23403515.596 1  95833483.53311     -3132.803 1         7.000    23403519.572 5                     -3133.320 5        30.030
G29         8.000    21426589.829 7 112597631.42207     -2782.580 7        46.882                                    21426587.208 6  87738613.95106     -2168.243 6        39.631    21426585.351 6  87738415.98006     -2168.144 6        38.913
E30         9.000    27268946.953 5                     -3596.820 5        30.611                                                                                                                                    27268961.471 4                     -2755.613 4        25.985
E15        10.000    23666866.156 6 124370207.64606     -1302.962 6        41.008                                                                    23666867.962 7  92874015.60707      -972.872 7        44.134    23666864.930 6  95296757.78706      -998.228 6        40.021
G05        11.000    22985841.246 6 120791401.56106     -1213.543 6        37.890                                    22985824.865 2  94123087.74602      -945.615 2        16.075    22985835.950 5                      -945.867 5        30.377
E34        12.000                                                                                                                                    26777103.892 5 105079136.30705     -2635.967 5        30.453    26777102.354 4 107820320.22304     -2705.192 4        26.132
E27        15.000    23721636.340 6 124658145.42906     -1825.676 6        40.675                                                                    23721635.393 7  93088906.41907     -1363.269 7        46.250    23721634.652 7  95517422.40307     -1398.819 7        45.236
E13        16.000    24796861.753 4 130308406.49214      1483.234 4        26.299                                                                    24796856.759 7  97308200.79607      1107.446 7        43.672    24796852.754 6  99846704.51216      1136.252 6        38.658
R17        17.000    19716343.038 6 105506276.62806     -2725.865 6        40.195                                                                    19716347.184 6  82060220.76706     -2120.013 6        39.036
G16        18.000    22588203.958 6 118701848.09106      2219.614 6        40.613                                    22588200.228 2  92494901.19402      1729.574 2        16.528
R15        20.000    20235916.180 6 108134943.24906     -3739.587 6        39.246                                                                    20235914.202 4                     -2908.595 4        28.739
R24        21.000                                                                                                                                    23684516.178 4                     -3718.504 4        24.842
E21        22.000                                                                                                                                    24665711.525 7  96793579.32907       667.323 7        42.999    24665707.992 6  99318752.94506       684.690 6        40.420
S36        23.000    38303310.477 6 201285127.24006      -853.341 6        36.798
S23        24.000    38255354.462 6 201033264.91506      -856.380 6        38.438
G26        25.000    20864369.749 6 109643024.32706       433.068 6        38.658                                    20864370.954 6  85436140.07106       337.461 6        37.176    20864369.386 6  85436134.08806       337.202 6        40.810
E04        26.000    28784236.045 5                     -1902.809 5        32.533                                                                    28784208.716 4                     -1420.909 4        27.569    28784257.798 4                     -1457.763 4        24.481
C34        28.000                                                                                                                                    22548868.718 7 117418009.61107     -2779.372 7        46.825                                                                    22548867.137 6  95411843.21206     -2258.634 6        38.862
R08        29.000    24017717.803 3                     -2129.529 3        20.167                                                                    24017737.546 4                     -1659.748 4        28.417
R18        30.000    19774695.185 6 105558628.00206       797.294 6        39.856                                                                    19774700.521 7  82101276.23207       620.094 7        46.559
R16        33.000    19699406.075 6 105230723.94206       588.144 6        37.546                                                                    19699358.540 5  81846138.09605       457.343 5        30.634
C37        36.000                                                                                                                                    24910515.694 7 129715597.32607      1579.454 7        43.536                                                                    24910517.956 7 105404607.24607      1283.264 7        42.027
S21        38.000    38531569.548 5 202484931.86205      -854.218 5        33.772
C28        40.000                                                                                                                                    25650656.472 4                      2085.869 4        24.707                                                                    25650647.382 4                      1696.295 4        28.531
C25        41.000                                                                                                                                    23799170.373 5 123928622.33105     -3900.719 5        34.529                                                                    23799167.804 6 100702172.79206     -3169.921 6        39.069
C43        42.000                                                                                                                                    21691699.352 7 112954396.60207      -202.669 7        47.825                                                                    21691698.314 6  91784848.33106      -164.922 6        41.201
C12        43.000                                                                                                                                    25028168.422 4                     -3670.934 4        28.626    25028181.639 5 100777991.39905     -2838.661 5        32.156    25028156.109 4                     -2983.256 4        27.473
C11        44.000                                                                                                                                    21688132.380 8 112935861.26308     -1552.364 8        49.604    21688129.747 9  87329261.73809     -1200.388 9        54.649    21688127.963 8  91769728.70508     -1261.521 8        49.781
C13        45.000                                                                                                                                    37933981.557 7 197532221.12907      -220.397 7        42.529    37933982.385 7 152744396.75807      -170.413 7        45.606    37933980.809 7 160511115.41507      -179.365 7        44.617
C08        46.000                                                                                                                                    37877341.389 6 197237278.78206      -442.916 6        40.048    37877335.113 6 152516250.60806      -342.545 6        41.607    37877334.054 7 160271467.27007      -360.018 7        43.606
C38        49.000                                                                                                                                    38690795.023 6 201473140.18306      -997.570 6        37.754                                                                    38690796.161 5 163713404.05305      -810.737 5        31.358
C23        55.000                                                                                                                                    22569813.657 7 117527200.61707     -1226.498 7        44.549                                                                    22569806.661 7  95500353.15807      -996.780 7        47.968
I06        58.000    38814994.907 5 152318518.05905      -645.199 5        35.138
I02        59.000    38516905.875 5 151148568.60405     -1170.455 5        35.205
> 2025 01 01 17 15 10.0000000  0 40
G18         1.000    20858518.771 8 109612465.93608       408.944 8        48.789                                    20858515.311 6  85412183.84806       318.659 6        41.154    20858514.938 8  85412194.85908       318.653 8        50.201
G20         2.000    24733790.144 4                     -3285.569 4        25.895
G25         3.000    23540295.639 4                     -4473.104 4        27.976                                                                                                    23540275.685 4                     -3485.402 4        26.934
G31         5.000    22407302.501 5 117751192.74305     -2920.384 5        35.724                                    22407297.740 3  91754128.40503     -2275.617 3        22.590    22407299.235 5  91754112.45505     -2275.440 5        32.108
G28         6.000    23407345.028 5 123006490.15805     -4022.486 5        34.100                                    23407343.596 1  95849151.99301     -3134.447 1         8.286    23407347.142 5                     -3134.260 5        31.162
G27         7.000    25124566.704 5                      2571.798 5        34.538
G29         8.000    21429237.549 7 112611549.29607     -2784.455 7        47.020                                    21429235.522 6  87749459.04606     -2169.701 6        39.883    21429233.773 6  87749261.06606     -2169.687 6        38.670
E30         9.000    27272369.354 5                     -3597.857 5        30.257                                                                                                                                    27272381.681 4                     -2756.537 4        25.684
E15        10.000    23668106.492 6 124376728.97406     -1305.445 6        40.713                                                                    23668108.896 7  92878885.43607      -974.876 7        44.105    23668106.312 6  95301754.65606     -1000.366 6        40.405
G05        11.000    22986998.742 6 120797479.66506     -1217.541 6        38.237                                    22986984.777 2  94127823.94002      -948.733 2        17.887    22986992.316 4                      -948.645 4        29.839
E34        12.000                                                                                                                                    26780463.051 5 105092318.79905     -2636.710 5        30.415    26780461.662 4 107833846.63204     -2706.151 4        25.113
E27        15.000    23723373.948 6 124667279.94906     -1827.909 6        40.482                                                                    23723373.831 7  93095727.64307     -1365.011 7        46.478    23723372.736 7  95524421.57707     -1400.629 7        44.980
E13        16.000                                                                                                                                    24795447.128 7  97302667.67707      1105.950 7        44.071    24795447.376 6  99841027.05706      1134.798 6        38.835
R17        17.000    19718893.693 6 105519913.60406     -2728.811 6        41.523                                                                    19718896.415 6  82070827.29706     -2122.435 6        40.010
G16        18.000    22586094.387 6 118690754.71006      2217.865 6        40.953                                    22586088.786 2  92486257.01402      1728.230 2        15.333
R15        20.000    20239417.284 6 108153650.99416     -3743.391 6        40.153                                                                    20239416.099 4                     -2911.446 4        28.976
R24        21.000                                                                                                                                    23688991.172 3                     -3719.278 3        23.771
E21        22.000    24664902.499 5 129614863.84615       891.794 5        33.311                                                                    24664862.273 7  96790246.07507       666.142 7        43.594    24664858.590 6  99315332.73806       683.531 6        40.069
S36        23.000    38304125.564 6 201289395.59006      -853.727 6        36.643
S23        24.000    38256174.209 6 201037549.06906      -856.753 6        38.895
G26        25.000    20863959.333 6 109640868.36006       429.719 6        38.880                                    20863960.468 5  85434460.09805       334.850 5        35.957    20863959.531 6  85434454.10706       334.882 6        40.436
E04        26.000    28786046.305 5                     -1904.979 5        32.371                                                                    28786017.032 4                     -1422.539 4        27.162    28786067.178 4                     -1459.537 4        24.647
C34        28.000                                                                                                                                    22551538.119 7 117431911.09807     -2781.000 7        46.654                                                                    22551536.647 6  95423139.32806     -2259.920 6        38.243
R08        29.000    24019703.740 3                     -2136.559 3        21.333
R18        30.000    19773953.903 7 105554650.96607       793.714 7        43.460                                                                    19773954.984 7  82098182.97707       617.294 7        46.295
R16        33.000    19698852.648 5 105227794.79305       583.797 5        35.205                                                                    19698812.723 5  81843859.85305       454.346 5        33.305
R09        34.000    23565043.976 4                      3326.486 4        27.605
C37        36.000                                                                                                                                    24909000.432 7 129707705.91707      1577.141 7        42.053                                                                    24909002.459 6 105398194.80106      1281.699 6        41.836
S21        38.000    38532381.125 5 202489204.02705      -854.563 5        34.224
C28        40.000                                                                                                                                    25648651.468 4                      2086.570 4        28.427                                                                    25648643.827 4                      1695.034 4        27.880
C25        41.000                                                                                                                                    23802920.647 6 123948131.14206     -3902.606 6        36.008                                                                    23802914.611 6 100718025.30506     -3171.205 6        39.009
C43        42.000                                                                                                                                    21691893.696 7 112955416.03807      -204.976 7        46.863                                                                    21691894.252 7  91785676.71207      -166.594 7        42.057
C12        43.000                                                                                                                                    25031696.648 4                     -3671.568 4        28.171    25031706.841 5 100792185.50605     -2839.306 5        32.557    25031685.055 4                     -2983.641 4        27.904
C11        44.000                                                                                                                                    21689624.069 8 112943628.97208     -1554.570 8        49.343    21689621.345 9  87335268.23109     -1202.104 9        54.412    21689619.693 8  91776040.63208     -1263.339 8        49.529
C13        45.000                                                                                                                                    37934193.641 6 197533327.07406      -221.744 6        41.590    37934194.668 7 152745251.94907      -171.546 7        45.579    37934193.261 7 160512014.10407      -180.370 7        44.429
C08        46.000                                                                                                                                    37877766.917 6 197239497.63706      -444.316 6        39.706    37877761.390 6 152517966.37906      -343.633 6        41.967    37877760.065 7 160273270.29207      -361.126 7        43.247
C38        49.000                                                                                                                                    38691752.947 6 201478131.73406      -999.110 6        37.422                                                                    38691755.438 5 163717460.11105      -811.944 5        31.592
C23        55.000                                                                                                                                    22570993.302 7 117533341.25507     -1229.726 7        44.029                                                                    22570985.876 7  95505342.93907      -999.280 7        47.836
I06        58.000    38815817.697 5 152321744.21005      -645.543 5        35.100
I02        59.000    38518398.487 5 151154421.80205     -1170.765 5        35.219
> 2025 01 01 17 15 15.0000000  0 40
G18         1.000    20858130.866 8 109610428.38708       406.203 8        48.730                                    20858127.452 6  85410596.15006       316.524 6        40.849    20858126.924 8  85410607.16408       316.519 8        49.638
G20         2.000    24736916.426 4                     -3287.350 4        25.504
G25         3.000    23544554.001 4                     -4473.741 4        27.856                                                                                                    23544534.222 4                     -3485.958 4        28.351
G31         5.000    22410079.479 5 117765801.87305     -2923.120 5        35.533                                    22410079.076 3  91765512.09003     -2277.747 3        22.609    22410083.551 5  91765496.17205     -2278.020 5        31.087
G28         6.000    23411178.217 5 123026605.22405     -4023.531 5        33.120                                    23411172.794 1  95864826.16301     -3135.214 1         9.429    23411174.820 5                     -3135.521 5        32.539
G27         7.000    25122117.901 5 132017633.11215      2571.505 5        34.814
G29         8.000    21431886.800 7 112625475.00407     -2785.684 7        46.858                                    21431885.235 6  87760310.25106     -2170.660 6        40.138    21431884.492 6  87760112.27406     -2170.697 6        38.408
E30         9.000    27275792.435 4                     -3598.407 4        29.336                                                                                                                                    27275803.845 4                     -2757.837 4        25.579
E15        10.000    23669349.428 6 124383261.56106     -1307.384 6        41.242                                                                    23669351.840 7  92883763.66707      -976.313 7        43.835    23669350.094 6  95306760.16506     -1001.817 6        41.046
G05        11.000    22988157.490 6 120803575.77606     -1220.767 6        36.722                                    22988147.202 3  94132574.17903      -951.271 3        19.612    22988153.100 4                      -951.450 4        29.564
E34        12.000                                                                                                                                    26783823.069 5 105105504.69805     -2637.152 5        30.332    26783821.604 4 107847376.46304     -2706.410 4        25.263
E27        15.000    23725113.542 6 124676423.75206     -1829.437 6        40.350                                                                    23725114.048 7  93102555.81007     -1366.172 7        46.488    23725112.754 7  95531427.88007     -1401.815 7        44.582
E13        16.000    24794038.065 3                      1479.187 3        21.476                                                                    24794038.985 7  97297140.76007      1104.868 7        44.311    24794038.484 6  99835355.96706      1133.647 6        37.607
R17        17.000    19721444.368 6 105533564.11206     -2731.358 6        40.324                                                                    19721445.828 6  82081444.32706     -2124.408 6        40.262
G16        18.000    22583983.903 6 118679669.06106      2216.447 6        41.661                                    22583978.564 2  92477618.85502      1727.099 2        15.667
R15        20.000    20242924.100 7 108172375.72307     -3746.428 7        42.423                                                                    20242923.014 5                     -2914.110 5        33.353
R24        21.000                                                                                                                                    23693468.652 3                     -3719.850 3        23.543
E21        22.000                                                                                                                                    24664014.468 7  96786917.82507       665.270 7        44.023    24664010.828 6  99311917.65806       682.648 6        39.883
S36        23.000    38304932.688 6 201293664.79906      -853.685 6        36.790
S23        24.000    38256985.183 6 201041833.72406      -856.810 6        38.820
G26        25.000    20863552.937 6 109638726.40106       427.352 6        40.870                                    20863552.558 5  85432791.07105       333.001 5        35.738    20863551.982 6  85432785.09606       332.842 6        40.672
E04        26.000    28787857.290 5                     -1907.188 5        31.857                                                                    28787829.215 4                     -1424.431 4        27.713    28787875.220 3                     -1461.218 3        23.124
C34        28.000                                                                                                                                    22554209.236 7 117445819.21607     -2782.123 7        46.081                                                                    22554207.448 6  95434440.82606     -2260.798 6        38.228
R08        29.000    24021704.272 3                     -2142.993 3        21.571
R18        30.000    19773213.349 7 105550689.79407       790.900 7        46.124                                                                    19773213.296 7  82095102.05907       615.127 7        46.636
R16        33.000                                                                                                                                    19698269.906 5  81841597.49605       451.067 5        35.686
R09        34.000    23561951.267 5                      3325.830 5        34.752                                                                    23561929.257 6  97859984.27016      2586.498 6        38.799
C37        36.000                                                                                                                                    24907486.130 6 129699823.80806      1575.583 6        41.163                                                                    24907489.015 7 105391789.95307      1280.336 7        42.036
S21        38.000    38533197.728 5 202493476.96705      -854.691 5        34.376
C28        40.000                                                                                                                                    25646646.258 5                      2085.864 5        31.109                                                                    25646640.294 4                      1694.829 4        28.692
C25        41.000                                                                                                                                    23806670.501 6 123967646.80906     -3903.475 6        38.087                                                                    23806662.319 6 100733883.43006     -3172.081 6        39.489
C43        42.000                                                                                                                                    21692090.997 7 112956445.28307      -206.625 7        46.999                                                                    21692092.138 7  91786513.07807      -167.976 7        43.136
C12        43.000                                                                                                                                    25035222.129 4                     -3672.006 4        28.720    25035232.857 5 100806381.46305     -2839.544 5        32.377    25035214.569 4                     -2983.841 4        29.071
C11        44.000                                                                                                                                    21691117.334 8 112951406.09308     -1556.117 8        48.972    21691114.851 9  87341282.00309     -1203.296 9        54.152    21691113.159 8  91782360.19208     -1264.578 8        49.482
C13        45.000                                                                                                                                    37934406.680 6 197534438.71906      -222.655 6        40.653    37934408.274 7 152746111.54107      -172.183 7        45.431    37934406.881 7 160512917.41607      -181.039 7        44.548
C08        46.000                                                                                                                                    37878194.310 6 197241722.73306      -445.352 6        39.913    37878188.423 7 152519686.95007      -344.489 7        42.093    37878187.345 7 160275078.35907      -362.017 7        43.179
C38        49.000                                                                                                                                    38692712.159 6 201483128.67606      -999.689 6        37.713                                                                    38692715.576 5 163721520.55605      -812.872 5        31.517
C23        55.000                                                                                                                                    22572175.619 7 117539496.35107     -1232.272 7        44.939                                                                    22572167.753 7  95510344.48107     -1001.442 7        47.845
I06        58.000    38816639.942 5 152324970.55605      -644.842 5        35.333
I02        59.000    38519889.942 5 151160276.29905     -1170.826 5        35.390
> 2025 01 01 17 15 20.0000000  0 38
G18         1.000    20857745.594 8 109608405.49508       403.178 8        48.681                                    20857742.329 6  85409019.87906       314.168 6        40.455    20857741.816 8  85409030.88908       314.161 8        48.667
G25         3.000                                                                                                                                                                    23548791.430 4                     -3486.839 4        29.128
G31         5.000    22412859.940 6 117780424.43006     -2925.930 6        37.319                                    22412863.005 3  91776906.22903     -2279.934 3        22.400    22412868.082 5  91776890.29905     -2280.070 5        31.411
G28         6.000    23415005.522 5 123046727.41705     -4024.886 5        30.792                                    23415001.916 1  95880505.78201     -3136.313 1        10.518    23415004.241 5                     -3136.380 5        32.916
G27         7.000    25119672.297 5 132004777.08405      2571.320 5        33.521
G29         8.000    21434537.961 7 112639408.35707     -2787.337 7        46.514                                    21434536.375 6  87771167.40206     -2171.946 6        40.040    21434536.193 6  87770969.43106     -2171.902 6        38.438
E30         9.000    27279216.468 4                     -3599.344 4        26.754                                                                                                                                    27279228.053 4                     -2759.087 4        25.805
E15        10.000    23670594.881 6 124389805.18706     -1309.733 6        41.833                                                                    23670596.806 7  92888650.12707      -977.951 7        43.570    23670595.517 6  95311774.11106     -1003.657 6        41.540
G05        11.000    22989318.522 6 120809689.75806     -1224.443 6        36.212                                    22989312.605 3  94137338.33103      -954.107 3        20.119    22989316.800 5                      -954.279 5        30.038
E34        12.000                                                                                                                                    26787184.322 5 105118693.83505     -2638.311 5        30.453    26787183.613 4 107860909.69904     -2707.653 4        25.429
E27        15.000    23726855.248 6 124685576.64006     -1831.540 6        40.806                                                                    23726855.986 7  93109390.76107     -1367.630 7        46.707    23726854.663 7  95538441.13107     -1403.269 7        44.301
E13        16.000    24792620.816 4                      1477.722 4        29.090                                                                    24792632.249 7  97291619.87407      1103.633 7        44.509    24792628.889 6  99829691.05706      1132.434 6        36.208
R17        17.000    19723999.738 7 105547227.62007     -2734.017 7        42.155                                                                    19724000.691 6  82092071.46706     -2126.475 6        40.720
G16        18.000    22581875.064 6 118668590.79106      2215.010 6        41.762                                    22581869.716 2  92468986.43002      1725.975 2        15.381
R15        20.000    20246431.846 7 108191117.19107     -3750.028 7        42.561                                                                    20246431.159 6  84148390.38216     -2916.368 6        36.155
R24        21.000    23697943.320 3                     -4781.041 3        23.810                                                                    23697946.620 4                     -3719.555 4        24.586
E21        22.000    24663168.110 5 129605956.30005       889.523 5        34.071                                                                    24663167.819 7  96783594.39307       664.177 7        44.444    24663164.098 6  99308507.52806       681.552 6        39.610
S36        23.000    38305748.410 6 201297934.06606      -853.665 6        36.764
S23        24.000    38257802.358 6 201046118.79406      -857.029 6        38.820
G26        25.000    20863148.419 6 109636598.32006       424.233 6        41.793                                    20863147.246 6  85431132.84506       330.569 6        36.227    20863146.970 6  85431126.85006       330.649 6        41.111
E04        26.000    28789666.374 5                     -1909.629 5        31.238                                                                    28789645.525 4                     -1425.850 4        26.623    28789684.743 3                     -1462.242 3        23.467
C34        28.000                                                                                                                                    22556881.828 7 117459733.72907     -2783.500 7        44.947                                                                    22556879.768 6  95445747.50106     -2261.988 6        38.147
R08        29.000    24023711.830 3                     -2146.521 3        23.638
R18        30.000    19772474.052 7 105546744.28007       787.612 7        46.854                                                                    19772474.729 7  82092033.33407       612.570 7        46.134
R16        33.000    19697735.880 6 105221997.31006       575.788 6        36.646                                                                    19697727.958 6  81839350.88706       447.949 6        36.344
C37        36.000                                                                                                                                    24905973.577 6 129691950.76506      1573.820 6        40.532                                                                    24905977.091 7 105385392.45807      1278.774 7        42.233
S21        38.000    38534010.173 5 202497750.27205      -854.473 5        34.357
C28        40.000                                                                                                                                    25644641.240 5                      2085.201 5        32.275                                                                    25644637.472 4                      1694.473 4        28.474
C25        41.000                                                                                                                                    23810420.851 6 123987169.13506     -3905.097 6        39.793                                                                    23810411.645 6 100749746.94206     -3173.112 6        39.895
C43        42.000                                                                                                                                    21692291.120 7 112957484.11007      -208.614 7        47.589                                                                    21692291.777 7  91787357.22007      -169.551 7        43.977
C12        43.000                                                                                                                                    25038750.306 4                     -3672.117 4        28.758    25038758.660 5 100820579.15105     -2839.270 5        32.557    25038738.789 4                     -2984.057 4        27.856
C11        44.000                                                                                                                                    21692612.300 8 112959192.34708     -1558.072 8        48.765    21692610.265 8  87347302.83408     -1204.817 8        53.985    21692608.374 8  91788687.16008     -1266.142 8        49.296
C13        45.000                                                                                                                                    37934620.977 6 197535555.90506      -223.882 6        38.880    37934623.003 7 152746975.42707      -173.120 7        45.439    37934621.369 7 160513825.20507      -181.897 7        44.441
C08        46.000                                                                                                                                    37878622.332 6 197243953.82806      -446.797 6        39.814    37878617.286 7 152521412.16307      -345.472 7        42.176    37878615.655 7 160276891.31307      -363.157 7        42.929
C38        49.000                                                                                                                                    38693673.456 6 201488130.81506     -1000.921 6        37.648                                                                    38693676.850 5 163725585.17405      -813.262 5        31.177
C23        55.000                                                                                                                                    22573360.360 7 117545665.64707     -1235.253 7        46.325                                                                    22573352.268 7  95515357.55907     -1003.778 7        47.595
I06        58.000    38817462.357 5 152328196.97605      -645.212 5        35.338
I02        59.000    38521381.536 5 151166131.36405     -1171.185 5        35.105
> 2025 01 01 17 15 25.0000000  0 39
G18         1.000    20857363.389 8 109606396.71908       400.380 8        48.624                                    20857359.835 6  85407454.60806       311.982 6        40.031    20857359.658 8  85407465.62408       311.939 8        48.017
G25         3.000                                                                                                                                                                    23553048.321 5                     -3487.450 5        30.226
G31         5.000    22415647.209 6 117795059.82706     -2928.214 6        40.291                                    22415649.439 3  91788310.41703     -2281.716 3        22.705    22415654.756 5  91788294.44105     -2281.984 5        30.558
G28         6.000    23418833.959 4 123066856.20404     -4026.550 4        28.720                                    23418833.077 1  95896190.55101     -3137.535 1        10.148    23418834.924 5                     -3137.310 5        33.461
G27         7.000    25117227.410 5 131991922.20505      2570.933 5        30.234
G29         8.000    21437191.178 7 112653348.82107     -2788.785 7        46.230                                    21437188.924 6  87782030.10006     -2173.079 6        40.093    21437189.133 6  87781832.13106     -2173.129 6        38.613
E30         9.000    27282635.613 4                     -3599.657 4        25.338                                                                                                                                    27282653.052 4                     -2758.669 4        25.594
E15        10.000    23671841.701 7 124396359.31307     -1311.910 7        42.163                                                                    23671843.706 7  92893544.44007      -979.692 7        43.583    23671842.995 7  95316796.10307     -1005.205 7        42.343
G05        11.000    22990487.179 6 120815821.14206     -1227.868 6        36.261                                    22990480.861 3  94142116.06103      -956.791 3        20.095    22990487.376 5                      -956.733 5        32.509
E34        12.000                                                                                                                                    26790546.408 5 105131885.73105     -2638.405 5        30.551    26790551.788 4 107874445.71004     -2707.611 4        27.365
E27        15.000    23728598.661 6 124694738.05406     -1833.110 6        41.225                                                                    23728599.411 7  93116232.08607     -1368.885 7        47.148    23728598.223 7  95545460.94607     -1404.674 7        44.107
E13        16.000    24791221.162 5                      1468.267 5        34.062                                                                    24791226.597 7  97286104.62007      1102.502 7        44.605    24791221.841 5  99824031.91805      1131.149 5        35.062
R17        17.000    19726558.053 7 105560903.75107     -2736.539 7        42.845                                                                    19726555.948 6  82102708.45806     -2128.352 6        40.379
G16        18.000    22579769.071 7 118657519.42007      2213.643 7        42.290                                    22579762.093 2  92460359.41802      1724.911 2        16.000
R15        20.000    20249941.452 7 108209874.66807     -3753.152 7        43.035                                                                    20249942.412 6  84162979.65606     -2919.106 6        37.558
R24        21.000    23702413.140 4                     -4783.400 4        24.331
E21        22.000    24662324.985 5 129601511.69605       888.337 5        33.958                                                                    24662322.135 7  96780275.38707       663.405 7        45.070    24662318.716 6  99305101.92906       680.804 6        39.772
S36        23.000    38306557.478 6 201302202.90706      -853.464 6        36.737
S23        24.000    38258616.833 6 201050403.73406      -856.995 6        38.631
G26        25.000    20862745.231 7 109634483.57107       421.580 7        43.069                                    20862744.487 6  85429484.99906       328.500 6        37.036    20862744.447 6  85429478.99506       328.553 6        40.939
E04        26.000                                                                                                                                    28791464.456 4                     -1427.091 4        27.222    28791506.008 3                     -1464.968 3        20.119
C34        28.000                                                                                                                                    22559555.893 7 117473654.10607     -2784.657 7        44.135                                                                    22559553.234 6  95457058.96606     -2262.882 6        38.285
R08        29.000    24025718.873 3                     -2149.868 3        22.229
R18        30.000    19771737.863 7 105542813.87307       784.558 7        47.480                                                                    19771737.512 7  82088976.34807       610.268 7        45.556
R16        33.000    19697206.127 5 105219128.38205       571.981 5        35.548                                                                    19697189.514 5  81837119.61505       444.578 5        35.495
R09        34.000    23555740.148 6 125786258.78216      3323.599 6        37.093                                                                    23555724.009 6  97834127.89506      2585.091 6        37.285
C37        36.000                                                                                                                                    24904462.884 6 129684086.26806      1572.177 6        41.089                                                                    24904466.873 7 105379001.92707      1277.477 7        42.296
S21        38.000    38534821.062 5 202502023.38505      -854.710 5        34.267
C28        40.000                                                                                                                                    25642636.652 5                      2084.715 5        33.102                                                                    25642635.988 4                      1694.093 4        29.697
C25        41.000                                                                                                                                    23814171.163 6 124006697.65106     -3906.476 6        40.253                                                                    23814162.369 6 100765615.48406     -3174.246 6        40.329
C43        42.000                                                                                                                                    21692492.983 7 112958532.01407      -210.458 7        47.694                                                                    21692493.387 7  91788208.75407      -171.073 7        44.539
C12        43.000                                                                                                                                    25042278.797 4                     -3671.896 4        27.533    25042284.836 5 100834778.12605     -2839.879 5        33.335    25042257.209 4                     -2984.360 4        28.720
C11        44.000                                                                                                                                    21694109.699 8 112966987.24608     -1559.793 8        48.858    21694107.259 8  87353330.34908     -1206.152 8        53.822    21694105.113 8  91795021.17908     -1267.578 8        49.090
C13        45.000                                                                                                                                    37934835.415 6 197536678.05606      -224.768 6        36.877    37934838.298 7 152747843.14407      -173.975 7        45.344    37934836.918 7 160514737.05907      -182.829 7        44.503
C08        46.000                                                                                                                                    37879050.897 6 197246190.34006      -447.777 6        39.562    37879046.835 7 152523141.58007      -346.284 7        42.210    37879045.074 7 160278708.67307      -363.937 7        42.682
