     3.04           OBSERVATION DATA    M                   RINEX VERSION / TYPE
ssrcrin-15.6.1x                         20250101 044500 UTC PGM / RUN BY / DATE 
(00000000023479385599111004) Septentrio proprietary         COMMENT             
ract                                                        MARKER NAME         
01                                                          MARKER NUMBER       
geodetic                                                    MARKER TYPE         
NFB                 CLIMERS@TUW                             OBSERVER / AGENCY   
3296359             SEPT ASTERX SB3 PROB4.14.4              REC # / TYPE / VERS 
Unknown             Unknown                                 ANT # / TYPE        
  4127446.5984  1206914.5015  4695543.0120                  APPROX POSITION XYZ 
        0.0000        0.0000        0.0000                  ANTENNA: DELTA H/E/N
G   23 X1  C1C L1C D1C S1C C1W S1W C2W L2W D2W S2W C2L L2L  SYS / # / OBS TYPES 
       D2L S2L C5Q L5Q D5Q S5Q C1L L1L D1L S1L              SYS / # / OBS TYPES 
E   21 X1  C1C L1C D1C S1C C6C L6C D6C S6C C5Q L5Q D5Q S5Q  SYS / # / OBS TYPES 
       C7Q L7Q D7Q S7Q C8Q L8Q D8Q S8Q                      SYS / # / OBS TYPES 
S    9 X1  C1C L1C D1C S1C C5I L5I D5I S5I                  SYS / # / OBS TYPES 
R   17 X1  C1C L1C D1C S1C C2P L2P D2P S2P C2C L2C D2C S2C  SYS / # / OBS TYPES 
       C3Q L3Q D3Q S3Q                                      SYS / # / OBS TYPES 
C   25 X1  C1P L1P D1P S1P C5P L5P D5P S5P C2I L2I D2I S2I  SYS / # / OBS TYPES 
       C7I L7I D7I S7I C6I L6I D6I S6I C7D L7D D7D S7D      SYS / # / OBS TYPES 
J   17 X1  C1C L1C D1C S1C C2L L2L D2L S2L C5Q L5Q D5Q S5Q  SYS / # / OBS TYPES 
       C1L L1L D1L S1L                                      SYS / # / OBS TYPES 
I    5 X1  C5A L5A D5A S5A                                  SYS / # / OBS TYPES 
SEPTENTRIO RECEIVERS OUTPUT ALIGNED CARRIER PHASES.         COMMENT             
NO FURTHER PHASE SHIFT APPLIED IN THE RINEX ENCODER.        COMMENT             
G L1C                                                       SYS / PHASE SHIFT   
G L2W                                                       SYS / PHASE SHIFT   
G L2L  0.00000                                              SYS / PHASE SHIFT   
G L5Q  0.00000                                              SYS / PHASE SHIFT   
G L1L  0.00000                                              SYS / PHASE SHIFT   
E L1C  0.00000                                              SYS / PHASE SHIFT   
E L6C  0.00000                                              SYS / PHASE SHIFT   
E L5Q  0.00000                                              SYS / PHASE SHIFT   
E L7Q  0.00000                                              SYS / PHASE SHIFT   
E L8Q  0.00000                                              SYS / PHASE SHIFT   
S L1C                                                       SYS / PHASE SHIFT   
S L5I                                                       SYS / PHASE SHIFT   
R L1C                                                       SYS / PHASE SHIFT   
R L2P  0.00000                                              SYS / PHASE SHIFT   
R L2C                                                       SYS / PHASE SHIFT   
R L3Q  0.00000                                              SYS / PHASE SHIFT   
C L1P  0.00000                                              SYS / PHASE SHIFT   
C L5P  0.00000                                              SYS / PHASE SHIFT   
C L2I                                                       SYS / PHASE SHIFT   
C L7I                                                       SYS / PHASE SHIFT   
C L6I                                                       SYS / PHASE SHIFT   
C L7D                                                       SYS / PHASE SHIFT   
J L1C                                                       SYS / PHASE SHIFT   
J L2L  0.00000                                              SYS / PHASE SHIFT   
J L5Q  0.00000                                              SYS / PHASE SHIFT   
J L1L  0.00000                                              SYS / PHASE SHIFT   
I L5A                                                       SYS / PHASE SHIFT   
  2025     1     1     4    45    0.0000000     GPS         TIME OF FIRST OBS   
 C1C    0.000 C2C    0.000 C2P    0.000                     GLONASS COD/PHS/BIS 
DBHZ                                                        SIGNAL STRENGTH UNIT
    18                                                      LEAP SECONDS        
 24 R01  1 R02 -4 R03  5 R04  6 R05  1 R06 -4 R07  5 R08  6 GLONASS SLOT / FRQ #
    R09 -2 R10 -7 R11  0 R12 -1 R13 -2 R14 -7 R15  0 R16 -1 GLONASS SLOT / FRQ #
    R17  4 R18 -3 R19  3 R20  2 R21  4 R22 -3 R23  3 R24  2 GLONASS SLOT / FRQ #
                                                            END OF HEADER       
> 2025 01 01 04 45  0.0000000  0 37
G16         1.000    23640414.368 5                      -666.937 5        32.814
G30         3.000    23241592.116 4                      2472.749 4        26.790                                                                                                    23241578.784 4  95170401.92604      1927.257 4        24.256
G07         5.000    21319581.065 7 112035183.03107       665.245 7        44.126                                    21319577.667 6  87300145.04506       518.369 6        38.108    21319575.652 6  87300117.06106       518.362 6        40.398
E34         6.000    24563268.020 7 129081057.05807     -2194.851 7        44.773                                                                    24563265.699 5  96391593.45905     -1639.001 5        35.595    24563267.273 6  98906111.88706     -1681.779 6        41.611
G09         9.000    20407119.402 6 107240155.93206     -1967.341 6        40.560                                    20407121.571 5  83563768.54705     -1532.985 5        34.071    20407121.210 6  83563759.52006     -1533.005 6        39.640
G20        10.000    22822724.263 7 119934188.09007      2201.111 7        45.028                                    22822718.645 4  93455250.94504      1715.152 4        29.687
G04        11.000    22024698.796 6 115740657.18506     -3316.761 6        37.217                                    22024695.883 3  90187479.22303     -2584.480 3        23.505    22024695.840 6  90187441.22706     -2584.457 6        41.771
E09        12.000    25277692.863 7 132835126.33807     -2736.848 7        44.957                                                                    25277692.069 7  99195157.87007     -2043.702 7        45.880    25277691.588 6 101782834.66506     -2097.142 6        39.739
E31        13.000                                                                                                                                    26696438.945 5                       302.704 5        32.653
E06        14.000    27032283.810 5                     -3248.443 5        32.066                                                                    27032306.062 4                     -2426.068 4        27.569    27032281.590 4                     -2488.956 4        28.190
E15        16.000    25967238.823 7 136458753.51607       666.947 7        44.114                                                                    25967239.225 7 101901067.93307       497.929 7        43.031    25967239.427 7 104559373.23707       510.950 7        45.391
G06        19.000    21997068.377 7 115595547.52107     -2941.901 7        47.058                                    21997068.685 6  90074450.83006     -2292.388 6        41.356    21997067.399 7  90074339.83907     -2292.455 7        42.432
E36        20.000    26885982.126 5 141286882.27105     -4053.329 5        31.215                                                                    26885987.447 5 105506380.93905     -3026.711 5        32.742    26885983.886 3                     -3105.653 3        23.086
E05        21.000    21991498.032 7 115566102.52407      -470.159 7        44.579                                                                    21991497.012 6  86299416.52106      -351.086 6        41.542    21991497.049 7  88550692.86307      -360.275 7        44.727
R07        23.000    19628390.759 5 105072418.25105     -1071.489 5        34.824                                                                    19628392.508 6  81722918.03406      -833.620 6        39.447
S23        24.000    38278505.496 6 201154821.44406      -823.180 6        41.545
S36        25.000    38338722.807 5 201471388.87205      -827.518 5        34.871
G11        26.000    22267248.115 7 117015157.11907      -382.110 7        44.468                                    22267244.425 3  91180670.35803      -297.746 3        21.333    22267242.308 6  91180635.35506      -297.687 6        36.185
E03        27.000    26333151.117 5 138381631.09005      1397.828 5        34.962                                                                    26333151.454 6 103336957.20106      1044.140 6        39.177    26333145.868 5 106032768.89405      1071.067 5        34.205
R06        29.000    21857605.783 4                     -3608.827 4        28.768
R24        31.000    23378329.649 6 125014383.41906      1819.675 6        38.498                                                                    23378351.951 4                      1414.382 4        24.195
R09        32.000    20659826.488 5 110322203.75205      1442.293 5        32.527                                                                    20659810.264 6  85806159.69206      1121.600 6        39.706
C19        33.000                                                                                                                                    22635148.180 7 117867129.91007     -2160.346 7        47.566                                                                    22635142.296 5  95776681.50205     -1755.413 5        34.052
R08        35.000    21267846.749 6 113888518.84606      1694.754 6        38.318                                                                    21267839.476 6  88579803.50406      1318.145 6        40.501
R22        37.000    22545387.562 5 120348731.85405     -4742.740 5        30.279                                                                    22545368.570 4  93604580.21204     -3689.223 4        28.711
R16        39.000    21561671.151 7 115178639.25107     -2703.740 7        42.343                                                                    21561681.366 6  89583513.37406     -2103.130 6        38.745
C06        41.000                                                                                                                                    39590972.989 4                     -1848.538 4        24.271    39590949.265 3                     -1431.737 3        20.738    39590959.165 3                     -1500.546 3        23.162
C36        42.000                                                                                                                                    23705020.846 7 123438232.22007      1949.277 7        42.536                                                                    23705042.685 5 100303723.07805      1584.072 5        35.895
R23        44.000    21323474.754 6 114066192.84506     -2127.205 6        38.183
C16        45.000                                                                                                                                    40172459.250 4                     -1848.493 4        25.398    40172417.409 5 161757644.39405     -1429.745 5        33.000
C09        46.000                                                                                                                                    39085257.857 5 203527244.49205     -1500.739 5        31.155    39085252.754 5 157380098.48705     -1160.496 5        33.790    39085249.784 5 165382477.02505     -1219.457 5        35.033
C21        47.000                                                                                                                                    26488504.675 5 137932705.89305      2025.973 5        35.190                                                                    26488516.705 4 112081579.72504      1646.194 4        27.102
C44        48.000                                                                                                                                    25109236.547 5                     -2885.011 5        32.287                                                                    25109285.490 5                     -2344.309 5        32.689
C22        50.000                                                                                                                                    22234104.368 7 115778760.31607       622.022 7        44.298                                                                    22234088.480 4  94079754.89804       505.285 4        24.180
C12        56.000                                                                                                                                    25055900.022 5 130472595.31605     -1694.318 5        35.243    25055885.711 6 100889793.67806     -1310.102 6        40.493    25055884.540 6 106019727.87406     -1376.881 6        37.202
I01        59.000   339794919.224 5  30287451.74205     -3146.658 5        32.952
I06        60.000    38099360.800 6 149510082.38506      -593.237 6        36.684
> 2025 01 01 04 45  5.0000000  0 37
G16         1.000    23641054.298 5                      -670.808 5        32.898
G30         3.000    23239239.528 4                      2471.873 4        25.083                                                                                                    23239227.537 4  95160770.23604      1926.070 4        25.353
G07         5.000    21318949.549 7 112031863.47607       662.659 7        43.458                                    21318945.433 6  87297558.39006       516.358 6        36.718    21318943.820 6  87297530.41206       516.274 6        40.243
E34         6.000    24565357.251 7 129092037.67507     -2197.381 7        44.709                                                                    24565355.232 5  96399793.24105     -1640.750 5        35.233    24565357.052 6  98914525.59106     -1683.637 6        41.700
G09         9.000    20408994.407 7 107249997.79907     -1969.372 7        42.004                                    20408994.631 5  83571437.52805     -1534.573 5        34.590    20408993.574 6  83571428.50106     -1534.583 6        39.099
G20        10.000    22820630.393 7 119923186.45907      2199.607 7        45.935                                    22820624.928 4  93446678.24504      1713.980 4        29.507
G04        11.000    22027855.766 6 115757244.22706     -3317.751 6        36.979                                    22027852.008 3  90200404.17403     -2585.250 3        23.010    22027852.408 6  90200366.17706     -2585.446 6        41.692
E09        12.000    25280296.877 7 132848812.15407     -2737.571 7        44.895                                                                    25280296.330 7  99205377.79507     -2044.275 7        45.734    25280295.665 6 101793321.18406     -2097.534 6        39.724
E31        13.000                                                                                                                                    26696055.687 5                       300.934 5        33.251
E06        14.000    27035375.852 5                     -3248.824 5        32.868                                                                    27035396.803 4                     -2425.870 4        27.569    27035371.750 4                     -2489.117 4        27.653
E15        16.000    25966605.237 7 136455424.97807       664.566 7        43.735                                                                    25966606.040 7 101898582.33307       496.231 7        43.211    25966605.848 7 104556822.78407       509.268 7        45.372
G06        19.000    21999868.763 7 115610264.46807     -2944.894 7        46.903                                    21999869.366 6  90085918.57606     -2294.718 6        41.449    21999867.180 6  90085807.55806     -2294.572 6        41.886
E36        20.000    26889834.076 5 141307150.72105     -4054.385 5        30.996                                                                    26889845.036 5 105521516.44305     -3027.352 5        33.120    26889840.879 3                     -3105.872 3        22.686
E05        21.000    21991946.050 7 115568457.03107      -471.490 7        44.778                                                                    21991945.001 6  86301174.75406      -352.100 6        41.435    21991945.036 7  88552496.96907      -361.338 7        44.597
R07        23.000    19629394.379 6 105077782.74406     -1074.001 6        36.563                                                                    19629394.267 6  81727090.41306      -835.300 6        39.940
S23        24.000    38279291.071 6 201158937.80406      -823.488 6        41.080
S36        25.000    38339510.756 5 201475526.66805      -827.794 5        35.014
G11        26.000    22267613.486 7 117017076.62507      -385.761 7        43.439                                    22267608.791 3  91182166.07803      -300.592 3        20.810    22267609.514 6  91182131.08606      -300.706 6        36.370
E03        27.000    26331820.411 5 138374643.05605      1397.502 5        34.333                                                                    26331821.406 6 103331738.88706      1043.286 6        38.910    26331817.201 5 106027414.45005      1070.599 5        32.790
R06        29.000    21860988.915 5                     -3610.057 5        30.113
R24        31.000    23376625.125 6 125005294.13606      1816.084 6        38.270
R09        32.000                                                                                                                                    20658462.025 6  85800559.45706      1118.531 6        39.988
C19        33.000                                                                                                                                    22637222.357 7 117877935.58007     -2161.892 7        47.327                                                                    22637216.557 5  95785462.01005     -1756.777 5        31.841
R08        35.000    21266263.617 5 113880048.90605      1693.358 5        34.114                                                                    21266257.244 6  88573215.85006      1317.056 6        40.830
R22        37.000    22549831.279 5 120372450.14505     -4744.601 5        33.928                                                                    22549811.600 4  93623027.65004     -3689.948 4        28.645
R16        39.000    21564205.494 7 115192169.43507     -2708.088 7        44.438                                                                    21564216.904 6  89594036.76306     -2106.359 6        41.778
C06        41.000                                                                                                                                    39592746.824 3                     -1849.065 3        23.314    39592728.036 3                     -1429.183 3        23.352    39592735.356 4                     -1502.954 4        24.180
C36        42.000                                                                                                                                    23703149.693 6 123428490.41406      1947.452 6        41.721                                                                    23703169.045 5 100295807.02905      1582.481 5        35.352
R23        44.000    21325467.812 6 114076840.95406     -2131.974 6        39.991
C16        45.000                                                                                                                                    40174229.096 4                     -1848.836 4        26.527    40174192.266 5 161764793.49305     -1429.838 5        33.156
C09        46.000                                                                                                                                    39086700.395 5 203534748.68205     -1500.688 5        30.943    39086693.865 5 157385901.17105     -1160.537 5        34.138    39086691.091 5 165388574.80305     -1219.843 5        34.814
C21        47.000                                                                                                                                    26486561.359 5 137922575.81905      2025.937 5        34.714                                                                    26486566.965 4 112073348.26904      1645.709 4        27.976
C44        48.000                                                                                                                                                                                                                                                                    25112057.118 5                     -2345.949 5        32.784
C22        50.000                                                                                                                                    22233507.779 7 115775654.69607       620.344 7        43.714                                                                    22233489.217 4                       504.050 4        24.391
C12        56.000                                                                                                                                    25057531.708 6 130481073.84706     -1697.148 6        36.011    25057514.470 6 100896349.79806     -1312.397 6        39.375    25057512.965 6 106026617.39706     -1379.128 6        36.960
I01        59.000   339798927.964 5  30303183.95905     -3146.760 5        32.802
I06        60.000    38100117.006 6 149513049.65206      -593.564 6        36.888
> 2025 01 01 04 45 10.0000000  0 37
G16         1.000    23641688.821 4                      -674.682 4        27.796
G30         3.000                                                                                                                                                                    23236883.627 4  95151143.47304      1924.525 4        25.083
G07         5.000    21318320.017 7 112028556.41907       660.083 7        42.713                                    21318315.552 5  87294981.46905       514.349 5        35.343    21318314.301 6  87294953.46906       514.341 6        40.229
E34         6.000    24567448.966 7 129103030.25407     -2199.839 7        44.340                                                                    24567446.607 5  96408001.99505     -1642.911 5        34.619    24567448.953 6  98922948.48306     -1685.570 6        41.919
G09         9.000    20410871.511 7 107259849.34707     -1971.307 7        42.741                                    20410869.448 5  83579114.05505     -1536.081 5        34.700    20410867.632 6  83579105.03706     -1536.138 6        37.626
G20        10.000    22818537.711 7 119912191.43507      2198.274 7        45.816                                    22818532.433 4  93438110.69304      1712.942 4        29.185
G04        11.000    22031012.991 6 115773836.90306     -3319.304 6        38.108                                    22031009.085 3  90213333.50903     -2586.481 3        22.781    22031010.220 6  90213295.50006     -2586.386 6        41.859
E09        12.000    25282901.590 7 132862501.30907     -2738.252 7        44.706                                                                    25282901.415 7  99215600.20207     -2044.789 7        45.442    25282900.394 6 101803810.24806     -2098.123 6        39.264
E31        13.000    26695707.077 3                       401.633 3        22.876                                                                    26695675.572 5                       299.204 5        33.617
E06        14.000    27038467.326 5                     -3248.991 5        32.826                                                                    27038488.072 4                     -2426.378 4        28.076    27038463.000 4                     -2489.427 4        26.216
E15        16.000    25965973.686 7 136452107.61407       662.350 7        42.720                                                                    25965974.845 7 101896105.08107       494.580 7        43.255    25965974.525 7 104554280.90707       507.473 7        45.607
G06        19.000    22002671.791 7 115624995.30107     -2947.659 7        47.089                                    22002672.626 6  90097397.13906     -2296.869 6        41.287    22002670.215 6  90097286.11406     -2296.805 6        41.375
E36        20.000    26893692.046 5 141327422.23305     -4054.430 5        30.377                                                                    26893702.705 5 105536654.26005     -3027.780 5        32.874    26893697.940 3                     -3106.781 3        21.833
E05        21.000    21992395.444 7 115570817.84907      -472.835 7        44.993                                                                    21992394.103 6  86302937.70406      -353.163 6        41.254    21992394.349 7  88554305.90907      -362.371 7        44.433
R07        23.000    19630400.830 6 105083157.75606     -1076.033 6        41.306                                                                    19630398.202 6  81731270.93506      -836.893 6        40.198
S23        24.000    38280074.271 6 201163054.59606      -823.468 6        41.223
S36        25.000    38340297.190 5 201479664.62705      -827.457 5        35.081
G11        26.000    22267982.617 7 117019013.43907      -389.150 7        42.483                                    22267976.568 3  91183675.28603      -303.251 3        18.925    22267977.753 5  91183640.31905      -303.239 5        34.386
E03        27.000    26330490.224 5 138367658.49305      1396.536 5        32.737                                                                    26330491.377 6 103326523.14406      1042.862 6        38.390    26330488.303 5 106022062.67205      1070.114 5        32.581
R06        29.000    21864367.780 5                     -3611.356 5        30.023
R24        31.000    23374926.683 6 124996221.89306      1812.931 6        38.429
R09        32.000    20657107.048 5 110307822.47805      1433.648 5        31.057                                                                    20657116.908 6  85794974.15406      1115.299 6        38.904
C19        33.000                                                                                                                                    22639298.611 7 117888748.65407     -2163.473 7        47.089                                                                    22639291.929 4  95794248.53604     -1757.737 4        29.820
R08        35.000    21264681.505 5 113871584.67905      1692.411 5        35.243                                                                    21264676.239 6  88566632.59506      1316.096 6        40.605
R22        37.000    22554269.763 6 120396176.98506     -4746.437 6        37.406                                                                    22554260.905 5  93641481.81805     -3691.736 5        30.128
R16        39.000    21566743.814 7 115205720.66307     -2712.487 7        44.862                                                                    21566752.049 7  89604576.53107     -2109.650 7        43.374
C06        41.000                                                                                                                                    39594524.482 4                     -1848.876 4        25.083    39594508.422 3                     -1431.509 3        22.876    39594510.626 3                     -1502.144 3        23.295
C36        42.000                                                                                                                                    23701280.489 6 123418756.71506      1945.815 6        40.825                                                                    23701299.196 5 100287897.51205      1581.255 5        34.938
R23        44.000    21327462.272 6 114087511.41806     -2136.492 6        38.955
C16        45.000                                                                                                                                                                                                    40175966.931 5 161771943.22705     -1430.208 5        32.952
C09        46.000                                                                                                                                    39088142.012 5 203542254.62905     -1501.427 5        30.951    39088134.568 5 157391705.25905     -1161.217 5        34.533    39088132.402 5 165394673.97005     -1219.934 5        34.652
C21        47.000                                                                                                                                    26484621.109 5 137912446.20705      2025.990 5        34.605                                                                    26484613.880 4 112065117.21404      1646.584 4        28.635
C44        48.000                                                                                                                                    25114800.431 5 130779304.33715     -2888.740 5        35.357                                                                    25114831.224 5                     -2347.429 5        31.094
C22        50.000                                                                                                                                    22232912.520 7 115772555.68907       619.083 7        42.140                                                                    22232893.968 4                       502.746 4        25.383
C12        56.000                                                                                                                                    25059164.645 6 130489565.92706     -1699.677 6        36.306    25059145.235 6 100902916.38006     -1314.398 6        38.006    25059144.161 6 106033517.88006     -1381.043 6        36.715
I01        59.000   339802937.282 5  30318917.11105     -3146.711 5        32.677
I06        60.000    38100872.912 6 149516017.35606      -593.548 6        36.798
> 2025 01 01 04 45 15.0000000  0 38
G16         1.000    23642333.423 3                      -676.071 3        20.452
G30         3.000    23234521.202 3                      2470.803 3        22.343                                                                                                    23234534.324 4  95141521.09204      1923.144 4        24.872
G07         5.000    21317693.521 6 112025261.23706       657.724 6        40.803                                    21317687.843 5  87292413.80305       512.515 5        34.538    21317687.620 6  87292385.78606       512.607 6        40.243
E34         6.000    24569543.188 7 129114034.23307     -2202.096 7        44.695                                                                    24569540.349 5  96416219.22605     -1644.540 5        33.731    24569543.003 6  98931380.09806     -1687.314 6        41.945
G03         8.000    24663646.512 3                     -4427.134 3        19.373
G09         9.000    20412748.154 7 107269709.98507     -1973.197 7        43.731                                    20412745.835 5  83586797.67105     -1537.554 5        34.776    20412742.757 5  83586788.64405     -1537.487 5        35.576
G20        10.000    22816446.398 7 119901202.43207      2197.080 7        45.705                                    22816440.930 4  93429547.84104      1712.014 4        29.232
G04        11.000    22034170.976 6 115790434.59806     -3320.180 6        39.405                                    22034167.025 3  90226266.76303     -2587.150 3        23.067    22034168.702 7  90226228.75707     -2587.026 7        42.009
E09        12.000    25285506.915 7 132876193.22807     -2738.786 7        44.707                                                                    25285506.647 7  99225824.68707     -2045.156 7        45.102    25285505.804 6 101814301.45606     -2098.626 6        39.075
E31        13.000    26695320.899 4                       399.095 4        26.096                                                                    26695298.650 5                       297.805 5        33.509
E06        14.000    27041556.685 5                     -3249.222 5        31.509                                                                    27041580.181 4                     -2426.249 4        28.891    27041555.852 4                     -2489.463 4        26.383
E15        16.000    25965344.610 7 136448800.90007       660.235 7        42.070                                                                    25965345.598 7 101893635.76607       493.007 7        43.118    25965345.243 7 104551747.17707       505.855 7        45.555
G06        19.000    22005477.643 8 115639739.46408     -2950.233 8        48.262                                    22005478.225 6  90108886.08206     -2298.875 6        41.304    22005476.018 6  90108775.06406     -2298.990 6        40.963
E36        20.000    26897550.423 4 141347696.34704     -4055.319 4        29.517                                                                    26897560.568 5 105551793.98905     -3027.918 5        33.222    26897557.174 3                     -3107.312 3        21.238
E05        21.000    21992845.282 7 115573184.42007      -474.008 7        45.056                                                                    21992844.484 6  86304704.95606      -354.010 6        41.101    21992844.622 7  88556119.25807      -363.233 7        44.277
R07        23.000    19631406.784 7 105088542.82707     -1078.160 7        44.209                                                                    19631404.122 6  81735459.29606      -838.694 6        40.231
S23        24.000    38280859.081 6 201167171.21606      -823.397 6        41.189
S36        25.000    38341082.192 5 201483802.12405      -827.586 5        34.752
G11        26.000    22268354.867 7 117020967.01607      -392.562 7        42.527                                    22268347.735 2  91185197.53902      -305.868 2        16.943    22268345.371 5  91185162.57705      -306.073 5        32.515
E03        27.000    26329161.133 4 138360676.80004      1395.725 4        29.431                                                                    26329161.945 6 103321309.53306      1042.541 6        38.336    26329159.253 5 106016713.03405      1069.608 5        31.713
R06        29.000    21867749.288 4                     -3612.440 4        28.815
R24        31.000                                                                                                                                    23373244.392 4                      1407.527 4        27.521
R09        32.000    20655775.154 5 110300659.87605      1430.577 5        34.448                                                                    20655774.974 6  85789403.33606      1112.575 6        39.129
C19        33.000                                                                                                                                    22641376.238 7 117899568.56507     -2164.760 7        46.528                                                                    22641367.218 4  95803040.65304     -1759.048 4        28.398
R08        35.000    21263102.716 6 113863125.63306      1691.202 6        39.369                                                                    21263095.538 6  88560053.36706      1315.309 6        40.722
R22        37.000    22558713.407 6 120419911.82906     -4747.894 6        40.529                                                                    22558709.141 5  93659942.20105     -3692.973 5        31.691
R16        39.000    21569284.790 7 115219292.17607     -2716.446 7        46.084                                                                    21569291.356 7  89615132.15707     -2112.786 7        44.166
C06        41.000                                                                                                                                    39596300.986 4                     -1850.555 4        25.865    39596291.177 3                     -1431.055 3        22.305    39596286.137 3                     -1504.084 3        23.429
C36        42.000                                                                                                                                    23699412.684 6 123409030.57806      1944.378 6        39.985                                                                    23699429.559 6 100279994.15906      1580.109 6        36.473
R23        44.000    21329458.879 6 114098203.77906     -2140.704 6        41.650
C16        45.000                                                                                                                                                                                                    40177742.503 5 161779093.09205     -1429.915 5        32.952
C09        46.000                                                                                                                                    39089584.439 5 203549761.76205     -1501.894 5        30.974    39089576.488 5 157397510.23405     -1160.767 5        34.748    39089574.162 5 165400774.14005     -1220.248 5        34.519
C21        47.000                                                                                                                                                                                                                                                                    26482659.843 4 112056886.23704      1645.571 4        29.441
C44        48.000                                                                                                                                    25117577.175 5 130793751.92805     -2890.810 5        34.524                                                                    25117608.249 4                     -2348.884 4        29.365
C22        50.000                                                                                                                                    22232318.220 6 115769462.72806       617.858 6        40.658                                                                    22232302.431 4                       502.245 4        27.677
C12        56.000                                                                                                                                                                                                    25060779.342 6 100909493.08806     -1316.453 6        37.077    25060777.900 6 106040429.05106     -1383.393 6        36.904
I01        59.000   339806947.971 5  30334650.76405     -3146.689 5        32.234
I06        60.000    38101629.688 6 149518985.06306      -593.553 6        36.699
> 2025 01 01 04 45 20.0000000  0 36
G30         3.000    23232175.460 4                      2467.842 4        28.009                                                                                                    23232181.445 3  95131903.49503      1922.869 3        23.695
G07         5.000    21317068.239 6 112021978.06106       655.449 6        37.157                                    21317062.433 5  87289855.49405       510.740 5        33.934    21317062.307 6  87289827.48606       510.593 6        39.907
E34         6.000    24571639.495 7 129125049.76807     -2204.276 7        45.053                                                                    24571636.417 5  96424445.07405     -1645.690 5        33.006    24571639.240 7  98939820.55407     -1688.891 7        42.091
G09         9.000    20414626.613 7 107279579.86007     -1975.087 7        44.438                                    20414623.876 5  83594488.48305     -1539.025 5        34.543    20414622.204 5  83594479.44205     -1539.019 5        35.376
G20        10.000    22814356.360 7 119890219.60407      2195.920 7        45.481                                    22814350.531 4  93420989.79604      1711.107 4        29.270
G04        11.000    22037330.466 6 115807037.47806     -3321.100 6        40.389                                    22037326.222 3  90239204.07503     -2587.867 3        23.619    22037328.054 7  90239166.08807     -2587.865 7        42.237
E09        12.000    25288112.856 7 132889888.06907     -2739.333 7        44.635                                                                    25288112.636 7  99236051.33907     -2045.647 7        44.677    25288111.986 6 101824794.88006     -2098.920 6        38.613
E31        13.000                                                                                                                                    26694922.868 5                       296.121 5        33.539
E06        14.000    27044645.387 5                     -3249.427 5        30.460                                                                    27044673.148 4                     -2426.284 4        29.431    27044648.502 4                     -2489.563 4        27.006
E15        16.000    25964717.762 6 136445504.95606       658.158 6        41.304                                                                    25964718.315 7 101891174.51907       491.415 7        43.367    25964717.965 7 104549221.70607       504.256 7        45.389
G06        19.000    22008286.308 8 115654497.10008     -2952.839 8        48.684                                    22008286.037 6  90120385.52206     -2300.907 6        41.247    22008284.118 6  90120274.50606     -2300.884 6        40.732
E36        20.000    26901409.813 4 141367973.07104     -4056.012 4        26.862                                                                    26901419.676 5 105566935.70205     -3028.686 5        33.240    26901416.336 3                     -3109.102 3        20.833
E05        21.000    21993296.431 7 115575556.88207      -475.133 7        44.876                                                                    21993295.832 6  86306476.61306      -354.928 6        40.994    21993296.109 7  88557937.12507      -364.143 7        44.062
R07        23.000    19632415.931 7 105093938.11807     -1080.049 7        46.197                                                                    19632411.520 6  81739655.58806      -840.052 6        39.375
S23        24.000    38281642.854 6 201171287.63306      -823.303 6        41.449
S36        25.000    38341870.933 5 201487938.82705      -827.446 5        34.900
G11        26.000    22268729.185 7 117022937.47607      -395.815 7        43.162                                    22268722.010 2  91186732.93802      -308.421 2        14.905    22268720.943 5  91186697.99205      -308.366 5        32.299
E03        27.000    26327832.386 4 138353698.02304      1395.864 4        27.114                                                                    26327833.975 6 103316098.16306      1041.872 6        38.168    26327830.935 5 106011365.72505      1069.184 5        31.834
R06        29.000    21871137.718 4                     -3613.750 4        29.924
R24        31.000    23371566.247 6 124978127.29016      1806.015 6        38.592                                                                    23371565.316 4                      1404.501 4        27.269
R09        32.000    20654436.801 6 110293516.45106      1426.622 6        36.333                                                                    20654436.595 6  85783847.29406      1109.746 6        39.619
C19        33.000                                                                                                                                    22643454.916 7 117910395.46907     -2166.129 7        45.684                                                                    22643441.989 4  95811838.36204     -1760.427 4        26.120
R08        35.000    21261527.428 6 113854671.87906      1690.236 6        39.721                                                                    21261515.997 6  88553478.17706      1314.572 6        39.652
R22        37.000    22563163.205 7 120443654.85807     -4749.506 7        42.000                                                                    22563156.640 5  93678408.98005     -3693.936 5        32.120
R16        39.000    21571830.941 7 115232884.04107     -2720.512 7        47.038                                                                    21571834.936 7  89625703.59607     -2115.877 7        43.522
C06        41.000                                                                                                                                    39598075.809 4                     -1849.266 4        24.571    39598070.382 4                     -1430.527 4        24.015    39598062.248 3                     -1502.960 3        23.943
C36        42.000                                                                                                                                    23697546.286 6 123399312.18206      1942.813 6        38.946                                                                    23697561.629 6 100272097.08706      1578.705 6        37.822
R23        44.000    21331464.850 7 114108918.21907     -2145.134 7        43.312
C16        45.000                                                                                                                                    40179500.781 4                     -1849.198 4        29.090    40179517.284 5 161786243.23805     -1429.968 5        33.820
C09        46.000                                                                                                                                    39091024.629 5 203557270.19805     -1501.996 5        30.740    39091018.932 5 157403316.25305     -1161.321 5        35.429    39091016.194 5 165406875.34105     -1220.261 5        34.376
C21        47.000                                                                                                                                                                                                                                                                    26480714.741 5 112048655.14905      1646.230 5        30.309
C44        48.000                                                                                                                                    25120355.907 5 130808208.11105     -2892.192 5        34.000                                                                    25120386.835 4                     -2350.215 4        29.981
C22        50.000                                                                                                                                    22231724.289 6 115766375.92706       616.744 6        40.086                                                                    22231710.871 5                       501.173 5        30.340
C12        56.000                                                                                                                                    25062415.122 5 130506589.40805     -1704.929 5        35.981    25062415.586 6 100916079.97506     -1318.385 6        37.580    25062414.548 6 106047350.84306     -1385.307 6        37.036
I01        59.000   339810955.537 5  30350385.09605     -3146.915 5        31.713
I06        60.000    38102386.106 6 149521952.92006      -593.645 6        36.681
> 2025 01 01 04 45 25.0000000  0 37
G16         1.000    23643580.997 4                      -684.543 4        25.504
G30         3.000    23229830.371 5                      2466.911 5        32.162                                                                                                    23229834.157 3                      1921.869 3        19.940
G07         5.000    21316444.045 5 112018707.03405       652.979 5        34.867                                    21316439.424 5  87287306.63605       508.818 5        33.449    21316439.881 6  87287278.61206       508.893 6        38.832
E34         6.000    24573737.536 7 129136076.87307     -2206.402 7        45.410                                                                    24573735.556 5  96432679.61005     -1647.845 5        32.886    24573738.029 7  98948269.90407     -1690.776 7        42.201
G09         9.000    20416506.678 7 107289458.98807     -1976.652 7        44.710                                    20416503.536 5  83602186.48805     -1540.241 5        34.614    20416502.587 5  83602177.46805     -1540.262 5        35.195
G20        10.000    22812267.711 7 119879243.02207      2194.825 7        45.880                                    22812261.259 4  93412436.61304      1710.250 4        29.384
G04        11.000    22040490.844 6 115823645.59006     -3321.999 6        41.161                                    22040486.546 4  90252145.45204     -2588.576 4        24.346    22040488.645 7  90252107.45307     -2588.587 7        42.531
E09        12.000    25290719.550 7 132903585.83307     -2739.754 7        44.796                                                                    25290718.976 7  99246280.18407     -2045.869 7        44.223    25290718.717 6 101835290.56406     -2099.288 6        38.643
E31        13.000    26694542.171 5                       394.495 5        31.109                                                                    26694544.940 5                       294.652 5        32.922
E06        14.000    27047735.998 4                     -3249.314 4        28.853                                                                    27047765.812 4                     -2426.411 4        29.659    27047739.873 4                     -2489.873 4        27.030
E15        16.000    25964093.126 6 136442219.83706       656.079 6        41.049                                                                    25964093.033 7 101888721.33207       490.020 7        43.454    25964092.744 7 104546704.52807       502.673 7        45.372
G06        19.000    22011097.205 8 115669268.21208     -2955.375 8        48.580                                    22011096.143 6  90131895.45606     -2302.885 6        41.251    22011094.814 6  90131784.46306     -2302.988 6        39.985
E36        20.000    26905270.094 4 141388252.52804     -4055.517 4        26.335                                                                    26905278.657 5 105582079.45205     -3028.971 5        32.946    26905279.536 3                     -3109.128 3        21.429
E05        21.000    21993749.090 7 115577935.25007      -476.012 7        44.686                                                                    21993748.782 6  86308252.67206      -355.544 6        40.894    21993748.811 7  88559759.51607      -364.772 7        44.137
R07        23.000    19633426.016 7 105099343.47107     -1082.021 7        46.640                                                                    19633421.169 6  81743859.69106      -841.524 6        38.261
S23        24.000    38282425.531 6 201175403.93006      -823.185 6        41.471
S36        25.000    38342657.759 5 201492076.05605      -827.199 5        34.567
G11        26.000    22269107.262 7 117024924.87707      -399.021 7        44.617                                    22269099.415 1  91188281.58001      -310.928 1        11.926    22269106.829 5  91188246.61305      -310.899 5        31.691
E03        27.000    26326504.685 4 138346722.43404      1394.922 4        28.265                                                                    26326506.748 6 103310889.05306      1041.754 6        38.126    26326503.489 5 106006020.73905      1069.055 5        31.215
R06        29.000    21874524.319 5                     -3614.790 5        30.898
R24        31.000    23369884.963 6 124969105.14316      1802.893 6        37.561
R09        32.000    20653103.788 6 110286391.79806      1423.166 6        37.875                                                                    20653102.323 6  85778305.90106      1106.915 6        40.246
C19        33.000                                                                                                                                    22645534.803 7 117921229.39307     -2167.323 7        44.688                                                                    22645518.437 4  95820641.77404     -1761.849 4        24.526
R08        35.000    21259950.007 6 113846223.36906      1689.386 6        41.318                                                                    21259938.482 6  88546907.15206      1313.910 6        38.216
R22        37.000    22567612.771 6 120467406.05206     -4750.872 6        41.235                                                                    22567605.058 5  93696882.11105     -3695.132 5        32.030
R16        39.000    21574380.762 7 115246496.53207     -2724.442 7        46.685                                                                    21574380.992 7  89636291.09407     -2118.947 7        42.358
C06        41.000                                                                                                                                    39599852.344 4                     -1849.575 4        26.216    39599850.209 4                     -1429.805 4        24.075    39599839.517 3                     -1502.568 3        23.981
C36        42.000                                                                                                                                    23695680.392 6 123389601.52006      1941.632 6        37.452                                                                    23695695.588 6 100264206.33506      1577.531 6        39.207
R23        44.000    21333472.954 7 114119654.60707     -2149.334 7        43.143
C16        45.000                                                                                                                                                                                                    40181293.260 5 161793393.69605     -1430.032 5        33.479
C09        46.000                                                                                                                                    39092467.113 5 203564779.94505     -1501.942 5        30.800    39092461.324 5 157409123.26605     -1161.386 5        35.767    39092458.221 5 165412977.60605     -1220.449 5        34.252
C21        47.000                                                                                                                                    26478820.054 6 137882057.72606      2025.975 6        37.085                                                                    26478770.927 5 112040424.23705      1645.928 5        30.317
C44        48.000                                                                                                                                    25123134.426 5 130822672.86505     -2893.492 5        34.995                                                                    25123160.595 5                     -2351.325 5        31.177
C22        50.000                                                                                                                                    22231131.794 6 115763295.33006       615.717 6        40.696                                                                    22231120.706 5                       500.252 5        32.204
C12        56.000                                                                                                                                    25064054.013 6 130515120.90306     -1707.602 6        36.374    25064054.092 6 100922677.08306     -1320.277 6        38.934    25064053.929 6 106054283.37406     -1387.413 6        37.157
I01        59.000   339814965.463 5  30366120.03205     -3146.729 5        31.449
I06        60.000    38103142.149 6 149524920.90006      -593.486 6        36.688
> 2025 01 01 04 45 30.0000000  0 38
G16         1.000    23644239.747 4                      -688.352 4        28.000
G30         3.000    23227485.448 5                      2465.713 5        34.795
G07         5.000    21315825.338 5 112015447.97705       650.701 5        35.590                                    21315818.835 5  87284767.13505       507.038 5        33.150    21315820.678 6  87284739.12306       506.951 6        37.879
E34         6.000    24575838.148 7 129147115.50807     -2208.847 7        45.499                                                                    24575835.722 5  96440922.70205     -1649.328 5        33.090    24575838.918 7  98956728.07207     -1692.562 7        42.464
G09         9.000    20418388.088 7 107299347.32707     -1978.551 7        44.634                                    20418384.801 5  83609891.66905     -1541.727 5        34.643    20418384.190 5  83609882.64505     -1541.691 5        34.848
G20        10.000    22810180.188 7 119868272.63007      2193.534 7        46.494                                    22810173.168 4  93403888.26104      1709.246 4        29.583
G04        11.000    22043651.972 7 115840258.85807     -3323.217 7        42.006                                    22043647.755 4  90265090.85404     -2589.522 4        25.248    22043649.202 7  90265052.86107     -2589.540 7        42.938
E09        12.000    25293326.607 7 132917286.50607     -2740.464 7        45.070                                                                    25293325.910 7  99256511.19907     -2046.388 7        43.500    25293325.824 6 101845788.46706     -2099.892 6        38.979
E31        13.000    26694171.191 5                       392.561 5        31.698                                                                    26694164.745 5                       292.985 5        33.216
E06        14.000    27050824.990 4                     -3249.676 4        26.383                                                                    27050857.997 4                     -2426.700 4        29.697    27050828.723 4                     -2490.142 4        26.383
E15        16.000    25963470.490 6 136438945.49006       653.910 6        41.242                                                                    25963469.822 7 101886276.18607       488.241 7        43.308    25963469.773 7 104544195.59107       500.941 7        45.424
G06        19.000    22013909.962 7 115684052.77707     -2958.332 7        47.982                                    22013908.677 6  90143415.86906     -2305.188 6        41.046    22013908.076 6  90143304.87606     -2305.129 6        39.267
E36        20.000    26909131.268 4 141408534.56504     -4056.539 4        25.248                                                                    26909138.511 5 105597225.15905     -3029.212 5        32.503
E05        21.000    21994203.156 7 115580319.52107      -477.511 7        44.497                                                                    21994202.757 6  86310033.12306      -356.474 6        40.596    21994202.414 7  88561586.41907      -365.898 7        44.137
R07        23.000    19634434.748 7 105104758.93107     -1084.087 7        45.877                                                                    19634432.958 6  81748071.73906      -843.193 6        38.501
S23        24.000    38283208.548 6 201179520.38606      -823.234 6        41.383
S36        25.000    38343437.887 5 201496213.61405      -827.278 5        34.481
G11        26.000    22269488.240 7 117026929.18707      -402.520 7        45.375                                    22269480.277 1  91189843.42801      -313.613 1         8.762
