     3.04           OBSERVATION DATA    M                   RINEX VERSION / TYPE
ssrcrin-15.6.1x                         20250101 140000 UTC PGM / RUN BY / DATE 
(00000000023479385599111004) Septentrio proprietary         COMMENT             
ract                                                        MARKER NAME         
01                                                          MARKER NUMBER       
geodetic                                                    MARKER TYPE         
NFB                 CLIMERS@TUW                             OBSERVER / AGENCY   
3296359             SEPT ASTERX SB3 PROB4.14.4              REC # / TYPE / VERS 
Unknown             Unknown                                 ANT # / TYPE        
  4127448.3594  1206915.6197  4695543.1190                  APPROX POSITION XYZ 
        0.0000        0.0000        0.0000                  ANTENNA: DELTA H/E/N
G   23 X1  C1C L1C D1C S1C C1W S1W C2W L2W D2W S2W C2L L2L  SYS / # / OBS TYPES 
       D2L S2L C5Q L5Q D5Q S5Q C1L L1L D1L S1L              SYS / # / OBS TYPES 
E   21 X1  C1C L1C D1C S1C C6C L6C D6C S6C C5Q L5Q D5Q S5Q  SYS / # / OBS TYPES 
       C7Q L7Q D7Q S7Q C8Q L8Q D8Q S8Q                      SYS / # / OBS TYPES 
S    9 X1  C1C L1C D1C S1C C5I L5I D5I S5I                  SYS / # / OBS TYPES 
R   17 X1  C1C L1C D1C S1C C2P L2P D2P S2P C2C L2C D2C S2C  SYS / # / OBS TYPES 
       C3Q L3Q D3Q S3Q                                      SYS / # / OBS TYPES 
C   25 X1  C1P L1P D1P S1P C5P L5P D5P S5P C2I L2I D2I S2I  SYS / # / OBS TYPES 
       C7I L7I D7I S7I C6I L6I D6I S6I C7D L7D D7D S7D      SYS / # / OBS TYPES 
J   17 X1  C1C L1C D1C S1C C2L L2L D2L S2L C5Q L5Q D5Q S5Q  SYS / # / OBS TYPES 
       C1L L1L D1L S1L                                      SYS / # / OBS TYPES 
I    5 X1  C5A L5A D5A S5A                                  SYS / # / OBS TYPES 
SEPTENTRIO RECEIVERS OUTPUT ALIGNED CARRIER PHASES.         COMMENT             
NO FURTHER PHASE SHIFT APPLIED IN THE RINEX ENCODER.        COMMENT             
G L1C                                                       SYS / PHASE SHIFT   
G L2W                                                       SYS / PHASE SHIFT   
G L2L  0.00000                                              SYS / PHASE SHIFT   
G L5Q  0.00000                                              SYS / PHASE SHIFT   
G L1L  0.00000                                              SYS / PHASE SHIFT   
E L1C  0.00000                                              SYS / PHASE SHIFT   
E L6C  0.00000                                              SYS / PHASE SHIFT   
E L5Q  0.00000                                              SYS / PHASE SHIFT   
E L7Q  0.00000                                              SYS / PHASE SHIFT   
E L8Q  0.00000                                              SYS / PHASE SHIFT   
S L1C                                                       SYS / PHASE SHIFT   
S L5I                                                       SYS / PHASE SHIFT   
R L1C                                                       SYS / PHASE SHIFT   
R L2P  0.00000                                              SYS / PHASE SHIFT   
R L2C                                                       SYS / PHASE SHIFT   
R L3Q  0.00000                                              SYS / PHASE SHIFT   
C L1P  0.00000                                              SYS / PHASE SHIFT   
C L5P  0.00000                                              SYS / PHASE SHIFT   
C L2I                                                       SYS / PHASE SHIFT   
C L7I                                                       SYS / PHASE SHIFT   
C L6I                                                       SYS / PHASE SHIFT   
C L7D                                                       SYS / PHASE SHIFT   
J L1C                                                       SYS / PHASE SHIFT   
J L2L  0.00000                                              SYS / PHASE SHIFT   
J L5Q  0.00000                                              SYS / PHASE SHIFT   
J L1L  0.00000                                              SYS / PHASE SHIFT   
I L5A                                                       SYS / PHASE SHIFT   
  2025     1     1    14     0    0.0000000     GPS         TIME OF FIRST OBS   
 C1C    0.000 C2C    0.000 C2P    0.000                     GLONASS COD/PHS/BIS 
DBHZ                                                        SIGNAL STRENGTH UNIT
    18                                                      LEAP SECONDS        
 24 R01  1 R02 -4 R03  5 R04  6 R05  1 R06 -4 R07  5 R08  6 GLONASS SLOT / FRQ #
    R09 -2 R10 -7 R11  0 R12 -1 R13 -2 R14 -7 R15  0 R16 -1 GLONASS SLOT / FRQ #
    R17  4 R18 -3 R19  3 R20  2 R21  4 R22 -3 R23  3 R24  2 GLONASS SLOT / FRQ #
                                                            END OF HEADER       
> 2025 01 01 14 00  0.0000000  0 39
G06         2.000                                                                                                                                                                    23257490.219 5  95235532.84905     -1875.300 5        34.400
G25         3.000    20013771.803 6 105173085.14306       191.669 6        37.815                                    20013776.583 5  81953021.26605       149.344 5        32.425    20013777.690 7  81953080.27107       149.295 7        42.184
G11         4.000    22459203.818 6 118023936.60806        37.394 6        38.898
G28         6.000    23217986.140 7 122011367.83007      2234.583 7        45.190                                    23217987.703 3  95073856.09503      1741.211 3        22.343    23217999.474 6  95073871.09306      1741.208 6        37.614
G12         7.000    20658473.351 8 108561016.48308     -2339.875 8        49.621                                    20658474.106 7  84593016.14407     -1823.277 7        42.138    20658475.890 6  84592996.13406     -1823.207 6        40.079
G29         8.000    22288316.282 6 117125874.63606      2132.910 6        39.853                                    22288321.888 4  91266919.60704      1662.004 4        29.327    22288322.657 5  91266982.64405      1662.175 5        34.233
E30         9.000    23621997.226 8 124134551.87508     -1188.671 8        49.275                                                                    23622003.858 8  92697850.62308      -887.637 8        51.843    23622002.809 8  95116059.20108      -910.815 8        52.300
G32        11.000    23042794.089 5 121090682.29605     -2030.720 5        35.143                                    23042806.147 4  94356442.58204     -1582.386 4        29.716    23042806.610 6  94356487.59406     -1582.436 6        38.964
E34        12.000    25400237.346 6 133479276.00306      1213.268 6        38.213                                                                    25400246.297 5  99676091.92905       905.799 5        34.405    25400251.510 5 102276323.11205       929.777 5        34.848
E02        13.000    26083036.973 5 137067276.54805     -3044.597 5        31.962                                                                                                                                    26083063.820 4 105025667.85704     -2332.519 4        26.563
E19        14.000    27460990.066 4 144308374.52504       991.977 4        24.526                                                                                                                                    27460997.966 4                       760.807 4        24.992
E27        15.000    25110240.589 7 131955271.47007       971.429 7        43.604                                                                    25110253.166 7  98538202.19207       725.380 7        44.707    25110249.849 7 101108622.91507       744.287 7        42.673
G24        16.000    23382227.501 6 122874396.04106     -4542.242 6        38.135                                    23382233.837 3  95746231.10103     -3539.391 3        20.905    23382235.805 4                     -3539.128 4        26.886
E07        18.000    26166889.588 5                     -3493.275 5        30.936                                                                    26166944.777 5 102684536.87105     -2609.199 5        30.883    26166907.086 6 105363296.07406     -2677.182 6        38.910
E36        19.000    26070722.717 5 137002632.04805     -1497.500 5        33.257                                                                    26070732.805 6 102307236.48306     -1117.909 6        36.197    26070732.431 6 104976032.53006     -1147.320 6        36.193
R15        20.000    22309089.455 6 119213511.20106      2528.936 6        40.496                                                                    22309102.792 5  92721299.12005      1967.118 5        33.251
R24        21.000    20174502.038 6 107882202.96406      1809.846 6        38.414                                                                    20174511.950 7  83908360.29007      1407.608 7        44.134
S36        23.000    38199473.615 6 200739458.92506      -852.825 6        36.291
S23        24.000    38142344.178 5 200439324.19905      -857.669 5        35.976
R04        25.000    23412759.334 6 125374274.14506     -4639.419 6        38.402                                                                    23412776.438 4                     -3608.562 4        29.128
E29        26.000    25795701.730 4 135557364.00304     -1124.695 4        27.413                                                                    25795718.101 6 101227946.73606      -840.303 6        38.697    25795716.807 6 103868705.13706      -862.208 6        40.663
C34        28.000                                                                                                                                    23192944.775 7 120771851.66307      1981.626 7        43.012                                                                    23192950.967 6  98136977.20706      1610.299 6        41.955
R13        29.000    21286945.063 6 113671109.30706     -3632.923 6        36.749
C10        32.000                                                                                                                                                                                                    39810843.338 4                     -1218.473 4        28.540
C24        34.000                                                                                                                                    21697736.002 7 112985990.49207     -2094.045 7        46.198                                                                    21697733.478 6  91810203.34806     -1701.568 6        36.272
R14        35.000    19383582.490 7 103325570.90007        59.604 7        44.453                                                                    19383588.858 6  80364300.11306        46.327 6        41.087
R23        36.000    20576679.626 6 110071473.91806     -2898.708 6        39.790
C26        37.000                                                                                                                                    25610306.901 3                     -3824.021 3        20.595
S21        38.000    38427121.603 5 201935866.21105      -852.800 5        35.529
C44        39.000                                                                                                                                    21880526.929 6 113937694.31906     -1024.478 6        38.090                                                                    21880529.327 7  92583689.98307      -832.414 7        45.139
C35        40.000                                                                                                                                    24555519.120 5 127867062.83205     -3482.865 5        31.426                                                                    24555547.404 4                     -2829.987 4        29.943
C25        41.000                                                                                                                                                                                                                                                                    22240931.148 7  94108692.71307       761.691 7        45.699
R05        42.000    22358927.728 6 119521495.48606     -2235.042 6        36.087
C12        43.000                                                                                                                                    22280875.155 7 116022391.48607       665.134 7        46.140    22280878.177 8  89715926.71608       514.332 8        50.191    22280876.504 7  94277755.78007       540.502 7        47.484
C32        44.000                                                                                                                                    26612904.146 6 138580713.44006     -1188.637 6        37.505                                                                    26612915.816 5 112607966.32405      -965.861 5        31.977
C41        50.000                                                                                                                                    26703035.592 4 139049612.07404     -3196.764 4        29.128                                                                    26703044.811 5 112989330.80505     -2597.749 5        34.148
C23        55.000                                                                                                                                    26911972.297 5 140137704.40005      2216.644 5        33.557                                                                    26911984.329 4 113873412.61004      1801.416 4        28.919
I02        57.000    37215850.270 6 146042995.98706      -906.183 6        37.168
I06        58.000    38553710.381 6 151293001.39106      -727.936 6        39.625
> 2025 01 01 14 00  5.0000000  0 39
G06         2.000                                                                                                                                                                    23259780.876 5  95244914.68705     -1877.431 5        35.667
G25         3.000    20013588.978 6 105172130.73906       189.681 6        37.894                                    20013595.500 5  81952277.59205       147.799 5        32.725    20013594.796 6  81952336.59806       147.689 6        41.738
G11         4.000    22459168.367 6 118023757.01306        34.234 6        40.100
G28         6.000    23215860.225 7 122000197.14707      2233.288 7        45.567                                    23215862.681 3  95065151.72203      1740.214 3        22.210    23215871.247 6  95065166.70906      1740.257 6        37.902
G12         7.000    20660700.619 8 108572719.28408     -2341.638 8        50.398                                    20660701.363 7  84602135.20707     -1824.654 7        42.432    20660702.337 6  84602115.20606     -1824.672 6        40.184
G29         8.000    22286286.653 6 117115212.49906      2131.512 6        38.195                                    22286293.377 4  91258611.45904      1660.916 4        29.081    22286293.165 5  91258674.49505      1660.795 5        34.795
E30         9.000    23623128.239 8 124140496.50808     -1189.630 8        48.978                                                                    23623135.105 8  92702289.79608      -888.302 8        51.667    23623134.075 8  95120614.18008      -911.490 8        52.217
G32        11.000    23044728.562 6 121100841.79906     -2033.673 6        37.422                                    23044739.417 4  94364359.05404     -1584.691 4        29.820    23044740.959 6  94364404.08106     -1584.591 6        39.709
E34        12.000    25399083.272 6 133473213.46106      1211.522 6        37.043                                                                    25399092.893 5  99671564.71505       904.599 5        35.595    25399098.640 5 102271677.82505       928.063 5        33.012
E02        13.000    26085934.676 5 137082499.34905     -3044.887 5        32.371                                                                                                                                    26085961.145 4 105037332.09304     -2333.390 4        25.368
E19        14.000    27460051.397 3                       989.245 3        21.738                                                                                                                                    27460056.493 4                       759.565 4        24.647
E27        15.000    25109316.331 7 131950414.88507       970.893 7        42.882                                                                    25109328.878 7  98534575.53207       725.118 7        44.444    25109325.597 7 101104901.65707       743.886 7        42.698
G24        16.000    23386549.795 6 122897108.02306     -4542.957 6        38.183                                    23386556.175 3  95763928.72103     -3539.948 3        19.940    23386557.592 4                     -3539.771 4        27.964
E07        18.000    26170214.494 5                     -3494.658 5        30.823                                                                    26170269.623 4 102697583.06004     -2609.784 4        29.829    26170231.889 6 105376682.56306     -2677.618 6        38.769
E36        19.000    26072149.846 5 137010123.79605     -1499.896 5        33.970                                                                    26072158.408 6 102312831.03106     -1119.893 6        36.151    26072157.511 5 104981773.00705     -1148.964 5        35.814
R15        20.000    22306723.792 6 119200865.59306      2528.884 6        40.739                                                                    22306737.755 5  92711463.70005      1966.789 5        34.943
R24        21.000    20172817.193 6 107873162.36706      1806.022 6        39.018                                                                    20172819.838 7  83901328.70607      1404.846 7        43.137
R22        22.000    24148576.494 4                     -5034.920 4        27.569                                                                    24148584.704 3                     -3915.412 3        21.071
S36        23.000    38200286.243 6 200743721.75806      -852.556 6        36.215
S23        24.000    38143156.936 5 200443610.76905      -857.620 5        35.876
R04        25.000    23417092.563 6 125397473.07316     -4640.549 6        36.820                                                                    23417108.479 4                     -3609.246 4        28.777
E29        26.000                                                                                                                                    25796789.655 6 101232151.40106      -841.809 6        38.562    25796787.877 6 103873019.49806      -863.799 6        41.228
C34        28.000                                                                                                                                    23191040.126 7 120761946.28907      1980.186 7        42.121                                                                    23191049.038 7  98128928.31007      1608.934 7        42.555
R13        29.000    21290350.489 6 113689278.28406     -3634.620 6        36.159
C10        32.000                                                                                                                                                                                                    39812357.478 4                     -1218.206 4        28.284
C24        34.000                                                                                                                                    21699747.018 7 112996464.09807     -2095.777 7        46.191                                                                    21699745.132 6  91818713.97006     -1702.999 6        36.367
R14        35.000    19383527.995 7 103325277.73107        57.352 7        44.354                                                                    19383533.917 6  80364072.08506        44.706 6        40.007
R23        36.000    20579383.724 6 110085976.04906     -2902.448 6        39.222
S21        38.000    38427931.069 5 201940128.80705      -852.726 5        35.476
C44        39.000                                                                                                                                    21881509.108 6 113942822.11806     -1026.982 6        36.469                                                                    21881514.022 7  92587856.76207      -834.554 7        45.282
C35        40.000                                                                                                                                    24558859.634 4 127884479.79504     -3484.193 4        29.640                                                                    24558892.969 4                     -2830.899 4        29.839
C25        41.000                                                                                                                                                                                                                                                                    22240031.695 7  94104886.39907       760.607 7        45.651
R05        42.000    22361013.785 5 119532679.74315     -2239.138 5        35.681
C12        43.000                                                                                                                                    22280237.746 7 116019070.82007       662.657 7        46.118    22280240.681 8  89713358.98208       512.453 8        49.708    22280238.943 7  94275057.48707       538.514 7        47.973
C32        44.000                                                                                                                                    26614046.956 6 138586662.83906     -1191.364 6        38.210                                                                    26614058.426 5 112612800.72305      -968.133 5        31.291
C41        50.000                                                                                                                                    26706099.195 5 139065598.19505     -3198.280 5        32.018                                                                    26706114.174 5 113002320.92705     -2598.893 5        32.760
C23        55.000                                                                                                                                    26909843.939 5 140126618.66305      2217.057 5        33.593                                                                    26909855.342 4 113864404.57704      1801.020 4        28.161
I02        57.000    37217004.985 6 146047525.88106      -906.316 6        37.376
I06        58.000    38554638.260 6 151296639.65906      -727.786 6        39.492
> 2025 01 01 14 00 10.0000000  0 39
G06         2.000    23262109.772 5 122243004.26115     -2411.968 5        32.299                                    23262111.105 1  95254440.24111     -1879.201 1         4.571    23262076.235 6  95254308.41506     -1879.595 6        36.650
G25         3.000    20013409.955 6 105171186.88206       188.131 6        37.134                                    20013416.241 5  81951542.13505       146.587 5        32.653    20013414.874 6  81951601.13606       146.514 6        40.892
G11         4.000    22459137.741 6 118023593.23906        31.472 6        41.597                                                                                                    22459148.138 4                        24.658 4        27.413
G28         6.000    23213735.798 7 121989033.69207      2232.300 7        45.735                                    23213738.937 3  95056452.98203      1739.445 3        21.905    23213743.896 6  95056467.98106      1739.408 6        37.924
G12         7.000    20662929.596 8 108584431.44908     -2343.054 8        50.505                                    20662930.373 7  84611261.57407     -1825.757 7        42.595    20662930.790 6  84611241.57306     -1825.870 6        39.685
G29         8.000    22284257.610 6 117104558.88406      2130.283 6        36.110                                    22284266.439 4  91250309.96604      1659.952 4        28.000    22284265.258 5  91250372.99805      1659.836 5        34.224
E30         9.000    23624260.496 8 124146446.42408     -1190.232 8        48.826                                                                    23624267.283 8  92706732.92108      -888.835 8        51.599    23624266.335 8  95125173.21308      -911.978 8        52.078
G32        11.000    23046667.635 6 121111015.66906     -2035.886 6        40.341                                    23046675.438 5  94372286.73605     -1586.409 5        31.064    23046676.908 6  94372331.76306     -1586.501 6        40.036
E34        12.000    25397931.118 6 133467160.30206      1209.726 6        36.473                                                                    25397941.614 6  99667044.50606       903.493 6        36.987    25397947.434 5 102267039.68605       927.113 5        31.019
E02        13.000    26088832.689 5 137097724.20105     -3045.124 5        32.575                                                                    26088861.321 5                     -2273.866 5        30.634    26088862.214 4 105048997.77104     -2333.217 4        24.105
E19        14.000    27459108.971 3                       985.366 3        19.433                                                                                                                                    27459115.395 4                       757.062 4        24.526
E27        15.000    25108392.468 7 131945561.46807       970.647 7        42.444                                                                    25108405.337 7  98530951.25007       724.804 7        44.321    25108401.996 7 101101182.81707       743.742 7        42.658
G24        16.000    23390872.818 6 122919824.59006     -4543.428 6        36.715                                    23390879.545 3  95781629.94003     -3540.311 3        19.463    23390880.251 4                     -3540.224 4        28.076
E07        18.000    26173539.803 5                     -3495.746 5        30.679                                                                    26173595.754 4 102710633.33104     -2610.075 4        29.564    26173557.707 6 105390073.29006     -2678.335 6        38.961
E36        19.000    26073577.501 5 137017628.05605     -1501.913 5        35.529                                                                    26073586.666 6 102318434.89406     -1121.428 6        36.287    26073586.036 5 104987523.09005     -1150.970 5        35.114
R15        20.000    22304359.722 7 119188222.24607      2528.799 7        42.487                                                                    22304372.958 5  92701629.97905      1967.135 5        34.133
R24        21.000                                                                                                                                    20171131.381 6  83894311.32306      1402.241 6        41.559
R22        22.000    24153301.336 3                     -5035.676 3        23.219                                                                    24153296.887 3                     -3915.824 3        22.495
S36        23.000    38201096.858 6 200747985.03706      -852.390 6        36.480
S23        24.000    38143976.665 6 200447897.30506      -856.919 6        36.102
R04        25.000    23421421.014 5 125420678.14205     -4641.313 5        35.633                                                                    23421433.633 4                     -3610.384 4        27.701
E29        26.000                                                                                                                                    25797863.286 6 101236365.10906      -843.345 6        38.631    25797861.425 6 103877343.13506      -865.340 6        41.781
C34        28.000                                                                                                                                    23189138.711 6 120752048.76106      1979.052 6        41.337                                                                    23189148.541 7  98120885.76007      1607.932 7        42.739
R13        29.000    21293753.349 5 113707455.97405     -3636.084 5        32.353
C10        32.000                                                                                                                                                                                                    39813867.693 4                     -1218.760 4        27.772
C24        34.000                                                                                                                                    21701759.467 7 113006946.87107     -2097.163 7        45.998                                                                    21701758.657 6  91827232.04706     -1704.403 6        36.892
R14        35.000    19383473.751 7 103324996.38107        55.346 7        43.060                                                                    19383481.793 6  80363853.30406        43.036 6        38.727
R23        36.000    20582093.931 6 110100498.32506     -2906.180 6        37.459
S21        38.000    38428745.929 5 201944391.51305      -852.266 5        35.757
C44        39.000                                                                                                                                    21882495.695 6 113947963.59806     -1029.386 6        36.643                                                                    21882501.230 7  92592034.64807      -836.621 7        45.099
C35        40.000                                                                                                                                    24562204.890 4 127901904.23504     -3485.445 4        29.554                                                                    24562239.786 4                     -2832.149 4        28.379
C25        41.000                                                                                                                                                                                                                                                                    22239133.680 7  94101085.83707       759.604 7        45.690
R05        42.000    22363106.247 6 119543884.46106     -2242.695 6        36.907
C12        43.000                                                                                                                                    22279602.253 7 116015762.90807       660.661 7        45.916    22279605.692 8  89710801.10908       510.823 8        48.940    22279603.785 8  94272369.55008       536.678 8        48.233
C32        44.000                                                                                                                                    26615192.094 6 138592625.47006     -1193.710 6        38.904                                                                    26615203.539 5 112617645.80005      -970.114 5        30.702
C41        50.000                                                                                                                                    26709175.879 5 139081590.43205     -3198.940 5        33.467                                                                    26709184.024 5 113015315.89405     -2599.257 5        30.611
C23        55.000                                                                                                                                    26907715.704 5 140115532.45105      2217.840 5        33.880                                                                    26907726.440 4 113855396.06004      1802.334 4        26.659
I02        57.000    37218159.333 6 146052056.46606      -905.964 6        37.633
I06        58.000    38555565.022 6 151300277.73206      -727.173 6        39.501
> 2025 01 01 14 00 15.0000000  0 39
G06         2.000    23264403.504 5 122255074.78305     -2415.593 5        31.608                                    23264408.025 1  95263845.94701     -1882.303 1         4.143    23264376.773 6  95263713.99106     -1882.180 6        36.885
G25         3.000    20013231.162 6 105170253.56106       185.432 6        37.456                                    20013238.758 5  81950814.89105       144.495 5        32.305    20013237.753 6  81950873.86606       144.579 6        40.684
G11         4.000    22459111.301 6 118023445.20206        27.813 6        41.452                                                                                                    22459120.799 4                        21.611 4        28.597
G28         6.000    23211612.467 7 121977877.39707      2230.339 7        46.181                                    23211616.853 3  95047759.82803      1737.914 3        21.810    23211618.862 6  95047774.79906      1738.042 6        37.433
G12         7.000    20665160.063 8 108596152.90308     -2345.432 8        49.875                                    20665161.100 7  84620395.18207     -1827.609 7        42.557    20665161.719 6  84620375.17106     -1827.694 6        39.255
G29         8.000    22282231.951 5 117093913.71905      2128.092 5        34.100                                    22282240.812 4  91242015.06804      1658.270 4        25.203    22282240.306 5  91242078.09305      1658.299 5        34.052
E30         9.000    23625393.666 8 124152401.56108     -1191.734 8        48.955                                                                    23625400.467 8  92711179.94808      -889.969 8        51.434    23625399.522 8  95129736.25008      -913.167 8        51.811
G32        11.000    23048607.010 7 121121203.79407     -2039.412 7        42.705                                    23048614.069 5  94380225.55005     -1589.151 5        32.485    23048615.149 6  94380270.56006     -1588.960 6        39.544
E34        12.000    25396780.565 5 133461116.40805      1207.943 5        35.652                                                                    25396791.766 6  99662531.23206       901.744 6        37.754    25396798.224 4 102262408.70604       925.300 4        26.144
E02        13.000    26091730.958 5 137112951.00405     -3045.722 5        32.473                                                                    26091757.434 5                     -2274.443 5        32.024
E19        14.000                                                                                                                                                                                                    27458176.582 3                       755.745 3        22.038
E27        15.000    25107469.566 7 131940711.14807       969.519 7        42.705                                                                    25107482.138 7  98527329.27407       723.993 7        43.827    25107478.888 7 101097466.34707       742.922 7        42.377
G24        16.000    23395195.306 5 122942545.72905     -4544.861 5        34.857                                    23395203.398 3  95799334.69703     -3541.431 3        18.060    23395204.865 4                     -3541.360 4        28.626
E07        18.000    26176865.992 5                     -3496.963 5        30.347                                                                    26176923.957 4 102723687.68304     -2611.852 4        29.299    26176884.352 6 105403468.12906     -2679.482 6        38.706
E36        19.000    26075007.911 6 137025144.73906     -1504.813 6        37.550                                                                    26075017.131 6 102324048.03706     -1123.785 6        36.514    26075016.748 5 104993282.63405     -1152.818 5        34.557
R15        20.000    22301996.429 7 119175581.00207      2527.842 7        44.634                                                                    22302004.332 5  92691797.98405      1965.853 5        32.198
R24        21.000                                                                                                                                    20169446.244 6  83887308.00106      1399.081 6        41.206
R22        22.000    24158020.400 3                     -5040.492 3        20.429                                                                    24158021.071 3                     -3919.778 3        23.067
S36        23.000    38201906.249 6 200752247.64506      -852.669 6        36.597
S23        24.000    38144790.478 6 200452183.55206      -857.566 6        36.302
R04        25.000    23425751.434 5 125443889.23515     -4642.797 5        35.329                                                                    23425760.760 4                     -3610.450 4        26.647
E29        26.000    25798981.249 5 135574546.69615     -1132.356 5        30.762                                                                    25798939.270 6 101240587.79606      -845.566 6        38.282    25798937.414 7 103881675.99407      -867.701 7        42.296
C34        28.000                                                                                                                                    23187239.605 6 120742159.00906      1976.886 6        40.231                                                                    23187249.247 7  98112849.56707      1606.555 7        42.565
R13        29.000    21297154.337 4 113725642.39004     -3638.949 4        28.720
C10        32.000                                                                                                                                                                                                    39815379.369 4                     -1218.162 4        28.237
C24        34.000                                                                                                                                    21703774.110 7 113017438.71607     -2099.506 7        45.821                                                                    21703774.114 6  91835757.54806     -1706.004 6        37.217
R14        35.000    19383422.672 7 103324727.02707        52.464 7        42.411                                                                    19383431.572 6  80363643.77606        40.787 6        38.856
R23        36.000    20584811.571 5 110115040.59105     -2910.548 5        34.929
S21        38.000    38429553.267 5 201948654.31705      -852.629 5        35.790
C44        39.000                                                                                                                                    21883488.972 6 113953118.69506     -1032.522 6        38.868                                                                    21883491.013 7  92596223.61107      -839.059 7        44.551
C35        40.000                                                                                                                                    24565550.716 4 127919336.04704     -3487.395 4        29.678                                                                    24565587.609 4                     -2833.994 4        26.527
C25        41.000                                                                                                                                                                                                                                                                    22238236.825 7  94097291.02107       758.171 7        45.681
R05        42.000    22365207.004 6                     -2247.161 6        38.772                                                                    22365275.690 4                     -1748.122 4        27.904
C12        43.000                                                                                                                                    22278969.786 7 116012467.69407       657.506 7        46.139    22278973.098 8  89708253.04008       508.409 8        48.302    22278971.021 8  94269691.95208       534.244 8        48.462
C32        44.000                                                                                                                                    26616341.092 6 138598601.40606     -1196.740 6        37.875                                                                    26616351.607 5 112622501.74805      -972.296 5        30.272
C41        50.000                                                                                                                                    26712257.868 5 139097588.69305     -3200.483 5        34.029                                                                    26712255.342 4 113028315.77804     -2600.014 4        27.976
C23        55.000                                                                                                                                    26905588.044 5 140104445.71405      2217.146 5        34.114                                                                    26905598.505 4                      1801.923 4        25.880
I02        57.000    37219314.268 6 146056587.29906      -906.297 6        37.425
I06        58.000    38556492.178 6 151303915.59106      -727.748 6        39.408
> 2025 01 01 14 00 20.0000000  0 39
G06         2.000                                                                                                                                                                    23266676.647 6  95273131.75106     -1884.871 6        36.038
G25         3.000    20013055.840 6 105169331.09206       183.681 6        37.172                                    20013063.202 5  81950096.08805       143.127 5        32.114    20013061.972 6  81950155.09206       142.967 6        40.841
G11         4.000    22459085.345 6 118023313.31806        24.955 6        39.336                                                                                                    22459096.473 4                        19.486 4        29.611
G28         6.000    23209490.977 7 121966728.68407      2229.000 7        46.330                                    23209496.284 3  95039072.57303      1736.874 3        21.905    23209496.567 6  95039087.54906      1736.796 6        36.374
G12         7.000    20667392.051 8 108607884.03408     -2347.160 8        48.840                                    20667393.611 7  84629536.32207     -1828.957 7        42.406    20667394.183 6  84629516.32306     -1829.016 6        39.568
G29         8.000    22280208.278 5 117083277.44405      2126.428 5        32.425                                    22280216.741 3  91233727.05303      1656.940 3        22.000    22280214.676 5  91233790.13605      1656.974 5        32.569
E30         9.000    23626527.909 8 124158362.30308     -1192.627 8        48.809                                                                    23626534.714 8  92715631.14908      -890.586 8        51.310    23626533.750 8  95134303.57608      -913.857 8        51.653
G32        11.000    23050549.054 7 121131406.59807     -2042.012 7        42.548                                    23050555.348 5  94388175.78705     -1591.178 5        33.144    23050556.022 6  94388220.81206     -1591.137 6        38.646
E34        12.000    25395632.275 5 133455082.28105      1206.039 5        35.810                                                                    25395643.686 6  99658025.22506       900.544 6        38.072
E02        13.000    26094628.352 5 137128180.22705     -3046.228 5        31.774                                                                    26094653.548 5                     -2274.625 5        32.437
E19        14.000    27457209.470 3                       986.114 3        21.929                                                                                                                                    27457239.254 3                       754.981 3        21.238
E27        15.000    25106547.759 7 131935864.30407       969.119 7        42.760                                                                    25106559.722 7  98523709.89907       723.669 7        43.321    25106556.155 7 101093752.54407       742.620 7        42.212
G24        16.000    23399520.430 5 122965271.80305     -4545.590 5        32.347                                    23399528.441 2  95817043.31202     -3541.976 2        17.245    23399531.035 4                     -3542.241 4        29.564
E07        18.000    26180194.525 5                     -3498.069 5        31.072                                                                    26180254.728 4 102736746.36104     -2612.264 4        28.531    26180211.949 6 105416867.44906     -2680.242 6        38.871
E36        19.000    26076441.478 6 137032674.27006     -1507.072 6        38.526                                                                    26076450.266 6 102329670.75106     -1125.475 6        36.779    26076449.387 5 104999052.04505     -1154.956 5        33.323
R15        20.000    22299632.073 7 119162942.29007      2527.613 7        46.790                                                                    22299636.447 4  92681967.89804      1966.268 4        27.928
R24        21.000                                                                                                                                    20167765.788 6  83880319.19706      1396.447 6        41.554
S36        23.000    38202717.929 6 200756509.94206      -852.391 6        36.370
S23        24.000    38145605.015 5 200456470.10205      -857.323 5        35.690
R04        25.000    23430090.055 5 125467106.83715     -4643.839 5        34.119                                                                    23430096.754 4                     -3612.944 4        27.138
E29        26.000    25800062.201 4 135580213.97304     -1134.846 4        27.581                                                                    25800017.849 6 101244819.76106      -847.291 6        38.000    25800015.656 7 103886018.36407      -869.457 7        42.730
C34        28.000                                                                                                                                    23185342.953 6 120732277.44306      1975.605 6        39.324                                                                    23185351.505 6  98104820.00006      1605.310 6        41.964
R13        29.000    21300563.871 4 113743837.93804     -3639.728 4        28.199
C10        32.000                                                                                                                                                                                                    39816891.390 4                     -1218.698 4        26.970
C24        34.000                                                                                                                                    21705790.123 7 113027940.03707     -2101.160 7        45.148                                                                    21705790.847 6  91844290.70006     -1707.322 6        37.410
R14        35.000    19383375.730 7 103324469.97307        50.275 7        43.380                                                                    19383383.772 6  80363443.88706        38.945 6        40.799
R23        36.000    20587534.291 6 110129603.32706     -2914.669 6        36.926
C26        37.000                                                                                                                                    25625009.538 4                     -3828.103 4        29.052
S21        38.000    38430364.983 5 201952917.44005      -852.405 5        35.838
C44        39.000                                                                                                                                    21884482.853 6 113958287.76806     -1035.128 6        40.143                                                                    21884483.479 7  92600423.92807      -841.121 7        44.039
C35        40.000                                                                                                                                    24568899.846 4 127936775.71604     -3488.602 4        28.502                                                                    24568936.685 3                     -2835.279 3        23.695
C25        41.000                                                                                                                                                                                                                                                                    22237341.452 7  94093502.19407       757.252 7        45.580
R05        42.000    22367310.919 6                     -2251.036 6        40.803
C12        43.000                                                                                                                                    22278340.135 7 116009185.60607       655.129 7        46.430    22278342.880 7  89705715.12407       506.622 7        47.888    22278340.738 8  94267024.98308       532.405 8        48.647
C32        44.000                                                                                                                                    26617487.530 6 138604591.06706     -1199.290 6        36.495                                                                    26617502.763 5 112627368.73305      -974.113 5        31.404
C41        50.000                                                                                                                                    26715332.948 5 139113593.35505     -3201.718 5        33.335                                                                    26715326.505 4                     -2602.150 4        25.128
C23        55.000                                                                                                                                    26903463.071 5 140093358.91805      2217.311 5        33.659                                                                    26903471.904 3                      1802.665 3        22.990
I02        57.000    37220468.693 6 146061118.94406      -906.256 6        37.989
I06        58.000    38557419.242 6 151307553.48106      -727.531 6        39.592
> 2025 01 01 14 00 25.0000000  0 39
G06         2.000                                                                                                                                                                    23268978.917 5  95282561.23805     -1887.283 5        34.519
G25         3.000    20012882.011 6 105168419.02606       181.225 6        36.344                                    20012889.493 5  81949385.40605       141.224 5        31.887    20012888.047 6  81949444.39306       141.157 6        40.436
G11         4.000    22459063.795 6 118023197.08906        21.519 6        37.267                                                                                                    22459075.506 4                        16.545 4        28.910
G28         6.000    23207370.529 7 121955587.04307      2227.556 7        46.234                                    23207376.874 3  95030390.81503      1735.747 3        21.857    23207375.715 5  95030405.76205      1735.799 5        35.471
G12         7.000    20669626.442 8 108619624.36908     -2349.079 8        48.305                                    20669627.786 7  84638684.63807     -1830.454 7        42.144    20669628.604 6  84638664.63206     -1830.426 6        39.877
G29         8.000    22278186.483 5 117072649.57705      2124.447 5        31.253                                    22278194.244 3  91225445.59903      1655.395 3        18.298    22278190.476 5  91225508.64905      1656.028 5        30.740
E30         9.000    23627663.419 8 124164328.15408     -1193.786 8        48.670                                                                    23627669.974 8  92720086.17208      -891.479 8        51.203    23627668.978 8  95138874.81808      -914.693 8        51.421
G32        11.000    23052491.485 6 121141623.58106     -2044.877 6        39.841                                    23052499.189 5  94396137.05705     -1593.397 5        32.958    23052501.048 6  94396182.05806     -1593.396 6        37.520
E34        12.000    25394486.077 6 133449057.32006      1204.053 6        36.601                                                                    25394497.120 6  99653526.09806       899.087 6        38.279    25394520.446 5 102253168.28005       922.253 5        31.879
E02        13.000    26097525.916 5 137143411.23605     -3046.336 5        30.241                                                                    26097550.533 5                     -2274.945 5        32.970
E19        14.000    27456273.578 4                       983.160 4        24.301
E27        15.000    25105625.854 7 131931020.43907       968.315 7        42.493                                                                    25105637.885 7  98520092.76107       723.127 7        42.878    25105633.863 7 101090041.03207       742.028 7        42.027
G24        16.000    23403843.764 4 122988002.22504     -4546.188 4        27.665                                    23403854.378 2  95834755.30302     -3542.444 2        15.333    23403855.205 5                     -3542.888 5        30.355
E07        18.000    26183523.474 5                     -3499.227 5        31.857                                                                    26183585.164 4 102749808.94304     -2612.507 4        26.982    26183540.883 6 105430270.80006     -2681.166 6        38.646
E36        19.000    26077875.870 6 137040216.08306     -1509.616 6        38.964                                                                    26077885.473 6 102335302.65306     -1127.427 6        37.520    26077884.987 5 105004830.85905     -1156.754 5        32.048
R15        20.000    22297267.397 7 119150305.49107      2527.104 7        47.680                                                                    22297272.564 4  92672139.36804      1964.988 4        25.113
R24        21.000                                                                                                                                    20166088.291 6  83873344.45906      1393.467 6        41.421
S36        23.000    38203530.780 6 200760771.52706      -852.514 6        36.586
S23        24.000    38146419.772 5 200460756.39505      -857.202 5        35.571
R04        25.000    23434432.340 5 125490330.31205     -4645.647 5        32.461                                                                    23434440.184 4                     -3613.345 4        27.868
E29        26.000                                                                                                                                    25801098.833 6 101249060.62706      -849.243 6        37.909    25801096.275 7 103890369.86007      -871.303 7        43.185
C34        28.000                                                                                                                                    23183447.589 6 120722403.55906      1973.912 6        38.673                                                                    23183454.920 6  98096796.69006      1603.788 6        40.999
R13        29.000    21303977.242 4 113762041.89104     -3642.207 4        26.826
C10        32.000                                                                                                                                                                                                    39818400.979 4                     -1218.444 4        26.994
C24        34.000                                                                                                                                    21707807.013 7 113038450.33107     -2103.045 7        44.611                                                                    21707809.090 6  91852831.18906     -1709.038 6        37.425
R14        35.000    19383330.633 7 103324224.56207        47.798 7        44.786                                                                    19383337.112 7  80363253.02907        37.067 7        42.614
R23        36.000    20590262.969 6 110144185.90406     -2918.666 6        38.871
C26        37.000                                                                                                                                    25628686.387 4                     -3828.722 4        29.412
S21        38.000    38431175.419 5 201957179.96905      -852.612 5        35.695
C44        39.000                                                                                                                                    21885476.869 6 113963470.34406     -1038.023 6        40.265                                                                    21885478.475 7  92604635.23507      -843.596 7        42.817
C35        40.000                                                                                                                                    24572253.894 4 127954222.60304     -3490.063 4        27.653                                                                    24572284.025 3                     -2835.848 3        21.071
C25        41.000                                                                                                                                    22236434.712 4 115791056.54914       930.424 4        29.270                                                                    22236447.174 7  94089719.02207       755.938 7        45.234
R05        42.000    22369421.208 7 119577620.03017     -2255.201 7        42.813
C12        43.000                                                                                                                                    22277712.664 7 116005916.09407       652.503 7        46.791    22277715.205 7  89703186.94807       504.559 7        47.825    22277712.970 8  94264368.26308       530.129 8        48.524
C32        44.000                                                                                                                                    26618636.802 6 138610593.88606     -1202.097 6        36.518                                                                    26618656.407 5 112632246.55705      -977.327 5        31.502
C41        50.000                                                                                                                                    26718403.507 5 139129603.84305     -3202.455 5        33.575                                                                    26718395.570 3                     -2604.364 3        22.114
C23        55.000                                                                                                                                    26901341.877 5 140082271.46205      2217.562 5        33.174                                                                    26901348.693 3                      1804.601 3        21.429
I02        57.000    37221623.867 6 146065650.76706      -906.571 6        37.883
I06        58.000    38558346.100 6 151311191.03706      -727.512 6        39.598
> 2025 01 01 14 00 30.0000000  0 39
G06         2.000    23271258.177 6 122291378.48606     -2424.791 6        36.427                                    23271289.642 2  95292045.68412     -1889.453 2        16.755    23271285.136 5  95292002.59605     -1889.415 5        31.683
G25         3.000    20012710.980 6 105167517.49406       179.193 6        39.006                                    20012717.568 5  81948682.92905       139.632 5        31.502    20012716.083 6  81948741.93206       139.625 6        40.145
