     3.04           OBSERVATION DATA    M                   RINEX VERSION / TYPE
ssrcrin-15.6.1x                         20250101 180000 UTC PGM / RUN BY / DATE 
(00000000023479385599111004) Septentrio proprietary         COMMENT             
ract                                                        MARKER NAME         
01                                                          MARKER NUMBER       
geodetic                                                    MARKER TYPE         
NFB                 CLIMERS@TUW                             OBSERVER / AGENCY   
3296359             SEPT ASTERX SB3 PROB4.14.4              REC # / TYPE / VERS 
Unknown             Unknown                                 ANT # / TYPE        
  4127446.0448  1206914.4400  4695543.3947                  APPROX POSITION XYZ 
        0.0000        0.0000        0.0000                  ANTENNA: DELTA H/E/N
G   23 X1  C1C L1C D1C S1C C1W S1W C2W L2W D2W S2W C2L L2L  SYS / # / OBS TYPES 
       D2L S2L C5Q L5Q D5Q S5Q C1L L1L D1L S1L              SYS / # / OBS TYPES 
E   21 X1  C1C L1C D1C S1C C6C L6C D6C S6C C5Q L5Q D5Q S5Q  SYS / # / OBS TYPES 
       C7Q L7Q D7Q S7Q C8Q L8Q D8Q S8Q                      SYS / # / OBS TYPES 
S    9 X1  C1C L1C D1C S1C C5I L5I D5I S5I                  SYS / # / OBS TYPES 
R   17 X1  C1C L1C D1C S1C C2P L2P D2P S2P C2C L2C D2C S2C  SYS / # / OBS TYPES 
       C3Q L3Q D3Q S3Q                                      SYS / # / OBS TYPES 
C   25 X1  C1P L1P D1P S1P C5P L5P D5P S5P C2I L2I D2I S2I  SYS / # / OBS TYPES 
       C7I L7I D7I S7I C6I L6I D6I S6I C7D L7D D7D S7D      SYS / # / OBS TYPES 
J   17 X1  C1C L1C D1C S1C C2L L2L D2L S2L C5Q L5Q D5Q S5Q  SYS / # / OBS TYPES 
       C1L L1L D1L S1L                                      SYS / # / OBS TYPES 
I    5 X1  C5A L5A D5A S5A                                  SYS / # / OBS TYPES 
SEPTENTRIO RECEIVERS OUTPUT ALIGNED CARRIER PHASES.         COMMENT             
NO FURTHER PHASE SHIFT APPLIED IN THE RINEX ENCODER.        COMMENT             
G L1C                                                       SYS / PHASE SHIFT   
G L2W                                                       SYS / PHASE SHIFT   
G L2L  0.00000                                              SYS / PHASE SHIFT   
G L5Q  0.00000                                              SYS / PHASE SHIFT   
G L1L  0.00000                                              SYS / PHASE SHIFT   
E L1C  0.00000                                              SYS / PHASE SHIFT   
E L6C  0.00000                                              SYS / PHASE SHIFT   
E L5Q  0.00000                                              SYS / PHASE SHIFT   
E L7Q  0.00000                                              SYS / PHASE SHIFT   
E L8Q  0.00000                                              SYS / PHASE SHIFT   
S L1C                                                       SYS / PHASE SHIFT   
S L5I                                                       SYS / PHASE SHIFT   
R L1C                                                       SYS / PHASE SHIFT   
R L2P  0.00000                                              SYS / PHASE SHIFT   
R L2C                                                       SYS / PHASE SHIFT   
R L3Q  0.00000                                              SYS / PHASE SHIFT   
C L1P  0.00000                                              SYS / PHASE SHIFT   
C L5P  0.00000                                              SYS / PHASE SHIFT   
C L2I                                                       SYS / PHASE SHIFT   
C L7I                                                       SYS / PHASE SHIFT   
C L6I                                                       SYS / PHASE SHIFT   
C L7D                                                       SYS / PHASE SHIFT   
J L1C                                                       SYS / PHASE SHIFT   
J L2L  0.00000                                              SYS / PHASE SHIFT   
J L5Q  0.00000                                              SYS / PHASE SHIFT   
J L1L  0.00000                                              SYS / PHASE SHIFT   
I L5A                                                       SYS / PHASE SHIFT   
  2025     1     1    18     0    0.0000000     GPS         TIME OF FIRST OBS   
 C1C    0.000 C2C    0.000 C2P    0.000                     GLONASS COD/PHS/BIS 
DBHZ                                                        SIGNAL STRENGTH UNIT
    18                                                      LEAP SECONDS        
 24 R01  1 R02 -4 R03  5 R04  6 R05  1 R06 -4 R07  5 R08  6 GLONASS SLOT / FRQ #
    R09 -2 R10 -7 R11  0 R12 -1 R13 -2 R14 -7 R15  0 R16 -1 GLONASS SLOT / FRQ #
    R17  4 R18 -3 R19  3 R20  2 R21  4 R22 -3 R23  3 R24  2 GLONASS SLOT / FRQ #
                                                            END OF HEADER       
> 2025 01 01 18 00  0.0000000  0 33
G18         1.000    20448002.827 8 107455199.80008     -1138.168 8        49.613                                    20447996.995 5  83731199.49805      -886.891 5        31.260    20447997.835 5  83731210.49005      -886.953 5        35.933
G23         4.000    22840718.416 5 120028797.05905      2352.913 5        35.867                                    22840716.813 3  93528935.90903      1833.436 3        20.714    22840716.391 6  93528922.89906      1833.365 6        41.652
G31         5.000    23602279.543 4 124030831.75204     -3960.940 4        27.689                                    23602284.665 1  96647311.73501     -3086.528 1         7.750    23602289.374 5  96647407.70105     -3086.748 5        32.563
G28         6.000                                                                                                                                                                    24982770.651 3                     -3383.680 3        20.429
G27         7.000    23263560.858 4 122250881.64204      2316.233 4        25.985                                    23263591.053 2  95260375.51002      1804.862 2        12.303
G29         8.000                                                                                                                                                                    22436735.967 5  91874687.94005     -2694.397 5        35.124
E15        10.000    24007849.471 7 126162095.09807     -2312.360 7        47.540                                                                    24007842.011 5  94211959.25705     -1726.434 5        31.230    24007855.391 6  96669701.11806     -1771.678 6        37.180
E27        15.000    24298810.440 6 127691224.87906     -2752.761 6        37.860                                                                    24298811.769 8  95353868.40708     -2055.605 8        48.151    24298809.536 7  97841470.35707     -2109.271 7        44.104
E13        16.000    23668230.456 7 124377464.11307       554.579 7        43.238                                                                    23668230.536 7  92879270.18907       414.215 7        45.705    23668228.526 7  95302161.99607       424.962 7        44.215
R17        17.000    20778424.965 6 111189636.89706     -3756.857 6        39.535                                                                    20778421.591 6  86480627.17206     -2922.053 6        40.365
G16        18.000    21098958.076 6 110875811.53706      1146.776 6        37.384                                    21098954.774 2  86396692.75002       893.610 2        17.170
R15        20.000    21900788.298 6 117031137.89406     -5093.434 6        40.958                                                                    21900784.564 6  91024211.66906     -3961.476 6        38.520
E21        22.000    23806185.507 7 125102452.07307        65.491 7        47.897                                                                    23806184.867 7  93420597.29207        48.859 7        47.802    23806184.114 7  95857682.61807        50.207 7        46.444
S36        23.000    38141779.560 6 200436264.37906      -854.200 6        36.389
S23        24.000    38095230.577 6 200191803.38906      -856.761 6        38.610
G26        25.000    20444296.817 8 107435527.83808     -1171.523 8        49.103                                    20444289.930 6  83716010.26206      -912.872 6        38.766    20444295.197 6  83716053.26006      -912.789 6        36.495
C34        28.000                                                                                                                                    23530475.397 7 122529416.22607     -3282.054 7        45.323                                                                    23530473.622 7  99565332.78707     -2667.011 7        44.688
R19        29.000    21115964.062 4                      1865.167 4        24.586                                                                    21115956.080 6  87854767.60506      1450.177 6        36.612
R18        30.000    19186534.416 7 102419035.78007      -818.743 7        46.716                                                                    19186533.823 7  79659232.01507      -636.806 7        45.032
C21        31.000                                                                                                                                    25430867.123 5                       265.839 5        32.856
R16        33.000    19386511.052 8 103559482.83008     -1774.247 8        51.587                                                                    19386509.103 7  80546068.72707     -1379.940 7        46.348
R09        34.000    21490348.523 7 114757254.40607      2358.480 7        46.029                                                                    21490345.913 7  89255647.77107      1834.391 7        44.792
C37        36.000                                                                                                                                    23780624.632 5 123831942.20305       393.942 5        34.419                                                                    23780647.123 5 100623655.61705       320.100 5        32.509
S21        38.000    38370479.681 5 201638394.41405      -855.508 5        34.167
C28        40.000                                                                                                                                    24071500.343 6 125346612.66706      1673.522 6        37.308                                                                    24071502.353 6 101854399.88406      1359.965 6        39.240
C25        41.000                                                                                                                                    25349269.971 4                     -4313.678 4        28.758                                                                    25349243.018 4                     -3504.946 4        26.503
C43        42.000                                                                                                                                    21447334.327 8 111681924.19008     -1149.834 8        48.133                                                                    21447332.946 7  90750861.47707      -934.357 7        47.493
C11        44.000                                                                                                                                    22114618.313 8 115156630.39808     -2365.230 8        49.500    22114613.378 8  89046536.62508     -1828.993 8        49.227    22114611.379 7  93574322.55707     -1921.987 7        46.022
C13        45.000                                                                                                                                    37590500.123 7 195743706.55007      -761.854 7        44.831    37590502.473 7 151361353.20607      -589.160 7        44.287    37590499.946 6 159057747.34206      -619.201 6        38.604
C08        46.000                                                                                                                                    37660618.505 6 196108729.88106     -1025.150 6        36.412    37660611.229 6 151643668.53506      -792.943 6        37.157    37660618.892 3                      -832.778 3        23.524
C38        49.000                                                                                                                                    38735399.718 4 201705276.89204     -1473.746 4        28.967                                                                    38735377.116 6 163902043.18206     -1197.613 6        37.830
C23        55.000                                                                                                                                    22982212.379 5 119674674.17205     -2646.608 5        35.557                                                                    22982204.827 7  97245351.80107     -2150.649 7        46.438
I06        58.000    38651025.252 6 151675079.33806      -623.163 6        39.574
> 2025 01 01 18 00  5.0000000  0 35
G18         1.000    20449087.151 8 107460897.58908     -1141.146 8        49.319                                    20449080.286 5  83735639.35005      -889.212 5        30.943    20449082.580 6  83735650.35706      -889.245 6        37.176
G23         4.000    22838479.304 5 120017036.13705      2351.349 5        33.790                                    22838478.730 3  93519771.55603      1832.242 3        20.310    22838478.165 6  93519758.54306      1832.156 6        41.306
G31         5.000    23606052.816 3 124050641.00603     -3962.650 3        23.600                                    23606054.395 1  96662747.64101     -3087.801 1         6.250    23606061.883 5  96662843.45605     -3087.672 5        32.078
G28         6.000    24986837.535 3                     -4337.692 3        20.619                                                                                                    24986900.356 3                     -3381.698 3        20.000
G27         7.000    23261358.175 4 122239298.00704      2315.763 4        26.180                                    23261386.919 1  95251349.29901      1804.465 1         9.524    23261359.548 5  95251365.06215      1804.881 5        35.076
G29         8.000    22440030.871 5 117923137.90515     -3459.088 5        35.386                                    22440009.540 3                     -2695.584 3        22.305    22440026.362 6  91888161.55306     -2695.355 6        36.673
E15        10.000    24010050.476 7 126173660.75407     -2314.146 7        47.181                                                                    24010043.207 5  94220595.97205     -1728.117 5        31.811    24010050.491 6  96678563.15306     -1773.174 6        39.727
G05        11.000    23479004.067 5                     -2981.528 5        32.479                                                                                                    23479014.404 3                     -2323.724 3        22.571
E27        15.000    24301430.632 6 127704992.42606     -2754.267 6        37.921                                                                    24301431.642 8  95364149.38308     -2056.988 8        48.241    24301429.440 7  97852019.52607     -2110.607 7        44.138
E13        16.000    23667703.850 7 124374695.37407       552.666 7        44.078                                                                    23667703.616 7  92877202.64007       412.639 7        45.992    23667701.651 7  95300040.50407       423.501 7        44.190
R17        17.000    20781942.289 6 111208424.14706     -3758.279 6        40.072                                                                    20781932.276 6  86495239.47906     -2923.197 6        40.849
G16        18.000    21097867.032 6 110870084.46206      1144.096 6        36.412                                    21097864.633 2  86392230.10002       891.501 2        17.396
R15        20.000    21905553.991 6 117056608.42506     -5095.240 6        39.414                                                                    21905551.507 6  91044022.11406     -3963.004 6        39.279
E21        22.000    23806124.180 7 125102129.27507        63.466 7        47.187                                                                    23806123.424 7  93420356.23807        47.404 7        47.769    23806122.559 7  95857435.27507        48.583 7        46.344
S36        23.000    38142587.113 6 200440536.31806      -854.614 6        36.318
S23        24.000    38096043.670 6 200196087.98006      -857.175 6        38.565
G26        25.000    20445413.407 8 107441393.48408     -1174.847 8        50.160                                    20445406.866 6  83720580.89106      -915.463 6        41.042    20445412.356 6  83720623.88006      -915.477 6        37.633
R01        26.000    22931959.789 5                     -1152.576 5        31.177
C34        28.000                                                                                                                                    23533627.591 7 122545828.18207     -3282.992 7        46.335                                                                    23533625.314 7  99578668.84207     -2667.531 7        44.578
R19        29.000    21114229.198 4                      1862.697 4        29.071                                                                    21114214.767 6  87847520.65916      1448.474 6        37.743
R18        30.000    19187302.471 7 102423136.79307      -821.808 7        47.577                                                                    19187302.286 7  79662421.69207      -639.177 7        46.134
C21        31.000                                                                                                                                    25430612.375 5                       263.307 5        30.777
R16        33.000    19388173.721 8 103568365.03808     -1778.909 8        51.718                                                                    19388172.603 7  80552977.11107     -1383.607 7        47.145
R09        34.000    21488142.127 7 114745468.90507      2355.523 7        46.555                                                                    21488137.866 7  89246481.29607      1832.113 7        43.572
C37        36.000                                                                                                                                    23780251.122 5 123829978.23405       391.508 5        35.305                                                                    23780272.004 5 100622059.63805       318.339 5        33.443
S21        38.000    38371291.607 5 201642672.05005      -855.590 5        33.874
C28        40.000                                                                                                                                    24069892.663 6 125338247.41106      1672.224 6        36.079                                                                    24069896.333 6 101847602.42706      1359.118 6        40.141
C25        41.000                                                                                                                                    25353412.429 4                     -4313.593 4        27.904                                                                    25353385.824 4                     -3503.622 4        24.947
C43        42.000                                                                                                                                    21448440.035 7 111687677.30107     -1151.643 7        47.859                                                                    21448437.725 7  90755536.34007      -935.704 7        47.084
C11        44.000                                                                                                                                    22116889.790 8 115168459.73108     -2366.667 8        48.661    22116885.078 8  89055683.83108     -1830.110 8        48.852    22116883.222 7  93583934.85407     -1922.991 7        46.241
C13        45.000                                                                                                                                    37591232.085 7 195747518.47807      -763.074 7        44.615    37591234.384 7 151364300.81107      -590.007 7        44.211    37591231.956 6 159060844.82006      -619.768 6        38.694
C08        46.000                                                                                                                                    37661603.646 6 196113856.92306     -1026.060 6        37.388    37661596.359 6 151647633.08106      -793.638 6        36.628    37661604.326 4                      -833.403 4        24.556
C38        49.000                                                                                                                                    38736813.495 4 201712648.62804     -1474.756 4        27.832                                                                    38736792.590 6 163908033.30406     -1198.109 6        37.335
C23        55.000                                                                                                                                    22984755.404 6 119687913.31006     -2649.253 6        36.079                                                                    22984747.203 7  97256109.68607     -2152.642 7        45.822
I06        58.000    38651819.314 6 151678196.16506      -623.638 6        39.526
> 2025 01 01 18 00 10.0000000  0 34
G18         1.000    20450174.091 8 107466609.45008     -1143.875 8        49.271                                    20450166.438 5  83740090.16005      -891.334 5        30.725    20450169.623 6  83740101.15006      -891.306 6        39.180
G23         4.000    22836241.579 5 120005282.53405      2349.988 5        32.419                                    22836242.011 3  93510612.91803      1831.152 3        20.262    22836241.481 6  93510599.88806      1831.163 6        41.297
G31         5.000    23609835.060 3                     -3963.650 3        23.543                                                                                                    23609836.904 5  96678284.06605     -3088.677 5        30.272
G28         6.000    24990969.968 3                     -4339.834 3        20.548                                                                                                    24991024.520 3                     -3379.498 3        20.024
G27         7.000    23259155.854 4 122227718.24204      2315.381 4        26.467                                    23259183.465 1  95242325.98601      1804.279 1         8.667    23259156.557 6  95242341.71306      1804.197 6        36.756
G29         8.000    22443323.036 6 117940434.54206     -3459.909 6        37.569                                    22443303.333 4  91901565.45214     -2696.031 4        24.331    22443318.020 6  91901639.44606     -2696.135 6        37.792
E15        10.000    24012253.138 7 126185234.48407     -2315.645 7        46.613                                                                    24012249.524 5  94229238.66205     -1729.332 5        33.425    24012252.096 6  96687431.33206     -1774.422 6        41.650
E27        15.000    24304051.744 6 127718768.44306     -2756.109 6        37.471                                                                    24304053.140 8  95374436.64808     -2058.089 8        48.376    24304051.091 7  97862575.15807     -2111.782 7        44.156
E13        16.000    23667178.567 7 124371936.08907       550.737 7        44.187                                                                    23667178.421 7  92875142.12607       411.379 7        45.952    23667176.422 7  95297926.23807       421.988 7        44.179
R17        17.000    20785457.309 6 111227218.11006     -3759.673 6        39.958                                                                    20785445.021 6  86509857.03306     -2924.217 6        41.390
G16        18.000    21096781.071 6 110864370.41606      1141.802 6        36.284                                    21096776.960 2  86387777.59602       889.695 2        17.132
R15        20.000    21910319.723 6 117082087.39706     -5096.792 6        38.096                                                                    21910319.149 6  91063839.09106     -3964.150 6        39.030
E21        22.000    23806064.438 7 125101815.91907        61.712 7        46.299                                                                    23806063.763 7  93420122.23407        46.027 7        47.713    23806062.777 7  95857195.16407        47.246 7        46.182
S36        23.000    38143399.208 6 200444808.85106      -854.777 6        36.234
S23        24.000    38096860.010 6 200200372.80906      -857.125 6        38.562
G26        25.000    20446532.921 8 107447275.03908     -1178.029 8        50.714                                    20446526.922 7  83725163.91707      -917.944 7        42.950    20446531.885 6  83725206.90906      -918.044 6        39.114
R01        26.000    22933047.561 5                     -1157.178 5        33.742
C34        28.000                                                                                                                                    23536779.897 7 122562243.78007     -3283.540 7        47.225                                                                    23536777.702 7  99592007.88107     -2668.281 7        44.271
R19        29.000    21112493.743 4                      1860.297 4        29.393                                                                    21112473.267 6  87840282.00816      1446.834 6        37.796
R18        30.000    19188073.657 8 102427252.12608      -824.564 8        48.085                                                                    19188072.985 7  79665622.50907      -641.353 7        46.354
C21        31.000                                                                                                                                    25430358.780 4                       260.733 4        29.280
R16        33.000    19389841.026 8 103577270.14308     -1783.406 8        52.065                                                                    19389840.107 7  80559903.29707     -1387.120 7        47.882
R09        34.000    21485938.768 8 114733697.56608      2352.793 8        48.058                                                                    21485933.151 7  89237325.81607      1829.958 7        42.711
C37        36.000                                                                                                                                    23779872.344 6 123828027.54106       388.836 6        36.159                                                                    23779895.518 5 100620474.44305       315.777 5        33.826
S21        38.000    38372108.246 5 201646950.06805      -856.053 5        33.928
C28        40.000                                                                                                                                    24068290.652 6 125329886.90106      1671.475 6        36.454                                                                    24068291.105 6 101840808.83906      1358.065 6        40.956
C25        41.000                                                                                                                                    25357553.853 4                     -4313.839 4        25.880                                                                    25357530.428 3                     -3504.148 3        23.657
C43        42.000                                                                                                                                    21449547.041 7 111693438.86307     -1153.245 7        47.686                                                                    21449544.148 7  90760218.08907      -937.236 7        46.597
C11        44.000                                                                                                                                    22119161.678 7 115180295.59107     -2367.910 7        47.425    22119157.980 8  89064836.06708     -1831.014 8        48.670    22119156.369 7  93593552.46207     -1924.175 7        46.585
C13        45.000                                                                                                                                    37591965.103 7 195751335.49107      -763.942 7        44.355    37591967.628 7 151367252.35807      -590.755 7        44.167    37591965.154 6 159063946.46406      -620.948 6        39.033
C08        46.000                                                                                                                                    37662589.407 6 196118989.28806     -1027.180 6        37.350    37662581.525 5 151651601.71005      -794.086 5        35.667    37662591.396 4                      -834.804 4        24.105
C38        49.000                                                                                                                                    38738230.019 4 201720024.58104     -1475.924 4        28.076                                                                    38738209.124 6 163914026.88406     -1198.991 6        37.285
C23        55.000                                                                                                                                    22987302.391 6 119701164.49206     -2651.596 6        38.793                                                                    22987291.920 7  97266877.40607     -2154.785 7        45.341
I06        58.000    38652613.661 6 151681312.97806      -623.415 6        39.504
> 2025 01 01 18 00 15.0000000  0 35
G18         1.000    20451263.663 8 107472335.31008     -1146.808 8        48.856                                    20451255.542 5  83744551.86505      -893.615 5        30.679    20451258.578 6  83744562.85106      -893.563 6        39.267
G23         4.000    22834008.934 5 119993536.15005      2348.076 5        33.874                                    22834006.504 3  93501459.89503      1829.683 3        19.970    22834006.253 6  93501446.87006      1829.784 6        41.390
G31         5.000    23613607.383 4                     -3965.306 4        24.361                                                                                                    23613614.192 4  96693729.45704     -3089.780 4        28.303
G28         6.000    24995099.976 3                     -4340.731 3        21.000
G27         7.000    23256952.319 4 122216142.16104      2314.575 4        25.684                                    23256980.623 1  95233305.59001      1803.632 1         9.619    23256953.493 6  95233321.36506      1803.651 6        38.069
G29         8.000    22446616.238 6 117957736.63106     -3460.994 6        39.760                                    22446599.817 4  91915047.58204     -2696.879 4        27.198    22446610.329 6  91915121.58006     -2697.071 6        38.727
E15        10.000    24014457.272 7 126196816.19307     -2317.402 7        46.723                                                                    24014459.985 5  94237887.27605     -1730.273 5        35.505    24014456.859 7  96696305.62607     -1775.654 7        43.130
G05        11.000    23484695.061 4                     -2987.359 4        26.168                                                                                                    23484713.791 4                     -2328.573 4        24.602
E27        15.000    24306674.790 6 127732552.77806     -2757.666 6        37.550                                                                    24306676.304 8  95384730.16208     -2059.461 8        48.677    24306674.318 7  97873137.19507     -2113.139 7        44.393
E13        16.000    23666654.946 7 124369186.14707       548.736 7        44.445                                                                    23666655.038 7  92873088.60207       409.791 7        46.134    23666653.238 7  95295819.15107       420.533 7        44.239
R17        17.000    20788970.964 6 111246018.65006     -3761.055 6        41.299                                                                    20788958.153 6  86524479.66006     -2925.205 6        40.963
G16        18.000    21095699.091 6 110858669.35806      1138.905 6        36.121                                    21095691.702 2  86383335.21402       887.451 2        17.396
R15        20.000    21915087.383 6 117107574.95706     -5098.548 6        37.747                                                                    21915088.213 6  91083662.74806     -3965.408 6        38.628
E21        22.000    23806006.652 7 125101511.93007        59.603 7        45.690                                                                    23806005.838 7  93419895.21307        44.530 7        47.565    23806004.782 7  95856962.21707        45.692 7        45.881
S36        23.000    38144214.765 6 200449082.25606      -854.791 6        36.159
S23        24.000    38097673.934 6 200204657.78106      -857.155 6        38.243
G26        25.000    20447655.157 8 107453172.42708     -1181.242 8        51.249                                    20447650.028 7  83729759.28007      -920.446 7        44.573    20447654.404 6  83729802.28306      -920.445 6        40.410
R01        26.000    22934131.594 5 122596069.79515     -1161.595 5        32.192
C34        28.000                                                                                                                                    23539932.954 8 122578662.96508     -3284.438 8        48.079                                                                    23539930.923 7  99605349.79007     -2668.897 7        43.983
R19        29.000    21110761.504 4                      1858.043 4        27.413                                                                    21110734.660 6  87833051.64516      1445.171 6        36.386
R18        30.000    19188847.320 7 102431381.70307      -827.562 7        47.247                                                                    19188846.297 7  79668834.40007      -643.644 7        45.272
C21        31.000                                                                                                                                    25430108.709 4                       258.089 4        28.398
R16        33.000    19391512.326 8 103586197.99008     -1788.029 8        51.732                                                                    19391511.168 8  80566847.18508     -1390.714 8        48.640
R09        34.000    21483737.788 8 114721940.34308      2349.833 8        48.596                                                                    21483731.739 7  89228181.32507      1827.734 7        42.425
C37        36.000                                                                                                                                    23779495.458 6 123826089.98606       386.007 6        36.193                                                                    23779521.662 5 100618899.94205       313.473 5        34.157
S21        38.000    38372921.437 5 201651228.48105      -856.008 5        33.994
C28        40.000                                                                                                                                    24066687.015 6 125321531.05706      1670.511 6        36.541                                                                    24066686.754 6 101834019.00906      1357.310 6        41.507
C25        41.000                                                                                                                                    25361696.212 4                     -4314.513 4        25.143                                                                    25361675.242 3                     -3505.476 3        23.524
C43        42.000                                                                                                                                    21450655.826 7 111699208.76207     -1155.086 7        47.652                                                                    21450652.001 7  90764906.59507      -938.605 7        46.103
C11        44.000                                                                                                                                    22121433.885 7 115192137.87907     -2369.282 7        45.878    22121432.280 8  89073993.27808     -1832.031 8        48.707    22121430.756 7  93603175.28407     -1925.386 7        46.730
C13        45.000                                                                                                                                    37592699.511 7 195755157.45107      -765.015 7        44.233    37592701.539 7 151370207.74307      -591.624 7        44.008    37592699.052 6 159067052.10706      -621.873 6        38.946
C08        46.000                                                                                                                                    37663576.320 6 196124126.85006     -1028.199 6        37.338    37663567.865 5 151655574.40605      -795.280 5        35.148    37663578.999 3                      -833.878 3        23.657
C38        49.000                                                                                                                                    38739645.759 4 201727404.49904     -1476.406 4        29.469                                                                    38739626.382 6 163920023.75406     -1200.198 6        36.752
C23        55.000                                                                                                                                    22989850.239 6 119714427.71806     -2653.999 6        40.598                                                                    22989838.892 7  97277654.87207     -2156.658 7        44.868
I06        58.000    38653408.185 6 151684429.71806      -623.332 6        39.330
> 2025 01 01 18 00 20.0000000  0 35
G18         1.000    20452355.612 8 107478075.01308     -1149.628 8        48.163                                    20452347.597 5  83749024.34805      -895.814 5        30.672    20452351.099 6  83749035.34806      -895.759 6        39.604
G23         4.000    22831779.022 6 119981796.81906      2346.769 6        36.605                                    22831772.173 3  93492312.42103      1828.645 3        20.548    22831772.572 6  93492299.41106      1828.695 6        41.058
G31         5.000    23617380.941 4                     -3965.203 4        25.383
G28         6.000    24999226.604 3                     -4339.560 3        20.238
G27         7.000                                                                                                                                                                    23254751.009 6  95224303.82906      1803.080 6        39.015
G29         8.000    22449909.068 6 117975044.17706     -3462.320 6        41.137                                    22449896.673 5  91928533.98205     -2697.912 5        30.000    22449903.381 6  91928607.96706     -2697.924 6        38.817
E15        10.000    24016662.729 7 126208405.77107     -2319.020 7        47.050                                                                    24016671.011 6  94246541.77206     -1731.659 6        37.304    24016663.251 7  96705185.95807     -1776.897 7        44.250
G05        11.000    23487531.796 4                     -2990.858 4        25.489                                                                                                    23487554.000 3                     -2329.332 3        22.590
E34        12.000                                                                                                                                    28078264.698 3                     -2807.141 3        19.403
E27        15.000    24309299.454 6 127746345.37806     -2759.817 6        38.336                                                                    24309300.985 8  95395029.80508     -2060.725 8        48.584    24309299.044 7  97883705.53607     -2114.518 7        44.769
E13        16.000    23666133.221 7 124366445.44607       546.945 7        44.585                                                                    23666133.571 7  92871041.96907       408.461 7        46.130    23666131.787 7  95293719.13607       419.133 7        44.432
R17        17.000    20792488.674 7 111264825.73307     -3762.532 7        42.303                                                                    20792471.912 6  86539107.37306     -2926.430 6        40.124
G16        18.000    21094615.980 5 110852981.14905      1135.788 5        34.976                                    21094609.059 2  86378902.85302       885.050 2        17.019
R15        20.000    21919858.559 6 117133070.66306     -5100.399 6        38.745                                                                    21919859.921 6  91103492.74506     -3966.826 6        37.989
E21        22.000    23805950.359 7 125101217.17007        57.717 7        45.160                                                                    23805949.592 7  93419675.10407        43.158 7        47.308    23805948.580 7  95856736.36207        44.284 7        45.758
S36        23.000    38145028.180 6 200453354.96406      -854.672 6        36.117
S23        24.000    38098485.856 6 200208942.84606      -857.221 6        38.012
G26        25.000    20448780.560 8 107459085.51208     -1184.545 8        51.980                                    20448776.064 7  83734366.87607      -923.021 7        46.225    20448779.183 6  83734409.87006      -922.999 6        41.912
R01        26.000    22935220.177 5 122601887.66705     -1165.935 5        31.872
C34        28.000                                                                                                                                    23543086.458 8 122595085.58308     -3285.150 8        48.782                                                                    23543084.577 7  99618694.52707     -2669.286 7        43.585
R19        29.000    21109026.778 4                      1857.013 4        26.683                                                                    21108996.907 5  87825829.41905      1443.300 5        34.486
R18        30.000    19189622.555 7 102435525.34807      -830.440 7        46.090                                                                    19189621.885 7  79672057.24207      -645.873 7        44.412
R16        33.000    19393187.129 8 103595148.41208     -1792.659 8        51.295                                                                    19393186.644 8  80573808.63308     -1394.302 8        48.839
R09        34.000    21481538.743 8 114710197.03308      2347.012 8        48.119                                                                    21481533.185 7  89219047.68707      1825.499 7        42.885
C37        36.000                                                                                                                                    23779126.654 5 123824165.38305       383.298 5        35.700                                                                    23779152.277 5 100617335.97905       311.602 5        33.605
S21        38.000    38373738.577 5 201655506.75705      -855.950 5        33.665
C28        40.000                                                                                                                                    24065082.893 6 125313179.74006      1669.641 6        36.896                                                                    24065082.824 6 101827232.89606      1356.704 6        41.833
C25        41.000                                                                                                                                    25365839.747 3                     -4314.567 3        23.771                                                                    25365819.989 3                     -3506.419 3        21.619
C43        42.000                                                                                                                                    21451766.096 7 111704986.88807     -1156.697 7        47.882                                                                    21451761.474 7  90769601.79707      -939.731 7        45.332
C11        44.000                                                                                                                                    22123707.932 7 115203986.46407     -2370.608 7        44.883    22123707.662 8  89083155.37008     -1833.099 8        48.545    22123706.195 7  93612803.24507     -1926.189 7        46.782
C13        45.000                                                                                                                                    37593434.378 7 195758984.23507      -766.210 7        43.746    37593436.155 7 151373166.84507      -592.471 7        43.795    37593434.142 6 159070161.67706      -622.494 6        39.072
C08        46.000                                                                                                                                    37664563.523 6 196129269.45906     -1029.169 6        37.289    37664555.236 5 151659551.00305      -795.763 5        34.490    37664567.791 4                      -834.780 4        24.376
C38        49.000                                                                                                                                    38741064.513 5 201734788.32405     -1476.930 5        30.045                                                                    38741044.100 6 163926023.75906     -1200.463 6        36.072
C23        55.000                                                                                                                                    22992398.745 6 119727702.83706     -2656.470 6        41.616                                                                    22992387.986 7  97288442.02607     -2158.564 7        44.299
I06        58.000    38654202.223 6 151687546.33406      -623.409 6        39.562
> 2025 01 01 18 00 25.0000000  0 34
G18         1.000    20453450.255 7 107483828.79607     -1152.017 7        47.646                                    20453442.599 5  83753507.82105      -897.677 5        30.845    20453445.645 6  83753518.81606      -897.541 6        41.242
G23         4.000    22829546.547 6 119970064.93806      2345.660 6        37.353                                    22829539.295 3  93483170.69503      1827.788 3        21.786    22829540.006 6  93483157.68506      1827.926 6        40.908
G31         5.000    23621157.275 4                     -3967.662 4        27.269
G28         6.000    25003357.552 3                     -4341.820 3        20.381
G27         7.000    23252546.782 4 122193000.88904      2313.845 4        26.323                                    23252576.732 2  95215273.36502      1803.021 2        12.424    23252549.710 6  95215289.24106      1802.766 6        39.156
G29         8.000    22453203.221 7 117992357.20207     -3462.869 7        42.489                                    22453193.905 5  91942024.65305     -2698.333 5        32.078    22453196.869 6  91942098.65806     -2698.500 6        38.601
E15        10.000    24018869.607 7 126220003.42607     -2320.212 7        47.094                                                                    24018876.210 6  94255202.37406     -1732.668 6        38.901    24018870.353 7  96714072.47407     -1777.717 7        45.242
G05        11.000    23490381.664 4                     -2993.198 4        27.461
E27        15.000    24311926.347 6 127760146.39206     -2760.825 6        39.267                                                                    24311927.056 8  95405335.75208     -2061.652 8        48.590    24311925.397 7  97894280.33807     -2115.435 7        45.100
E13        16.000    23665614.064 7 124363714.20207       545.550 7        44.390                                                                    23665613.928 7  92869002.41907       407.276 7        46.452    23665612.201 7  95291626.37807       417.941 7        44.498
R17        17.000    20796010.744 6 111283639.45306     -3763.191 6        40.687                                                                    20795988.678 6  86553740.25506     -2926.747 6        38.937
G16        18.000    21093531.190 5 110847306.05105      1133.867 5        34.767                                    21093528.836 2  86374480.67302       883.545 2        15.429
R15        20.000    21924632.466 6 117158575.09906     -5101.514 6        41.116                                                                    21924633.625 6  91123329.54806     -3967.946 6        38.408
E21        22.000    23805895.978 7 125100931.86307        56.282 7        44.683                                                                    23805895.220 7  93419462.05707        42.039 7        47.405    23805894.242 7  95856517.75207        43.164 7        45.512
S36        23.000    38145839.954 6 200457627.83706      -854.391 6        36.397
S23        24.000    38099306.882 6 200213228.28706      -856.782 6        38.402
G26        25.000    20449908.937 8 107465014.49008     -1187.227 8        52.339                                    20449905.059 7  83738986.85007      -925.109 7        47.591    20449907.247 7  83739029.85007      -925.145 7        43.172
R01        26.000    22936312.735 5 122607727.41405     -1170.005 5        31.328
C34        28.000                                                                                                                                    23546240.744 8 122611511.85708     -3285.486 8        49.368                                                                    23546239.098 7  99632042.22007     -2669.691 7        43.010
R19        29.000    21107286.043 4                      1853.348 4        24.977                                                                    21107264.544 5                      1441.801 5        32.317
R18        30.000    19190401.398 7 102439683.30807      -832.837 7        45.628                                                                    19190400.922 7  79675291.23207      -647.796 7        44.408
R16        33.000    19394867.157 8 103604121.73108     -1796.749 8        51.746                                                                    19394866.376 8  80580787.87408     -1397.498 8        48.863
R09        34.000    21479341.489 7 114698467.92207      2344.571 7        47.525                                                                    21479335.992 7  89209925.03907      1823.631 7        43.596
C37        36.000                                                                                                                                    23778761.407 5 123822254.02405       381.018 5        34.705                                                                    23778787.114 5 100615782.77605       309.324 5        32.617
S21        38.000    38374545.790 5 201659785.03205      -855.373 5        33.269
C28        40.000                                                                                                                                    24063479.583 6 125304833.22206      1668.842 6        37.130                                                                    24063479.776 6 101820450.64506      1356.062 6        41.979
C25        41.000                                                                                                                                    25369980.367 3                     -4314.365 3        23.714                                                                    25369961.440 3                     -3504.956 3        20.833
C43        42.000                                                                                                                                    21452877.320 8 111710773.44308     -1157.961 8        48.501                                                                    21452872.352 7  90774303.86007      -941.098 7        44.460
C11        44.000                                                                                                                                    22125985.383 7 115215841.52707     -2371.407 7        44.355    22125984.077 8  89092322.46408     -1833.807 8        48.448    22125982.938 7  93622436.45707     -1927.037 7        46.685
C13        45.000                                                                                                                                    37594169.691 7 195762816.10407      -766.853 7        43.354    37594171.986 7 151376129.88207      -592.845 7        43.460    37594169.852 6 159073275.38206      -623.149 6        39.228
C08        46.000                                                                                                                                    37665551.915 6 196134417.45106     -1029.901 6        36.911    37665543.562 5 151663531.74205      -796.520 5        34.000    37665557.705 3                      -836.829 3        23.238
C38        49.000                                                                                                                                    38742482.873 5 201742176.34805     -1477.859 5        30.672                                                                    38742462.483 5 163932027.10005     -1200.748 5        35.719
C23        55.000                                                                                                                                    22994948.805 7 119740990.04907     -2658.447 7        42.002                                                                    22994939.672 7  97299238.98207     -2160.284 7        43.890
I06        58.000    38654996.248 6 151690662.94306      -623.220 6        39.559
> 2025 01 01 18 00 30.0000000  0 34
G18         1.000    20454547.615 7 107489596.22807     -1155.025 7        47.185                                    20454540.490 5  83758001.91705      -900.019 5        30.928    20454543.493 7  83758012.93007      -899.977 7        43.147
G23         4.000    22827314.410 6 119958340.00806      2344.246 6        37.921                                    22827307.607 3  93474034.37303      1826.673 3        22.667    22827308.854 6  93474021.37706      1826.615 6        40.894
G31         5.000    23624935.363 4                     -3968.300 4        25.368
G28         6.000    25007487.564 3                     -4338.980 3        19.731
G27         7.000    23250349.673 4 122181435.62304      2312.489 4        28.171                                    23250375.482 2  95206261.41302      1801.948 2        12.788    23250348.604 6  95206277.30106      1802.202 6        38.880
G29         8.000    22456498.629 7 118009675.28507     -3464.325 7        42.487                                    22456491.588 5  91955519.27005     -2699.475 5        33.269    22456492.957 6  91955593.26806     -2699.312 6        38.811
E15        10.000    24021077.889 7 126231608.68707     -2321.966 7        46.915                                                                    24021080.151 6  94263868.65006     -1734.012 6        40.346    24021078.975 7  96722964.83407     -1779.203 7        46.170
G05        11.000    23493235.891 4                     -2996.122 4        29.943
E27        15.000    24314554.932 6 127773955.42406     -2762.790 6        40.355                                                                    24314554.636 8  95415647.68008     -2063.102 8        48.395    24314553.370 7  97904861.28007     -2116.964 7        45.672
E13        16.000    23665096.615 7 124360992.01107       543.350 7        44.299                                                                    23665096.187 7  92866969.60407       405.787 7        46.638    23665094.359 7  95289540.53907       416.376 7        44.959
R17        17.000    20799529.849 6 111302459.37906     -3764.633 6        36.155                                                                    20799505.936 6  86568377.97306     -2928.017 6        37.149
G16        18.000    21092455.693 5 110841643.62505      1131.012 5        35.690                                    21092451.117 2  86370068.39402       881.329 2        14.286
R15        20.000    21929408.368 7 117184087.48107     -5103.526 7        42.931                                                                    21929407.696 6  91143172.47106     -3969.276 6        39.390
E21        22.000    23805843.615 7 125100655.59907        54.131 7        44.588                                                                    23805842.710 7  93419255.75807        40.457 7        47.230    23805841.572 7  95856306.07507        41.518 7        45.457
S36        23.000    38146655.287 6 200461900.55506      -854.665 6        36.378
S23        24.000    38100121.817 6 200217513.71806      -857.420 6        38.474
G26        25.000    20451040.014 8 107470958.96908     -1190.643 8        52.434                                    20451036.956 8  83743618.90508      -927.773 8        48.606    20451038.780 7  83743661.90407      -927.789 7        44.072
R01        26.000    22937414.805 4 122613588.52604     -1174.626 4        27.150
C34        28.000                                                                                                                                    23549395.763 8 122627941.35508     -3286.437 8        49.614                                                                    23549394.021 7  99645392.52407     -2670.509 7        42.686
R19        29.000                                                                                                                                    21105532.744 5  87811409.63315      1440.234 5        32.527
R18        30.000    19191183.160 7 102443855.11407      -835.912 7        45.317                                                                    19191182.320 7  79678535.97107      -650.104 7        43.570
R16        33.000    19396551.482 8 103613117.46208     -1801.557 8        51.368                                                                    19396550.303 8  80587784.55308     -1401.206 8        48.655
R09        34.000    21477146.939 7 114686752.62407      2341.602 7        45.911                                                                    21477142.174 7  89200813.17307      1821.223 7        44.406
C37        36.000                                                                                                                                    23778397.447 5 123820355.43505       378.134 5        32.653                                                                    23778424.134 5 100614239.83905       307.194 5        32.401
S21        38.000    38375364.893 5 201664063.05605      -855.951 5        32.910
C28        40.000                                                                                                                                    24061877.296 6 125296491.03906      1667.712 6        36.771                                                                    24061877.679 7 101813671.90307      1355.333 7        42.087
C25        41.000                                                                                                                                    25374121.845 3                     -4313.862 3        20.190                                                                    25374105.364 3                     -3505.440 3        21.429
