     3.04           OBSERVATION DATA    M                   RINEX VERSION / TYPE
ssrcrin-15.6.1x                         20250102 174500 UTC PGM / RUN BY / DATE 
(00000000023479385599111004) Septentrio proprietary         COMMENT             
ract                                                        MARKER NAME         
01                                                          MARKER NUMBER       
geodetic                                                    MARKER TYPE         
NFB                 CLIMERS@TUW                             OBSERVER / AGENCY   
3296359             SEPT ASTERX SB3 PROB4.14.4              REC # / TYPE / VERS 
Unknown             Unknown                                 ANT # / TYPE        
  4127445.1701  1206914.7932  4695541.3990                  APPROX POSITION XYZ 
        0.0000        0.0000        0.0000                  ANTENNA: DELTA H/E/N
G   23 X1  C1C L1C D1C S1C C1W S1W C2W L2W D2W S2W C2L L2L  SYS / # / OBS TYPES 
       D2L S2L C5Q L5Q D5Q S5Q C1L L1L D1L S1L              SYS / # / OBS TYPES 
E   21 X1  C1C L1C D1C S1C C6C L6C D6C S6C C5Q L5Q D5Q S5Q  SYS / # / OBS TYPES 
       C7Q L7Q D7Q S7Q C8Q L8Q D8Q S8Q                      SYS / # / OBS TYPES 
S    9 X1  C1C L1C D1C S1C C5I L5I D5I S5I                  SYS / # / OBS TYPES 
R   17 X1  C1C L1C D1C S1C C2P L2P D2P S2P C2C L2C D2C S2C  SYS / # / OBS TYPES 
       C3Q L3Q D3Q S3Q                                      SYS / # / OBS TYPES 
C   25 X1  C1P L1P D1P S1P C5P L5P D5P S5P C2I L2I D2I S2I  SYS / # / OBS TYPES 
       C7I L7I D7I S7I C6I L6I D6I S6I C7D L7D D7D S7D      SYS / # / OBS TYPES 
J   17 X1  C1C L1C D1C S1C C2L L2L D2L S2L C5Q L5Q D5Q S5Q  SYS / # / OBS TYPES 
       C1L L1L D1L S1L                                      SYS / # / OBS TYPES 
I    5 X1  C5A L5A D5A S5A                                  SYS / # / OBS TYPES 
SEPTENTRIO RECEIVERS OUTPUT ALIGNED CARRIER PHASES.         COMMENT             
NO FURTHER PHASE SHIFT APPLIED IN THE RINEX ENCODER.        COMMENT             
G L1C                                                       SYS / PHASE SHIFT   
G L2W                                                       SYS / PHASE SHIFT   
G L2L  0.00000                                              SYS / PHASE SHIFT   
G L5Q  0.00000                                              SYS / PHASE SHIFT   
G L1L  0.00000                                              SYS / PHASE SHIFT   
E L1C  0.00000                                              SYS / PHASE SHIFT   
E L6C  0.00000                                              SYS / PHASE SHIFT   
E L5Q  0.00000                                              SYS / PHASE SHIFT   
E L7Q  0.00000                                              SYS / PHASE SHIFT   
E L8Q  0.00000                                              SYS / PHASE SHIFT   
S L1C                                                       SYS / PHASE SHIFT   
S L5I                                                       SYS / PHASE SHIFT   
R L1C                                                       SYS / PHASE SHIFT   
R L2P  0.00000                                              SYS / PHASE SHIFT   
R L2C                                                       SYS / PHASE SHIFT   
R L3Q  0.00000                                              SYS / PHASE SHIFT   
C L1P  0.00000                                              SYS / PHASE SHIFT   
C L5P  0.00000                                              SYS / PHASE SHIFT   
C L2I                                                       SYS / PHASE SHIFT   
C L7I                                                       SYS / PHASE SHIFT   
C L6I                                                       SYS / PHASE SHIFT   
C L7D                                                       SYS / PHASE SHIFT   
J L1C                                                       SYS / PHASE SHIFT   
J L2L  0.00000                                              SYS / PHASE SHIFT   
J L5Q  0.00000                                              SYS / PHASE SHIFT   
J L1L  0.00000                                              SYS / PHASE SHIFT   
I L5A                                                       SYS / PHASE SHIFT   
  2025     1     2    17    45    0.0000000     GPS         TIME OF FIRST OBS   
 C1C    0.000 C2C    0.000 C2P    0.000                     GLONASS COD/PHS/BIS 
DBHZ                                                        SIGNAL STRENGTH UNIT
    18                                                      LEAP SECONDS        
 24 R01  1 R02 -4 R03  5 R04  6 R05  1 R06 -4 R07  5 R08  6 GLONASS SLOT / FRQ #
    R09 -2 R10 -7 R11  0 R12 -1 R13 -2 R14 -7 R15  0 R16 -1 GLONASS SLOT / FRQ #
    R17  4 R18 -3 R19  3 R20  2 R21  4 R22 -3 R23  3 R24  2 GLONASS SLOT / FRQ #
                                                            END OF HEADER       
> 2025 01 02 17 45  0.0000000  0 37
G23         2.000    23365697.215 5                      2503.754 5        30.868                                                                                                    23365689.097 6  95678649.08206      1951.242 6        36.140
G05         4.000                                                                                                                                                                    23350660.778 4                     -2020.602 4        28.578
E25         6.000    26191065.003 5 137634910.03805     -3589.962 5        31.879                                                                    26191067.865 5 102779347.45905     -2680.990 5        32.204    26191057.103 6 105460587.35706     -2750.704 6        36.314
G31         7.000    23343502.009 5 122670848.58405     -3790.735 5        30.513                                    23343479.264 1  95587634.19501     -2953.937 1         7.250    23343476.881 4                     -2953.684 4        25.895
G28         8.000    24661947.565 5 129599381.71405     -4344.779 5        34.381                                    24661941.870 2 100986526.65002     -3385.523 2        12.364    24661943.405 6 100986533.66506     -3385.679 6        37.259
G29         9.000    22235532.817 7 116848628.19807     -3321.369 7        42.504                                    22235524.543 4  91050793.08604     -2588.073 4        28.635    22235524.396 5  91050758.06905     -2587.942 5        35.114
E11        10.000    25784978.576 5 135501013.75705     -3283.544 5        31.849                                                                    25784985.166 4 101185786.65504     -2451.938 4        29.071    25784985.186 5 103825423.40805     -2516.143 5        33.269
G18        12.000    20551820.118 8 108000766.43608      -777.005 8        49.657                                    20551816.747 6  84156319.24106      -605.455 6        38.634    20551816.242 8  84156283.23708      -605.444 8        48.023
G27        13.000    23780871.262 4 124969319.45904      2393.396 4        26.108                                    23780871.329 2  97378607.03802      1864.976 2        15.524    23780869.379 5                      1864.954 5        30.294
G26        17.000    20547269.388 7 107976669.48807      -770.123 7        45.306                                    20547267.269 7  84138062.75207      -600.097 7        43.357    20547268.351 7  84137636.75907      -600.051 7        42.512
R02        18.000                                                                                                                                    23213867.429 4                      -412.534 4        27.114
E30        19.000    25357087.969 7 133252541.06507      1184.672 7        47.205                                                                    25357086.543 7  99506821.36307       884.638 7        44.483    25357087.833 8 102102592.92608       907.734 8        48.013
R20        20.000    22392865.964 3                      2493.160 3        20.833                                                                    22392883.965 5  93134736.95505      1939.491 5        33.545
E02        21.000    23317425.943 7 122534161.64107     -1496.593 7        47.833                                                                    23317425.181 8  91502690.76808     -1117.592 8        48.850    23317425.335 8  93889725.44508     -1146.761 8        49.751
S23        22.000    38211982.277 6 200805353.52406      -866.299 6        38.574
R10        23.000    21507109.639 7 114645018.50907      2284.634 7        44.117
E36        24.000    23434136.519 8 123147247.24508      -942.672 8        48.279                                                                    23434137.236 8  91960773.38008      -703.926 8        50.124    23434136.773 8  94359731.95208      -722.305 8        49.452
R18        25.000    20884074.845 8 111480567.11908     -3838.814 8        50.051                                                                    20884072.716 5  86707122.30305     -2985.655 5        33.192
G16        26.000    21483846.695 7 112898444.16407      1455.400 7        46.054                                    21483842.378 3  87972801.59603      1134.071 3        23.905
S21        27.000    38487092.036 5 202251232.87805      -863.779 5        35.252
R19        29.000    19392284.198 6 103735644.32606     -1199.920 6        39.730                                                                    19392283.668 7  80683598.85907      -933.305 7        42.823
S36        31.000    38257842.987 5 201046289.66605      -862.972 5        35.757
E34        32.000    25253730.765 7 132709226.16207      1588.255 7        43.699                                                                    25253724.117 6  99101039.50306      1186.188 6        40.236    25253727.008 7 101686345.83707      1216.957 7        42.536
R16        34.000    21480524.873 6 114745292.25206     -4863.910 6        40.122                                                                    21480528.663 6  89246247.09706     -3783.098 6        37.611
C44        35.000                                                                                                                                    22877642.622 7 119129830.72207     -2989.276 7        46.367                                                                    22877638.943 5  96802970.72205     -2428.906 5        31.940
R09        37.000    19445508.280 7 103838026.53407     -1037.559 7        46.499                                                                    19445508.564 7  80762943.32407      -807.002 7        44.695
C11        38.000                                                                                                                                    22676289.554 7 118081424.55407       927.127 7        43.120    22676289.156 7  91308159.27007       716.986 7        47.020    22676286.770 7  95950804.05907       753.387 7        43.683
C12        41.000                                                                                                                                    21961387.351 8 114358796.99708     -1886.008 8        49.951    21961381.915 8  88429485.34008     -1458.379 8        49.937    21961381.190 7  92925881.42907     -1532.481 7        46.097
C13        43.000                                                                                                                                    37725983.678 6 196449116.44206      -642.163 6        41.952    37725985.009 7 151906937.04307      -496.546 7        43.824    37725984.161 7 159630998.13307      -521.817 7        42.669
C38        44.000                                                                                                                                    38783611.093 6 201956445.90406     -1377.750 6        38.841                                                                    38783609.915 6 164106141.89906     -1119.515 6        39.586
C25        45.000                                                                                                                                    22409959.545 7 116694605.69207     -1914.690 7        46.525                                                                    22409956.207 7  94824101.28707     -1555.849 7        42.049
C08        46.000                                                                                                                                    37761586.344 6 196634525.44406      -895.219 6        37.017    37761575.050 4 152050337.48204      -692.723 4        26.683    37761576.131 4 159781634.70004      -727.312 4        29.545
C23        47.000                                                                                                                                    24602311.599 7 128111025.10207      1125.664 7        44.331                                                                    24602304.339 7 104100570.70607       914.781 7        46.316
C43        48.000                                                                                                                                                                                                                                                                    24400073.037 4 103244712.19804      1405.053 4        28.872
C24        51.000                                                                                                                                    24507364.997 6 127616304.17206     -4168.118 6        38.270                                                                    24507364.595 6 103698687.40606     -3387.071 6        41.051
C34        52.000                                                                                                                                    21517650.640 7 112048121.08007      -238.605 7        43.122                                                                    21517650.189 7  91048358.69707      -193.776 7        45.564
I06        58.000    38771319.661 6 152147104.95606      -635.716 6        36.594
> 2025 01 02 17 45  5.0000000  0 37
G23         2.000    23363312.615 5                      2502.947 5        31.283                                                                                                    23363306.068 5  95668895.12805      1950.498 5        34.981
G05         4.000                                                                                                                                                                    23353131.032 4                     -2023.509 4        28.256
E25         6.000    26194479.918 5 137652861.92205     -3590.560 5        30.234                                                                    26194480.352 5 102792753.11105     -2681.777 5        33.108    26194472.782 6 105474342.69506     -2751.512 6        37.259
G31         7.000    23347115.290 5 122689806.52305     -3792.516 5        31.713                                    23347086.151 1  95602406.62201     -2955.239 1         7.500    23347080.879 3                     -2955.458 3        21.310
G28         8.000    24666081.111 5 129621107.00705     -4344.938 5        33.826                                    24666076.099 2 101003455.41802     -3385.665 2        12.727    24666078.497 6 101003462.45106     -3385.956 6        36.794
G29         9.000    22238694.540 7 116865238.12807     -3322.601 7        42.773                                    22238684.455 4  91063735.87904     -2589.037 4        28.493    22238685.248 5  91063700.87705     -2589.348 5        34.929
E11        10.000    25788104.029 5 135517434.08505     -3284.437 5        32.335                                                                    25788108.139 4 101198048.59104     -2452.609 4        29.336    25788109.694 5 103838005.21305     -2516.642 5        32.934
G18        12.000    20552560.626 8 108004658.73808      -779.853 8        49.946                                    20552557.704 6  84159352.19506      -607.677 6        38.997    20552557.015 8  84159316.20608      -607.702 8        48.141
G27        13.000    23778594.904 4 124957354.37004      2393.107 4        24.947                                    23778594.361 2  97369283.57602      1864.783 2        15.143    23778592.715 5                      1864.521 5        30.808
G26        17.000    20548004.097 7 107980528.01907      -773.196 7        44.649                                    20548001.478 7  84141069.40307      -602.490 7        43.426    20548002.511 7  84140643.40407      -602.569 7        42.718
R02        18.000    23214431.552 4                      -535.069 4        29.991
E30        19.000    25355961.563 7 133246620.80607      1183.479 7        47.346                                                                    25355959.862 7  99502400.39407       883.821 7        44.483    25355961.119 8 102098056.63308       906.764 8        48.214
R20        20.000                                                                                                                                    22390551.728 4  93125043.21204      1938.111 4        28.654
E02        21.000    23318850.910 7 122541649.79107     -1498.563 7        47.519                                                                    23318850.023 8  91508282.57708     -1119.134 8        48.802    23318850.132 8  93895463.12108     -1148.288 8        49.279
S23        22.000    38212805.449 6 200809684.18906      -866.244 6        38.883
R10        23.000    21504965.745 7 114633602.49307      2281.939 7        42.662
E36        24.000    23435034.390 8 123151965.95508      -944.716 8        48.162                                                                    23435035.278 8  91964297.10208      -705.535 8        50.576    23435034.627 8  94363347.58708      -723.864 8        49.244
R18        25.000    20887670.483 8 111499764.55008     -3840.148 8        49.850                                                                    20887668.640 5  86722053.61205     -2986.858 5        31.819
G16        26.000    21482463.109 7 112891173.28407      1453.099 7        45.917                                    21482457.879 3  87967135.98803      1132.280 3        22.743
S21        27.000    38487913.034 5 202255551.89005      -863.680 5        34.938
R19        29.000    19393407.276 6 103741651.40706     -1202.842 6        39.574                                                                    19393406.259 7  80688271.03907      -935.697 7        42.923
S36        31.000    38258660.091 5 201050604.78105      -862.868 5        35.743
E34        32.000    25252218.735 7 132701287.67207      1587.104 7        42.360                                                                    25252214.360 6  99095111.42906      1185.247 6        41.471    25252216.686 7 101680263.12407      1216.009 7        43.126
R16        34.000    21485077.208 6 114769617.26706     -4865.948 6        37.716                                                                    21485082.235 6  89265166.55106     -3784.666 6        36.858
C44        35.000                                                                                                                                    22880514.715 7 119144779.52507     -2990.316 7        47.118                                                                    22880511.753 5  96815117.87705     -2429.951 5        33.593
R09        37.000    19446483.087 7 103843225.80607     -1042.129 7        47.278                                                                    19446483.206 7  80766987.18907      -810.504 7        45.192
C11        38.000                                                                                                                                    22675400.166 7 118076792.22007       925.871 7        42.624    22675399.013 7  91304577.25807       715.865 7        46.926    22675397.226 7  95947039.91107       752.138 7        43.526
C12        41.000                                                                                                                                    21963198.283 8 114368231.04608     -1887.503 8        49.701    21963193.832 8  88436780.35308     -1459.620 8        50.109    21963193.097 7  92933547.38807     -1533.856 7        46.317
C13        43.000                                                                                                                                    37726600.812 7 196452329.89507      -643.217 7        42.119    37726602.285 7 151909421.89907      -497.348 7        44.163    37726601.241 7 159633609.33707      -522.720 7        42.815
C38        44.000                                                                                                                                    38784934.092 6 201963337.45206     -1378.511 6        38.688                                                                    38784933.391 6 164111741.87406     -1120.477 6        39.408
C25        45.000                                                                                                                                    22411799.582 7 116704185.84907     -1917.354 7        47.078                                                                    22411796.009 6  94831885.94806     -1558.142 6        41.974
C08        46.000                                                                                                                                    37762446.606 6 196639004.09706      -896.193 6        37.633    37762433.543 4 152053800.61404      -692.508 4        25.398    37762435.487 4 159785273.98504      -728.081 4        28.957
C23        47.000                                                                                                                                    24601232.183 7 128105402.08407      1123.488 7        45.685                                                                    24601224.376 7 104096001.57707       912.838 7        46.195
C43        48.000                                                                                                                                    24398425.602 6 127049011.24016      1728.502 6        39.532                                                                    24398413.040 4 103237687.97204      1404.387 4        28.986
C24        51.000                                                                                                                                    24511367.721 6 127637147.13706     -4169.206 6        38.718                                                                    24511367.093 6 103715624.00106     -3387.682 6        41.225
C34        52.000                                                                                                                                    21517880.658 7 112049317.99007      -240.133 7        44.215                                                                    21517879.925 7  91049331.29007      -195.249 7        45.592
I06        58.000    38772128.780 6 152150283.12006      -635.540 6        36.526
> 2025 01 02 17 45 10.0000000  0 36
G23         2.000    23360929.186 5                      2502.006 5        31.479                                                                                                    23360924.492 5  95659145.00905      1949.650 5        34.071
G05         4.000    23355647.149 5 122734783.48615     -2599.231 5        34.271                                                                                                    23355606.281 4                     -2025.275 4        26.683
E25         6.000    26197893.610 4 137670818.10104     -3591.355 4        27.557                                                                    26197894.499 5 102806161.92105     -2682.159 5        33.305    26197890.441 6 105488101.25006     -2751.836 6        38.483
G31         7.000    23350730.744 5 122708771.73405     -3794.113 5        30.513                                    23350694.514 1  95617184.70801     -2956.391 1         6.500
G28         8.000    24670215.132 5 129642832.97405     -4345.229 5        32.563                                    24670210.369 2 101020384.70202     -3385.890 2        13.151    24670213.008 6 101020391.75306     -3385.902 6        36.250
G29         9.000    22241855.481 7 116881853.38307     -3323.535 7        42.495                                    22241845.624 4  91076682.81604     -2589.771 4        28.360    22241847.022 5  91076647.81405     -2589.919 5        34.986
E11        10.000    25791230.840 5 135533858.72605     -3285.478 5        33.401                                                                    25791232.152 4 101210313.77204     -2453.827 4        28.787    25791234.546 5 103850590.34205     -2517.282 5        33.210
G18        12.000    20553303.705 8 108008564.93708      -782.560 8        50.475                                    20553301.388 6  84162395.97906      -609.785 6        39.535    20553300.520 8  84162359.99708      -609.834 8        48.405
G27        13.000    23776307.749 4 124945391.75504      2392.029 4        26.299                                    23776317.876 2  97359962.15502      1863.928 2        16.038    23776317.353 5                      1864.092 5        32.569
G26        17.000    20548741.381 7 107984401.63807      -776.061 7        44.984                                    20548738.620 7  84144087.80707      -604.721 7        43.625    20548739.911 7  84143661.80607      -604.814 7        42.739
E30        19.000    25354836.041 7 133240706.12707      1182.448 7        47.228                                                                    25354834.400 7  99497983.59807       883.010 7        44.319    25354835.459 8 102093524.61108       905.978 8        48.315
R20        20.000    22388182.499 4                      2490.396 4        26.982
E02        21.000    23320277.846 7 122549147.34107     -1500.371 7        47.164                                                                    23320276.640 8  91513881.40108     -1120.391 8        48.448    23320276.682 8  93901208.00508     -1149.659 8        48.922
S23        22.000    38213629.055 6 200814014.54506      -865.946 6        38.757
R10        23.000    21502826.988 7 114622200.02607      2279.263 7        42.057
E36        24.000    23435934.276 8 123156694.46608      -946.616 8        48.040                                                                    23435935.168 8  91967828.14008      -706.878 8        50.780    23435934.444 8  94366970.74008      -725.286 8        49.198
R18        25.000    20891267.711 8 111518968.23708     -3841.238 8        49.786                                                                    20891266.851 5  86736989.82105     -2987.890 5        32.748
G16        26.000    21481081.271 7 112883913.49407      1450.970 7        44.834                                    21481075.338 3  87961479.02603      1130.604 3        21.881
S21        27.000    38488734.489 5 202259870.75005      -863.550 5        34.876
R19        29.000    19394533.561 6 103747672.79006     -1205.630 6        39.141                                                                    19394532.442 7  80692954.31807      -937.731 7        43.172
S36        31.000    38259480.697 5 201054919.71405      -862.816 5        35.629
E34        32.000    25250706.880 6 132693355.41306      1585.951 6        40.181                                                                    25250705.988 7  99089188.00307      1184.271 7        42.586    25250707.322 7 101674185.17507      1215.214 7        43.924
R16        34.000    21489632.517 5 114793952.65905     -4867.857 5        35.252                                                                    21489639.162 5  89284094.07005     -3786.041 5        34.919
C44        35.000                                                                                                                                    22883386.925 7 119159732.71507     -2991.024 7        47.872                                                                    22883383.568 5  96827268.54305     -2430.391 5        34.714
R09        37.000    19447461.444 7 103848447.30007     -1046.431 7        47.137                                                                    19447460.947 7  80771048.37007      -813.915 7        45.126
C11        38.000                                                                                                                                    22674510.990 7 118072166.60907       924.529 7        42.246    22674510.409 7  91301000.44707       714.927 7        46.724    22674508.908 7  95943281.22107       751.131 7        43.484
C12        41.000                                                                                                                                    21965010.678 8 114377672.24108     -1888.918 8        49.380    21965007.096 8  88444080.87908     -1460.630 8        50.237    21965006.338 7  92941219.11807     -1534.986 7        46.622
C13        43.000                                                                                                                                    37727218.801 7 196455547.85707      -643.992 7        42.121    37727220.455 7 151911910.24607      -498.050 7        44.163    37727219.209 7 159636224.19807      -523.377 7        42.802
C38        44.000                                                                                                                                    38786258.228 6 201970232.81706     -1379.472 6        38.637                                                                    38786257.614 6 164117344.90606     -1120.907 6        39.303
C25        45.000                                                                                                                                    22413641.604 7 116713779.11007     -1919.881 7        47.928                                                                    22413638.441 6  94839681.24006     -1560.198 6        41.850
C08        46.000                                                                                                                                    37763308.658 6 196643487.63906      -896.930 6        37.970    37763295.744 4 152057267.52804      -693.359 4        24.451    37763296.742 4 159788917.27104      -729.365 4        28.787
C23        47.000                                                                                                                                    24600155.762 7 128099789.54807      1121.538 7        46.400                                                                    24600146.278 7 104091440.94607       911.186 7        46.032
C43        48.000                                                                                                                                    24396766.794 6 127040370.83906      1727.785 6        40.412                                                                    24396753.020 4 103230666.99704      1403.566 4        28.891
C24        51.000                                                                                                                                    24515371.118 6 127657993.60906     -4169.419 6        38.919                                                                    24515370.536 6 103732563.47806     -3388.247 6        41.495
C34        52.000                                                                                                                                    21518111.906 7 112050523.01307      -241.749 7        44.727                                                                    21518111.211 7  91050310.45207      -196.451 7        45.651
I06        58.000    38772938.734 6 152153460.80306      -635.363 6        36.571
> 2025 01 02 17 45 15.0000000  0 38
G23         2.000    23358548.289 5                      2500.978 5        32.874                                                                                                    23358545.661 5  95649399.27705      1948.613 5        33.389
G05         4.000    23358113.847 5 122747789.72905     -2603.031 5        34.657                                                                                                    23358090.289 4                     -2027.927 4        25.008
E25         6.000    26201309.435 3 137688779.36003     -3593.438 3        23.238                                                                    26201310.661 5 102819574.54305     -2683.062 5        33.377    26201309.863 6 105501863.72106     -2753.032 6        39.390
G31         7.000    23354344.482 4 122727745.27404     -3795.441 4        26.383                                    23354304.691 1  95631969.16801     -2957.305 1         4.143
G28         8.000    24674349.372 5 129664560.36405     -4345.720 5        32.132                                    24674345.037 2 101037315.11502     -3386.253 2        12.545    24674347.744 5 101037322.16405     -3386.389 5        35.452
G29         9.000    22245016.878 7 116898474.81107     -3325.044 7        42.125                                    22245008.148 4  91089634.55904     -2590.940 4        28.417    22245010.355 5  91089599.54805     -2590.952 5        35.281
E11        10.000    25794357.243 5 135550288.40405     -3286.904 5        34.357                                                                    25794358.182 4 101222582.66904     -2454.150 4        27.760    25794360.247 5 103863179.33605     -2518.405 5        33.150
G18        12.000    20554050.082 8 108012485.84308      -785.776 8        50.763                                    20554047.903 6  84165451.22606      -612.295 6        39.808    20554046.584 8  84165415.24508      -612.272 8        48.027
G27        13.000                                                                                                                                                                    23774044.404 5                      1863.583 5        33.114
G26        17.000    20549482.459 7 107988291.19907      -779.570 7        46.176                                    20549478.835 7  84147118.63407      -607.453 7        43.968    20549480.320 7  84146692.62607      -607.343 7        42.307
R02        18.000    23215420.120 5 123881942.62915      -543.676 5        35.714
E30        19.000    25353711.520 7 133234797.84107      1180.850 7        47.052                                                                    25353710.116 7  99493571.56807       881.891 7        44.140    25353711.000 8 102088997.48408       904.859 8        48.505
R20        20.000    22385859.567 4                      2488.743 4        28.739
E02        21.000    23321706.840 7 122556655.12007     -1502.721 7        47.270                                                                    23321705.176 8  91519487.86208     -1122.163 8        48.049    23321705.210 8  93906960.71508     -1151.408 8        48.608
S23        22.000    38214455.504 6 200818345.42606      -866.132 6        39.129
R10        23.000    21500691.987 6 114610811.97706      2276.057 6        41.993
E36        24.000    23436836.185 7 123161433.60407      -949.048 7        47.916                                                                    23436837.056 8  91971367.10708      -708.660 8        50.868    23436836.197 8  94370602.03308      -727.239 8        49.222
R18        25.000    20894866.992 8 111538178.97508     -3842.961 8        49.518                                                                    20894863.904 5  86751931.53205     -2989.055 5        33.946
G16        26.000    21479701.295 7 112876665.59107      1448.368 7        42.732                                    21479695.364 3  87955831.32003      1128.602 3        20.667
S21        27.000    38489557.720 5 202264190.17405      -864.065 5        35.052
R19        29.000    19395662.682 6 103753709.36906     -1208.859 6        39.075                                                                    19395661.361 7  80697649.43707      -940.235 7        43.577
S36        31.000    38260304.830 5 201059235.01905      -863.480 5        35.467
E34        32.000    25249196.951 6 132685430.18506      1584.175 6        37.414                                                                    25249198.706 7  99083269.83207      1183.017 7        43.663    25249199.479 7 101668112.62807      1213.824 7        44.415
R16        34.000    21494190.586 5 114818299.15205     -4870.741 5        33.605                                                                    21494195.704 5  89303030.15305     -3788.568 5        31.441
C44        35.000                                                                                                                                    22886259.721 8 119174691.12608     -2992.328 8        48.207                                                                    22886256.033 6  96839423.50806     -2431.547 6        36.197
C22        36.000                                                                                                                                    25372553.638 5                       914.403 5        31.298
R09        37.000    19448443.288 7 103853691.80207     -1051.423 7        47.843                                                                    19448443.528 7  80775127.42507      -817.665 7        45.672
C11        38.000                                                                                                                                    22673624.639 7 118067548.53307       922.772 7        42.136    22673623.511 7  91297429.46207       713.433 7        46.635    22673621.776 7  95939528.66407       749.864 7        43.299
C12        41.000                                                                                                                                    21966825.319 8 114387121.38508     -1890.752 8        49.230    21966821.638 8  88451387.56008     -1462.079 8        50.395    21966820.905 7  92948897.33607     -1536.394 7        46.871
C13        43.000                                                                                                                                    37727837.810 7 196458771.23807      -645.349 7        42.006    37727839.518 7 151914402.77507      -498.999 7        44.265    37727838.235 7 159638843.48007      -524.393 7        42.770
C38        44.000                                                                                                                                    38787582.898 6 201977132.77806     -1380.524 6        38.141                                                                    38787582.841 6 164122951.69906     -1121.791 6        39.207
C25        45.000                                                                                                                                    22415486.483 8 116723386.29408     -1922.958 8        48.240                                                                    22415483.418 6  94847487.88106     -1562.479 6        41.766
C08        46.000                                                                                                                                    37764172.093 6 196647976.84706      -898.430 6        38.162    37764152.985 3                      -693.320 3        23.352    37764158.716 4 159792565.08204      -730.217 4        28.360
C23        47.000                                                                                                                                    24599081.680 7 128094188.33607      1119.006 7        46.704                                                                    24599070.457 7 104086889.52807       909.307 7        45.663
C43        48.000                                                                                                                                    24395102.969 6 127031735.18206      1726.537 6        40.899                                                                    24395094.578 4 103223649.85004      1402.980 4        29.754
C24        51.000                                                                                                                                    24519375.586 6 127678844.46006     -4170.755 6        38.769                                                                    24519374.771 6 103749506.48806     -3388.967 6        41.743
C34        52.000                                                                                                                                    21518344.496 7 112051736.95707      -243.855 7        44.673                                                                    21518344.183 7  91051296.88407      -198.013 7        45.547
I06        58.000    38773748.582 6 152156638.63106      -635.876 6        36.548
> 2025 01 02 17 45 20.0000000  0 37
G23         2.000    23356171.219 5 122737499.41315      2499.628 5        35.305                                                                                                    23356167.931 5  95639657.57605      1947.781 5        33.084
G05         4.000    23360586.995 5 122760811.38105     -2606.019 5        33.701
E25         6.000    26204724.836 3                     -3592.258 3        22.248                                                                    26204728.454 5 102832990.48605     -2683.514 5        33.617    26204729.462 6 105515629.61606     -2753.507 6        40.298
G31         7.000    23357954.588 4                     -3796.300 4        26.251
G28         8.000    24678484.599 5 129686288.69305     -4345.901 5        32.683                                    24678479.821 2 101054246.26302     -3386.411 2        13.455    24678482.921 5 101054253.28805     -3386.382 5        35.100
G29         9.000    22248179.415 6 116915101.91006     -3326.089 6        41.509                                    22248172.035 4  91102590.73304     -2591.755 4        28.199    22248174.076 5  91102555.72805     -2591.700 5        35.414
E11        10.000    25797484.644 6 135566722.64406     -3287.387 6        36.057                                                                    25797484.679 4 101234855.05904     -2454.971 4        27.916    25797487.287 5 103875771.87905     -2519.167 5        33.048
G18        12.000    20554798.702 8 108016420.95108      -788.522 8        50.315                                    20554797.083 6  84168517.53906      -614.429 6        40.083    20554795.212 8  84168481.55208      -614.441 8        48.108
G27        13.000    23771769.501 5 124921476.14705      2390.836 5        32.946                                    23771766.842 3  97341326.67603      1862.993 3        18.060    23771770.598 5                      1863.074 5        33.317
G26        17.000    20550225.482 7 107992196.17207      -782.717 7        47.296                                    20550222.019 7  84150161.47007      -609.907 7        44.611    20550222.982 7  84149735.46507      -609.904 7        42.389
E30        19.000    25352587.968 7 133228895.44307      1179.746 7        47.157                                                                    25352586.989 7  99489163.94907       880.935 7        44.102    25352587.765 8 102084474.88508       903.961 8        48.682
R20        20.000    22383541.491 5                      2487.293 5        30.709                                                                    22383516.169 3                      1934.330 3        21.833
E02        21.000    23323137.467 7 122564172.60007     -1504.560 7        47.345                                                                    23323135.598 7  91525101.57907     -1123.539 7        47.655    23323135.760 8  93912720.87008     -1152.901 8        48.393
S23        22.000    38215280.590 6 200822676.10506      -866.211 6        39.012
R10        23.000    21498558.806 7 114599437.87007      2273.339 7        42.239
E36        24.000    23437739.732 7 123166182.83707      -950.936 7        47.817                                                                    23437740.858 8  91974913.62408      -710.158 8        51.098    23437739.875 8  94374241.06008      -728.679 8        49.415
R18        25.000    20898467.717 8 111557396.22108     -3844.242 8        48.587                                                                    20898463.444 5  86766878.27505     -2989.908 5        34.276
G16        26.000    21478324.717 6 112869429.09606      1446.142 6        40.269                                    21478317.402 3  87950192.51203      1126.864 3        19.791
S21        27.000    38490381.030 5 202268509.51405      -864.009 5        35.200
R19        29.000    19396793.732 6 103759760.57106     -1211.814 6        39.601                                                                    19396792.704 7  80702355.91007      -942.544 7        43.822
S36        31.000    38261121.899 5 201063550.05405      -863.316 5        35.686
E34        32.000    25247690.689 5 132677511.45705      1582.935 5        35.505                                                                    25247692.276 7  99077356.53307      1182.026 7        44.256    25247692.805 7 101662045.08107      1212.828 7        44.603
R16        34.000    21498749.589 5 114842656.27305     -4872.435 5        33.024                                                                    21498751.872 4  89321974.40704     -3789.484 4        24.632
C44        35.000                                                                                                                                    22889133.408 8 119189654.23408     -2993.221 8        48.533                                                                    22889129.650 6  96851582.25406     -2431.970 6        36.775
C22        36.000                                                                                                                                    25371676.619 5                       912.317 5        31.675
R09        37.000    19449429.295 7 103858958.72007     -1055.681 7        47.069                                                                    19449430.075 7  80779223.92307      -821.164 7        45.856
C11        38.000                                                                                                                                    22672740.046 7 118062937.48507       921.468 7        42.595    22672737.917 7  91293863.90007       712.531 7        46.487    22672736.129 7  95935781.80907       748.839 7        42.974
C12        41.000                                                                                                                                    21968641.703 8 114396577.98008     -1892.151 8        49.302    21968637.619 8  88458699.99908     -1463.183 8        50.737    21968636.943 7  92956581.58607     -1537.381 7        47.096
C13        43.000                                                                                                                                    37728457.700 7 196461999.45607      -646.268 7        42.017    37728459.593 7 151916899.04107      -499.711 7        44.367    37728458.192 7 159641466.66507      -524.979 7        42.582
C38        44.000                                                                                                                                    38788908.568 6 201984036.83306     -1381.480 6        38.177                                                                    38788908.494 6 164128561.79206     -1122.279 6        38.862
C25        45.000                                                                                                                                    22417333.966 8 116733006.88308     -1925.607 8        48.330                                                                    22417331.108 6  94855305.40406     -1564.543 6        41.847
C08        46.000                                                                                                                                    37765035.888 6 196652471.16406      -899.423 6        38.691    37765015.449 3                      -696.998 3        22.533    37765020.922 4 159796217.15104      -731.501 4        27.808
C23        47.000                                                                                                                                    24598009.267 7 128088597.91107      1116.876 7        46.903                                                                    24597996.659 7 104082346.86607       907.699 7        45.303
C43        48.000                                                                                                                                    24393445.026 6 127023103.78706      1725.740 6        41.616                                                                    24393437.934 5 103216636.15405      1402.272 5        30.966
C24        51.000                                                                                                                                    24523380.783 6 127699699.13806     -4171.525 6        38.691                                                                    24523379.696 6 103766452.60306     -3389.475 6        41.659
C34        52.000                                                                                                                                    21518578.595 7 112052959.32107      -245.483 7        44.867                                                                    21518578.801 7  91052290.14307      -199.277 7        45.401
I06        58.000    38774557.778 6 152159816.20606      -635.784 6        36.597
> 2025 01 02 17 45 25.0000000  0 38
G23         2.000    23353793.794 5 122725002.38605      2498.806 5        35.957                                    23353789.689 1  95629864.55511      1947.276 1         7.375    23353788.186 5  95629919.64405      1947.267 5        32.988
G05         4.000    23363065.937 5 122773848.10105     -2608.945 5        31.396
E25         6.000    26208145.583 3                     -3595.365 3        21.952                                                                    26208147.272 5 102846409.49205     -2684.049 5        33.132    26208148.393 6 105529398.67706     -2754.059 6        40.768
G31         7.000    23361561.345 4                     -3795.078 4        25.068
G28         8.000    24682619.020 5 129708017.49505     -4345.892 5        34.067                                    24682614.807 2 101071177.78702     -3386.401 2        12.909    24682616.722 5 101071184.77805     -3386.434 5        34.967
G29         9.000    22251343.844 6 116931734.22006     -3327.113 6        41.046                                    22251337.009 4  91115550.96604     -2592.547 4        28.057    22251339.245 5  91115515.93205     -2592.353 5        35.295
E11        10.000    25800612.595 6 135583161.04706     -3288.192 6        37.138                                                                    25800612.165 4 101247130.46904     -2455.453 4        27.138    25800614.247 5 103888367.51705     -2519.712 5        32.766
G18        12.000    20555549.793 8 108020369.80208      -791.164 8        49.907                                    20555548.790 6  84171594.55906      -616.489 6        39.745    20555546.956 8  84171558.56808      -616.494 8        48.424
G27        13.000    23769493.642 5 124909522.28105      2390.376 5        33.611                                    23769492.011 2  97332011.95802      1862.624 2        17.774    23769494.680 5                      1862.832 5        33.006
G26        17.000    20550971.215 8 107996116.09608      -785.548 8        48.764                                    20550968.055 7  84153215.95207      -612.115 7        45.001    20550968.786 7  84152789.94507      -611.969 7        42.298
R02        18.000    23216426.342 6 123887419.59406      -551.918 6        36.733                                                                    23216412.082 4                      -429.830 4        26.910
E30        19.000    25351465.572 7 133222998.50307      1178.781 7        46.794                                                                    25351465.125 7  99484760.39407       880.370 7        44.107    25351465.384 8 102079956.45508       903.254 8        48.611
R20        20.000    22381223.272 5                      2485.761 5        30.181
E02        21.000    23324569.622 7 122571699.34407     -1506.326 7        47.353                                                                    23324567.761 7  91530722.19807     -1124.824 7        47.319    23324568.087 8  93918488.11908     -1154.229 8        48.140
S23        22.000    38216102.224 6 200827006.27806      -866.053 6        38.766
R10        23.000    21496428.007 7 114588077.21607      2270.686 7        42.861
E36        24.000    23438645.411 7 123170941.72507      -952.770 7        47.768                                                                    23438646.465 8  91978467.33908      -711.454 8        51.224    23438645.359 8  94377887.48208      -730.015 8        49.269
R18        25.000    20902068.522 7 111576619.49907     -3845.357 7        46.691                                                                    20902065.140 5  86781829.74105     -2990.732 5        33.449
G16        26.000    21476949.722 6 112862203.56206      1444.199 6        38.456                                    21476941.904 3  87944562.24203      1125.370 3        18.388
S21        27.000    38491199.216 5 202272828.29405      -863.901 5        34.776
R19        29.000    19397926.219 6 103765825.85606     -1214.541 6        39.450                                                                    19397925.986 7  80707073.36407      -944.662 7        42.908
S36        31.000    38261951.930 5 201067865.04405      -863.211 5        35.824
E34        32.000    25246187.389 5 132669598.80905      1581.683 5        35.752                                                                    25246186.226 7  99071447.76907      1181.250 7        44.447    25246186.655 7 101655982.17407      1212.042 7        44.296
R16        34.000    21503312.713 6 114867023.47906     -4874.368 6        36.783                                                                    21503311.165 4  89340926.74604     -3790.770 4        28.019
C44        35.000                                                                                                                                    22892007.732 8 119204621.56908     -2993.965 8        48.500                                                                    22892003.930 6  96863744.44206     -2432.879 6        37.486
C22        36.000                                                                                                                                    25370799.403 5                       910.459 5        32.347
R09        37.000    19450418.681 7 103864247.66307     -1060.110 7        46.290                                                                    19450419.941 7  80783337.53807      -824.538 7        45.702
C11        38.000                                                                                                                                    22671855.836 7 118058333.03307       920.255 7        42.770    22671853.170 7  91290303.43907       711.526 7        46.257    22671851.606 7  95932040.31907       747.775 7        42.696
C12        41.000                                                                                                                                    21970459.129 8 114406041.57208     -1893.450 8        49.287    21970455.334 8  88466017.84908     -1464.108 8        51.396    21970454.311 7  92964271.53007     -1538.485 7        47.304
C13        43.000                                                                                                                                    37729078.287 6 196465232.08406      -647.069 6        41.797    37729080.285 7 151919398.72107      -500.358 7        44.500    37729078.909 7 159644093.44707      -525.675 7        42.563
C38        44.000                                                                                                                                    38790235.644 6 201990944.49706     -1381.791 6        37.860                                                                    38790234.985 6 164134174.85606     -1122.840 6        38.820
C25        45.000                                                                                                                                    22419184.149 7 116742640.43607     -1928.028 7        47.927                                                                    22419181.229 6  94863133.46106     -1566.599 6        41.828
C08        46.000                                                                                                                                    37765900.262 6 196656970.30506      -900.342 6        38.790    37765881.137 3                      -698.937 3        22.305    37765885.082 4 159799873.00804      -731.249 4        27.665
C23        47.000                                                                                                                                    24596938.055 7 128083017.86707      1114.908 7        46.152                                                                    24596925.002 7 104077812.64107       905.970 7        44.856
C43        48.000                                                                                                                                    24391789.703 7 127014476.17907      1725.056 7        42.125                                                                    24391781.699 5 103209625.49605      1401.758 5        31.419
C24        51.000                                                                                                                                    24527387.095 6 127720557.16406     -4171.926 6        38.153                                                                    24527385.097 6 103783401.45706     -3390.091 6        41.464
C34        52.000                                                                                                                                    21518814.813 7 112054189.63007      -246.905 7        44.743                                                                    21518814.942 7  91053289.87807      -200.530 7        45.287
I06        58.000    38775368.321 6 152162993.13206      -635.227 6        36.491
> 2025 01 02 17 45 30.0000000  0 36
G23         2.000    23351416.011 5 122712510.77605      2497.933 5        34.890                                    23351412.226 1  95620130.91501      1946.394 1         6.375    23351412.275 5  95620185.90405      1946.365 5        33.479
E25         6.000    26211565.234 3                     -3594.381 3        23.695                                                                    26211566.910 5 102859832.03305     -2684.583 5        32.748    26211567.953 6 105543171.36606     -2754.660 6        40.994
G31         7.000    23365176.987 4                     -3799.190 4        24.211                                                                                                    23365143.270 4                     -2960.543 4        24.075
G28         8.000    24686755.318 5 129729747.37805     -4345.970 5        34.952                                    24686750.016 2 101088110.16302     -3386.475 2        12.606    24686752.124 5 101088117.11305     -3386.465 5        34.957
