     3.04           OBSERVATION DATA    M                   RINEX VERSION / TYPE
ssrcrin-15.6.1x                         20250102 084500 UTC PGM / RUN BY / DATE 
(00000000023479385599111004) Septentrio proprietary         COMMENT             
ract                                                        MARKER NAME         
01                                                          MARKER NUMBER       
geodetic                                                    MARKER TYPE         
NFB                 CLIMERS@TUW                             OBSERVER / AGENCY   
3296359             SEPT ASTERX SB3 PROB4.14.4              REC # / TYPE / VERS 
Unknown             Unknown                                 ANT # / TYPE        
  4127446.5341  1206915.9037  4695541.9238                  APPROX POSITION XYZ 
        0.0000        0.0000        0.0000                  ANTENNA: DELTA H/E/N
G   23 X1  C1C L1C D1C S1C C1W S1W C2W L2W D2W S2W C2L L2L  SYS / # / OBS TYPES 
       D2L S2L C5Q L5Q D5Q S5Q C1L L1L D1L S1L              SYS / # / OBS TYPES 
E   21 X1  C1C L1C D1C S1C C6C L6C D6C S6C C5Q L5Q D5Q S5Q  SYS / # / OBS TYPES 
       C7Q L7Q D7Q S7Q C8Q L8Q D8Q S8Q                      SYS / # / OBS TYPES 
S    9 X1  C1C L1C D1C S1C C5I L5I D5I S5I                  SYS / # / OBS TYPES 
R   17 X1  C1C L1C D1C S1C C2P L2P D2P S2P C2C L2C D2C S2C  SYS / # / OBS TYPES 
       C3Q L3Q D3Q S3Q                                      SYS / # / OBS TYPES 
C   25 X1  C1P L1P D1P S1P C5P L5P D5P S5P C2I L2I D2I S2I  SYS / # / OBS TYPES 
       C7I L7I D7I S7I C6I L6I D6I S6I C7D L7D D7D S7D      SYS / # / OBS TYPES 
J   17 X1  C1C L1C D1C S1C C2L L2L D2L S2L C5Q L5Q D5Q S5Q  SYS / # / OBS TYPES 
       C1L L1L D1L S1L                                      SYS / # / OBS TYPES 
I    5 X1  C5A L5A D5A S5A                                  SYS / # / OBS TYPES 
SEPTENTRIO RECEIVERS OUTPUT ALIGNED CARRIER PHASES.         COMMENT             
NO FURTHER PHASE SHIFT APPLIED IN THE RINEX ENCODER.        COMMENT             
G L1C                                                       SYS / PHASE SHIFT   
G L2W                                                       SYS / PHASE SHIFT   
G L2L  0.00000                                              SYS / PHASE SHIFT   
G L5Q  0.00000                                              SYS / PHASE SHIFT   
G L1L  0.00000                                              SYS / PHASE SHIFT   
E L1C  0.00000                                              SYS / PHASE SHIFT   
E L6C  0.00000                                              SYS / PHASE SHIFT   
E L5Q  0.00000                                              SYS / PHASE SHIFT   
E L7Q  0.00000                                              SYS / PHASE SHIFT   
E L8Q  0.00000                                              SYS / PHASE SHIFT   
S L1C                                                       SYS / PHASE SHIFT   
S L5I                                                       SYS / PHASE SHIFT   
R L1C                                                       SYS / PHASE SHIFT   
R L2P  0.00000                                              SYS / PHASE SHIFT   
R L2C                                                       SYS / PHASE SHIFT   
R L3Q  0.00000                                              SYS / PHASE SHIFT   
C L1P  0.00000                                              SYS / PHASE SHIFT   
C L5P  0.00000                                              SYS / PHASE SHIFT   
C L2I                                                       SYS / PHASE SHIFT   
C L7I                                                       SYS / PHASE SHIFT   
C L6I                                                       SYS / PHASE SHIFT   
C L7D                                                       SYS / PHASE SHIFT   
J L1C                                                       SYS / PHASE SHIFT   
J L2L  0.00000                                              SYS / PHASE SHIFT   
J L5Q  0.00000                                              SYS / PHASE SHIFT   
J L1L  0.00000                                              SYS / PHASE SHIFT   
I L5A                                                       SYS / PHASE SHIFT   
  2025     1     2     8    45    0.0000000     GPS         TIME OF FIRST OBS   
 C1C    0.000 C2C    0.000 C2P    0.000                     GLONASS COD/PHS/BIS 
DBHZ                                                        SIGNAL STRENGTH UNIT
    18                                                      LEAP SECONDS        
 24 R01  1 R02 -4 R03  5 R04  6 R05  1 R06 -4 R07  5 R08  6 GLONASS SLOT / FRQ #
    R09 -2 R10 -7 R11  0 R12 -1 R13 -2 R14 -7 R15  0 R16 -1 GLONASS SLOT / FRQ #
    R17  4 R18 -3 R19  3 R20  2 R21  4 R22 -3 R23  3 R24  2 GLONASS SLOT / FRQ #
                                                            END OF HEADER       
> 2025 01 02 08 45  0.0000000  0 33
G13         1.000    19986121.993 8 105027948.92108      -637.880 8        48.091                                    19986119.436 6  81839830.12206      -497.049 6        38.345
G18         2.000    25909658.233 3                     -2888.697 3        22.724                                                                                                    25909672.406 4                     -2250.822 4        25.263
G30         6.000    22227335.153 7 116805403.65007     -3189.122 7        42.845                                    22227335.812 5  91017173.89105     -2485.032 5        34.376    22227336.879 5  91017192.90605     -2485.256 5        35.624
G14         8.000    20677286.548 6 108660045.63906     -1230.126 6        40.327                                    20677278.042 2  84670054.71202      -958.550 2        15.429    20677284.787 5  84670034.70405      -958.545 5        34.757
G15         9.000    21118096.926 5 110976190.16505      1376.792 5        35.800                                    21118099.502 4  86475076.06304      1072.835 4        25.669    21118101.235 6  86475086.03906      1072.994 6        37.403
G23        10.000    24470810.331 5 128594909.86805      1869.697 5        35.086                                    24470797.493 1 100203827.32401      1456.857 1         9.905    24470801.185 5 100203830.31905      1456.896 5        34.038
E06        11.000    23654933.937 6 124307479.72006     -1844.661 6        36.454                                                                    23654933.938 7  92827045.12507     -1377.510 7        45.311    23654933.887 7  95248557.83007     -1413.429 7        46.380
G24        12.000    24369144.588 5                      2597.007 5        32.820
E31        13.000    23809262.634 7 125118491.97107       287.315 7        46.753                                                                    23809264.833 8  93432698.65408       214.478 8        48.746    23809263.728 8  95870047.33008       220.139 8        48.025
G05        14.000    22605406.798 6 118792217.29406     -3749.408 6        39.859                                    22605407.209 5  92565323.31005     -2921.608 5        31.208    22605406.795 6  92565359.32106     -2921.529 6        38.465
E24        16.000    27076959.024 5 142290379.91605      2195.052 5        35.114                                                                    27076966.092 6 106255836.90706      1638.910 6        36.427    27076963.509 6 109027713.38906      1681.738 6        39.078
E04        17.000    25064012.954 6 131712203.53706     -2929.090 6        39.051                                                                    25064015.876 5  98356589.40105     -2187.167 5        33.713    25064002.447 6 100922254.52806     -2244.465 6        37.724
E05        18.000    24728994.721 6 129951823.34206      1592.743 6        41.116                                                                    24728999.081 7  97042034.64107      1189.444 7        42.421    24728994.838 6  99573552.99606      1220.492 6        39.123
E15        19.000    28560360.732 5 150085705.06605      -673.581 5        32.377                                                                    28560360.170 5 112076996.22405      -503.168 5        32.359
E09        21.000    23590842.280 8 123970821.73408      -565.522 8        48.237                                                                    23590843.547 8  92575496.26908      -422.291 8        48.005    23590842.319 7  94990569.93707      -433.353 7        46.880
S23        24.000    38288771.403 6 201208828.33506      -854.416 6        37.183
S36        25.000    38356119.870 5 201562807.22005      -854.279 5        33.772
E34        26.000    28405406.111 5                     -2751.176 5        32.281                                                                                                                                    28405405.161 6 114376874.31506     -2108.038 6        39.045
R13        27.000    20303244.930 7 108418189.58507      1531.970 7        43.617
R11        28.000    23205807.775 5 124004802.41905     -4826.172 5        34.495                                                                    23205797.498 4  96448292.98504     -3753.611 4        28.834
C07        32.000                                                                                                                                    39041943.068 5 203301653.51805      -459.806 5        30.400    39041939.144 4                      -355.737 4        29.365
C10        33.000                                                                                                                                    39010253.617 6 203136645.73806       -95.338 6        40.248    39010254.110 7 157078191.75907       -73.681 7        43.084    39010248.271 5 165065130.58105       -77.370 5        34.795
C36        34.000                                                                                                                                    21624779.041 8 112605894.36908     -1260.909 8        48.398                                                                    21624784.916 7  91501617.30707     -1024.772 7        45.704
R02        35.000    19455807.007 8 103819833.46708     -2124.046 8        49.849                                                                    19455809.714 7  80748951.55207     -1652.089 7        45.606
R03        36.000    20646003.034 8 110519759.34308      2014.636 8        48.518                                                                    20646006.115 7  85959736.53107      1566.966 7        47.992
C45        37.000                                                                                                                                    23275520.690 8 121201712.03008      1416.633 8        50.428                                                                    23275515.385 7  98486341.50707      1150.964 7        46.170
R12        38.000    19411572.372 7 103693031.78607     -1983.253 7        46.819                                                                    19411574.311 6  80650542.21906     -1542.477 6        40.393
C40        40.000                                                                                                                                    39039879.113 5 203290869.11505      -441.549 5        34.962                                                                    39039874.566 5 165190503.69105      -359.315 5        31.260
R01        44.000    22550656.620 4                     -5035.211 4        25.594                                                                    22550665.441 5                     -3916.150 5        30.445
C19        48.000                                                                                                                                    25212946.444 6 131290496.08406     -4205.817 6        39.517                                                                    25212951.408 5 106684259.22805     -3417.658 5        33.970
C22        51.000                                                                                                                                    22037482.495 8 114754931.90208     -1959.797 8        49.141                                                                    22037475.385 7  93247737.72107     -1592.678 7        42.694
I02        54.000    37611170.105 6 147594324.52406      -164.582 6        39.150
C21        55.000                                                                                                                                    23830123.089 8 124089780.64008      1209.309 8        48.907                                                                    23830117.685 7 100833000.90407       982.470 7        46.418
> 2025 01 02 08 45  5.0000000  0 33
G13         1.000    19986730.113 7 105031144.32307      -640.355 7        47.781                                    19986727.362 6  81842320.04406      -498.978 6        38.150
G18         2.000                                                                                                                                                                    25912427.695 4                     -2252.396 4        26.072
G30         6.000    22230369.751 7 116821351.60407     -3190.086 7        43.966                                    22230370.577 5  91029600.86605     -2485.780 5        33.970    22230371.161 5  91029619.86905     -2485.802 5        35.871
G14         8.000    20678457.978 6 108666203.88706     -1233.155 6        41.073                                    20678450.323 2  84674853.31202      -960.901 2        16.491    20678457.673 6  84674833.34706      -960.790 6        36.537
G15         9.000    21116787.768 5 110969311.37705      1374.491 5        35.290                                    21116790.815 4  86469715.92604      1071.040 4        24.917    21116792.190 6  86469725.89806      1071.019 6        37.614
G23        10.000    24469030.442 5 128585567.48005      1867.458 5        35.462                                    24469019.804 1 100196547.55101      1455.143 1        10.963    24469023.509 5 100196550.56005      1454.909 5        35.257
E06        11.000    23656690.299 6 124316706.57806     -1845.951 6        37.270                                                                    23656689.822 7  92833935.32507     -1378.560 7        45.482    23656689.669 7  95255627.76407     -1414.509 7        46.222
G24        12.000    24366679.861 5                      2596.842 5        34.976                                                                                                    24366679.154 4  99777497.17814      2023.243 4        24.180
E31        13.000    23808990.024 7 125117060.46607       285.360 7        47.376                                                                    23808992.400 8  93431629.67108       213.044 8        48.407    23808991.338 8  95868950.45608       218.629 8        48.068
G05        14.000    22608975.123 6 118810969.08706     -3751.263 6        38.381                                    22608975.515 4  92579935.08704     -2923.066 4        29.678    22608975.413 6  92579971.09806     -2923.045 6        37.467
E24        16.000    27074870.771 5 142279407.50705      2194.372 5        33.850                                                                    27074878.004 6 106247643.23006      1638.424 6        36.129    27074875.719 6 109019305.94606      1681.431 6        39.138
E04        17.000    25066801.967 6 131726851.73706     -2930.145 6        37.089                                                                    25066802.160 5  98367527.99905     -2188.180 5        33.533    25066789.409 6 100933478.43206     -2245.090 6        38.255
E05        18.000    24727479.823 6 129943860.88506      1592.322 6        41.251                                                                    24727483.727 6  97036088.65906      1189.097 6        41.657    24727478.540 6  99567451.90706      1220.080 6        38.763
E15        19.000    28561002.680 5 150089078.11305      -675.712 5        32.760                                                                    28561000.515 5 112079515.00405      -504.785 5        30.958
E09        21.000    23591380.939 8 123973653.02608      -566.982 8        48.179                                                                    23591382.332 7  92577610.54107      -423.330 7        47.806    23591381.083 7  94992739.36307      -434.425 7        47.021
S23        24.000    38289581.303 6 201213099.05106      -854.123 6        36.813
S36        25.000    38356936.522 5 201567079.67705      -853.938 5        33.611
E34        26.000    28408024.411 5                     -2752.776 5        31.962                                                                    28408033.209 5 111479224.17615     -2055.428 5        31.638    28408023.477 6 114387417.49106     -2109.230 6        38.739
R13        27.000    20301810.974 7 108410536.36307      1529.328 7        43.587
R11        28.000    23210324.048 5 124028933.76805     -4826.374 5        35.338                                                                    23210314.111 4  96467061.64904     -3753.934 4        28.133
C07        32.000                                                                                                                                    39042386.046 4 203303954.97204      -460.841 4        29.943    39042380.686 4                      -356.236 4        29.393
C10        33.000                                                                                                                                    39010345.199 6 203137123.67306       -95.903 6        40.048    39010345.213 7 157078561.30807       -74.070 7        42.682    39010340.021 5 165065518.95305       -77.916 5        35.057
C36        34.000                                                                                                                                    21625990.923 8 112612203.77108     -1262.783 8        48.803                                                                    21625996.759 7  91506744.22007     -1026.102 7        45.971
R02        35.000    19457798.770 8 103830463.25508     -2127.910 8        50.193                                                                    19457801.479 7  80757219.15207     -1655.077 7        45.120
R03        36.000    20644122.271 8 110509692.31208      2012.084 8        48.481                                                                    20644125.113 8  85951906.62408      1564.957 8        48.100
C45        37.000                                                                                                                                    23274161.203 8 121194632.09808      1415.318 8        50.926                                                                    23274155.481 7  98480588.50007      1150.070 7        46.208
R12        38.000    19413429.652 7 103702956.00707     -1986.313 7        44.882                                                                    19413432.691 6  80658261.05606     -1544.986 6        41.754
C40        40.000                                                                                                                                    39040304.535 5 203293080.16805      -442.477 5        35.429                                                                    39040299.645 5 165192300.35705      -359.530 5        30.928
R01        44.000    22555362.194 4                     -5036.436 4        25.083                                                                    22555378.988 5                     -3917.101 5        31.109
C19        48.000                                                                                                                                    25216984.962 6 131311526.54806     -4206.550 6        39.285                                                                    25216989.690 5 106701348.20205     -3418.468 5        32.126
C22        51.000                                                                                                                                    22039365.485 8 114764737.16108     -1962.254 8        50.353                                                                    22039358.444 7  93255705.30907     -1594.548 7        42.847
I02        54.000    37611380.414 6 147595148.11006      -164.818 6        39.225
C21        55.000                                                                                                                                    23828962.823 8 124083738.89208      1207.429 8        48.563                                                                    23828957.401 7 100828091.49307       981.130 7        46.228
> 2025 01 02 08 45 10.0000000  0 34
G13         1.000    19987341.171 7 105034352.65507      -643.161 7        47.878                                    19987337.716 6  81844820.04506      -501.162 6        37.837
G18         2.000    25915150.110 3                     -2895.267 3        20.333                                                                                                    25915180.238 4                     -2254.544 4        25.820
G20         4.000    24563320.988 3                     -4468.866 3        19.254
G30         6.000    22233404.904 7 116837304.74807     -3191.285 7        44.811                                    22233406.406 5  91042031.88505     -2486.713 5        33.569    22233407.587 6  91042050.91706     -2486.893 6        36.215
G14         8.000    20679632.507 6 108672376.93706     -1236.313 6        40.653                                    20679625.457 2  84679663.47102      -963.370 2        16.981    20679632.080 6  84679643.52106      -963.371 6        36.866
G15         9.000    21115484.472 6 110962444.76006      1371.981 6        38.658                                    21115484.381 4  86464365.29904      1069.094 4        25.579    21115485.650 6  86464375.27606      1069.034 6        37.637
G23        10.000    24467250.809 6 128576235.74706      1864.840 6        36.741                                    24467244.195 2 100189276.04302      1453.108 2        12.364    24467250.661 6 100189279.04906      1453.101 6        37.002
E06        11.000    23658448.690 6 124325941.20906     -1847.947 6        38.084                                                                    23658447.255 7  92840831.33207     -1379.971 7        45.728    23658446.821 7  95262703.65807     -1415.958 7        46.093
G24        12.000    24364209.481 5 128034768.47415      2595.785 5        34.310                                                                                                    24364205.115 4  99767381.08904      2022.887 4        26.707
E31        13.000    23808719.899 7 125115639.31707       282.939 7        47.762                                                                    23808721.942 8  93430568.41608       211.258 8        48.115    23808720.932 8  95867861.51508       216.816 8        48.177
G05        14.000    22612543.562 6 118829730.88906     -3753.518 6        36.370                                    22612545.775 4  92594554.67804     -2924.815 4        27.784    22612545.703 6  92594590.66906     -2924.774 6        37.270
E24        16.000    27072783.270 5 142268438.31405      2193.212 5        32.365                                                                    27072789.978 5 106239451.95405      1637.512 5        35.067    27072788.285 6 109010900.94606      1680.553 6        39.168
E04        17.000    25069591.485 5 131741505.67105     -2931.825 5        34.414                                                                    25069589.127 5  98378470.89305     -2189.106 5        32.563    25069577.669 6 100944706.74806     -2246.183 6        39.057
E05        18.000    24725965.017 6 129935900.68306      1591.526 6        41.533                                                                    24725968.589 6  97030144.34806      1188.521 6        41.137    24725962.951 6  99561352.53206      1219.592 6        38.105
E15        19.000    28561648.300 5 150092463.08805      -678.032 5        32.958                                                                    28561643.488 4 112082042.74804      -506.029 4        29.488
E09        21.000    23591920.979 8 123976492.12608      -568.812 8        48.036                                                                    23591922.718 7  92579730.64907      -424.804 7        47.682    23591921.319 7  94994914.77007      -435.850 7        47.160
S23        24.000    38290392.769 6 201217369.59606      -854.529 6        36.673
S36        25.000    38357748.663 5 201571351.60305      -854.475 5        33.754
E34        26.000    28410645.681 5                     -2754.616 5        30.672                                                                    28410654.958 5 111489505.26705     -2057.355 5        32.006    28410643.130 6 114397966.77606     -2110.589 6        38.483
R13        27.000    20300380.133 7 108402897.18207      1526.208 7        42.538
R11        28.000    23214841.583 5 124053066.34905     -4826.854 5        35.305                                                                    23214834.565 4  96485831.48504     -3754.194 4        27.114
C07        32.000                                                                                                                                    39042832.074 4 203306260.07104      -461.826 4        29.147    39042824.002 5                      -356.951 5        30.030
C10        33.000                                                                                                                                    39010437.643 6 203137604.90506       -96.836 6        39.489    39010437.661 7 157078933.42407       -74.766 7        42.601    39010432.275 5 165065909.98705       -78.721 5        35.214
C36        34.000                                                                                                                                    21627205.380 8 112618522.72208     -1264.896 8        49.220                                                                    21627210.470 7  91511878.88507     -1027.965 7        46.252
R02        35.000    19459795.221 8 103841112.88608     -2132.047 8        51.027                                                                    19459797.057 7  80765502.18407     -1658.228 7        44.498
R03        36.000    20642244.695 8 110499638.59208      2009.230 8        48.282                                                                    20642246.820 8  85944087.06008      1562.681 8        48.013
C45        37.000                                                                                                                                    23272803.161 8 121187559.23808      1413.682 8        51.233                                                                    23272797.212 7  98474841.23107      1148.721 7        46.436
R12        38.000    19415290.741 7 103712895.90207     -1989.771 7        43.697                                                                    19415293.679 7  80665992.10007     -1547.686 7        42.963
C40        40.000                                                                                                                                    39040731.219 5 203295295.94205      -444.036 5        35.390                                                                    39040724.661 5 165194100.87105      -360.876 5        31.215
R01        44.000    22560074.090 4                     -5038.169 4        26.144                                                                    22560086.985 5                     -3918.662 5        31.208
C19        48.000                                                                                                                                    25221024.907 6 131332561.06206     -4207.602 6        38.856                                                                    25221027.945 4 106718440.38704     -3418.844 4        29.507
C22        51.000                                                                                                                                    22041250.946 8 114774555.50708     -1965.158 8        51.184                                                                    22041244.107 7  93263683.51607     -1596.938 7        42.952
I02        54.000    37611589.866 6 147595972.86906      -165.316 6        39.078
C21        55.000                                                                                                                                    23827804.359 7 124077707.09807      1205.129 7        47.686                                                                    23827799.164 7 100823190.15807       979.293 7        46.094
> 2025 01 02 08 45 15.0000000  0 33
G13         1.000    19987954.278 7 105037573.91407      -645.379 7        47.063                                    19987950.512 6  81847330.12006      -502.895 6        37.361
G18         2.000    25917900.833 4                     -2894.512 4        24.617
G30         6.000    22236441.288 7 116853263.12507     -3192.101 7        44.828                                    22236443.322 5  91054466.98705     -2487.347 5        33.269    22236443.671 6  91054485.99406     -2487.341 6        36.423
G14         8.000    20680810.542 6 108678564.82706     -1238.918 6        38.700                                    20680803.304 2  84684485.20602      -965.374 2        17.132    20680808.129 5  84684465.26605      -965.671 5        34.438
G15         9.000    21114186.256 7 110955590.40407      1369.827 7        42.444                                    21114180.103 4  86459024.21504      1067.414 4        27.377    21114180.135 6  86459034.20306      1067.303 6        36.881
G23        10.000    24465475.443 6 128566914.64306      1863.354 6        36.892                                    24465470.722 2 100182012.85302      1451.985 2        13.030    24465478.711 6 100182015.84506      1451.998 6        38.589
E06        11.000    23660208.058 6 124335183.63106     -1849.045 6        38.907                                                                    23660206.043 7  92847733.15007     -1380.813 7        46.104    23660205.337 7  95269785.51307     -1416.806 7        45.773
G24        12.000    24361742.791 5 128021788.62505      2595.816 5        31.970                                                                                                    24361735.868 4  99757266.91404      2023.110 4        29.261
E31        13.000    23808451.393 8 125114228.50008       281.261 8        48.356                                                                    23808453.373 7  93429514.87607       210.106 7        47.998    23808452.504 8  95866780.49608       215.491 8        48.229
G05        14.000    22616113.922 5 118848502.74505     -3755.489 5        31.283                                    22616118.051 4  92609182.09004     -2926.320 4        24.451    22616118.352 6  92609218.04106     -2925.918 6        37.478
E24        16.000    27070696.948 5 142257472.32205      2193.030 5        31.004                                                                    27070703.106 5 106231263.02205      1637.913 5        35.057    27070701.573 6 109002498.45006      1680.450 6        38.844
E04        17.000    25072383.244 5 131756165.41705     -2932.713 5        30.287                                                                    25072375.084 5  98389418.13105     -2189.828 5        32.425    25072368.229 6 100955939.48106     -2246.865 6        39.468
E05        18.000    24724450.325 6 129927942.73906      1591.458 6        41.416                                                                    24724453.861 6  97024201.72506      1188.390 6        40.706    24724448.098 6  99555254.86906      1219.407 6        37.444
E15        19.000    28562301.063 5 150095860.17105      -680.394 5        32.790                                                                    28562289.152 4 112084579.52204      -508.375 4        27.078
E09        21.000    23592462.592 8 123979339.04508      -570.048 8        48.062                                                                    23592464.438 7  92581856.58807      -425.691 7        47.590    23592463.181 7  94997096.16207      -436.783 7        47.213
S23        24.000    38291210.400 6 201221639.89206      -853.882 6        36.771
S36        25.000    38358559.498 5 201575623.10705      -853.864 5        33.120
E34        26.000    28413264.353 5                     -2756.105 5        30.370                                                                    28413276.259 5 111499792.28205     -2057.736 5        32.234    28413264.790 6 114408522.21906     -2111.441 6        38.111
R13        27.000    20298951.041 6 108395272.03106      1523.684 6        41.423
R11        28.000    23219356.476 5 124077200.31705     -4826.980 5        34.310                                                                    23219346.588 4  96504602.29304     -3754.119 4        26.515
C07        32.000                                                                                                                                    39043272.522 4 203308568.85404      -461.962 4        28.379    39043268.616 5                      -357.446 5        30.800
C10        33.000                                                                                                                                    39010530.388 6 203138089.57506       -97.164 6        39.060    39010530.695 7 157079308.19207       -75.002 7        42.428    39010525.318 5 165066303.81005       -78.879 5        35.514
C36        34.000                                                                                                                                    21628421.257 8 112624851.23908     -1266.491 8        49.518                                                                    21628425.808 7  91517021.32707     -1029.194 7        46.714
R02        35.000    19461795.103 8 103851782.24708     -2135.710 8        51.169                                                                    19461796.562 7  80773800.55307     -1661.109 7        44.284
R03        36.000    20640368.274 7 110489597.82807      2006.973 7        47.472                                                                    20640370.930 7  85936277.58007      1560.946 7        47.479
C45        37.000                                                                                                                                    23271446.145 8 121180493.47108      1412.614 8        51.193                                                                    23271440.464 7  98469099.74407      1147.699 7        46.730
R12        38.000    19417155.625 7 103722851.49907     -1992.484 7        43.854                                                                    19417157.476 7  80673735.34807     -1549.742 7        43.941
C40        40.000                                                                                                                                    39041157.980 6 203297516.42806      -444.379 6        36.004                                                                    39041151.349 5 165195905.21805      -361.055 5        31.004
R01        44.000    22564788.110 4                     -5039.812 4        27.725                                                                    22564799.431 5                     -3919.518 5        30.747
C19        48.000                                                                                                                                    25225065.372 6 131353599.60506     -4207.975 6        38.988                                                                    25225066.014 4 106735535.85804     -3419.535 4        26.922
C22        51.000                                                                                                                                    22043138.807 8 114784386.98208     -1967.467 8        51.160                                                                    22043132.278 7  93271672.37707     -1598.824 7        43.299
I02        54.000    37611800.701 6 147596798.56806      -165.153 6        39.360
C21        55.000                                                                                                                                    23826647.979 7 124071685.28007      1203.583 7        47.057                                                                    23826642.774 7 100818296.94107       977.822 7        45.968
> 2025 01 02 08 45 20.0000000  0 34
G13         1.000    19988569.547 7 105040808.12407      -648.038 7        46.331                                    19988565.829 6  81849850.28706      -504.965 6        37.009
G18         2.000    25920659.498 4                     -2896.513 4        25.474
G20         4.000    24571823.452 3                     -4470.702 3        20.452
G30         6.000    22239478.594 7 116869226.69307     -3193.137 7        44.500                                    22239481.324 5  91066906.13005     -2488.153 5        33.407    22239481.260 6  91066925.14006     -2488.184 6        36.677
G14         8.000    20681992.152 5 108684767.48905     -1242.204 5        34.824                                    20681983.683 2  84689318.49202      -967.945 2        15.857    20681989.563 5  84689298.54305      -967.727 5        33.042
G15         9.000    21112888.947 7 110948748.30207      1367.295 7        44.662                                    21112878.029 4  86453692.65804      1065.422 4        29.166    21112876.762 5  86453702.66505      1065.372 5        35.757
G23        10.000    24463702.419 6 128557604.20006      1861.067 6        36.847                                    24463699.231 2 100174757.94502      1450.164 2        13.030    24463708.505 6 100174760.95206      1450.340 6        39.453
E06        11.000    23661967.842 6 124344433.83806     -1850.683 6        39.051                                                                    23661966.350 7  92854640.76707     -1382.086 7        46.216    23661965.362 7  95276873.31707     -1418.178 7        45.248
G24        12.000    24359278.646 4 128008811.11704      2595.651 4        26.886                                                                                                    24359265.320 5  99747154.55405      2022.523 5        30.657
E31        13.000    23808184.939 8 125112828.02908       279.168 8        48.688                                                                    23808186.720 7  93428469.07307       208.438 7        47.735    23808186.077 8  95865707.40508       213.955 8        48.551
G05        14.000    22619681.238 3                     -3757.498 3        18.955                                                                                                    22619692.305 6  92623853.16806     -2927.770 6        37.025
E24        16.000    27068611.702 5 142246509.53305      2192.375 5        30.008                                                                    27068617.000 5 106223076.54105      1637.098 5        34.819    27068615.450 6 108994098.38606      1679.860 6        38.297
E04        17.000    25075177.672 3                     -2929.639 3        18.090                                                                    25075158.871 5  98400369.66805     -2190.587 5        34.138    25075161.543 6 100967176.63606     -2247.819 6        40.019
E05        18.000    24722936.306 6 129919987.03306      1591.110 6        40.894                                                                    24722939.788 6  97018260.78106      1188.060 6        40.672    24722934.388 6  99549158.94706      1219.073 6        36.862
E15        19.000    28562955.773 5 150099269.15005      -682.885 5        33.042                                                                                                                                    28562943.660 4 115011133.16214      -522.702 4        28.578
E09        21.000    23593005.761 7 123982193.76107      -571.598 7        47.854                                                                    23593007.581 7  92583988.34907      -426.882 7        47.466    23593006.413 7  94999283.52907      -437.944 7        47.170
S23        24.000    38292021.436 6 201225909.69706      -853.880 6        36.446
S36        25.000    38359361.805 5 201579894.52105      -853.909 5        31.555
E34        26.000    28415889.705 4                     -2757.500 4        29.896                                                                    28415898.761 5 111510085.27805     -2059.022 5        32.126    28415888.517 6 114419083.74106     -2112.758 6        38.333
R13        27.000    20297525.362 6 108387660.99206      1520.842 6        40.846
R11        28.000    23223866.110 5 124101335.57105     -4827.043 5        32.856                                                                    23223865.052 4  96523374.05904     -3754.473 4        26.419
C07        32.000                                                                                                                                    39043717.002 4 203310881.33104      -462.431 4        27.629    39043712.080 5                      -357.933 5        30.551
C10        33.000                                                                                                                                    39010624.143 6 203138577.52806       -97.745 6        38.523    39010623.998 7 157079685.50307       -75.557 7        42.239    39010619.575 5 165066700.31005       -79.616 5        35.267
C36        34.000                                                                                                                                    21629638.412 8 112631189.31108     -1268.480 8        49.428                                                                    21629643.107 7  91522171.52907     -1030.793 7        47.095
R02        35.000    19463798.078 8 103862471.14708     -2139.654 8        51.389                                                                    19463799.834 7  80782114.13607     -1664.137 7        43.697
R03        36.000    20638495.025 7 110479570.32507      2004.231 7        46.151                                                                    20638497.716 7  85928478.42007      1558.839 7        47.084
C45        37.000                                                                                                                                    23270090.188 8 121173434.78908      1411.138 8        50.582                                                                    23270084.994 7  98463364.00707      1146.541 7        46.673
R12        38.000    19419022.131 7 103732822.72807     -1995.683 7        43.545                                                                    19419023.653 7  80681490.76607     -1552.182 7        44.178
C40        40.000                                                                                                                                    39041586.130 6 203299741.65406      -445.510 6        36.790                                                                    39041578.415 5 165197713.40105      -361.854 5        30.551
R01        44.000    22569505.024 4                     -5040.633 4        29.308                                                                    22569514.851 5                     -3920.407 5        30.717
C19        48.000                                                                                                                                    25229106.936 6 131374642.18606     -4208.891 6        39.213                                                                    25229103.532 4 106752634.56304     -3419.938 4        24.376
C22        51.000                                                                                                                                    22045028.524 8 114794231.53108     -1970.151 8        50.928                                                                    22045023.258 7  93279671.87207     -1601.002 7        43.956
I02        54.000    37612011.891 6 147597624.99606      -165.303 6        39.321
C21        55.000                                                                                                                                    23825493.551 7 124065673.42707      1201.445 7        46.072                                                                    23825488.180 7 100813411.81607       976.218 7        45.430
> 2025 01 02 08 45 25.0000000  0 34
G13         1.000    19989187.422 7 105044055.51007      -650.807 7        46.586                                    19989183.723 6  81852380.72306      -507.121 6        36.571
G18         2.000    25923415.171 3                     -2898.154 3        22.533                                                                                                    25923409.146 3                     -2257.140 3        20.810
G20         4.000    24576082.770 3                     -4473.173 3        20.476
G30         6.000    22242516.641 7 116885195.71407     -3194.367 7        44.268                                    22242520.324 5  91079349.51305     -2489.112 5        33.551    22242520.607 6  91079368.53006     -2489.268 6        36.321
G14         8.000    20683179.508 4 108690985.27204     -1245.746 4        29.981                                    20683167.049 2  84694163.54202      -970.704 2        14.286    20683173.206 5  84694143.52505      -970.411 5        33.090
G15         9.000    21111587.122 7 110941918.66807      1364.721 7        45.359                                    21111578.065 4  86448370.85704      1063.421 4        29.905    21111577.702 5  86448380.88305      1063.401 5        34.886
G23        10.000    24461931.720 6 128548304.71106      1858.768 6        37.932                                    24461930.011 2 100167511.57002      1448.409 2        14.381    24461940.180 6 100167514.59206      1448.377 6        39.556
E06        11.000    23663728.152 6 124353692.06806     -1852.245 6        38.904                                                                    23663728.242 7  92861554.35607     -1383.350 7        46.536    23663726.760 7  95283967.25907     -1419.417 7        44.792
G24        12.000                                                                                                                                                                    24356794.277 5  99737044.23705      2021.795 5        32.347
E31        13.000    23807920.338 8 125111438.15708       276.909 8        48.703                                                                    23807922.042 7  93427431.18107       206.736 7        47.737    23807921.720 8  95864642.44008       212.092 8        48.819
G05        14.000                                                                                                                                                                    22623267.885 6  92638496.20206     -2929.424 6        36.374
E24        16.000    27066523.502 4 142235550.19204      2191.729 4        28.569                                                                    27066531.354 5 106214892.66005      1636.514 5        34.690    27066529.503 6 108985700.99906      1679.294 6        37.531
E04        17.000                                                                                                                                    25077949.633 5  98411325.65105     -2191.646 5        35.429    25077956.251 6 100978418.42406     -2248.887 6        40.484
E05        18.000    24721422.416 6 129912033.86206      1590.318 6        39.946                                                                    24721426.093 6  97012321.72806      1187.577 6        40.398    24721421.549 6  99543064.95806      1218.589 6        36.552
E15        19.000    28563610.899 5 150102690.39305      -685.439 5        33.347                                                                    28563584.578 4 112089679.99904      -512.025 4        24.180    28563595.451 4 115013754.62504      -525.084 4        27.341
E09        21.000    23593550.646 7 123985056.54807      -573.440 7        47.684                                                                    23593552.271 7  92586126.13607      -428.112 7        47.401    23593551.247 7  95001477.08307      -439.342 7        47.222
S23        24.000    38292837.829 6 201230179.39606      -853.828 6        36.783
S36        25.000    38360172.510 5 201584165.77405      -854.463 5        31.411
E34        26.000    28418518.518 5                     -2759.231 5        30.679                                                                    28418523.236 5 111520384.42905     -2060.890 5        31.336    28418514.346 6 114429651.60106     -2114.227 6        38.018
R13        27.000    20296103.362 6 108380064.31906      1517.851 6        40.708
R11        28.000    23228378.095 5 124125472.40905     -4827.500 5        31.940                                                                    23228385.193 4  96542147.18204     -3755.394 4        26.587
C07        32.000                                                                                                                                    39044160.323 4 203313197.76904      -463.736 4        26.108    39044156.591 5                      -358.474 5        30.543
C10        33.000                                                                                                                                    39010718.826 6 203139069.05106       -98.855 6        38.162    39010718.140 6 157080065.56406       -76.335 6        41.998    39010713.344 5 165067099.66005       -79.998 5        35.410
C36        34.000                                                                                                                                    21630857.263 8 112637537.18008     -1270.546 8        49.228                                                                    21630862.267 7  91527329.66107     -1032.213 7        47.447
R02        35.000    19465804.780 8 103873180.09008     -2143.777 8        51.249                                                                    19465806.591 7  80790443.30007     -1667.286 7        43.361
R03        36.000    20636624.956 7 110469556.43907      2001.388 7        46.374                                                                    20636627.425 7  85920689.84307      1556.582 7        47.087
C45        37.000                                                                                                                                    23268736.233 8 121166383.45408      1409.454 8        50.321                                                                    23268730.727 7  98457634.19007      1145.566 7        46.583
R12        38.000    19420890.662 7 103742809.90907     -1998.987 7        44.140                                                                    19420892.815 7  80689258.58707     -1554.826 7        44.474
C40        40.000                                                                                                                                    39042013.571 6 203301971.88706      -446.832 6        36.529                                                                    39042006.748 5 165199525.61505      -362.854 5        30.913
R01        44.000    22574225.452 5                     -5042.391 5        31.804                                                                    22574229.166 5                     -3921.810 5        30.709
C19        48.000                                                                                                                                    25233149.299 6 131395689.03006     -4209.740 6        39.721                                                                    25233147.913 3                     -3421.398 3        23.200
C22        51.000                                                                                                                                    22046921.384 8 114804089.40708     -1972.942 8        51.317                                                                    22046916.581 7  93287682.15607     -1602.945 7        44.149
I02        54.000    37612223.243 6 147598453.16106      -165.943 6        39.318
C21        55.000                                                                                                                                    23824340.990 7 124059671.80307      1199.294 7        45.333                                                                    23824335.569 7 100808534.97707       974.729 7        45.204
> 2025 01 02 08 45 30.0000000  0 33
G13         1.000    19989808.252 7 105047316.22107      -653.375 7        47.059                                    19989804.165 6  81854921.54006      -509.125 6        36.435
G18         2.000    25926171.779 3                     -2899.326 3        21.833                                                                                                    25926168.969 3                     -2258.756 3        20.524
G30         6.000    22245556.723 7 116901170.31307     -3195.368 7        43.573                                    22245560.263 5  91091797.23505     -2489.893 5        33.623    22245559.398 5  91091816.25305     -2490.153 5        35.238
G14         8.000    20684361.094 5 108697218.10505     -1248.062 5        30.008                                    20684353.111 2  84699020.32502      -972.502 2        12.485    20684359.344 5  84699000.39205      -972.286 5        32.952
G15         9.000    21110283.751 7 110935101.65507      1362.237 7        45.663                                    21110280.177 5  86443058.91505      1061.481 5        30.423    21110279.751 5  86443068.91805      1061.526 5        33.647
G23        10.000    24460164.080 6 128539016.26606      1856.735 6        37.471                                    24460162.875 2 100160273.81802      1446.842 2        13.455    24460172.873 6 100160276.85106      1446.658 6        39.306
E06        11.000    23665489.728 6 124362958.48606     -1853.923 6        39.411                                                                    23665491.531 7  92868474.05807     -1384.477 7        46.525    23665489.709 7  95291067.46107     -1420.553 7        44.295
G24        12.000    24354379.641 4 127982863.60904      2594.016 4        24.406                                    24354348.877 1  99726997.98711      2021.453 1         4.857    24354326.224 5  99726936.07605      2021.361 5        33.557
E31        13.000    23807657.714 8 125110059.02008       274.935 8        48.977                                                                    23807659.551 7  93426401.30307       205.274 7        47.542    23807659.319 8  95863585.69008       210.596 8        49.066
G05        14.000    22626871.826 5                     -3761.433 5        33.042                                                                                                    22626846.249 5  92653147.30605     -2931.099 5        35.743
E24        16.000    27064437.486 4 142224594.49804      2190.351 4        27.389                                                                    27064446.068 5 106206711.46905      1635.949 5        33.509    27064444.233 6 108977306.38106      1678.845 6        36.915
E04        17.000    25080764.549 5                     -2935.799 5        31.087                                                                    25080744.635 6  98422286.24606     -2192.751 6        36.450    25080749.598 6 100989664.89806     -2249.612 6        40.474
E05        18.000    24719909.704 6 129904083.35006      1590.010 6        38.946                                                                    24719912.831 6  97006384.66706      1187.207 6        40.117    24719909.627 5  99536973.01705      1218.259 5        35.810
E15        19.000    28564263.290 5 150106124.04705      -687.911 5        33.539                                                                    28564236.665 3 112092244.09203      -513.199 3        23.486    28564249.288 4 115016385.60604      -526.745 4        26.599
E09        21.000    23594097.117 7 123987927.54007      -574.906 7        47.629                                                                    23594098.480 7  92588270.05907      -429.309 7        47.181    23594097.528 7  95003676.92907      -440.577 7        47.204
S23        24.000    38293646.303 6 201234449.17506      -853.697 6        36.420
S36        25.000    38360993.022 5 201588436.33205      -854.228 5        32.096
E34        26.000    28421148.646 5                     -2760.961 5        30.838                                                                    28421149.491 4 111530689.77904     -2061.714 4        29.185    28421141.479 6 114440225.82206     -2115.384 6        37.546
R13        27.000    20294684.902 6 108372482.09006      1515.129 6        40.965
R11        28.000    23232895.289 5 124149611.00305     -4827.946 5        32.090                                                                    23232902.062 4  96560921.55004     -3754.825 4        26.395
C07        32.000                                                                                                                                    39044603.206 4 203315518.28104      -464.872 4        27.090    39044603.082 5                      -358.965 5        31.713
C10        33.000                                                                                                                                    39010813.100 6 203139564.29506       -99.145 6        38.036    39010813.186 6 157080448.52906       -76.866 6        41.793    39010808.767 5 165067502.09505       -80.684 5        35.600
C36        34.000                                                                                                                                    21632078.285 8 112643894.97908     -1272.440 8        49.348                                                                    21632083.234 7  91532495.90007     -1033.987 7        47.768
R02        35.000    19467815.376 8 103883909.19708     -2147.667 8        51.353                                                                    19467817.014 7  80798788.15907     -1670.511 7        43.355
R03        36.000    20634757.566 7 110459555.95007      1998.841 7        47.450                                                                    20634759.305 7  85912911.67507      1554.612 7        47.698
C45        37.000                                                                                                                                    23267383.687 8 121159339.58008      1408.159 8        50.154                                                                    23267377.853 7  98451910.48607      1144.181 7        46.362
R12        38.000    19422763.368 7 103752813.11207     -2002.163 7        44.734                                                                    19422765.391 7  80697038.86007     -1557.225 7        44.424
C40        40.000                                                                                                                                    39042441.759 6 203304207.16906      -447.444 6        36.745                                                                    39042436.148 5 165201342.00305      -363.601 5        31.064
