     3.04           OBSERVATION DATA    M                   RINEX VERSION / TYPE
ssrcrin-15.6.1x                         20250102 230000 UTC PGM / RUN BY / DATE 
(00000000023479385599111004) Septentrio proprietary         COMMENT             
ract                                                        MARKER NAME         
01                                                          MARKER NUMBER       
geodetic                                                    MARKER TYPE         
NFB                 CLIMERS@TUW                             OBSERVER / AGENCY   
3296359             SEPT ASTERX SB3 PROB4.14.4              REC # / TYPE / VERS 
Unknown             Unknown                                 ANT # / TYPE        
  4127446.0227  1206914.8867  4695541.1867                  APPROX POSITION XYZ 
        0.0000        0.0000        0.0000                  ANTENNA: DELTA H/E/N
G   23 X1  C1C L1C D1C S1C C1W S1W C2W L2W D2W S2W C2L L2L  SYS / # / OBS TYPES 
       D2L S2L C5Q L5Q D5Q S5Q C1L L1L D1L S1L              SYS / # / OBS TYPES 
E   21 X1  C1C L1C D1C S1C C6C L6C D6C S6C C5Q L5Q D5Q S5Q  SYS / # / OBS TYPES 
       C7Q L7Q D7Q S7Q C8Q L8Q D8Q S8Q                      SYS / # / OBS TYPES 
S    9 X1  C1C L1C D1C S1C C5I L5I D5I S5I                  SYS / # / OBS TYPES 
R   17 X1  C1C L1C D1C S1C C2P L2P D2P S2P C2C L2C D2C S2C  SYS / # / OBS TYPES 
       C3Q L3Q D3Q S3Q                                      SYS / # / OBS TYPES 
C   25 X1  C1P L1P D1P S1P C5P L5P D5P S5P C2I L2I D2I S2I  SYS / # / OBS TYPES 
       C7I L7I D7I S7I C6I L6I D6I S6I C7D L7D D7D S7D      SYS / # / OBS TYPES 
J   17 X1  C1C L1C D1C S1C C2L L2L D2L S2L C5Q L5Q D5Q S5Q  SYS / # / OBS TYPES 
       C1L L1L D1L S1L                                      SYS / # / OBS TYPES 
I    5 X1  C5A L5A D5A S5A                                  SYS / # / OBS TYPES 
SEPTENTRIO RECEIVERS OUTPUT ALIGNED CARRIER PHASES.         COMMENT             
NO FURTHER PHASE SHIFT APPLIED IN THE RINEX ENCODER.        COMMENT             
G L1C                                                       SYS / PHASE SHIFT   
G L2W                                                       SYS / PHASE SHIFT   
G L2L  0.00000                                              SYS / PHASE SHIFT   
G L5Q  0.00000                                              SYS / PHASE SHIFT   
G L1L  0.00000                                              SYS / PHASE SHIFT   
E L1C  0.00000                                              SYS / PHASE SHIFT   
E L6C  0.00000                                              SYS / PHASE SHIFT   
E L5Q  0.00000                                              SYS / PHASE SHIFT   
E L7Q  0.00000                                              SYS / PHASE SHIFT   
E L8Q  0.00000                                              SYS / PHASE SHIFT   
S L1C                                                       SYS / PHASE SHIFT   
S L5I                                                       SYS / PHASE SHIFT   
R L1C                                                       SYS / PHASE SHIFT   
R L2P  0.00000                                              SYS / PHASE SHIFT   
R L2C                                                       SYS / PHASE SHIFT   
R L3Q  0.00000                                              SYS / PHASE SHIFT   
C L1P  0.00000                                              SYS / PHASE SHIFT   
C L5P  0.00000                                              SYS / PHASE SHIFT   
C L2I                                                       SYS / PHASE SHIFT   
C L7I                                                       SYS / PHASE SHIFT   
C L6I                                                       SYS / PHASE SHIFT   
C L7D                                                       SYS / PHASE SHIFT   
J L1C                                                       SYS / PHASE SHIFT   
J L2L  0.00000                                              SYS / PHASE SHIFT   
J L5Q  0.00000                                              SYS / PHASE SHIFT   
J L1L  0.00000                                              SYS / PHASE SHIFT   
I L5A                                                       SYS / PHASE SHIFT   
  2025     1     2    23     0    0.0000000     GPS         TIME OF FIRST OBS   
 C1C    0.000 C2C    0.000 C2P    0.000                     GLONASS COD/PHS/BIS 
DBHZ                                                        SIGNAL STRENGTH UNIT
    18                                                      LEAP SECONDS        
 24 R01  1 R02 -4 R03  5 R04  6 R05  1 R06 -4 R07  5 R08  6 GLONASS SLOT / FRQ #
    R09 -2 R10 -7 R11  0 R12 -1 R13 -2 R14 -7 R15  0 R16 -1 GLONASS SLOT / FRQ #
    R17  4 R18 -3 R19  3 R20  2 R21  4 R22 -3 R23  3 R24  2 GLONASS SLOT / FRQ #
                                                            END OF HEADER       
> 2025 01 02 23 00  0.0000000  0 36
G10         1.000                                                                                                                                                                    23415310.825 5  95881789.38605     -2933.801 5        32.760
G03         2.000    22807326.365 5 119853237.15705      2291.388 5        31.223                                    22807316.449 1  93392164.02901      1785.494 1         4.429
G32         3.000    22020420.239 8 115718197.75608     -1318.696 8        49.288                                    22020416.816 6  90170071.13106     -1027.551 6        41.309    22020417.894 6  90169926.15006     -1027.419 6        38.324
G21         4.000    20757703.283 6 109082516.55406      -968.719 6        40.164                                    20757697.222 4  84999330.90104      -754.847 4        29.422
G08         5.000    21788437.973 7 114499156.01207     -3604.088 7        47.902                                    21788435.234 7  89220026.27407     -2808.378 7        42.573    21788436.353 6  89220008.27906     -2808.349 6        41.383
G02         6.000    21329163.180 7 112085591.20007       493.062 7        43.266                                    21329154.104 4  87339325.87904       384.206 4        25.188
G14         7.000    24038370.860 4 126322450.45204     -1300.151 4        28.142                                                                                                    24038369.161 5  98433108.97905     -1013.135 5        31.864
E03         9.000    24746552.150 5 130043988.47205       875.043 5        33.844                                                                    24746544.302 6  97110743.91606       653.701 6        41.159    24746541.971 6  99644101.56906       670.647 6        41.495
G17        10.000    25079892.831 6 131795714.61706      2377.948 6        37.985                                    25079885.691 3 102697938.52403      1852.941 3        18.687    25079887.914 4                      1853.128 4        29.128
E05        11.000    24138929.103 6 126850943.78006     -1927.604 6        38.856                                                                    24138928.091 7  94726374.63807     -1439.422 7        42.047    24138928.289 6  97197563.22106     -1476.944 6        41.325
E13        12.000    25761991.179 6 135380186.20406      1272.464 6        39.910                                                                    25761990.725 6 101095572.92606       950.100 6        36.442    25761989.603 6 103732855.67406       974.879 6        38.246
G27        13.000    24255404.128 5 127463018.60105     -4686.611 5        34.010                                    24255413.715 1  99321868.58101     -3651.845 1        11.333    24255412.291 4  99321836.35704     -3652.168 4        26.371
E27        14.000                                                                                                                                    27463644.005 4 107773277.87704     -2647.007 4        29.886    27463642.918 5 110584707.95205     -2716.130 5        31.713
E21        15.000    27023210.763 6 142007976.26806     -1652.465 6        36.798                                                                    27023227.144 5 106044893.25305     -1233.864 5        32.725    27023211.012 5 108811262.66705     -1266.083 5        34.433
E15        16.000    23483938.888 6 123409034.82706      -769.027 6        39.778                                                                    23483938.470 7  92156023.74207      -574.317 7        45.228    23483938.657 7  94560109.53407      -589.252 7        46.924
S23        17.000    38317155.380 6 201357950.73706      -856.143 6        41.170
E08        19.000    27435202.843 4 144172989.13004      2380.771 4        28.199                                                                                                                                    27435199.476 5 110470183.31505      1823.973 5        31.547
S36        21.000    38361100.426 6 201589036.25006      -857.888 6        36.147
R06        25.000    19432725.143 5                      -929.246 5        31.683
R13        26.000    23682120.993 5                     -2476.064 5        32.503
R07        27.000    21030133.559 6 112575994.39006      2648.823 6        41.056                                                                    21030139.007 5  87559065.13605      2060.405 5        30.951
R05        28.000    22912309.368 4 122479510.26104     -4925.684 4        27.760                                                                    22912292.099 5                     -3831.250 5        31.042
C41        29.000                                                                                                                                    24633166.145 6 128271551.08306      2218.527 6        36.575                                                                    24633166.808 4 104231054.41404      1802.592 4        29.536
E34        32.000    25664416.154 5 134867408.31605     -2850.022 5        34.843                                                                    25664416.088 6 100712752.59106     -2128.033 6        37.853    25664418.341 6 103339943.60806     -2183.741 6        38.408
R22        35.000    20421586.587 7 109011813.51507      1653.833 7        46.114                                                                    20421585.798 7  84786993.31607      1286.410 7        45.637
C33        37.000                                                                                                                                    22108657.185 7 115125604.88207      -135.322 7        44.822                                                                    22108667.574 8  93548991.48008      -109.979 8        48.323
C11        38.000                                                                                                                                                                                                    25874513.545 4                     -3097.540 4        25.368
R21        39.000    19773698.554 7 105813110.37307     -2198.025 7        47.578                                                                    19773696.427 6  82299028.48806     -1709.589 6        40.815
C27        41.000                                                                                                                                    23952085.405 7 124725004.64407      1798.742 7        44.703                                                                    23952083.230 6 101349136.44906      1461.657 6        40.770
C14        42.000                                                                                                                                    22344382.369 7 116353102.34007     -1867.302 7        42.214    22344380.206 8  89971537.32008     -1443.907 8        51.355    22344379.128 8  94546398.77708     -1517.270 8        49.104
C13        43.000                                                                                                                                    40547252.985 4                     -1698.434 4        24.797
C43        48.000                                                                                                                                    24047528.002 6 125221900.27306     -3682.734 6        38.709
C42        50.000                                                                                                                                    23881595.454 6 124357904.33306     -3259.465 6        38.459                                                                    23881594.050 6 101050933.53206     -2648.571 6        38.324
I01        53.000   416392324.619 6 330872154.09406     -2583.964 6        41.633
C28        55.000                                                                                                                                    21669816.414 7 112840392.38907      -427.214 7        46.587                                                                    21669815.466 7  91692064.83107      -347.036 7        42.836
I06        56.000    38535185.762 6 151220342.90106      -534.211 6        36.756
> 2025 01 02 23 00  5.0000000  0 37
G10         1.000                                                                                                                                                                    23418892.928 5  95896459.92105     -2934.462 5        33.689
G03         2.000    22805140.916 5 119841783.46205      2290.032 5        34.200                                    22805137.231 1  93383238.94801      1784.378 1         7.000    22805148.781 3                      1785.075 3        20.286
G32         3.000    22021675.980 8 115724799.29208     -1321.869 8        48.255                                    22021672.931 6  90175215.17806     -1030.025 6        40.472    22021673.178 6  90175070.20906     -1029.932 6        38.691
G21         4.000    20758625.705 6 109087364.98306      -970.483 6        40.429                                    20758620.325 5  85003108.89105      -756.222 5        30.408
G08         5.000    21791867.994 8 114517181.66408     -3606.088 8        48.043                                    21791865.478 7  89234072.24307     -2809.935 7        42.969    21791866.548 7  89234054.24607     -2809.954 7        42.254
G02         6.000    21328695.156 7 112083129.72507       491.519 7        43.518                                    21328685.330 4  87337407.85804       382.989 4        26.575
G14         7.000    24039604.542 3                     -1303.467 3        22.095                                                                                                    24039605.937 5  98438179.44705     -1015.207 5        32.533
E03         9.000    24745720.020 5 130039617.69605       872.942 5        32.198                                                                    24745712.741 6  97107480.03306       652.139 6        41.692    24745710.648 7  99640752.54907       669.092 7        42.684
G17        10.000    25077630.837 5 131783827.01705      2377.169 5        35.286                                    25077623.976 3 102688675.43603      1852.304 3        18.537    25077623.820 4                      1852.521 4        28.332
E05        11.000    24140765.072 6 126860587.51206     -1929.864 6        39.153                                                                    24140763.101 6  94733576.14206     -1441.183 6        41.645    24140763.442 7  97204952.59707     -1478.783 7        42.339
E13        12.000    25760779.998 6 135373825.68206      1271.834 6        39.210                                                                    25760779.595 6 101090823.16606       949.898 6        37.100    25760779.778 6 103727982.02906       974.612 6        38.742
G27        13.000    24259864.346 5 127486454.56605     -4687.620 5        30.053                                    24259873.009 1  99340130.35401     -3652.667 1         9.143    24259875.710 3                     -3652.917 3        21.952
E27        14.000    27467012.828 3                     -3544.810 3        22.933                                                                    27467012.417 4 107786515.16904     -2647.695 4        26.000    27467017.013 5 110598290.68905     -2716.736 5        32.024
E21        15.000    27024782.288 5 142016243.63605     -1654.376 5        34.367                                                                    27024798.365 5 106051067.03205     -1235.588 5        32.539    27024784.156 5 108817597.40205     -1267.736 5        35.305
E15        16.000    23484670.809 6 123412883.28206      -770.277 6        41.290                                                                    23484670.777 7  92158897.59307      -575.219 7        44.873    23484670.792 7  94563058.34307      -590.228 7        46.398
S23        17.000    38317966.801 6 201362231.84506      -856.140 6        41.836
E08        19.000    27432938.389 4 144161087.09104      2380.897 4        28.218                                                                                                                                    27432935.855 4 110461063.63204      1823.972 4        29.706
R20        20.000                                                                                                                                    23510691.271 3                     -3513.356 3        19.672
S36        21.000    38361917.458 5 201593325.92305      -857.831 5        35.252
R06        25.000    19433599.744 5                      -933.765 5        34.624
R13        26.000    23684442.914 5                     -2479.843 5        31.811
R07        27.000    21027659.215 6 112562756.75106      2646.372 6        40.408                                                                    21027666.030 5  87548769.25505      2058.217 5        32.653
R05        28.000    22916904.213 5 122504143.31815     -4927.097 5        31.804                                                                    22916903.102 4                     -3832.271 4        29.175
C41        29.000                                                                                                                                    24631036.341 6 128260462.83406      2217.049 6        38.246                                                                    24631040.464 5 104222044.34705      1801.529 5        32.880
E34        32.000    25667128.735 5 134881659.98605     -2850.952 5        33.707                                                                    25667127.598 6 100723395.04606     -2128.698 6        37.554    25667129.454 6 103350863.67706     -2184.418 6        39.300
R22        35.000    20420037.365 7 109003548.99107      1651.965 7        43.767                                                                    20420037.869 7  84780565.34607      1284.889 7        46.479
C33        37.000                                                                                                                                    22108788.098 7 115126288.32407      -137.932 7        46.005                                                                    22108798.887 8  93549546.84108      -112.093 8        48.180
C11        38.000                                                                                                                                    25878359.962 3                     -4006.949 3        18.537    25878362.038 4                     -3096.896 4        25.308
R21        39.000    19775753.087 7 105824108.14807     -2201.130 7        46.580                                                                    19775751.726 7  82307582.30907     -1711.928 7        42.235
C27        41.000                                                                                                                                    23950358.067 7 124716013.77407      1797.736 7        45.529                                                                    23950356.461 6 101341830.61906      1460.785 6        41.235
C14        42.000                                                                                                                                    22346177.320 6 116362445.16006     -1869.711 6        41.964    22346174.498 8  89978761.76708     -1445.749 8        51.599    22346173.301 8  94553990.56508     -1519.272 8        49.416
C13        43.000                                                                                                                                    40548883.638 4                     -1698.907 4        25.925
C43        48.000                                                                                                                                    24051063.859 6 125240316.80606     -3683.752 6        37.679                                                                    24051057.825 5                     -2993.076 5        33.192
C42        50.000                                                                                                                                    23884727.689 6 124374205.73906     -3261.058 6        39.228                                                                    23884724.588 6 101064179.73806     -2649.803 6        40.072
I01        53.000   416395617.676 6 330885075.00606     -2584.338 6        41.640
C28        55.000                                                                                                                                    21670227.946 7 112842534.19707      -429.500 7        45.667                                                                    21670226.491 7  91693805.21907      -349.007 7        42.434
I06        56.000    38535866.830 6 151223013.82906      -534.208 6        37.210
> 2025 01 02 23 00 10.0000000  0 37
G10         1.000    23422511.367 4                     -3766.050 4        28.711                                                                                                    23422478.220 5  95911132.72905     -2934.508 5        34.995
G03         2.000    22802960.290 6 119830335.75806      2289.099 6        38.495                                    22802959.139 1  93374318.58101      1783.782 1         7.750    22802954.506 3                      1784.667 3        20.429
G32         3.000    22022935.203 8 115731416.12308     -1324.668 8        48.019                                    22022932.144 6  90180371.14906     -1032.188 6        40.031    22022931.290 6  90180226.16006     -1032.260 6        37.709
G21         4.000    20759550.344 6 109092221.75406      -971.936 6        41.828                                    20759544.869 5  85006893.38905      -757.352 5        31.487
G08         5.000    21795299.829 7 114535217.22807     -3607.854 7        47.125                                    21795297.591 7  89248125.93307     -2811.311 7        43.088    21795298.305 7  89248107.93507     -2811.343 7        42.061
G02         6.000    21328228.610 7 112080675.22307       490.380 7        43.082                                    21328217.925 4  87335495.28004       382.099 4        26.695
G14         7.000    24040851.270 4                     -1305.510 4        25.308                                                                                                    24040848.938 5  98443261.24705     -1017.564 5        32.078
E03         9.000                                                                                                                                    24744882.429 7  97104223.41707       650.705 7        42.144    24744881.303 7  99637410.96107       667.741 7        43.484
G17        10.000    25075369.314 5 131771942.88705      2376.832 5        34.100                                    25075362.869 3 102679415.08503      1852.065 3        18.448    25075366.688 4                      1851.918 4        28.891
E05        11.000    24142602.719 6 126870242.01606     -1931.754 6        37.323                                                                    24142600.283 6  94740785.67506     -1442.634 6        41.051    24142600.503 7  97212350.20607     -1480.149 7        42.646
E13        12.000    25759569.261 6 135367466.63006      1271.930 6        37.580                                                                    25759568.939 6 101086074.57006       949.676 6        37.028    25759569.873 6 103723109.53106       974.496 6        39.736
G27        13.000    24264323.178 5 127509892.36705     -4687.461 5        31.992                                    24264333.184 1  99358393.71401     -3652.628 1         6.250
E27        14.000    27470386.287 3                     -3545.576 3        21.786                                                                    27470386.497 4 107799754.84304     -2647.239 4        24.857    27470391.363 5 110611875.77005     -2716.946 5        30.792
E21        15.000    27026358.896 5 142024521.99305     -1656.766 5        33.683                                                                    27026374.364 5 106057248.94105     -1237.043 5        33.305    27026360.850 5 108823940.54505     -1269.153 5        35.100
E15        16.000    23485403.783 7 123416736.98507      -771.040 7        42.483                                                                    23485404.079 7  92161775.34007      -575.868 7        44.220    23485404.377 7  94566011.16807      -590.817 7        46.536
S23        17.000    38318783.530 6 201366512.43606      -855.790 6        40.663
E08        19.000    27430674.157 4 144149185.94804      2380.323 4        29.052                                                                                                                                    27430669.920 4 110451944.59504      1823.646 4        29.318
S36        21.000    38362736.337 6 201597615.09306      -857.662 6        36.858
R06        25.000    19434477.030 5 103706089.99015      -937.533 5        35.443
R13        26.000    23686765.604 4                     -2483.615 4        29.602
R07        27.000    21025190.951 6 112549531.64606      2644.065 6        40.763                                                                    21025196.021 5  87538482.97205      2056.557 5        32.251
R05        28.000                                                                                                                                    22921514.096 4                     -3833.262 4        28.227
C41        29.000                                                                                                                                    24628908.066 6 128249380.06206      2216.325 6        38.826                                                                    24628912.266 5 104213038.69805      1800.792 5        34.062
R12        30.000                                                                                                                                    24572807.818 3                     -3334.710 3        21.310
E34        32.000    25669838.149 5 134895914.90105     -2851.315 5        30.075                                                                    25669840.058 6 100734039.97606     -2129.034 6        36.185    25669842.151 6 103361786.28406     -2184.554 6        39.225
R22        35.000    20418490.742 7 108995293.55907      1650.484 7        43.458                                                                    20418491.141 7  84774144.42907      1283.710 7        46.428
C33        37.000                                                                                                                                    22108921.107 7 115126984.19707      -140.227 7        46.049                                                                    22108932.574 8  93550112.30108      -113.971 8        48.167
C11        38.000                                                                                                                                                                                                    25882212.047 4                     -3098.677 4        27.234
R21        39.000    19777810.972 7 105835120.81007     -2203.740 7        47.062                                                                    19777810.557 7  82316147.70307     -1714.068 7        44.047
C27        41.000                                                                                                                                    23948631.844 7 124707027.61707      1796.988 7        47.083                                                                    23948630.299 6 101334528.63206      1460.080 6        41.211
C14        42.000                                                                                                                                    22347973.881 6 116371799.44906     -1871.770 6        41.421    22347970.440 8  89985995.08508     -1447.431 8        51.230    22347969.466 8  94561591.69108     -1521.005 8        49.236
C13        43.000                                                                                                                                    40550513.325 4                     -1697.893 4        24.782    40550517.540 3                     -1315.016 3        20.310
C43        48.000                                                                                                                                    24054600.860 6 125258739.05006     -3684.805 6        37.164                                                                    24054597.145 5 101782847.92115     -2994.252 5        34.457
C42        50.000                                                                                                                                    23887863.479 6 124390514.33906     -3262.240 6        40.717                                                                    23887856.644 6 101077431.81406     -2650.990 6        40.186
I01        53.000   416398910.088 6 330897996.78106     -2584.248 6        41.468
C28        55.000                                                                                                                                    21670641.694 7 112844686.74607      -431.423 7        45.916                                                                    21670639.776 7  91695554.35707      -350.534 7        42.171
I06        56.000    38536547.314 6 151225684.31106      -533.838 6        36.688
> 2025 01 02 23 00 15.0000000  0 37
G10         1.000                                                                                                                                                                    23426061.811 5  95925807.95205     -2935.159 5        34.705
G03         2.000    22800788.911 6 119818894.17806      2287.708 6        38.300                                    22800782.313 2  93365403.13202      1782.614 2        13.636    22800791.037 3                      1781.531 3        23.867
G32         3.000    22024197.273 7 115738048.43107     -1327.873 7        46.241                                    22024194.577 6  90185539.16306     -1034.698 6        38.745    22024193.370 6  90185394.20706     -1034.758 6        38.772
G21         4.000    20760476.360 7 109097087.12107      -973.851 7        42.159                                    20760470.907 5  85010684.58205      -758.849 5        31.917
G08         5.000    21798733.611 8 114553262.90708     -3610.044 8        48.099                                    21798731.569 7  89262187.50507     -2813.020 7        42.806    21798732.440 7  89262169.50707     -2812.961 7        42.027
G02         6.000    21327762.317 6 112078227.91506       488.795 6        41.497                                    21327752.255 4  87333588.31404       380.879 4        26.132
G14         7.000    24042107.345 4                     -1308.622 4        26.108                                                                                                    24042091.782 4  98448354.33304     -1019.455 4        25.459
E03         9.000    24744052.943 5                       868.966 5        30.725                                                                    24744054.006 6  97100974.20706       649.176 6        41.161    24744053.695 7  99634076.97907       666.109 7        43.953
G17        10.000    25073109.069 5 131760062.38705      2376.012 5        34.343                                    25073102.464 3 102670157.52303      1851.456 3        18.806    25073105.281 5                      1851.129 5        31.804
E05        11.000    24144441.046 5 126879907.51805     -1934.167 5        34.667                                                                    24144439.492 6  94748003.41506     -1444.221 6        40.694    24144440.037 7  97219756.24707     -1481.962 7        43.361
E13        12.000    25758359.555 6 135361109.33206      1271.458 6        38.003                                                                    25758359.853 6 101081327.25006       949.517 6        37.769    25758360.172 6 103718238.37806       974.105 6        39.709
E27        14.000    27473764.142 4                     -3546.645 4        25.248                                                                    27473759.356 4 107812997.17204     -2647.987 4        25.053    27473765.094 5 110625463.58405     -2717.994 5        30.030
E21        15.000    27027936.714 5 142032811.55205     -1659.005 5        32.838                                                                    27027950.729 5 106063439.25205     -1239.042 5        33.000    27027938.572 5 108830292.26805     -1270.955 5        35.567
E15        16.000    23486138.201 7 123420596.17407      -772.391 7        42.910                                                                    23486138.469 7  92164657.18607      -576.720 7        43.905    23486138.863 7  94568968.19607      -591.729 7        46.773
S23        17.000    38319595.554 6 201370792.78606      -855.851 6        40.129
E08        19.000    27428409.702 4 144137285.89404      2380.239 4        29.744                                                                                                                                    27428406.095 5 110442826.35505      1823.838 5        31.449
R20        20.000                                                                                                                                    23519160.538 3                     -3510.514 3        21.762
S36        21.000    38363553.061 5 201601903.67805      -857.587 5        34.390
R06        25.000    19435358.707 5 103710789.80405      -941.980 5        35.805
R13        26.000    23689088.653 5 126498407.02915     -2486.837 5        31.547
R07        27.000    21022724.372 6 112536319.48706      2641.441 6        39.655                                                                    21022727.945 5  87528206.79405      2054.190 5        33.180
R05        28.000                                                                                                                                    22926120.480 4                     -3834.334 4        28.701
C41        29.000                                                                                                                                    24626782.206 6 128238302.98706      2214.939 6        38.634                                                                    24626785.604 5 104204037.72105      1799.825 5        33.533
E34        32.000    25672552.365 5 134910173.34205     -2852.252 5        31.789                                                                    25672552.896 5 100744687.58505     -2129.775 5        34.414    25672557.183 6 103372711.63606     -2185.096 6        39.222
R22        35.000    20416947.621 7 108987047.42907      1648.388 7        46.294                                                                    20416946.449 7  84767730.77107      1281.974 7        46.741
C33        37.000                                                                                                                                    22109056.420 7 115127692.73207      -142.882 7        45.409                                                                    22109068.875 8  93550688.05208      -116.133 8        48.100
C11        38.000                                                                                                                                                                                                    25886057.643 4                     -3099.466 4        24.496
R21        39.000    19779871.365 8 105846148.42408     -2206.900 8        48.279                                                                    19779870.863 7  82324724.73607     -1716.395 7        44.072
R23        40.000    24261386.967 4                      3053.111 4        27.461
C27        41.000                                                                                                                                    23946906.992 7 124698046.41907      1795.816 7        47.859                                                                    23946905.470 6 101327230.70106      1459.354 6        40.911
C14        42.000                                                                                                                                    22349772.524 6 116381165.48106     -1874.241 6        41.051    22349768.910 8  89993237.51308     -1449.342 8        51.028    22349767.830 8  94569202.39208     -1523.002 8        49.030
C13        43.000                                                                                                                                    40552143.701 3                     -1697.962 3        22.571    40552137.108 3                     -1311.045 3        22.495
C43        48.000                                                                                                                                    24058138.872 6 125277167.29106     -3686.055 6        38.126                                                                    24058137.651 5 101797822.38005     -2995.441 5        35.452
C42        50.000                                                                                                                                    23890995.310 6 124406830.34806     -3263.971 6        39.207                                                                    23890990.528 6 101090689.90306     -2652.168 6        40.956
I01        53.000   416402203.160 6 330910919.65306     -2584.666 6        41.614
C28        55.000                                                                                                                                    21671057.484 7 112846850.29207      -433.677 7        46.530                                                                    21671054.985 6  91697312.44106      -352.445 6        41.316
I06        56.000    38537226.666 6 151228354.64506      -534.090 6        37.248
> 2025 01 02 23 00 20.0000000  0 40
G10         1.000                                                                                                                                                                    23429645.898 5  95940485.58905     -2935.953 5        34.162
G03         2.000    22798612.337 6 119807458.77606      2286.511 6        41.180                                    22798606.676 2  93356492.36802      1781.694 2        15.381    22798624.277 4                      1781.788 4        26.036
G32         3.000    22025461.975 7 115744696.12407     -1331.098 7        45.774                                    22025460.194 6  90190719.17906     -1037.214 6        37.675    22025460.529 6  90190574.22706     -1037.430 6        39.081
G21         4.000    20761403.595 7 109101960.95107      -975.642 7        42.830                                    20761398.402 5  85014482.37405      -760.242 5        32.066
G08         5.000    21802170.164 8 114571318.60608     -3612.210 8        48.106                                    21802167.618 7  89276256.89707     -2814.705 7        42.764    21802168.998 6  89276238.85106     -2814.565 6        41.628
G02         6.000    21327297.300 6 112075787.65506       487.415 6        40.536                                    21327288.252 4  87331686.82804       379.815 4        25.805
G14         7.000    24043358.491 4                     -1311.381 4        26.192
E03         9.000    24743228.537 5                       867.392 5        32.653                                                                    24743226.833 6  97097732.34306       647.674 6        39.468    24743228.282 7  99630750.53207       664.517 7        45.094
G17        10.000    25070850.646 5 131748185.49105      2375.279 5        32.323                                    25070843.141 3 102660902.77903      1850.855 3        18.806    25070844.299 5                      1850.625 5        31.660
E05        11.000    24146282.268 5 126889583.91305     -1936.518 5        35.376                                                                    24146281.472 6  94755229.27106     -1446.015 6        41.254    24146282.158 7  97227170.62007     -1483.814 7        44.384
E13        12.000    25757150.980 5 135354753.67705      1271.072 5        35.895                                                                    25757150.949 6 101076581.14906       949.161 6        38.441    25757151.679 6 103713368.46906       973.867 6        40.141
G27        13.000    24273244.043 3 127556774.49813     -4689.462 3        22.838
E27        14.000    27477143.325 5                     -3547.740 5        30.423                                                                                                                                    27477140.496 5 110639053.83305     -2718.618 5        30.845
E21        15.000    27029516.766 5 142041112.16005     -1661.319 5        31.109                                                                    27029528.683 5 106069637.82305     -1240.596 5        34.857    27029517.178 5 108836652.55105     -1273.096 5        34.990
E15        16.000    23486873.786 7 123424460.73807      -773.574 7        42.906                                                                    23486873.668 7  92167543.05407      -577.609 7        43.498    23486874.278 7  94571929.33607      -592.621 7        46.521
S23        17.000    38320408.768 6 201375072.76506      -855.861 6        41.156
E08        19.000    27426145.363 5 144125386.77505      2379.782 5        30.287                                                                                                                                    27426144.145 5 110433708.84705      1823.207 5        31.049
R20        20.000                                                                                                                                    23523394.319 4                     -3515.128 4        24.195
S36        21.000    38364369.521 5 201606192.35305      -857.848 5        33.006
R06        25.000    19436241.955 5 103715510.64405      -946.400 5        35.114
R13        26.000    23691420.846 5 126510850.99905     -2490.601 5        35.452
R07        27.000    21020261.275 6 112523120.02406      2638.549 6        41.249                                                                    21020259.725 5  87517940.60305      2052.429 5        34.395
R05        28.000                                                                                                                                    22930731.640 5                     -3834.989 5        30.377
C41        29.000                                                                                                                                    24624654.572 5 128227231.57605      2213.824 5        35.714                                                                    24624661.240 5 104195041.24705      1798.839 5        33.796
R12        30.000                                                                                                                                    24580845.237 3                     -3338.174 3        19.672
E34        32.000    25675266.598 5 134924435.24405     -2852.708 5        30.475                                                                    25675268.428 5 100755337.71605     -2130.326 5        35.976    25675270.389 6 103383639.64006     -2185.799 6        38.526
R22        35.000    20415406.511 7 108978810.49007      1646.397 7        47.432                                                                    20415403.384 7  84761324.27007      1280.500 7        46.811
C33        37.000                                                                                                                                    22109195.025 7 115128413.79907      -145.556 7        45.672                                                                    22109207.284 8  93551273.95408      -118.312 8        48.019
C11        38.000                                                                                                                                                                                                    25889899.576 3                     -3100.543 3        23.695
R21        39.000    19781935.686 8 105857190.92608     -2210.060 8        48.796                                                                    19781935.100 7  82333313.35107     -1718.943 7        44.507
R23        40.000    24258536.840 5                      3054.149 5        32.509
C27        41.000                                                                                                                                    23945182.738 7 124689070.08107      1794.693 7        47.666                                                                    23945182.246 6 101319936.69106      1458.359 6        41.707
C14        42.000                                                                                                                                    22351572.793 6 116390543.17606     -1876.845 6        39.931    22351569.723 8  90000488.91908     -1451.213 8        50.583    22351568.960 8  94576822.49208     -1525.032 8        49.161
C13        43.000                                                                                                                                    40553772.789 3                     -1698.423 3        20.714    40553762.856 3                     -1311.490 3        20.500
C39        45.000                                                                                                                                    40033614.141 4                       538.747 4        25.263
C43        48.000                                                                                                                                    24061680.904 6 125295601.35106     -3687.380 6        36.227                                                                    24061680.094 6 101812801.58506     -2996.432 6        36.204
C42        50.000                                                                                                                                    23894126.813 6 124423153.69806     -3265.475 6        39.679                                                                    23894125.732 6 101103953.91206     -2653.455 6        41.166
I01        53.000   416405496.878 7 330923843.49707     -2584.894 7        42.080
C28        55.000                                                                                                                                    21671475.064 7 112849024.71107      -435.989 7        47.085                                                                    21671472.924 6  91699079.33806      -354.254 6        41.163
I06        56.000    38537906.288 5 151231024.65105      -534.187 5        35.157
> 2025 01 02 23 00 25.0000000  0 38
G10         1.000    23433245.246 3                     -3767.623 3        23.486                                                                                                    23433229.679 5  95955166.21705     -2936.185 5        32.713
G03         2.000    22796437.203 7 119796030.32607      2285.151 7        42.540                                    22796432.359 2  93347587.06302      1780.651 2        15.476
G32         3.000    22026730.141 7 115751360.05907     -1334.233 7        45.117                                    22026728.918 6  90195911.81706     -1039.662 6        37.217    22026728.145 6  90195766.90606     -1039.705 6        37.448
G21         4.000    20762332.817 7 109106844.08707      -977.406 7        42.891                                    20762327.645 5  85018287.42505      -761.620 5        32.024
G08         5.000    21805608.131 8 114589385.06208     -3614.203 8        48.274                                    21805605.728 7  89290334.64407     -2816.259 7        42.815    21805606.300 6  89290316.61606     -2816.371 6        40.436
G02         6.000    21326833.993 6 112073355.22506       485.894 6        41.418                                    21326825.887 4  87329791.41604       378.609 4        24.797
G14         7.000    24044578.381 5                     -1314.365 5        30.113                                                                                                    24044565.790 4  98458575.34204     -1024.457 4        27.748
E03         9.000    24742405.633 6 130022217.51216       865.152 6        36.280                                                                    24742402.536 6  97094498.41006       646.180 6        39.459    24742404.694 7  99627432.26307       662.892 7        45.597
G17        10.000    25068589.831 5 131736312.97705      2374.314 5        34.871                                    25068584.417 3 102651651.47403      1850.100 3        18.537    25068586.071 5                      1850.105 5        31.683
E05        11.000    24148127.474 6 126899271.96506     -1938.563 6        37.471                                                                    24148125.090 7  94762463.86807     -1447.719 7        42.330    24148126.413 7  97234593.94307     -1485.457 7        45.123
E13        12.000    25755943.037 6 135348400.51306      1270.492 6        36.669                                                                    25755942.905 6 101071836.88406       948.626 6        39.360    25755942.284 6 103708500.45706       973.528 6        40.315
G27        13.000    24277702.246 4                     -4689.224 4        29.071                                                                                                    24277705.822 3                     -3653.787 3        22.152
E27        14.000    27480517.530 4                     -3548.159 4        27.401                                                                    27480512.259 4 107839489.68204     -2649.103 4        24.977    27480517.781 5 110652647.22205     -2718.696 5        31.208
E21        15.000    27031099.726 5 142049424.72205     -1663.587 5        34.729                                                                    27031111.107 5 106075845.24305     -1242.260 5        34.557    27031098.290 5 108843021.88705     -1274.466 5        35.329
E15        16.000    23487610.247 7 123428331.47507      -774.631 7        43.848                                                                    23487610.183 7  92170433.52807      -578.471 7        43.706    23487611.249 7  94574895.22407      -593.538 7        47.149
S23        17.000    38321226.770 6 201379353.30306      -855.787 6        40.083
E08        19.000    27423884.180 4 144113489.45604      2379.820 4        29.829                                                                                                                                    27423877.487 4 110424592.74104      1823.659 4        26.778
R20        20.000                                                                                                                                    23527604.423 3                     -3514.691 3        22.686
S36        21.000    38365186.205 5 201610481.40005      -857.394 5        33.126
R06        25.000    19437128.836 5 103720253.40405      -950.683 5        35.005
R13        26.000    23693754.431 5 126523313.53805     -2494.407 5        33.731
R07        27.000    21017800.287 7 112509934.21907      2635.865 7        42.047                                                                    21017794.103 5  87507685.00005      2050.326 5        35.109
R05        28.000    22935375.023 5 122602673.69715     -4932.307 5        33.222                                                                    22935342.915 3                     -3836.707 3        22.762
C41        29.000                                                                                                                                    24622527.772 5 128216166.62205      2212.744 5        33.665                                                                    24622538.340 4 104186049.95904      1798.010 4        29.223
E34        32.000    25677980.265 5 134938701.46905     -2853.494 5        34.029                                                                    25677985.415 6 100765991.04406     -2130.958 6        36.250    25677983.749 6 103394570.92906     -2186.524 6        38.829
R22        35.000    20413865.975 8 108970583.61508      1644.514 8        49.495                                                                    20413862.160 7  84754925.60107      1278.987 7        47.228
C33        37.000                                                                                                                                    22109336.255 7 115129148.22107      -148.112 7        46.764                                                                    22109348.457 7  93551870.73707      -120.287 7        47.919
C11        38.000                                                                                                                                    25893749.757 3                     -4008.409 3        22.781    25893750.855 4                     -3099.678 4        24.992
R21        39.000    19784001.807 8 105868249.14708     -2213.078 8        48.979                                                                    19784001.687 7  82341914.19907     -1721.243 7        44.448
R23        40.000    24255684.271 5 129751565.26215      3054.327 5        31.555
C27        41.000                                                                                                                                    23943460.568 8 124680099.42208      1793.670 8        49.106                                                                    23943459.806 6 101312647.31306      1457.631 6        41.878
C14        42.000                                                                                                                                    22353375.332 6 116399933.26906     -1879.209 6        40.153    22353372.557 8  90007749.92108     -1453.067 8        49.521    22353372.293 8  94584452.73208     -1526.950 8        48.926
C39        45.000                                                                                                                                    40033101.157 3                       534.449 3        19.821
C43        48.000                                                                                                                                    24065220.665 5 125314042.04605     -3688.280 5        31.366                                                                    24065221.176 6 101827786.20206     -2997.393 6        36.049
C42        50.000                                                                                                                                    23897270.440 6 124439484.93606     -3266.898 6        40.188                                                                    23897262.034 6 101117224.49506     -2654.631 6        41.397
I01        53.000   416408790.173 6 330936768.93106     -2585.020 6        41.857
C28        55.000                                                                                                                                    21671894.829 7 112851210.86207      -438.313 7        47.840                                                                    21671892.742 6  91700855.78506      -356.105 6        41.018
I06        56.000    38538586.743 6 151233694.97306      -533.968 6        36.091
> 2025 01 02 23 00 30.0000000  0 36
G10         1.000    23436820.125 4                     -3769.373 4        29.137                                                                                                    23436816.299 5  95969849.31705     -2936.877 5        32.838
G03         2.000    22794262.406 6 119784608.23606      2283.734 6        41.485                                    22794258.940 3  93338686.74403      1779.521 3        19.343
G32         3.000    22028000.522 7 115758039.58507     -1337.347 7        46.019                                    22028000.496 6  90201116.66406     -1042.081 6        36.238    22027998.909 6  90200971.71906     -1042.312 6        38.589
G21         4.000    20763263.394 7 109111735.89707      -979.123 7        42.284                                    20763258.368 5  85022099.23005      -762.955 5        31.577
G08         5.000    21809047.875 8 114607461.72808     -3616.259 8        49.009                                    21809045.702 7  89304420.34507     -2817.863 7        42.912    21809045.670 6  89304402.32606     -2817.961 6        40.501
G02         6.000    21326373.472 6 112070930.13506       484.339 6        40.367                                    21326364.827 4  87327901.74904       377.398 4        24.361
G14         7.000    24045834.791 5                     -1317.720 5        30.491
E03         9.000    24741580.516 6 130017896.93406       863.242 6        36.348                                                                    24741580.264 6  97091272.00106       644.506 6        38.685    24741582.220 7  99624121.67907       661.461 7        45.508
G17        10.000    25066332.004 5 131724444.29305      2373.623 5        30.815                                    25066326.194 3 102642403.13503      1849.572 3        18.328    25066326.270 4                      1849.405 4        29.081
E05        11.000    24149974.606 6 126908971.12106     -1940.817 6        38.015                                                                    24149971.367 7  94769706.72207     -1449.298 7        42.402    24149971.707 7  97242025.75507     -1487.158 7        45.025
E13        12.000    25754733.034 5 135342049.10805      1270.376 5        34.024                                                                    25754733.698 6 101067093.97706       948.476 6        38.847    25754733.613 6 103703633.85006       973.305 6        40.937
G27        13.000    24282170.904 5                     -4689.583 5        30.838                                                                                                    24282167.991 3                     -3653.121 3        20.262
E27        14.000    27483891.584 4                     -3549.107 4        28.493                                                                    27483891.112 4 107852740.07204     -2651.084 4        25.835    27483895.597 5 110666243.28705     -2719.299 5        32.090
E21        15.000    27032685.384 5 142057748.58905     -1665.929 5        35.738                                                                    27032693.637 6 106082061.13906     -1244.020 6        36.087    27032683.729 6 108849399.89706     -1276.373 6        36.439
