     3.04           OBSERVATION DATA    M                   RINEX VERSION / TYPE
ssrcrin-15.6.1x                         20250102 070000 UTC PGM / RUN BY / DATE 
(00000000023479385599111004) Septentrio proprietary         COMMENT             
ract                                                        MARKER NAME         
01                                                          MARKER NUMBER       
geodetic                                                    MARKER TYPE         
NFB                 CLIMERS@TUW                             OBSERVER / AGENCY   
3296359             SEPT ASTERX SB3 PROB4.14.4              REC # / TYPE / VERS 
Unknown             Unknown                                 ANT # / TYPE        
  4127447.6566  1206915.1310  4695545.1415                  APPROX POSITION XYZ 
        0.0000        0.0000        0.0000                  ANTENNA: DELTA H/E/N
G   23 X1  C1C L1C D1C S1C C1W S1W C2W L2W D2W S2W C2L L2L  SYS / # / OBS TYPES 
       D2L S2L C5Q L5Q D5Q S5Q C1L L1L D1L S1L              SYS / # / OBS TYPES 
E   21 X1  C1C L1C D1C S1C C6C L6C D6C S6C C5Q L5Q D5Q S5Q  SYS / # / OBS TYPES 
       C7Q L7Q D7Q S7Q C8Q L8Q D8Q S8Q                      SYS / # / OBS TYPES 
S    9 X1  C1C L1C D1C S1C C5I L5I D5I S5I                  SYS / # / OBS TYPES 
R   17 X1  C1C L1C D1C S1C C2P L2P D2P S2P C2C L2C D2C S2C  SYS / # / OBS TYPES 
       C3Q L3Q D3Q S3Q                                      SYS / # / OBS TYPES 
C   25 X1  C1P L1P D1P S1P C5P L5P D5P S5P C2I L2I D2I S2I  SYS / # / OBS TYPES 
       C7I L7I D7I S7I C6I L6I D6I S6I C7D L7D D7D S7D      SYS / # / OBS TYPES 
J   17 X1  C1C L1C D1C S1C C2L L2L D2L S2L C5Q L5Q D5Q S5Q  SYS / # / OBS TYPES 
       C1L L1L D1L S1L                                      SYS / # / OBS TYPES 
I    5 X1  C5A L5A D5A S5A                                  SYS / # / OBS TYPES 
SEPTENTRIO RECEIVERS OUTPUT ALIGNED CARRIER PHASES.         COMMENT             
NO FURTHER PHASE SHIFT APPLIED IN THE RINEX ENCODER.        COMMENT             
G L1C                                                       SYS / PHASE SHIFT   
G L2W                                                       SYS / PHASE SHIFT   
G L2L  0.00000                                              SYS / PHASE SHIFT   
G L5Q  0.00000                                              SYS / PHASE SHIFT   
G L1L  0.00000                                              SYS / PHASE SHIFT   
E L1C  0.00000                                              SYS / PHASE SHIFT   
E L6C  0.00000                                              SYS / PHASE SHIFT   
E L5Q  0.00000                                              SYS / PHASE SHIFT   
E L7Q  0.00000                                              SYS / PHASE SHIFT   
E L8Q  0.00000                                              SYS / PHASE SHIFT   
S L1C                                                       SYS / PHASE SHIFT   
S L5I                                                       SYS / PHASE SHIFT   
R L1C                                                       SYS / PHASE SHIFT   
R L2P  0.00000                                              SYS / PHASE SHIFT   
R L2C                                                       SYS / PHASE SHIFT   
R L3Q  0.00000                                              SYS / PHASE SHIFT   
C L1P  0.00000                                              SYS / PHASE SHIFT   
C L5P  0.00000                                              SYS / PHASE SHIFT   
C L2I                                                       SYS / PHASE SHIFT   
C L7I                                                       SYS / PHASE SHIFT   
C L6I                                                       SYS / PHASE SHIFT   
C L7D                                                       SYS / PHASE SHIFT   
J L1C                                                       SYS / PHASE SHIFT   
J L2L  0.00000                                              SYS / PHASE SHIFT   
J L5Q  0.00000                                              SYS / PHASE SHIFT   
J L1L  0.00000                                              SYS / PHASE SHIFT   
I L5A                                                       SYS / PHASE SHIFT   
  2025     1     2     7     0    0.0000000     GPS         TIME OF FIRST OBS   
 C1C    0.000 C2C    0.000 C2P    0.000                     GLONASS COD/PHS/BIS 
DBHZ                                                        SIGNAL STRENGTH UNIT
    18                                                      LEAP SECONDS        
 24 R01  1 R02 -4 R03  5 R04  6 R05  1 R06 -4 R07  5 R08  6 GLONASS SLOT / FRQ #
    R09 -2 R10 -7 R11  0 R12 -1 R13 -2 R14 -7 R15  0 R16 -1 GLONASS SLOT / FRQ #
    R17  4 R18 -3 R19  3 R20  2 R21  4 R22 -3 R23  3 R24  2 GLONASS SLOT / FRQ #
                                                            END OF HEADER       
> 2025 01 02 07 00  0.0000000  0 34
G13         1.000    21778852.718 6 114448625.76906      1797.272 6        40.260                                    21778851.419 2  89180729.42102      1400.460 2        12.000
G18         2.000    25322191.110 4 133069232.73604       622.715 4        29.365
G20         4.000    20996578.640 8 110337808.67908     -2304.464 8        49.168                                    20996574.869 4  85977461.13204     -1795.683 4        28.986
G07         5.000    21937668.167 5                     -2885.677 5        32.407                                                                                                    21937620.271 6  89830854.36906     -2248.550 6        38.751
G09         6.000    24043095.127 3                     -4087.702 3        20.214
G30         7.000    20434565.561 8 107384375.26608     -1053.615 8        49.575                                    20434563.270 8  83676055.55908      -820.997 8        50.040    20434564.479 7  83676103.56407      -820.930 7        45.083
G14         8.000    22319432.260 6 117289431.85106      2165.089 6        37.217                                    22319424.263 2  91394290.82102      1687.091 2        13.879    22319425.757 6  91394353.79106      1687.254 6        36.159
G15         9.000    24870978.880 5 130697822.42105      2853.884 5        35.052                                    24870989.973 1 101842568.70601      2223.762 1        10.518    24870991.413 4                      2223.813 4        27.138
E21        10.000    26350981.450 4                     -2463.451 4        29.867                                                                    26350916.773 5 103406705.40105     -1839.495 5        33.018    26350953.174 3 106104214.46403     -1888.035 3        23.581
E06        11.000    23467665.290 7 123323422.65607       -87.823 7        44.665                                                                    23467666.159 7  92092211.49607       -65.665 7        43.192    23467665.630 7  94494553.42907       -67.268 7        45.458
E31        13.000                                                                                                                                    26409590.678 6 103636955.94706      1665.443 6        39.880    26409591.843 6 106340473.17306      1708.908 6        41.993
G05        14.000    21228535.515 5 111556662.42405       230.684 5        35.533                                    21228518.035 3  86927277.37803       179.751 3        19.403    21228523.473 5                       179.514 5        32.156
E04        17.000    23416244.590 8 123053170.24108     -1333.416 8        50.401                                                                    23416243.193 7  91890415.77307      -995.642 7        44.483    23416243.920 7  94287487.53207     -1021.749 7        46.604
R08        18.000    22879127.997 4 122516805.40604     -4475.842 4        29.791                                                                    22879131.780 5                     -3481.229 5        30.679
E19        20.000                                                                                                                                    26617153.518 4                     -2402.837 4        26.132
E09        21.000    24798602.198 6 130317510.36606       878.083 6        39.273                                                                    24798602.830 7  97315034.59207       655.822 7        45.521    24798602.666 7  99853698.55407       673.001 7        44.926
E36        22.000    26530503.606 6 139418722.65406     -2343.044 6        36.170                                                                    26530507.187 6 104111420.33906     -1749.489 6        36.034    26530507.378 6 106827321.84806     -1795.242 6        40.360
S23        24.000    38168067.674 6 200574486.61606      -850.235 6        40.153
G11        25.000    25172131.552 3                     -4086.058 3        23.790
E34        26.000    27649151.548 6 145297344.22206       143.744 6        37.006                                                                    27649148.419 5 108501265.82805       107.487 5        33.359
R17        27.000    24097106.843 5 128948491.63805     -4243.305 5        31.479                                                                    24097154.833 4                     -3300.546 4        27.126
R18        28.000    23236621.355 7 124038744.69607     -1997.178 7        43.090                                                                    23236619.060 6  96474625.04206     -1553.350 6        38.733
S36        29.000    38233713.808 5 200919613.86805      -852.687 5        33.449
R11        30.000    19560947.544 8 104527789.41008     -2063.641 8        49.432                                                                    19560944.070 6  81299366.72406     -1604.910 6        40.276
C20        31.000                                                                                                                                                                                                                                                                    25338006.817 3                     -3206.700 3        18.060
C36        34.000                                                                                                                                    22642913.281 7 117907934.03407      1441.823 7        42.739                                                                    22642919.419 7  95809688.57907      1171.453 7        45.091
R02        35.000    20532085.273 7 109563088.26807      1899.075 7        47.571                                                                    20532085.054 7  85215935.62407      1477.059 7        47.770
R12        38.000    20671171.476 7 110421579.50707      2507.491 7        47.192                                                                    20671170.797 5  85883859.50205      1950.202 5        34.081
R01        44.000    19295493.642 6 103145438.97306     -1635.328 6        39.495                                                                    19295494.233 5  80224279.24705     -1271.790 5        34.700
C09        47.000                                                                                                                                    40212905.602 4                     -1592.253 4        24.602
C19        48.000                                                                                                                                    22155061.646 8 115367301.67208     -2053.301 8        49.669                                                                    22155057.078 7  93745276.74907     -1668.587 7        43.998
C22        51.000                                                                                                                                    22536005.763 8 117350875.02708      1063.942 8        48.184                                                                    22535999.271 6  95357199.15406       864.452 6        40.408
C21        55.000                                                                                                                                    27173904.795 5 141501714.96805      2375.843 5        30.068                                                                    27173878.762 4 114981604.01504      1930.151 4        26.826
I02        60.000    38479605.863 5 151002250.54405       102.925 5        34.067
> 2025 01 02 07 00  5.0000000  0 33
G13         1.000    21777144.627 6 114439642.71606      1795.903 6        41.159                                    21777141.877 1  89173729.55101      1399.369 1        10.222
G18         2.000    25321600.565 4 133066127.35104       620.202 4        28.303                                                                                                    25321618.446 5 103687796.44815       482.747 5        33.293
G20         4.000    20998772.701 8 110349339.23208     -2307.784 8        48.908                                    20998769.211 4  85986445.94204     -1798.268 4        28.692
G07         5.000    21940412.970 6                     -2887.243 6        36.151                                                                                                    21940366.039 6  89842100.12806     -2249.931 6        38.336
G30         7.000    20435569.579 8 107389649.91508     -1056.237 8        49.743                                    20435567.444 8  83680165.66908      -823.044 8        49.893    20435567.999 7  83680213.68207      -822.979 7        45.681
G14         8.000    22317372.911 6 117278611.10406      2163.169 6        38.420                                    22317365.470 2  91385859.11802      1685.588 2        13.333    22317365.907 5  91385922.06905      1685.436 5        35.100
G15         9.000    24868261.833 5 130683553.59805      2853.674 5        34.505                                    24868274.902 1 101831450.18901      2223.642 1         8.095    24868269.992 4                      2223.531 4        26.778
E21        10.000                                                                                                                                    26353260.839 5 103415907.57405     -1841.173 5        32.383
E06        11.000    23467749.584 7 123323865.46707       -89.323 7        44.299                                                                    23467750.213 7  92092542.14607       -66.689 7        43.272    23467749.910 7  94494892.70707       -68.418 7        44.975
E31        13.000                                                                                                                                    26407469.116 6 103628630.75906      1664.726 6        40.107    26407470.264 7 106331930.80007      1708.142 7        42.305
G05        14.000    21228316.098 6 111555518.98106       226.873 6        37.871                                    21228301.318 3  86926386.46203       176.776 3        20.000    21228306.787 5                       176.892 5        32.425
E04        17.000    23417514.145 8 123059840.99308     -1334.958 8        50.568                                                                    23417512.530 7  91895397.17307      -996.993 7        44.390    23417513.287 7  94292598.87807     -1022.846 7        46.597
R08        18.000    22883314.544 4 122539187.70014     -4477.699 4        29.545                                                                    22883313.445 4                     -3482.032 4        28.607
E19        20.000                                                                                                                                    26620216.794 4                     -2403.446 4        24.842
E09        21.000    24797767.277 6 130313121.70906       877.246 6        38.129                                                                    24797767.531 7  97311757.36507       655.103 7        45.384    24797767.465 7  99850335.83507       672.103 7        44.787
E36        22.000    26532735.893 6 139430443.73706     -2345.318 6        36.106                                                                    26532737.587 5 104120173.09605     -1751.458 5        35.171    26532738.066 6 106836302.92506     -1796.957 6        40.505
S23        24.000    38168877.700 6 200578738.75606      -850.653 6        40.336
G11        25.000    25176028.527 3                     -4086.947 3        22.476
E34        26.000    27649008.270 6 145296632.25306       141.261 6        38.132                                                                    27649011.769 5 108500734.24205       105.230 5        31.781
R17        27.000    24101074.065 5 128969713.18405     -4245.352 5        30.415
R18        28.000    23238496.262 6 124048741.53806     -2001.544 6        40.534                                                                    23238493.201 6  96482400.37206     -1556.774 6        39.691
S36        29.000    38234520.346 5 200923877.67705      -853.090 5        33.186
R11        30.000    19562880.486 8 104538118.55608     -2068.073 8        48.895                                                                    19562877.080 6  81307400.51806     -1608.469 6        40.389
C20        31.000                                                                                                                                    25341791.019 5                     -3939.795 5        30.325
C36        34.000                                                                                                                                    22641529.532 7 117900730.57607      1439.652 7        42.110                                                                    22641535.953 7  95803835.19107      1169.767 7        44.566
R02        35.000    20530306.612 7 109553597.91507      1897.058 7        47.093                                                                    20530306.214 7  85208554.22607      1475.411 7        47.241
R12        38.000    20668827.249 8 110409050.29008      2504.281 8        48.963                                                                    20668826.562 5  85874114.56505      1947.753 5        35.429
R01        44.000    19297025.243 6 103153624.38606     -1638.823 6        39.781                                                                    19297024.705 5  80230645.71805     -1274.783 5        33.832
C09        47.000                                                                                                                                    40214426.383 4                     -1592.404 4        25.323
C19        48.000                                                                                                                                    22157033.969 8 115377574.37408     -2055.749 8        48.789                                                                    22157029.439 7  93753624.15407     -1670.471 7        43.365
C22        51.000                                                                                                                                    22534985.097 8 117345560.08008      1062.024 8        48.386                                                                    22534978.642 6  95352880.31206       862.937 6        40.203
C21        55.000                                                                                                                                    27171625.819 4 141489838.59804      2375.102 4        27.569                                                                    27171598.968 4 114971953.51604      1930.248 4        26.850
I02        60.000    38479473.136 5 151001736.99105       102.592 5        34.524
> 2025 01 02 07 00 10.0000000  0 34
G13         1.000    21775436.055 6 114430665.67306      1795.144 6        41.180                                    21775433.749 1  89166734.42101      1398.826 1         9.524
G18         2.000    25321013.066 4 133063036.64404       616.417 4        25.444                                                                                                    25321027.203 5 103685388.15805       480.726 5        34.395
G20         4.000    21000970.297 8 110360885.63008     -2310.513 8        49.046                                    21000966.745 4  85995443.11104     -1800.397 4        28.777
G07         5.000    21943153.152 6 115312092.74416     -2888.020 6        40.293                                    21943151.273 1  89853536.86111     -2250.434 1         9.048    21943113.505 6  89853350.95406     -2250.466 6        38.883
G30         7.000    20436575.248 8 107394936.19408     -1058.055 8        50.045                                    20436573.774 8  83684284.84408      -824.459 8        49.972    20436573.822 7  83684332.86107      -824.495 7        45.956
G14         8.000    22315315.963 6 117267799.00406      2161.861 6        38.835                                    22315308.264 2  91377434.08302      1684.608 2        14.143    22315308.843 5  91377497.04605      1684.510 5        34.533
G15         9.000    24865545.509 5 130669285.41505      2853.935 5        35.324                                    24865558.933 1 101820331.92901      2223.844 1         8.000    24865553.844 4                      2223.315 4        24.226
E21        10.000                                                                                                                                    26355607.181 5 103425117.58605     -1842.582 5        32.263
E06        11.000    23467835.340 7 123324314.03307       -89.898 7        43.801                                                                    23467835.622 7  92092877.11607       -67.188 7        43.206    23467835.072 7  94495236.41007       -68.976 7        44.853
E31        13.000                                                                                                                                    26405348.234 6 103620308.31606      1664.348 6        40.086    26405349.402 7 106323391.23907      1707.811 7        42.406
G05        14.000    21228101.016 6 111554392.54706       223.928 6        41.347                                    21228088.053 3  86925508.73703       174.494 3        23.657    21228092.502 5  86925492.73315       174.483 5        34.176
E04        17.000    23418784.553 8 123066517.99808     -1335.665 8        50.666                                                                    23418783.073 7  91900383.22207      -997.464 7        44.355    23418783.720 7  94297715.01107     -1023.477 7        46.826
R08        18.000    22887507.055 5 122561576.83105     -4478.170 5        30.098                                                                    22887488.447 4                     -3482.878 4        27.701
E19        20.000                                                                                                                                    26623281.059 3                     -2403.958 3        22.838
E09        21.000    24796933.157 6 130308736.93106       876.946 6        37.452                                                                    24796932.992 7  97308483.00607       654.860 7        45.162    24796932.977 7  99846976.04607       671.934 7        44.554
E36        22.000    26534969.606 6 139442175.83906     -2347.258 6        36.019                                                                    26534970.281 5 104128934.05905     -1752.717 5        35.214    26534970.828 6 106845292.44306     -1798.457 6        40.753
S23        24.000    38169686.254 6 200582991.34906      -850.216 6        39.937
G11        25.000    25179915.900 3                     -4086.406 3        23.829
E34        26.000    27648874.657 6 145295932.60106       138.932 6        38.180                                                                    27648877.810 5 108500211.77405       103.885 5        30.445
R17        27.000    24105044.167 4 128990943.24404     -4246.473 4        29.374
R18        28.000    23240370.450 6 124058758.74706     -2005.170 6        39.183                                                                    23240369.661 6  96490191.57906     -1559.573 6        40.367
S36        29.000    38235339.703 5 200928142.31805      -852.322 5        33.994
R11        30.000    19564817.962 7 104548468.33307     -2071.646 7        47.504                                                                    19564813.637 6  81315450.36606     -1611.199 6        40.384
C20        31.000                                                                                                                                    25345577.719 5                     -3940.633 5        30.234
R10        32.000    23174538.803 5                     -5004.539 5        31.049
C36        34.000                                                                                                                                    22640148.488 6 117893536.95606      1438.117 6        41.423                                                                    22640154.291 7  95797989.78307      1168.325 7        43.913
R02        35.000    20528529.687 7 109544116.50707      1895.661 7        47.817                                                                    20528528.922 7  85201179.78307      1474.491 7        46.512
R12        38.000    20666485.528 8 110396535.42208      2501.806 8        48.860                                                                    20666485.206 6  85864380.81706      1945.772 6        39.009
R01        44.000    19298559.623 6 103161826.17306     -1641.832 6        39.333                                                                    19298561.230 5  80237024.88505     -1276.701 5        33.725
C09        47.000                                                                                                                                    40215961.210 3                     -1590.916 3        23.295
C19        48.000                                                                                                                                    22159008.400 7 115387858.39207     -2057.590 7        47.919                                                                    22159003.841 7  93761980.77207     -1672.266 7        42.489
C22        51.000                                                                                                                                    22533967.268 8 117340253.74408      1060.691 8        48.527                                                                    22533959.763 6  95348568.49906       861.633 6        40.098
C21        55.000                                                                                                                                    27169347.123 4 141477962.20004      2376.184 4        26.838                                                                    27169317.447 4 114962303.02904      1930.594 4        27.365
I02        60.000    38479343.130 5 151001224.52605       102.679 5        34.010
> 2025 01 02 07 00 15.0000000  0 33
G13         1.000    21773728.138 6 114421694.56006      1793.735 6        40.262                                    21773726.743 1  89159743.92601      1397.536 1         6.500
G18         2.000    25320430.504 4 133059960.19104       613.710 4        24.105                                                                                                    25320441.452 5 103682990.95305       478.392 5        33.922
G20         4.000    21003170.729 8 110372447.67908     -2313.891 8        49.340                                    21003167.320 4  86004452.47504     -1803.032 4        28.445
G07         5.000                                                                                                                                                                    21945862.634 6  89864606.73906     -2251.569 6        38.447
G30         7.000    20437583.532 8 107400233.87708     -1060.530 8        49.666                                    20437582.174 8  83688412.90708      -826.382 8        49.670    20437581.730 7  83688460.91707      -826.430 7        45.565
G14         8.000    22313262.132 6 117256995.31506      2159.978 6        37.845                                    22313252.355 2  91369015.65202      1683.075 2        12.606    22313254.186 5  91369078.62805      1683.208 5        33.892
G15         9.000    24862832.286 5 130655017.63105      2853.493 5        35.629                                    24862843.634 1 101809214.11101      2223.512 1         7.875    24862835.960 4                      2223.550 4        25.143
E21        10.000                                                                                                                                    26357956.064 5 103434335.17405     -1844.272 5        32.509    26358045.463 3                     -1893.168 3        21.690
E06        11.000    23467921.343 7 123324768.17407       -91.279 7        42.906                                                                    23467922.238 7  92093216.24507       -68.218 7        43.037    23467921.303 7  94495584.37407       -69.913 7        44.647
E31        13.000    26403257.198 4                      2228.122 4        24.075                                                                    26403228.085 6 103611988.44206      1663.649 6        40.176    26403228.971 7 106314854.30707      1707.137 7        42.546
G05        14.000    21227888.794 7 111553282.90707       220.322 7        44.364                                    21227877.985 4  86924644.07904       171.687 4        26.419    21227878.874 5  86924628.07305       171.729 5        34.705
E11        16.000    27557785.368 3                     -3840.755 3        22.838
E04        17.000    23420056.105 8 123073201.07208     -1337.092 8        50.470                                                                    23420054.798 7  91905373.80307      -998.543 7        44.373    23420055.412 7  94302835.79407     -1024.529 7        46.851
R08        18.000    22891689.423 4 122583972.91914     -4479.998 4        29.147                                                                    22891670.196 3                     -3484.926 3        23.543
E19        20.000                                                                                                                                    26626339.792 3                     -2402.643 3        21.214
E09        21.000    24796099.338 6 130304355.80706       876.005 6        36.767                                                                    24796099.294 7  97305211.38107       654.126 7        44.480    24796099.140 7  99843619.06407       671.144 7        44.146
E36        22.000    26537204.252 6 139453918.71906     -2349.604 6        36.106                                                                    26537205.530 5 104137703.03605     -1754.567 5        34.886    26537205.627 6 106854290.20206     -1800.225 6        41.037
S23        24.000    38170494.513 6 200587244.14006      -850.666 6        39.646
G11        25.000    25183808.108 4                     -4088.519 4        24.556
E34        26.000    27648746.550 6 145295244.98906       136.368 6        38.408                                                                    27648745.603 4 108499698.34804       101.305 4        28.910
R18        28.000    23242249.508 6 124068796.21906     -2009.385 6        38.090                                                                    23242251.193 6  96497998.49406     -1562.946 6        39.754
S36        29.000    38236145.646 5 200932407.45105      -853.033 5        33.132
R11        30.000    19566758.708 7 104558838.55807     -2076.026 7        47.117                                                                    19566755.080 6  81323516.11106     -1614.676 6        41.735
C20        31.000                                                                                                                                    25349362.389 5                     -3941.544 5        31.683
R10        32.000    23179228.364 5                     -5005.569 5        31.698
C36        34.000                                                                                                                                    22638770.905 7 117886352.94507      1435.919 7        42.190                                                                    22638774.267 7  95792152.15207      1166.815 7        42.944
R02        35.000    20526755.102 8 109534643.79708      1893.737 8        48.771                                                                    20526753.774 7  85193812.12307      1472.955 7        45.369
R12        38.000    20664143.506 8 110384034.73008      2498.725 8        48.219                                                                    20664144.125 6  85854658.06706      1943.522 6        40.524
R01        44.000    19300095.585 6 103170044.27806     -1645.126 6        38.976                                                                    19300097.860 5  80243416.73705     -1279.543 5        34.276
C19        48.000                                                                                                                                    22160985.301 7 115398153.50807     -2060.050 7        47.028                                                                    22160980.838 7  93770346.34707     -1673.934 7        42.072
C22        51.000                                                                                                                                    22532950.313 8 117334955.84808      1058.799 8        48.735                                                                    22532942.630 6  95344263.47006       860.511 6        40.226
C21        55.000                                                                                                                                    27167068.952 4 141466085.65704      2375.696 4        26.647                                                                    27167037.209 4 114952652.38604      1931.155 4        27.030
I02        60.000    38479213.638 5 151000713.03905       102.348 5        34.533
> 2025 01 02 07 00 20.0000000  0 34
G13         1.000    21772022.479 6 114412729.03106      1792.526 6        39.000                                    21772020.801 1  89152757.81301      1396.763 1         5.000
G18         2.000    25319850.596 3                       610.958 3        22.495                                                                                                    25319854.681 5 103680604.63105       476.473 5        33.042
G20         4.000    21005373.428 8 110384025.03108     -2316.955 8        48.988                                    21005370.623 4  86013473.77504     -1805.417 4        28.265
G07         5.000                                                                                                                                                                    21948612.078 6  89875867.14206     -2252.310 6        37.921
G30         7.000    20438593.608 8 107405542.58908     -1062.818 8        49.633                                    20438592.533 8  83692549.56208      -828.169 8        49.595    20438591.780 7  83692597.56907      -828.211 7        45.240
G14         8.000    22311212.711 6 117246199.67706      2158.393 6        36.068                                    22311198.065 1  91360603.50001      1681.925 1        10.741    22311199.601 5  91360666.51105      1681.790 5        33.826
G15         9.000    24860120.869 5 130640749.86405      2853.650 5        35.738                                    24860128.576 1 101798096.39001      2223.609 1         9.905    24860118.609 4                      2223.558 4        25.023
E21        10.000                                                                                                                                    26360307.053 5 103443560.11205     -1845.813 5        33.006    26360396.763 3                     -1894.693 3        19.761
E06        11.000    23468008.534 7 123325227.56407       -92.459 7        42.193                                                                    23468009.569 7  92093559.27507       -68.979 7        43.342    23468008.659 7  94495936.36307       -70.739 7        44.507
E31        13.000    26401130.414 4                      2227.471 4        26.575                                                                    26401108.530 6 103603670.87206      1663.445 6        39.952    26401109.285 7 106306319.75707      1706.790 7        42.711
G05        14.000    21227680.701 7 111552189.60407       217.085 7        45.451                                    21227671.025 4  86923792.15204       169.149 4        28.360    21227670.198 5  86923776.15305       169.201 5        34.671
E11        16.000    27561441.152 3                     -3842.334 3        21.595
E04        17.000    23421329.027 8 123079889.86508     -1338.276 8        50.068                                                                    23421327.484 7  91910368.66607      -999.329 7        44.453    23421328.138 7  94307960.96807     -1025.417 7        46.585
R08        18.000    22895868.327 4 122606375.29004     -4481.018 4        24.902
E19        20.000                                                                                                                                    26629402.540 3                     -2405.884 3        21.071
E09        21.000    24795266.276 6 130299977.96506       875.074 6        36.435                                                                    24795266.227 7  97301942.19807       653.608 7        44.126    24795265.868 7  99840264.58707       670.720 7        44.029
E36        22.000    26539439.879 6 139465671.98806     -2351.613 6        37.323                                                                    26539442.036 5 104146479.79105     -1756.085 5        35.648    26539442.482 6 106863295.93206     -1801.826 6        41.650
S23        24.000    38171303.510 6 200591496.64606      -850.390 6        39.456
E34        26.000    27648617.940 6 145294569.04006       134.043 6        38.144                                                                    27648614.094 4 108499193.63904        99.599 4        26.695
R17        27.000                                                                                                                                    24112966.535 3                     -3307.036 3        20.452
R18        28.000    23244134.823 5 124078853.41805     -2013.047 5        34.481                                                                    23244134.687 6  96505820.78406     -1565.962 6        38.150
S36        29.000    38236960.845 5 200936672.77705      -853.320 5        33.695
R11        30.000    19568703.179 7 104569228.81907     -2080.062 7        44.816                                                                    19568699.616 7  81331597.44307     -1617.968 7        42.233
C20        31.000                                                                                                                                    25353149.875 5                     -3942.373 5        33.240
C36        34.000                                                                                                                                    22637394.651 7 117879178.18607      1433.836 7        42.916                                                                    22637396.243 7  95786322.06607      1165.407 7        42.080
R02        35.000    20524981.763 8 109525179.40708      1892.014 8        49.170                                                                    20524979.782 7  85186450.91907      1471.596 7        44.709
R12        38.000    20661803.958 7 110371547.89207      2495.994 7        47.393                                                                    20661806.749 6  85844946.10106      1941.328 6        41.828
C37        42.000                                                                                                                                    25898653.803 3                     -3920.991 3        20.452
R01        44.000    19301636.171 6 103178278.15806     -1648.156 6        40.207                                                                    19301638.224 5  80249820.89705     -1282.228 5        34.819
C09        47.000                                                                                                                                    40219031.037 4                     -1591.200 4        25.639    40219037.116 3                     -1231.617 3        19.970
C19        48.000                                                                                                                                    22162965.207 7 115408459.35207     -2062.216 7        46.769                                                                    22162959.961 6  93778720.68206     -1675.570 6        41.747
C22        51.000                                                                                                                                    22531933.713 8 117329666.02308      1057.177 8        48.672                                                                    22531926.847 6  95339965.04506       859.118 6        40.253
C21        55.000                                                                                                                                    27164785.627 4 141454208.60204      2375.627 4        28.009                                                                    27164756.126 4 114943001.42104      1930.497 4        26.503
I02        60.000    38479084.369 5 151000201.96205       102.349 5        35.310
> 2025 01 02 07 00 25.0000000  0 33
G13         1.000    21770317.695 6 114403768.98906      1791.154 6        40.095                                    21770315.981 1  89145775.86601      1395.656 1         4.286
G18         2.000                                                                                                                                                                    25319268.579 5 103678229.24705       473.795 5        31.223
G20         4.000    21007579.103 8 110395617.60008     -2320.238 8        48.741                                    21007576.711 4  86022506.92004     -1807.976 4        27.629
G07         5.000    21951361.179 7 115355445.37207     -2892.149 7        47.681                                    21951391.696 3  89887318.16603     -2253.627 3        21.143    21951362.818 6  89887132.18906     -2253.528 6        38.132
G30         7.000    20439605.892 8 107410862.30208     -1065.269 8        49.293                                    20439604.850 8  83696694.79308      -830.080 8        49.203    20439604.384 7  83696742.79507      -830.013 7        44.995
G14         8.000    22309166.522 6 117235412.05706      2156.370 6        36.991                                    22309145.349 1  91352197.63501      1680.314 1         9.238    22309148.406 6  91352260.66606      1680.199 6        36.019
G15         9.000    24857408.538 5 130626482.11005      2853.436 5        35.867                                    24857413.447 1 101786978.64401      2223.491 1        10.963    24857406.910 3                      2222.687 3        23.448
E21        10.000                                                                                                                                    26362659.629 5 103452792.36105     -1847.643 5        33.365    26362746.708 3                     -1894.623 3        19.731
E06        11.000    23468097.335 7 123325692.11907       -93.568 7        42.021                                                                    23468098.069 7  92093906.16107       -69.838 7        43.727    23468096.931 7  94496292.30907       -71.797 7        44.403
E31        13.000                                                                                                                                    26398989.603 6 103595355.61806      1662.670 6        39.802    26398990.220 7 106297787.56507      1705.912 7        42.859
G05        14.000    21227474.244 7 111551112.60707       213.599 7        46.887                                    21227466.766 4  86922952.92504       166.443 4        29.384    21227463.807 5  86922936.92705       166.232 5        34.243
E11        16.000    27565094.168 3                     -3840.187 3        21.286
E04        17.000    23422603.054 8 123086584.31408     -1339.636 8        49.641                                                                    23422601.524 7  91915367.75807     -1000.439 7        44.126    23422601.942 7  94313090.47507     -1026.506 7        46.759
R08        18.000    22900047.981 3                     -4481.767 3        21.881
E19        20.000                                                                                                                                    26632466.572 3                     -2407.085 3        20.714
E09        21.000    24794434.813 5 130295603.31705       874.181 5        34.729                                                                    24794433.836 7  97298675.44507       652.909 7        43.583    24794433.173 7  99836912.60107       670.013 7        43.854
E36        22.000    26541678.425 6 139477435.61306     -2354.069 6        38.021                                                                    26541680.707 5 104155264.29405     -1757.746 5        35.495    26541681.495 6 106872309.59006     -1803.645 6        41.981
S23        24.000    38172112.342 6 200595748.77906      -850.640 6        39.691
E34        26.000    27648492.007 6 145293904.77306       131.557 6        37.974                                                                    27648486.168 4 108498697.60604        98.424 4        26.850
R17        27.000    24116998.405 5 129054682.15615     -4251.881 5        34.033
R18        28.000    23246020.094 5 124088930.40805     -2017.738 5        32.533                                                                    23246022.230 6  96513658.45806     -1569.212 6        37.561
S36        29.000    38237772.038 5 200940938.34805      -853.433 5        33.754
R11        30.000    19570650.092 7 104579639.02207     -2084.263 7        42.609                                                                    19570647.428 7  81339694.28507     -1620.991 7        42.112
C20        31.000                                                                                                                                    25356934.818 5                     -3943.312 5        34.414
R10        32.000    23188600.196 5                     -5007.826 5        30.053
C36        34.000                                                                                                                                    22636018.743 7 117872012.62207      1432.067 7        42.990                                                                    22636019.843 6  95780499.50906      1163.559 6        41.678
R02        35.000    20523209.151 8 109515723.50108      1890.200 8        48.895                                                                    20523207.805 7  85179096.32307      1470.198 7        44.608
R12        38.000    20659468.617 7 110359074.84407      2492.952 7        46.372                                                                    20659471.496 7  85835244.83507      1939.013 7        42.258
R01        44.000    19303180.778 7 103186527.87407     -1651.719 7        43.209                                                                    19303180.146 5  80256237.34905     -1284.757 5        34.243
C19        48.000                                                                                                                                    22164947.233 7 115418775.89907     -2064.605 7        46.442                                                                    22164941.022 6  93787103.75306     -1677.572 6        41.132
C22        51.000                                                                                                                                    22530919.180 8 117324384.23008      1055.296 8        48.166                                                                    22530912.293 6  95335673.18606       857.695 6        39.799
C21        55.000                                                                                                                                    27162502.189 4 141442331.06304      2375.336 4        28.209                                                                    27162474.932 4 114933349.96704      1930.059 4        25.805
I02        60.000    38478955.142 5 150999691.42405       101.813 5        35.705
> 2025 01 02 07 00 30.0000000  0 35
G13         1.000    21768614.219 6 114394815.39506      1789.879 6        41.015                                    21768612.271 1  89138799.08301      1394.703 1         2.200
G18         2.000    25318725.844 4                       605.418 4        28.265                                                                                                    25318685.870 4 103675865.39204       471.459 4        29.716
G20         4.000    21009788.069 8 110407226.30408     -2323.579 8        48.019                                    21009785.764 4  86031552.65104     -1810.581 4        27.281
G07         5.000    21954119.673 7 115369909.00207     -2893.626 7        47.952                                    21954139.646 4  89898588.54204     -2254.750 4        25.008    21954115.221 6  89898402.53806     -2254.608 6        38.925
G30         7.000    20440620.298 8 107416193.93608     -1067.716 8        49.651                                    20440619.358 8  83700849.31008      -831.988 8        49.042    20440619.263 7  83700897.32207      -831.997 7        45.472
G14         8.000    22307116.070 6 117224633.42806      2154.752 6        36.922                                    22307094.372 1  91343798.77301      1679.005 1        10.296    22307096.952 6  91343861.82806      1679.044 6        37.633
G15         9.000    24854693.888 5 130612215.22905      2853.159 5        33.754                                    24854698.502 1 101775861.57101      2223.253 1         9.238    24854693.655 4                      2223.579 4        24.060
E21        10.000    26365031.149 5 138549201.43915     -2475.824 5        35.109                                                                    26365014.289 5 103462032.55805     -1848.844 5        33.575
E06        11.000    23468187.456 7 123326162.77707       -94.869 7        42.364                                                                    23468187.766 7  92094257.62107       -70.906 7        44.518    23468186.415 7  94496652.92907       -72.680 7        43.788
E31        13.000    26396875.830 5                      2225.884 5        31.736                                                                    26396871.513 6 103587043.33706      1661.953 6        39.736    26396871.883 7 106289258.42507      1705.365 7        42.974
G05        14.000    21227271.103 7 111550052.87207       210.072 7        47.847                                    21227265.315 5  86922127.16305       163.691 5        30.008    21227262.952 5  86922111.16305       163.644 5        33.102
E11        16.000    27568749.209 3                     -3841.110 3        23.962
E04        17.000    23423878.352 8 123093285.34708     -1341.068 8        49.101                                                                    23423876.870 7  91920371.74807     -1001.480 7        44.138    23423876.950 7  94318225.02107     -1027.570 7        46.668
R08        18.000    22904231.739 4                     -4483.890 4        24.075
E19        20.000                                                                                                                                    26635530.613 3                     -2406.851 3        19.463
E09        21.000    24793602.599 5 130291232.86905       873.322 5        31.472                                                                    24793602.259 7  97295411.79607       652.299 7        43.323    24793601.488 7  99833563.81907       669.322 7        43.551
E36        22.000    26543919.482 6 139489210.50206     -2356.320 6        38.414                                                                    26543921.596 5 104164057.20805     -1759.432 5        35.681    26543922.638 7 106881331.88207     -1805.520 7        42.045
S23        24.000    38172920.946 6 200600001.45706      -850.781 6        39.694
E34        26.000    27648368.348 6 145293253.07606       128.911 6        38.865                                                                    27648363.287 4 108498210.92504        96.372 4        27.988
R17        27.000    24120973.243 5 129075944.93405     -4253.635 5        35.276
R18        28.000    23247913.012 5 124099028.18705     -2021.847 5        33.120                                                                    23247913.669 6  96521512.27406     -1572.488 6        38.222
S36        29.000    38238579.859 5 200945204.28005      -853.209 5        33.257
R11        30.000    19572601.562 7 104590070.23207     -2088.474 7        42.851                                                                    19572600.085 7  81347807.45107     -1624.409 7        42.104
C20        31.000                                                                                                                                    25360721.508 5 132059938.89715     -3944.521 5        34.529
R10        32.000    23193293.611 4                     -5008.593 4        27.377
C36        34.000                                                                                                                                    22634644.137 7 117864857.20707      1429.909 7        43.536                                                                    22634645.464 6  95774685.14106      1161.977 6        41.170
R02        35.000    20521439.028 8 109506276.94608      1888.198 8        49.251                                                                    20521437.646 7  85171749.01207      1468.585 7        44.134
R12        38.000    20657136.124 7 110346616.55207      2489.994 7        46.206                                                                    20657138.944 7  85825555.02707      1936.633 7        42.277
C37        42.000                                                                                                                                    25906192.538 4                     -3924.338 4        24.346                                                                    25906200.522 5                     -3189.524 5        31.102
R01        44.000    19304734.051 7 103194794.35507     -1655.189 7        44.260                                                                    19304726.077 5  80262666.78205     -1287.180 5        32.790
C09        47.000                                                                                                                                    40222105.890 4                     -1591.709 4        24.827
C19        48.000                                                                                                                                    22166931.457 7 115429104.03907     -2066.944 7        47.236                                                                    22166924.524 6  93795496.19906     -1679.407 6        41.299
C22        51.000                                                                                                                                    22529906.681 8 117319111.39708      1053.524 8        48.310                                                                    22529899.944 6  95331388.56406       856.190 6        39.631
C21        55.000                                                                                                                                    27160220.821 5 141430453.87605      2374.948 5        30.226                                                                    27160194.060 4 114923698.82904      1930.121 4        26.120
I02        60.000    38478823.676 5 150999182.08005       101.457 5        35.919
> 2025 01 02 07 00 35.0000000  0 34
G13         1.000    21766912.770 6 114385867.64206      1789.167 6        41.957                                    21766909.544 1  89131826.60601      1394.401 1         4.286
G18         2.000    25318142.016 4                       602.549 4        27.234                                                                                                    25318110.263 5 103673512.68505       469.281 5        30.098
G20         4.000    21011999.960 7 110418850.53607     -2326.222 7        47.497                                    21011997.670 4  86040610.48804     -1812.630 4        26.838
G07         5.000    21956874.162 7 115384378.81007     -2894.396 7        47.622                                    21956888.250 4  89909863.72404     -2255.373 4        29.422    21956870.065 6  89909677.71806     -2255.317 6        39.513
G30         7.000    20441637.272 8 107421536.87208     -1069.528 8        49.661                                    20441636.000 8  83705012.63708      -833.399 8        49.093    20441635.863 7  83705060.64707      -833.484 7        45.308
G14         8.000                                                                                                                                                                    22305046.869 6  91335469.52706      1677.941 6        38.024
G15         9.000    24851971.383 5 130597948.65105      2853.779 5        31.691                                    24851983.578 1 101764744.69501      2223.712 1         7.000    24851977.278 3                      2222.078 3        22.514
E21        10.000    26367384.280 5 138561585.50105     -2477.560 5        33.695                                                                    26367371.127 5 103471280.34305     -1850.243 5        34.057    26367421.861 4                     -1898.852 4        25.248
E06        11.000    23468277.930 7 123326638.92107       -95.599 7        42.925                                                                    23468278.465 7  92094613.19107       -71.469 7        45.065    23468277.141 7  94497017.77507       -73.262 7        43.319
E31        13.000    26394761.661 5                      2225.231 5        33.665                                                                    26394753.976 6 103578733.57606      1661.892 6        39.069    26394754.149 7 106280731.89207      1705.183 7        43.245
G05        14.000    21227072.000 7 111549009.92007       207.051 7        47.863                                    21227066.309 5  86921314.47705       161.334 5        30.196    21227064.718 5  86921298.50105       161.338 5        32.737
E11        16.000    27572401.631 3                     -3843.176 3        22.533
E04        17.000    23425154.823 8 123099992.39108     -1341.867 8        48.787                                                                    23425153.238 7  91925380.23907     -1001.991 7        44.391    23425153.263 7  94323364.18107     -1028.205 7        46.638
R08        18.000    22908424.493 4                     -4484.536 4        25.865                                                                    22908447.590 4                     -3487.390 4        24.992
