     3.04           OBSERVATION DATA    M                   RINEX VERSION / TYPE
ssrcrin-15.6.1x                         20250102 024500 UTC PGM / RUN BY / DATE 
(00000000023479385599111004) Septentrio proprietary         COMMENT             
ract                                                        MARKER NAME         
01                                                          MARKER NUMBER       
geodetic                                                    MARKER TYPE         
NFB                 CLIMERS@TUW                             OBSERVER / AGENCY   
3296359             SEPT ASTERX SB3 PROB4.14.4              REC # / TYPE / VERS 
Unknown             Unknown                                 ANT # / TYPE        
  4127445.8885  1206913.8052  4695542.5282                  APPROX POSITION XYZ 
        0.0000        0.0000        0.0000                  ANTENNA: DELTA H/E/N
G   23 X1  C1C L1C D1C S1C C1W S1W C2W L2W D2W S2W C2L L2L  SYS / # / OBS TYPES 
       D2L S2L C5Q L5Q D5Q S5Q C1L L1L D1L S1L              SYS / # / OBS TYPES 
E   21 X1  C1C L1C D1C S1C C6C L6C D6C S6C C5Q L5Q D5Q S5Q  SYS / # / OBS TYPES 
       C7Q L7Q D7Q S7Q C8Q L8Q D8Q S8Q                      SYS / # / OBS TYPES 
S    9 X1  C1C L1C D1C S1C C5I L5I D5I S5I                  SYS / # / OBS TYPES 
R   17 X1  C1C L1C D1C S1C C2P L2P D2P S2P C2C L2C D2C S2C  SYS / # / OBS TYPES 
       C3Q L3Q D3Q S3Q                                      SYS / # / OBS TYPES 
C   25 X1  C1P L1P D1P S1P C5P L5P D5P S5P C2I L2I D2I S2I  SYS / # / OBS TYPES 
       C7I L7I D7I S7I C6I L6I D6I S6I C7D L7D D7D S7D      SYS / # / OBS TYPES 
J   17 X1  C1C L1C D1C S1C C2L L2L D2L S2L C5Q L5Q D5Q S5Q  SYS / # / OBS TYPES 
       C1L L1L D1L S1L                                      SYS / # / OBS TYPES 
I    5 X1  C5A L5A D5A S5A                                  SYS / # / OBS TYPES 
SEPTENTRIO RECEIVERS OUTPUT ALIGNED CARRIER PHASES.         COMMENT             
NO FURTHER PHASE SHIFT APPLIED IN THE RINEX ENCODER.        COMMENT             
G L1C                                                       SYS / PHASE SHIFT   
G L2W                                                       SYS / PHASE SHIFT   
G L2L  0.00000                                              SYS / PHASE SHIFT   
G L5Q  0.00000                                              SYS / PHASE SHIFT   
G L1L  0.00000                                              SYS / PHASE SHIFT   
E L1C  0.00000                                              SYS / PHASE SHIFT   
E L6C  0.00000                                              SYS / PHASE SHIFT   
E L5Q  0.00000                                              SYS / PHASE SHIFT   
E L7Q  0.00000                                              SYS / PHASE SHIFT   
E L8Q  0.00000                                              SYS / PHASE SHIFT   
S L1C                                                       SYS / PHASE SHIFT   
S L5I                                                       SYS / PHASE SHIFT   
R L1C                                                       SYS / PHASE SHIFT   
R L2P  0.00000                                              SYS / PHASE SHIFT   
R L2C                                                       SYS / PHASE SHIFT   
R L3Q  0.00000                                              SYS / PHASE SHIFT   
C L1P  0.00000                                              SYS / PHASE SHIFT   
C L5P  0.00000                                              SYS / PHASE SHIFT   
C L2I                                                       SYS / PHASE SHIFT   
C L7I                                                       SYS / PHASE SHIFT   
C L6I                                                       SYS / PHASE SHIFT   
C L7D                                                       SYS / PHASE SHIFT   
J L1C                                                       SYS / PHASE SHIFT   
J L2L  0.00000                                              SYS / PHASE SHIFT   
J L5Q  0.00000                                              SYS / PHASE SHIFT   
J L1L  0.00000                                              SYS / PHASE SHIFT   
I L5A                                                       SYS / PHASE SHIFT   
  2025     1     2     2    45    0.0000000     GPS         TIME OF FIRST OBS   
 C1C    0.000 C2C    0.000 C2P    0.000                     GLONASS COD/PHS/BIS 
DBHZ                                                        SIGNAL STRENGTH UNIT
    18                                                      LEAP SECONDS        
 24 R01  1 R02 -4 R03  5 R04  6 R05  1 R06 -4 R07  5 R08  6 GLONASS SLOT / FRQ #
    R09 -2 R10 -7 R11  0 R12 -1 R13 -2 R14 -7 R15  0 R16 -1 GLONASS SLOT / FRQ #
    R17  4 R18 -3 R19  3 R20  2 R21  4 R22 -3 R23  3 R24  2 GLONASS SLOT / FRQ #
                                                            END OF HEADER       
> 2025 01 02 02 45  0.0000000  0 41
G03         1.000    20699721.069 6 108777873.22806     -2671.471 6        39.480                                    20699716.871 4  84761977.77304     -2081.679 4        28.796    20699718.757 5  84761941.79905     -2081.876 5        35.429
G19         2.000    22741122.216 6 119505343.86506     -2684.679 6        41.785                                    22741115.274 2  93121017.37402     -2091.965 2        17.547
G28         3.000    24982993.982 3                     -3981.785 3        20.000
G02         4.000    24277997.805 4                     -4342.881 4        26.060
G09         6.000    20673865.309 7 108641889.78607      1056.382 7        47.659                                    20673861.541 7  84656031.83507       823.152 7        44.981    20673863.403 6  84656018.80306       823.175 6        41.740
G31        10.000                                                                                                                                                                    22778611.123 5                     -2289.975 5        32.000
G17        11.000    23911763.534 5                     -3561.457 5        31.389                                                                                                    23911758.394 4                     -2775.365 4        26.323
G04        12.000    19999102.930 8 105096040.51608      -776.999 8        51.393                                    19999098.290 6  81892941.19506      -605.454 6        39.862    19999098.477 7  81892965.19207      -605.403 7        46.247
E12        13.000    23892126.094 7 125553991.70007      -621.957 7        47.056                                                                    23892121.430 7  93757831.63507      -464.474 7        47.040    23892121.977 8  96203761.45908      -476.639 8        49.015
E29        14.000    24359570.662 7 128010402.79007     -2611.549 7        43.183                                                                    24359569.037 7  95592176.92907     -1950.231 7        45.961    24359569.516 7  98085930.66407     -2001.013 7        44.202
G06        15.000    21938757.388 7 115288977.07007      1369.750 7        43.498                                    21938755.629 6  89835587.27706      1067.337 6        41.030    21938755.090 7  89835580.28207      1067.351 7        42.864
E11        16.000    26481316.258 5 139160603.06205      1760.910 5        35.448                                                                    26481312.026 6 103918374.77806      1315.040 6        39.054    26481311.992 6 106629271.09506      1349.325 6        41.607
E04        17.000                                                                                                                                    26709885.048 4 104815325.54004      1351.593 4        29.251
R08        18.000    20745606.296 5                      1386.381 5        34.414                                                                    20745602.899 7                      1078.191 7        42.838
E19        20.000    22869327.576 6 120179134.83006      -321.224 6        40.849                                                                    22869325.408 7  89744170.61707      -239.798 7        44.939    22869324.102 7  92085309.87407      -246.033 7        43.060
R06        21.000    21950234.993 5 117130659.15905     -4012.134 5        31.011
S36        23.000    38155165.116 5 200506814.58805      -852.109 5        34.000
S23        24.000    38100357.427 6 200218703.80206      -847.680 6        39.309
G11        25.000    25172597.383 6 132282870.90206      2703.870 6        36.234                                                                                                    25172590.848 4 103077570.76604      2106.579 4        28.171
R16        26.000    22166748.608 6 118411119.41706      -360.221 6        38.544                                                                    22166752.981 5  92097430.87905      -280.278 5        31.592
E33        28.000                                                                                                                                    24964700.095 7  97966827.73907     -2545.801 7        42.802    24964696.239 4 100522495.08204     -2612.145 4        27.820
E10        29.000    24620103.263 7 129379752.07007       710.406 7        43.611                                                                    24620102.982 7  96614642.37607       530.478 7        46.848    24620102.092 7  99134964.15107       544.342 7        45.231
C20        31.000                                                                                                                                    22316955.451 6 116210403.15806       375.793 6        41.285                                                                    22316949.082 7  94430344.14107       305.246 7        44.754
C05        32.000                                                                                                                                                                                                    39086294.150 5 157384345.14805      -674.374 5        33.228
R23        33.000    20030663.294 7 107150450.68807        25.709 7        42.925
R07        34.000    19418409.307 6 103948236.29606     -1669.391 6        40.851                                                                    19418408.151 7  80848644.40207     -1298.370 7        47.223
R22        35.000    20324316.962 6 108492592.02106     -3770.902 6        37.338                                                                    20324318.832 6  84383153.42606     -2932.946 6        38.162
C32        36.000                                                                                                                                    22659292.086 6 117992825.40806     -2473.725 6        39.114                                                                    22659288.877 7  95878884.42407     -2010.116 7        46.816
R09        37.000    22745137.339 5 121457684.51505      2592.605 5        31.932
C30        38.000                                                                                                                                    24906720.545 5 129695910.09905     -4128.067 5        32.671                                                                    24906728.494 5                     -3354.269 5        30.219
C23        40.000                                                                                                                                                                                                                                                                    24721823.432 5 104606136.88005       308.668 5        34.533
C35        41.000                                                                                                                                    25313471.887 6 131813801.07606      1187.512 6        38.003                                                                    25313469.365 6 107109663.84706       965.059 6        37.962
R24        43.000    23875946.908 5                      3212.562 5        31.072
C16        45.000                                                                                                                                    38857134.710 4 202339319.35404     -1369.036 4        29.772    38857130.445 6 156461547.33406     -1058.695 6        36.420    38857149.990 3                     -1117.777 3        20.952
C39        46.000                                                                                                                                    39394102.112 5 205135355.79605     -1736.801 5        34.886                                                                    39394113.447 3                     -1409.638 3        21.667
C09        47.000                                                                                                                                    38411613.941 7 200019379.60507      -786.373 7        43.109    38411610.487 7 154667660.89007      -608.034 7        44.838    38411608.476 6 162532095.85606      -639.076 6        39.610
C19        48.000                                                                                                                                    25845667.608 4                      1866.398 4        28.332                                                                    25845656.346 5                      1516.251 5        33.329
C06        50.000                                                                                                                                    38334170.906 4 199616098.96804     -1288.943 4        25.699    38334184.532 5 154355809.87705      -996.853 5        30.521    38334172.734 5 162204442.04705     -1047.858 5        34.376
C25        51.000                                                                                                                                                                                                                                                                    25692836.367 3                     -1813.995 3        21.238
C29        54.000                                                                                                                                    23065814.692 5 120109744.45705     -1931.855 5        35.310                                                                    23065814.739 7  97599121.37007     -1569.839 7        42.023
I01        59.000   379429960.136 6 185823871.29806     -2999.023 6        40.489
> 2025 01 02 02 45  5.0000000  0 42
G03         1.000    20702264.587 6 108791236.23706     -2673.046 6        39.195                                    20702259.901 4  84772390.51404     -2082.892 4        29.090    20702262.165 5  84772354.51305     -2083.047 5        35.619
G19         2.000    22743677.069 6 119518774.64506     -2687.333 6        39.192                                    22743670.569 2  93131482.90902     -2093.998 2        16.038
G02         4.000    24282127.474 4                     -4342.750 4        26.563
G09         6.000    20672861.421 7 108636613.85007      1054.340 7        45.840                                    20672857.559 7  84651920.71707       821.563 7        44.471    20672859.160 7  84651907.68607       821.579 7        42.432
G31        10.000    22781436.966 5                     -2941.331 5        34.881                                                                                                    22781408.391 5                     -2292.218 5        33.251
G17        11.000    23915154.540 5                     -3562.464 5        33.120                                                                                                    23915147.450 4                     -2775.708 4        26.383
G04        12.000    19999843.199 8 105099932.33208      -779.338 8        51.386                                    19999838.996 6  81895973.78706      -607.276 6        39.682    19999839.097 7  81895997.78407      -607.295 7        46.357
E12        13.000    23892718.952 7 125557107.91907      -624.079 7        46.814                                                                    23892714.505 7  93760158.68107      -465.989 7        47.121    23892714.873 8  96206149.20508      -478.165 8        49.236
E29        14.000    24362056.204 7 128023464.08307     -2612.513 7        42.728                                                                    24362054.677 7  95601930.49107     -1950.914 7        45.920    24362055.012 7  98095938.66507     -2001.807 7        44.734
G06        15.000    21937455.324 7 115282134.85707      1367.453 7        44.241                                    21937453.577 6  89830255.67906      1065.552 6        40.763    21937453.101 6  89830248.67206      1065.638 6        41.819
E11        16.000    26479640.429 5 139151801.09805      1760.116 5        35.362                                                                    26479637.161 6 103911801.87206      1314.443 6        39.444    26479637.016 6 106622526.74006      1348.712 6        41.957
E04        17.000                                                                                                                                    26708164.155 5 104808567.67605      1351.133 5        30.023
R08        18.000    20744316.758 6 111084853.01616      1384.725 6        41.108                                                                    20744309.642 7  86399422.96317      1076.959 7        42.705
E19        20.000    22869633.824 6 120180745.24106      -322.589 6        41.035                                                                    22869631.982 7  89745373.20307      -241.023 7        45.026    22869630.424 7  92086543.83507      -247.226 7        42.842
R06        21.000    21954000.812 5 117150723.15905     -4012.961 5        33.611
R15        22.000    24065453.426 4                     -3551.294 4        25.714
S36        23.000    38155976.510 5 200511075.12505      -851.859 5        34.205
S23        24.000    38101165.891 6 200222943.12906      -847.550 6        39.955
G11        25.000    25170027.927 5 132269353.74205      2703.306 5        35.248                                                                                                    25170018.442 4 103067037.86904      2106.506 4        28.711
R16        26.000    22167093.344 5 118412931.40905      -364.294 5        35.786                                                                    22167091.685 4  92098840.22904      -284.122 4        27.174
E33        28.000                                                                                                                                    24967944.115 7  97979559.38407     -2546.703 7        42.406    24967942.847 4 100535558.88204     -2613.033 4        28.076
E10        29.000    24619428.161 7 129376205.09407       708.821 7        43.340                                                                    24619427.978 7  96611993.66307       529.298 7        46.463    24619427.112 7  99132246.34207       543.088 7        45.336
C20        31.000                                                                                                                                    22316589.354 6 116208528.42706       374.567 6        40.660                                                                    22316588.994 7  94428820.73607       304.144 7        44.628
C05        32.000                                                                                                                                                                                                    39087130.746 5 157387717.29705      -674.570 5        33.234
R23        33.000    20030636.166 6 107150334.17106        21.247 6        41.061
R07        34.000    19419968.637 6 103956588.67406     -1671.161 6        41.998                                                                    19419968.549 7  80855140.70407     -1299.845 7        47.277
R22        35.000    20327856.507 6 108511455.43506     -3774.156 6        41.576                                                                    20327853.125 6  84397824.87506     -2935.427 6        39.628
C32        36.000                                                                                                                                    22661666.099 6 118005196.91406     -2474.458 6        38.922                                                                    22661664.625 7  95888937.28807     -2010.988 7        46.416
R09        37.000    22742697.859 4 121444726.96004      2590.813 4        29.791
C30        38.000                                                                                                                                    24910685.348 5 129716551.56805     -4128.260 5        31.494                                                                    24910690.280 4                     -3354.718 4        29.109
C23        40.000                                                                                                                                    24721494.666 5 128731204.98615       378.083 5        34.362                                                                    24721461.118 5 104604597.92005       306.921 5        33.210
C35        41.000                                                                                                                                    25312332.822 6 131807868.86906      1185.677 6        38.601                                                                    25312329.821 6 107104843.44606       963.234 6        38.231
C37        42.000                                                                                                                                    25690717.965 5 133778252.47415      2164.089 5        30.083
R24        43.000    23872942.997 5                      3211.239 5        30.098
C16        45.000                                                                                                                                    38858452.444 5 202346166.35405     -1369.302 5        30.566    38858444.743 6 156466841.89206     -1058.860 6        36.416    38858463.659 3                     -1114.236 3        20.071
C39        46.000                                                                                                                                    39395769.292 5 205144042.42805     -1737.360 5        34.590                                                                    39395782.096 3                     -1412.348 3        22.114
C09        47.000                                                                                                                                    38412369.322 7 200023313.64507      -786.804 7        43.029    38412365.602 7 154670702.93607      -608.501 7        44.643    38412363.750 6 162535292.58906      -639.636 6        39.396
C19        48.000                                                                                                                                    25843869.260 4                      1863.586 4        24.617                                                                    25843864.419 5                      1516.009 5        32.892
C06        50.000                                                                                                                                    38335406.941 4 199622548.42104     -1290.107 4        24.617    38335428.932 5 154360797.07505      -997.748 5        30.611    38335411.038 5 162209682.78805     -1048.455 5        34.819
C25        51.000                                                                                                                                                                                                                                                                    25694982.930 3                     -1816.093 3        20.714
C29        54.000                                                                                                                                    23067669.946 5 120119410.50305     -1933.928 5        34.705                                                                    23067670.823 6  97606975.88406     -1571.961 6        41.812
I01        59.000   379433781.463 6 185838866.47606     -2998.897 6        40.465
> 2025 01 02 02 45 10.0000000  0 42
G03         1.000    20704807.627 6 108804608.61006     -2675.554 6        39.520                                    20704804.714 4  84782810.55404     -2084.848 4        29.308    20704806.901 5  84782774.53705     -2084.832 5        35.752
G19         2.000    22746232.702 6 119532219.69206     -2690.614 6        36.450                                    22746228.646 2  93141959.64802     -2096.579 2        13.455
G02         4.000    24286260.040 4                     -4343.358 4        25.338
G09         6.000    20671860.320 7 108631349.31207      1051.691 7        44.063                                    20671855.804 7  84647818.47707       819.500 7        44.104    20671857.529 7  84647805.45307       819.500 7        42.982
G31        10.000    22784229.893 6 119731979.50416     -2944.748 6        36.299                                    22784228.044 1  93297604.38711     -2294.570 1        11.852    22784210.354 5                     -2294.623 5        33.814
G17        11.000    23918546.154 5                     -3563.675 5        35.252                                                                                                    23918537.723 3                     -2776.980 3        22.838
G04        12.000    20000586.128 8 105103837.41608      -782.383 8        50.889                                    20000582.216 6  81899016.71406      -609.647 6        39.562    20000582.478 7  81899040.70407      -609.624 7        46.659
E12        13.000    23893313.961 7 125560235.72107      -626.833 7        46.478                                                                    23893309.723 7  93762494.37307      -468.022 7        47.112    23893310.026 8  96208545.82608      -480.274 8        49.026
E29        14.000    24364543.022 7 128036531.46007     -2614.072 7        42.000                                                                    24364541.407 7  95611688.58907     -1952.108 7        45.728    24364541.800 7  98105951.32207     -2003.001 7        45.225
G06        15.000    21936155.658 7 115275305.22107      1364.577 7        44.959                                    21936153.833 6  89824933.87806      1063.308 6        40.617    21936153.532 6  89824926.89206      1063.258 6        41.433
E11        16.000    26477966.320 5 139143004.31205      1758.674 5        35.662                                                                    26477963.220 6 103905232.86806      1313.179 6        39.628    26477963.106 6 106615786.35106      1347.585 6        41.936
E04        17.000                                                                                                                                    26706443.291 5 104801812.85905      1350.617 5        30.815
R08        18.000    20743025.149 7 111077936.45807      1382.322 7        44.743                                                                    20743017.592 7  86394043.40007      1075.137 7        42.176
E19        20.000    22869942.121 6 120182364.76006      -324.983 6        41.521                                                                    22869940.033 7  89746582.57507      -242.607 7        44.990    22869938.472 7  92087784.75207      -248.895 7        42.563
R06        21.000    21957760.939 5 117170790.70605     -4013.860 5        34.200
R15        22.000    24068779.629 4                     -3554.242 4        27.114                                                                    24068788.467 3                     -2768.444 3        20.452
S36        23.000    38156786.374 5 200515336.31805      -852.462 5        34.495
S23        24.000    38101972.948 6 200227182.88206      -848.028 6        40.112
G11        25.000    25167458.548 5 132255840.47105      2702.160 5        33.018                                                                                                    25167445.729 4 103056508.08304      2105.722 4        29.905
R16        26.000    22167431.549 4 118414765.73404      -369.269 4        27.066                                                                    22167439.968 4  92100266.85504      -287.016 4        28.199
E33        28.000                                                                                                                                    24971189.666 6  97992296.62106     -2548.135 6        41.616    24971192.812 4 100548628.45604     -2614.429 4        29.147
E10        29.000    24618754.880 7 129372667.64407       706.499 7        42.838                                                                    24618754.638 7  96609352.05007       527.648 7        45.925    24618753.672 7  99129535.82007       541.283 7        45.038
C20        31.000                                                                                                                                    22316233.386 6 116206660.88206       372.826 6        41.497                                                                    22316230.119 7  94427303.20207       302.886 7        44.009
C05        32.000                                                                                                                                                                                                    39087968.656 5 157391089.80105      -674.376 5        32.796
R23        33.000    20030617.535 6 107150241.04206        16.243 6        38.580
R07        34.000    19421530.305 6 103964952.49706     -1673.919 6        41.766                                                                    19421530.055 7  80861645.88907     -1301.922 7        47.106
R22        35.000    20331396.616 7 108530336.35507     -3778.067 7        45.478                                                                    20331389.705 6  84412510.08906     -2938.371 6        39.384
C32        36.000                                                                                                                                    22664041.804 6 118017574.33706     -2476.029 6        38.844                                                                    22664041.490 7  95898994.94807     -2012.056 7        45.988
R09        37.000    22740263.824 4 121431778.87604      2588.543 4        27.617                                                                    22740291.125 3                      2012.037 3        20.071
C30        38.000                                                                                                                                    24914653.872 5 129737196.45105     -4129.163 5        30.068                                                                    24914654.342 4                     -3355.421 4        26.611
C23        40.000                                                                                                                                    24721136.250 5 128729323.66005       375.086 5        31.962                                                                    24721100.700 5 104603069.22405       304.584 5        30.853
C35        41.000                                                                                                                                    25311196.857 6 131801947.90006      1183.049 6        39.631                                                                    25311192.779 6 107100032.16806       961.476 6        37.871
C37        42.000                                                                                                                                    25688645.247 4 133767436.65804      2162.278 4        27.784
R24        43.000    23869939.515 4                      3209.519 4        28.265
C16        45.000                                                                                                                                    38859769.681 5 202353017.04605     -1370.737 5        31.464    38859759.792 6 156472139.26806     -1060.044 6        36.072    38859780.377 3                     -1112.741 3        20.286
C39        46.000                                                                                                                                    39397438.674 5 205152732.01805     -1738.178 5        34.767                                                                    39397449.613 3                     -1409.724 3        20.881
C09        47.000                                                                                                                                    38413125.834 7 200027251.88107      -788.084 7        43.217    38413121.887 7 154673748.22107      -609.331 7        44.494    38413120.119 6 162538492.72406      -640.342 6        39.399
C19        48.000                                                                                                                                    25842078.451 3                      1863.591 3        22.457                                                                    25842072.555 5                      1515.415 5        32.365
C06        50.000                                                                                                                                    38336647.734 4 199629001.76304     -1290.693 4        24.075    38336668.542 5 154365787.27505      -998.123 5        30.596    38336650.193 5 162214926.68305     -1048.920 5        34.495
C25        51.000                                                                                                                                                                                                                                                                    25697131.705 3                     -1813.636 3        20.071
C29        54.000                                                                                                                                    23069528.512 5 120129090.46605     -1937.413 5        35.767                                                                    23069529.938 6  97614841.65206     -1574.454 6        41.876
I01        59.000   379437602.718 6 185853862.52206     -2999.316 6        40.272
> 2025 01 02 02 45 15.0000000  0 41
G03         1.000    20707353.801 6 108817989.72106     -2677.321 6        39.538                                    20707351.169 4  84793237.39504     -2086.227 4        29.355    20707352.811 6  84793201.39506     -2086.231 6        36.178
G19         2.000    22748795.556 5 119545678.34905     -2692.919 5        34.086                                    22748789.280 1  93152446.88401     -2098.313 1         9.810
G28         3.000    24994323.996 3                     -3986.220 3        22.248
G02         4.000    24290389.651 4                     -4344.745 4        24.391
G09         6.000    20670860.877 7 108626095.57907      1049.556 7        44.098                                    20670856.168 7  84643724.65807       817.836 7        43.767    20670857.270 7  84643711.63907       817.724 7        43.065
G31        10.000    22787028.111 5 119746710.74305     -2948.091 5        35.657                                    22787028.818 1  93309083.31401     -2297.235 1        11.407    22787013.717 5  93309012.32915     -2297.069 5        34.190
G17        11.000    23921936.873 6 125710625.19816     -3564.679 6        36.121                                    23921925.236 1  97956284.19311     -2777.699 1        10.222    23921926.359 4                     -2777.902 4        24.737
G04        12.000    20001331.903 8 105107755.13608      -784.930 8        50.599                                    20001327.769 6  81902069.48506      -611.635 6        39.351    20001327.752 7  81902093.47207      -611.617 7        46.630
E12        13.000    23893911.405 7 125563374.58107      -628.964 7        46.410                                                                    23893907.055 7  93764838.33707      -469.707 7        47.025    23893907.218 8  96210950.93308      -481.994 8        49.110
E29        14.000    24367030.852 6 128049604.29106     -2615.121 6        41.685                                                                    24367029.257 7  95621450.76907     -1952.983 7        45.825    24367029.517 7  98115968.16707     -2003.855 7        45.726
G06        15.000    21934858.544 7 115268487.57007      1362.109 7        45.580                                    21934856.329 6  89819621.41806      1061.382 6        40.276    21934856.678 6  89819614.42706      1061.532 6        41.068
E11        16.000    26476293.276 6 139134212.14106      1757.564 6        36.268                                                                    26476290.057 6 103898667.28206      1312.671 6        40.186    26476290.171 7 106609049.49607      1346.948 7        42.279
E04        17.000    26704733.615 4 140334290.46114      1808.290 4        29.043                                                                    26704724.975 5 104795060.67805      1350.106 5        32.461
R08        18.000    20741735.708 7 111071028.72307      1380.554 7        47.007                                                                    20741727.498 6  86388670.71206      1073.794 6        40.877
E19        20.000    22870252.289 7 120183992.69507      -326.534 7        42.398                                                                    22870249.839 7  89747798.23807      -243.807 7        44.948    22870248.259 7  92089032.14607      -250.185 7        42.432
R06        21.000    21961520.606 5 117190861.27405     -4014.617 5        35.805
R15        22.000    24072109.070 4                     -3557.222 4        29.735                                                                    24072094.195 3                     -2767.418 3        20.000
S36        23.000    38157600.398 5 200519597.80205      -852.302 5        35.310
S23        24.000    38102781.028 6 200231422.63606      -848.145 6        40.000
G11        25.000    25164891.242 5 132242330.39105      2701.615 5        30.287                                                                                                    25164875.546 4 103045980.78804      2105.312 4        29.896
R16        26.000                                                                                                                                    22167793.973 4  92101710.33114      -290.571 4        27.377
E33        28.000                                                                                                                                    24974436.435 6  98005038.98106     -2549.017 6        40.367    24974444.322 5 100561703.33005     -2615.500 5        30.611
E10        29.000    24618083.194 7 129369139.07507       704.760 7        42.703                                                                    24618083.017 7  96606717.08707       526.215 7        45.371    24618082.037 7  99126832.11507       539.931 7        44.823
C20        31.000                                                                                                                                    22315878.739 6 116204799.96206       371.463 6        41.964                                                                    22315872.570 7  94425791.06007       302.044 7        43.681
C05        32.000                                                                                                                                                                                                    39088805.985 5 157394462.29205      -674.727 5        33.503
R23        33.000    20030604.703 6 107150170.64806        11.624 6        39.694
R07        34.000    19423093.950 6 103973326.93606     -1676.154 6        40.331                                                                    19423094.778 7  80868159.33307     -1303.610 7        47.178
R22        35.000    20334937.877 7 108549234.31707     -3781.397 7        47.217                                                                    20334928.251 6  84427208.51606     -2941.188 6        38.853
C32        36.000                                                                                                                                    22666418.489 6 118029957.07406     -2477.147 6        39.306                                                                    22666419.460 7  95909056.92207     -2012.773 7        45.446
R09        37.000    22737833.873 4 121418839.88504      2587.224 4        26.623
C30        38.000                                                                                                                                    24918618.776 4 129757844.17604     -4129.811 4        29.962                                                                    24918617.769 4                     -3355.288 4        24.797
C23        40.000                                                                                                                                    24720768.842 4 128727454.28404       372.190 4        27.413                                                                    24720742.794 4 104601550.24304       303.181 4        26.958
C35        41.000                                                                                                                                    25310063.027 6 131796037.58206      1180.798 6        40.746                                                                    25310057.730 6 107095229.56906       959.574 6        38.033
R24        43.000    23866940.993 4                      3208.210 4        26.563
C16        45.000                                                                                                                                    38861088.414 5 202359870.76205     -1371.418 5        30.294    38861076.178 6 156477438.97106     -1060.107 6        36.008    38861100.351 3                     -1110.921 3        19.612
C39        46.000                                                                                                                                    39399109.495 5 205161424.00205     -1738.568 5        34.205                                                                    39399119.724 3                     -1413.300 3        19.881
C09        47.000                                                                                                                                    38413883.053 7 200031193.69107      -788.823 7        43.450    38413879.034 7 154676796.28707      -609.968 7        44.588    38413876.877 6 162541695.76206      -640.833 6        39.315
C19        48.000                                                                                                                                    25840290.160 3                      1866.683 3        23.067                                                                    25840281.509 5                      1515.282 5        32.844
C06        50.000                                                                                                                                    38337886.302 4                     -1291.508 4        24.180    38337906.866 5 154370779.99305      -998.625 5        30.974    38337890.091 5 162220173.26805     -1049.446 5        34.648
C29        54.000                                                                                                                                    23071392.039 6 120138783.61306     -1940.032 6        37.781                                                                    23071391.418 7  97622718.14607     -1576.330 7        42.068
I01        59.000   379441424.570 6 185868858.95506     -2999.477 6        40.508
> 2025 01 02 02 45 20.0000000  0 42
G03         1.000    20709901.875 6 108831380.22206     -2678.729 6        40.272                                    20709899.614 4  84803671.55104     -2087.321 4        29.640    20709901.291 6  84803635.55806     -2087.351 6        36.522
G19         2.000    22751357.746 5 119559151.27405     -2695.691 5        30.287                                    22751352.723 1  93162945.28701     -2100.532 1         7.375
G28         3.000    24998119.589 3                     -3988.505 3        22.648
G02         4.000    24294522.642 3                     -4345.514 3        23.124
G09         6.000    20669863.689 7 108620853.27407      1047.486 7        45.186                                    20669858.759 7  84639639.74207       816.226 7        43.820    20669860.085 7  84639626.71207       816.321 7        43.096
G31        10.000                                                                                                                                                                    22789818.485 5  93320503.34405     -2299.273 5        34.529
G17        11.000    23925328.899 6 125728451.39806     -3565.710 6        36.567                                    23925319.068 1  97970174.80001     -2778.443 1        10.074    23925322.498 4                     -2778.892 4        25.158
G04        12.000    20002080.172 8 105111686.10008      -787.314 8        50.952                                    20002075.702 6  81905132.58006      -613.492 6        39.204    20002075.476 7  81905156.56607      -613.490 7        46.267
E12        13.000    23894510.790 7 125566525.04307      -631.094 7        46.023                                                                    23894506.592 7  93767190.95307      -471.281 7        47.021    23894506.630 8  96213364.92108      -483.551 8        49.054
E29        14.000    24369519.997 6 128062683.19706     -2616.205 6        41.187                                                                    24369518.187 7  95631217.47307     -1953.625 7        45.920    24369518.297 7  98125989.66407     -2004.630 7        46.102
G06        15.000    21933563.675 7 115261682.52207      1359.938 7        45.729                                    21933561.204 6  89814318.77806      1059.695 6        39.955    21933561.582 6  89814311.79006      1059.763 6        40.565
E11        16.000    26474621.329 6 139125425.17406      1757.174 6        36.405                                                                    26474617.963 6 103892105.59706      1312.095 6        40.503    26474618.048 7 106602316.63707      1346.328 7        42.318
E04        17.000    26703012.481 4 140325252.44604      1807.240 4        26.922                                                                    26703008.628 5 104788311.66105      1349.606 5        33.359
R08        18.000    20740448.441 8 111064130.43208      1378.949 8        48.038                                                                    20740440.114 6  86383305.37606      1072.439 6        40.834
E19        20.000    22870564.006 7 120185629.70807      -327.986 7        42.789                                                                    22870561.245 7  89749020.67807      -244.976 7        44.787    22870559.722 7  92090286.47707      -251.380 7        42.353
R06        21.000    21965282.827 6 117210935.48606     -4015.084 6        36.314
R15        22.000    24075450.704 5                     -3560.690 5        32.611
S36        23.000    38158412.717 5 200523859.52205      -852.476 5        35.476
S23        24.000    38103592.212 6 200235662.79106      -847.792 6        39.970
G11        25.000    25162328.843 4 132228824.05104      2701.674 4        26.323                                                                                                    25162302.401 4 103035456.50904      2104.960 4        29.735
R16        26.000                                                                                                                                    22168144.106 4                      -293.958 4        28.085
E33        28.000                                                                                                                                    24977684.531 6  98017786.93906     -2550.105 6        39.186    24977693.135 4 100574783.84204     -2616.445 4        29.545
E10        29.000    24617413.440 7 129365620.05007       703.041 7        42.110                                                                    24617413.428 7  96604089.23107       524.992 7        44.778    24617412.008 7  99124135.70207       538.770 7        44.600
C20        31.000                                                                                                                                    22315523.554 7 116202946.32407       370.199 7        42.019                                                                    22315516.553 7  94424284.84007       300.910 7        43.312
C05        32.000                                                                                                                                                                                                    39089644.061 5 157397835.18505      -674.395 5        32.796
R23        33.000    20030596.962 6 107150123.76006         7.192 6        41.044
R07        34.000    19424661.466 6 103981712.72706     -1678.295 6        37.607                                                                    19424661.119 7  80874681.63607     -1305.180 7        46.723
R22        35.000    20338478.568 7 108568149.90407     -3784.754 7        46.506                                                                    20338471.951 6  84441920.64406     -2943.646 6        40.896
C32        36.000                                                                                                                                    22668797.583 6 118042345.70706     -2478.239 6        39.601                                                                    22668798.531 7  95919123.71707     -2013.639 7        45.150
R09        37.000    22735406.300 4 121405910.41104      2585.141 4        26.695
C30        38.000                                                                                                                                                                                                                                                                    24922581.880 3                     -3356.865 3        21.929
C23        40.000                                                                                                                                    24720416.871 5 128725597.39805       370.340 5        31.049
C35        41.000                                                                                                                                    25308930.764 6 131790138.50906      1178.913 6        41.561                                                                    25308925.218 6 107090436.10806       957.969 6        38.147
C37        42.000                                                                                                                                    25684464.693 4 133745812.83304      2162.857 4        26.850
R24        43.000    23863943.248 3                      3207.622 3        22.876                                                                    23863931.797 5                      2494.033 5        31.834
C16        45.000                                                                                                                                    38862407.418 5 202366728.08905     -1371.678 5        30.830    38862393.769 6 156482741.52206     -1060.305 6        36.325    38862416.426 3                     -1110.900 3        20.524
C39        46.000                                                                                                                                    39400780.787 5 205170119.00705     -1739.174 5        34.481                                                                    39400787.558 3                     -1413.061 3        22.705
C09        47.000                                                                                                                                    38414641.201 7 200035139.69007      -789.439 7        43.405    38414636.531 7 154679847.57807      -610.462 7        44.421    38414634.858 6 162544902.23606      -641.437 6        39.456
C19        48.000                                                                                                                                    25838506.497 3                      1864.856 3        23.467                                                                    25838491.201 5                      1514.813 5        32.563
C06        50.000                                                                                                                                    38339128.165 4                     -1293.138 4        24.692    38339146.586 5 154375775.76705      -999.225 5        30.777    38339130.664 5 162225423.07705     -1050.189 5        34.276
C29        54.000                                                                                                                                    23073259.606 6 120148490.63306     -1942.690 6        39.216                                                                    23073255.608 7  97630605.93707     -1578.510 7        42.317
I01        59.000   379445246.307 6 185883856.27206     -2999.511 6        40.603
> 2025 01 02 02 45 25.0000000  0 42
G03         1.000    20712452.804 6 108844779.23206     -2680.736 6        39.477                                    20712449.642 4  84814112.34204     -2088.885 4        29.118    20712450.037 6  84814076.35106     -2088.773 6        36.106
G19         2.000    22753927.199 4 119572637.48304     -2698.802 4        29.308                                    22753918.840 1  93173454.05701     -2102.959 1         7.250
G28         3.000    25001922.043 3                     -3990.866 3        23.352
G02         4.000    24298654.399 3                     -4346.047 3        22.229
G09         6.000    20668867.871 7 108615621.51607      1045.334 7        46.091                                    20668863.439 7  84635563.04207       814.546 7        44.048    20668864.500 7  84635550.02507       814.512 7        43.312
G31        10.000    22792623.649 5 119776218.62105     -2953.654 5        30.883                                    22792639.917 2  93332076.44702     -2301.553 2        16.641    22792629.861 5  93332005.56905     -2301.467 5        35.057
G17        11.000    23928719.792 6 125746282.41306     -3566.787 6        36.699                                    23928712.963 1  97984069.09501     -2779.375 1         7.750
G04        12.000    20002830.631 8 105115629.46208      -789.898 8        51.759                                    20002825.937 6  81908205.33106      -615.505 6        38.919    20002825.605 7  81908229.30907      -615.431 7        45.872
E12        13.000    23895112.480 7 125569686.30807      -633.336 7        45.642                                                                    23895108.199 7  93769551.63607      -472.944 7        46.974    23895108.153 8  96215787.18408      -485.247 8        48.886
E29        14.000    24372009.978 6 128075767.30606     -2617.435 6        40.653                                                                    24372008.147 7  95640988.06607     -1954.500 7        45.926    24372008.076 7  98136015.14507     -2005.463 7        46.294
G06        15.000    21932270.479 7 115254889.24107      1357.518 7        45.535                                    21932268.270 6  89809025.30406      1057.808 6        39.357    21932268.420 6  89809018.32306      1057.777 6        40.043
E11        16.000    26472950.152 6 139116642.57306      1756.051 6        36.314                                                                    26472946.590 6 103885547.17706      1311.279 6        40.589    26472946.795 7 106595587.11607      1345.613 7        42.167
E04        17.000    26701282.918 4 140316217.85304      1806.384 4        28.284                                                                    26701290.549 5 104781565.04505      1348.905 5        34.543
R08        18.000    20739160.747 7 111057240.80807      1377.019 7        47.127                                                                    20739152.803 6  86377946.79206      1071.019 6        40.849
E19        20.000    22870876.818 7 120187274.92807      -329.790 7        42.902                                                                    22870874.158 7  89750249.25307      -246.345 7        44.466    22870872.825 7  92091547.10507      -252.809 7        42.326
R06        21.000    21969045.685 5 117231012.32805     -4015.562 5        35.900
R15        22.000                                                                                                                                    24078772.831 3                     -2773.697 3        21.857
S36        23.000    38159225.309 5 200528120.98705      -852.044 5        35.910
S23        24.000    38104394.913 6 200239902.36606      -847.923 6        39.889
G11        25.000    25159763.314 4 132215320.81804      2699.952 4        24.692                                                                                                    25159730.710 4 103024934.63104      2104.438 4        29.754
R16        26.000                                                                                                                                    22168495.822 5  92104648.53015      -297.313 5        30.951
E33        28.000                                                                                                                                    24980934.145 6  98030539.82906     -2551.081 6        37.989    24980942.354 4 100587869.39704     -2617.494 4        28.521
E10        29.000    24616745.006 6 129362109.67406       701.217 6        41.259                                                                    24616745.340 7  96601467.85607       523.563 7        44.196    24616743.668 7  99121445.93407       537.411 7        44.259
C20        31.000                                                                                                                                    22315169.349 7 116201099.08807       368.820 7        42.030                                                                    22315161.698 7  94422783.81207       299.772 7        43.033
C05        32.000                                                                                                                                                                                                    39090481.297 5 157401207.81805      -674.532 5        32.796
R23        33.000    20030594.507 7 107150099.52507         2.602 7        42.227
R07        34.000    19426233.198 6 103990109.02706     -1680.261 6        37.694                                                                    19426229.906 7  80881212.10307     -1306.946 7        47.047
R22        35.000    20342020.663 7 108587082.20907     -3788.216 7        46.414                                                                    20342019.471 7  84456645.80607     -2946.428 7        42.423
C32        36.000                                                                                                                                    22671177.654 6 118054739.41306     -2479.245 6        39.763                                                                    22671178.786 7  95929194.62007     -2014.483 7        44.996
