     3.04           OBSERVATION DATA    M                   RINEX VERSION / TYPE
ssrcrin-15.6.1x                         20250102 233000 UTC PGM / RUN BY / DATE 
(00000000023479385599111004) Septentrio proprietary         COMMENT             
ract                                                        MARKER NAME         
01                                                          MARKER NUMBER       
geodetic                                                    MARKER TYPE         
NFB                 CLIMERS@TUW                             OBSERVER / AGENCY   
3296359             SEPT ASTERX SB3 PROB4.14.4              REC # / TYPE / VERS 
Unknown             Unknown                                 ANT # / TYPE        
  4127447.2089  1206916.4360  4695541.3077                  APPROX POSITION XYZ 
        0.0000        0.0000        0.0000                  ANTENNA: DELTA H/E/N
G   23 X1  C1C L1C D1C S1C C1W S1W C2W L2W D2W S2W C2L L2L  SYS / # / OBS TYPES 
       D2L S2L C5Q L5Q D5Q S5Q C1L L1L D1L S1L              SYS / # / OBS TYPES 
E   21 X1  C1C L1C D1C S1C C6C L6C D6C S6C C5Q L5Q D5Q S5Q  SYS / # / OBS TYPES 
       C7Q L7Q D7Q S7Q C8Q L8Q D8Q S8Q                      SYS / # / OBS TYPES 
S    9 X1  C1C L1C D1C S1C C5I L5I D5I S5I                  SYS / # / OBS TYPES 
R   17 X1  C1C L1C D1C S1C C2P L2P D2P S2P C2C L2C D2C S2C  SYS / # / OBS TYPES 
       C3Q L3Q D3Q S3Q                                      SYS / # / OBS TYPES 
C   25 X1  C1P L1P D1P S1P C5P L5P D5P S5P C2I L2I D2I S2I  SYS / # / OBS TYPES 
       C7I L7I D7I S7I C6I L6I D6I S6I C7D L7D D7D S7D      SYS / # / OBS TYPES 
J   17 X1  C1C L1C D1C S1C C2L L2L D2L S2L C5Q L5Q D5Q S5Q  SYS / # / OBS TYPES 
       C1L L1L D1L S1L                                      SYS / # / OBS TYPES 
I    5 X1  C5A L5A D5A S5A                                  SYS / # / OBS TYPES 
SEPTENTRIO RECEIVERS OUTPUT ALIGNED CARRIER PHASES.         COMMENT             
NO FURTHER PHASE SHIFT APPLIED IN THE RINEX ENCODER.        COMMENT             
G L1C                                                       SYS / PHASE SHIFT   
G L2W                                                       SYS / PHASE SHIFT   
G L2L  0.00000                                              SYS / PHASE SHIFT   
G L5Q  0.00000                                              SYS / PHASE SHIFT   
G L1L  0.00000                                              SYS / PHASE SHIFT   
E L1C  0.00000                                              SYS / PHASE SHIFT   
E L6C  0.00000                                              SYS / PHASE SHIFT   
E L5Q  0.00000                                              SYS / PHASE SHIFT   
E L7Q  0.00000                                              SYS / PHASE SHIFT   
E L8Q  0.00000                                              SYS / PHASE SHIFT   
S L1C                                                       SYS / PHASE SHIFT   
S L5I                                                       SYS / PHASE SHIFT   
R L1C                                                       SYS / PHASE SHIFT   
R L2P  0.00000                                              SYS / PHASE SHIFT   
R L2C                                                       SYS / PHASE SHIFT   
R L3Q  0.00000                                              SYS / PHASE SHIFT   
C L1P  0.00000                                              SYS / PHASE SHIFT   
C L5P  0.00000                                              SYS / PHASE SHIFT   
C L2I                                                       SYS / PHASE SHIFT   
C L7I                                                       SYS / PHASE SHIFT   
C L6I                                                       SYS / PHASE SHIFT   
C L7D                                                       SYS / PHASE SHIFT   
J L1C                                                       SYS / PHASE SHIFT   
J L2L  0.00000                                              SYS / PHASE SHIFT   
J L5Q  0.00000                                              SYS / PHASE SHIFT   
J L1L  0.00000                                              SYS / PHASE SHIFT   
I L5A                                                       SYS / PHASE SHIFT   
  2025     1     2    23    30    0.0000000     GPS         TIME OF FIRST OBS   
 C1C    0.000 C2C    0.000 C2P    0.000                     GLONASS COD/PHS/BIS 
DBHZ                                                        SIGNAL STRENGTH UNIT
    18                                                      LEAP SECONDS        
 24 R01  1 R02 -4 R03  5 R04  6 R05  1 R06 -4 R07  5 R08  6 GLONASS SLOT / FRQ #
    R09 -2 R10 -7 R11  0 R12 -1 R13 -2 R14 -7 R15  0 R16 -1 GLONASS SLOT / FRQ #
    R17  4 R18 -3 R19  3 R20  2 R21  4 R22 -3 R23  3 R24  2 GLONASS SLOT / FRQ #
                                                            END OF HEADER       
> 2025 01 02 23 30  0.0000000  0 30
G10         1.000    24437614.638 4                     -3929.696 4        29.223                                                                                                    24437593.043 3                     -3064.022 3        19.612
G03         2.000    21809376.970 4                      1764.020 4        29.355
G32         3.000    22359952.494 8 117502458.84808     -2391.144 8        49.414                                    22359948.795 7  91560250.56207     -1863.259 7        42.861    22359949.994 6  91560250.56206     -1862.973 6        41.707
G21         4.000    20899479.628 6 109827561.84706     -1613.169 6        41.316                                    20899474.204 5  85579885.80505     -1257.003 5        30.536
G08         5.000    22834834.330 5 119997855.89505     -4208.632 5        35.510                                    22834829.370 3  93504838.86003     -3279.445 3        21.452    22834834.553 5  93504819.93805     -3279.145 5        34.176
G02         6.000    20958570.318 8 110138023.79408      -100.769 8        48.225                                    20958563.343 5  85821813.71705       -78.545 5        33.665
G14         7.000    24357958.191 4                     -2284.450 4        29.232                                                                                                    24357959.132 4  99741801.82104     -1780.510 4        29.943
E03         9.000    24279063.082 7 127587331.37407        86.181 7        45.664                                                                    24279062.225 7  95276313.62207        64.310 7        47.903    24279061.335 7  97761753.83207        65.945 7        46.925
G17        10.000    24028537.219 5                      1964.633 5        35.852                                                                                                    24028526.568 6  98392805.08906      1530.643 6        37.626
E05        11.000    24629875.516 5                     -2660.234 5        33.874                                                                    24629862.107 6  96652869.59806     -1989.733 6        38.844    24629861.577 5  99174324.27305     -2041.505 5        35.210
E13        12.000    25054232.977 6 131660873.74206      1096.894 6        41.294                                                                    25054237.995 4  98318198.28304       818.811 4        29.791    25054229.841 6 100882991.48306       840.470 6        36.204
E21        15.000    27423008.934 5 144108897.56605     -2408.592 5        30.664                                                                                                                                    27423009.917 5 110421107.78705     -1845.187 5        34.733
E15        16.000    23520574.207 6 123601447.15706     -1204.294 6        40.043                                                                    23520574.362 6  92299767.40406      -899.252 6        40.207    23520572.760 6  94707627.63506      -922.662 6        41.928
S23        17.000    38309582.321 6 201318228.45906      -849.748 6        36.650
E08        19.000    26347289.400 6 138455930.82806      2186.505 6        38.556                                                                    26347283.120 6 103392429.25206      1632.810 6        39.249    26347284.533 6 106089634.79806      1675.442 6        37.425
R14        23.000    23979840.021 6 127826052.73306      -479.835 6        36.238
R06        25.000    19696754.198 6 105105641.25106     -2375.226 6        40.012
R07        27.000    20015776.448 7 107146049.84607      1551.314 7        44.337                                                                    20015773.911 7  83335769.20507      1206.433 7        43.536
C41        29.000                                                                                                                                    23649540.849 6 123149440.64406      1712.259 6        37.372                                                                    23649558.190 6                      1391.279 6        41.528
E34        32.000    26386584.572 6 138662480.25106     -3115.169 6        38.000                                                                    26386583.079 5 103546618.02305     -2326.589 5        32.114    26386586.441 6 106247838.95406     -2387.176 6        37.898
R23        33.000    22938536.987 4 122705749.90804      3035.536 4        29.052
R22        35.000    19697757.685 7 105147961.67207       806.198 7        47.041                                                                    19697755.322 7  81781775.88507       627.045 7        44.510
C33        37.000                                                                                                                                    22013899.391 8 114632183.61408     -1042.512 8        49.348                                                                    22013910.513 7  93148045.60907      -847.235 7        46.742
R21        39.000    20395855.856 6 109142377.29106     -3273.061 6        37.735                                                                    20395851.982 6  84888465.48306     -2546.276 6        37.868
C27        41.000                                                                                                                                    23106752.041 6 120323140.66906      1321.695 6        41.027                                                                    23106750.197 7  97772262.70407      1073.732 7        42.377
C14        42.000                                                                                                                                    22828630.386 7 118874691.94407     -2637.514 7        42.277    22828628.600 7  91921390.36507     -2039.527 7        43.081    22828620.980 6  96595417.77106     -2143.258 6        39.880
C39        45.000                                                                                                                                    39601499.455 4                       229.189 4        26.862
C43        48.000                                                                                                                                    25089279.943 5 130646470.94805     -4054.549 5        30.906                                                                    25089276.957 5 106160957.33205     -3294.676 5        35.557
C28        55.000                                                                                                                                    21662363.165 8 112801585.88308     -1277.122 8        48.854                                                                    21662362.598 8  91660531.46608     -1037.860 8        51.134
I09        56.000    37315100.770 5 146432476.45105      -501.760 5        32.048
> 2025 01 02 23 30  5.0000000  0 30
G10         1.000    24441349.762 4                     -3930.026 4        25.699                                                                                                    24441326.360 4                     -3062.966 4        24.361
G03         2.000    21807692.121 6                      1762.788 6        39.366                                                                                                    21807704.989 5  89298876.65615      1373.902 5        32.766
G32         3.000    22362229.357 8 117514421.55708     -2393.889 8        48.668                                    22362225.370 7  91569572.13707     -1865.385 7        43.331    22362226.525 6  91569572.16706     -1865.270 6        41.943
G21         4.000    20901016.538 6 109835633.05106     -1614.886 6        36.166                                    20901009.924 4  85586175.07404     -1258.326 4        28.863
G08         5.000    22838835.337 4                     -4210.076 4        24.376                                                                                                    22838838.060 4  93521219.63104     -3280.731 4        29.118
G02         6.000    20958667.520 7 110138533.62307      -103.000 7        46.936                                    20958660.266 5  85822210.98205       -80.277 5        32.228
E03         9.000    24278982.328 7 127586907.85707        83.536 7        47.776                                                                    24278982.386 8  95275997.31208        62.349 8        48.882    24278980.236 7  97761429.26907        63.914 7        46.681
G17        10.000    24026669.324 6 126260992.90616      1962.392 6        36.284                                    24026656.319 3  98385143.79413      1529.113 3        18.955    24026657.707 5  98385155.79605      1529.147 5        33.689
E05        11.000    24632408.355 4 129444155.60614     -2667.536 4        26.683                                                                    24632398.319 6  96662822.87306     -1991.332 6        39.480    24632400.004 5  99184537.02705     -2043.511 5        33.006
E13        12.000    25053191.611 6 131655392.17206      1095.864 6        37.599                                                                    25053190.907 4  98314104.16904       818.758 4        29.232    25053187.736 6 100878791.18506       839.782 6        40.839
E21        15.000    27425300.016 4 144120945.05504     -2410.502 4        27.078                                                                                                                                    27425301.687 5 110430339.10105     -1847.227 5        33.695
E15        16.000    23521719.411 6 123607472.54406     -1205.816 6        38.366                                                                    23521721.101 6  92304267.05206      -900.283 6        41.077    23521721.428 7  94712244.66607      -923.821 7        42.639
S23        17.000    38310387.584 6 201322481.70206      -850.451 6        39.838
E08        19.000    26345206.334 6 138445001.45406      2185.380 6        36.178                                                                    26345202.716 6 103384267.71306      1631.943 6        39.646    26345202.415 6 106081260.30006      1674.658 6        38.550
R14        23.000    23980287.536 5 127828461.57205      -484.204 5        35.257
R06        25.000    19698981.359 5 105117528.27205     -2379.224 5        34.767
R13        26.000    24419934.414 4                     -3593.723 4        28.322
R07        27.000    20014327.979 7 107138303.58207      1547.295 7        46.502                                                                    20014328.217 7  83329744.33107      1203.606 7        45.743
C41        29.000                                                                                                                                    23647899.116 6 123140883.84806      1710.476 6        41.723                                                                    23647922.623 6                      1389.609 6        37.372
E34        32.000    26389549.422 6 138678060.15006     -3116.606 6        38.919                                                                    26389547.472 5 103558252.41205     -2327.207 5        32.287    26389550.363 6 106259776.79606     -2387.853 6        36.537
R23        33.000    22935702.077 4                      3034.231 4        28.047
R22        35.000    19697004.754 8 105143938.88808       803.072 8        48.004                                                                    19697000.886 7  81778647.05807       624.603 7        45.016
C33        37.000                                                                                                                                    22014902.378 8 114637403.30108     -1045.225 8        48.807                                                                    22014912.099 7  93152287.04207      -849.480 7        46.534
R21        39.000    20398914.511 6 109158754.71706     -3277.255 6        39.925                                                                    20398913.900 6  84901203.40406     -2548.574 6        39.556
C27        41.000                                                                                                                                    23105485.623 7 120316537.91707      1319.775 7        45.514                                                                    23105483.085 7  97766897.52007      1072.443 7        43.676
C14        42.000                                                                                                                                    22831163.842 7 118887885.07307     -2639.487 7        42.813    22831155.773 6  91931591.99606     -2041.327 6        39.817    22831156.452 7  96606138.18807     -2144.976 7        42.207
C43        48.000                                                                                                                                                                                                                                                                    25093171.000 5 106177432.51305     -3295.398 5        34.290
C42        50.000                                                                                                                                    24793505.889 5                     -3693.749 5        30.234                                                                    24793509.799 4                     -3001.909 4        26.467
C28        55.000                                                                                                                                    21663590.966 7 112807978.86907     -1279.801 7        46.337                                                                    21663590.578 8  91665726.32008     -1040.070 8        51.089
I09        56.000    37315740.451 5 146434983.62105      -501.703 5        32.383
> 2025 01 02 23 30 10.0000000  0 30
G10         1.000                                                                                                                                                                    24445066.966 4                     -3063.209 4        26.958
G03         2.000                                                                                                                                                                    21806024.865 6  89292011.80206      1372.326 6        37.240
G32         3.000    22364507.386 8 117526397.99708     -2396.323 8        50.102                                    22364504.086 7  91578904.43807     -1867.258 7        43.566    22364504.563 7  91578904.45307     -1867.537 7        42.859
G21         4.000    20902552.098 6 109843713.21906     -1616.966 6        36.771                                    20902547.398 4  85592471.27004     -1259.969 4        27.114
G08         5.000    22842842.751 4 120039958.54314     -4210.839 4        26.383                                    22842841.395 3  93537615.02313     -3281.168 3        19.821    22842845.995 5  93537624.10805     -3281.081 5        30.913
G02         6.000    20958765.164 7 110139052.41907      -104.566 7        45.100                                    20958758.914 5  85822615.26005       -81.483 5        31.585
G14         7.000    24362305.105 5                     -2289.298 5        34.271
E03         9.000    24278903.404 7 127586495.86207        81.254 7        45.449                                                                    24278903.862 8  95275689.67208        60.620 8        48.993    24278902.648 7  97761113.57807        62.285 7        46.740
G17        10.000                                                                                                                                                                    24024792.669 5  98377512.55305      1528.287 5        35.276
E05        11.000                                                                                                                                    24634936.514 6  96672782.97206     -1992.778 6        38.000    24634937.889 6  99194757.04506     -2044.768 6        36.386
E13        12.000                                                                                                                                    25052152.232 5  98310013.04905       818.105 5        34.481    25052144.853 6 100874593.33106       839.310 6        41.383
E21        15.000    27427597.222 4                     -2412.770 4        25.489                                                                    27427628.977 3                     -1801.885 3        18.418
E15        16.000    23522869.040 6 123613504.41706     -1207.066 6        41.855                                                                    23522869.303 6  92308771.34706      -901.412 6        41.318    23522870.306 7  94716866.52107      -924.846 7        43.079
S23        17.000    38311206.848 6 201326734.97206      -850.268 6        36.945
E08        19.000    26343127.250 6 138434076.09806      2184.845 6        36.355                                                                    26343124.445 6 103376109.18206      1631.504 6        39.054    26343118.958 5 106072889.01605      1674.288 5        34.000
R14        23.000    23980745.586 5 127830890.50305      -487.958 5        30.309
R06        25.000    19701211.264 5 105129433.62405     -2382.873 5        33.880
R07        27.000    20012884.086 7 107130574.33007      1544.102 7        46.539                                                                    20012884.280 7  83323732.68207      1201.066 7        43.033
C41        29.000                                                                                                                                    23646258.122 6 123132335.06406      1709.163 6        41.959                                                                    23646279.789 6                      1388.782 6        38.820
E34        32.000    26392514.681 6 138693643.62006     -3116.894 6        40.148                                                                    26392512.449 5 103569889.32905     -2327.773 5        32.910    26392513.300 5 106271717.38005     -2388.625 5        34.376
R22        35.000    19696251.377 7 105139930.11207       800.261 7        46.592                                                                    19696249.626 6  81775529.14706       622.591 6        41.502
C33        37.000                                                                                                                                    22015906.408 8 114642634.99508     -1047.445 8        48.413                                                                    22015917.550 8  93156538.25408      -851.290 8        48.227
R21        39.000    20401975.454 7 109175146.43107     -3279.907 7        42.436                                                                    20401974.730 6  84913952.46806     -2551.009 6        36.336
C27        41.000                                                                                                                                    23104217.556 7 120309943.41107      1318.106 7        45.046                                                                    23104217.547 7  97761538.88507      1070.964 7        43.666
C14        42.000                                                                                                                                    22833698.425 7 118901087.49207     -2641.364 7        42.044    22833690.732 6  91941800.84606     -2042.365 6        38.150    22833692.031 7  96616866.09807     -2146.536 7        42.944
C39        45.000                                                                                                                                    39601075.966 5                       227.182 5        31.064
C43        48.000                                                                                                                                    25097070.967 4                     -4057.941 4        24.797                                                                    25097065.224 5 106193910.83005     -3296.037 5        33.180
C42        50.000                                                                                                                                                                                                                                                                    24797057.723 4                     -3002.365 4        27.617
C28        55.000                                                                                                                                    21664821.618 8 112814384.05008     -1282.339 8        48.474                                                                    21664820.816 8  91670931.05008     -1042.049 8        51.372
I09        56.000    37316379.334 5 146437491.90205      -501.963 5        34.438
> 2025 01 02 23 30 15.0000000  0 32
G10         1.000                                                                                                                                                                    24448803.986 4                     -3062.299 4        28.000
G03         2.000    21804346.224 5 114582567.76515      1758.283 5        34.062                                    21804351.222 3  89285175.03013      1369.788 3        23.352    21804351.715 6  89285153.30606      1370.879 6        37.584
G32         3.000    22366789.352 7 117538387.90507     -2399.529 7        47.567                                    22366785.642 7  91588247.22107     -1869.753 7        42.711    22366786.251 6  91588247.21706     -1869.548 6        39.766
G21         4.000    20904092.726 6 109851802.24606     -1619.107 6        38.982                                    20904086.575 4  85598774.39804     -1261.651 4        27.353
G08         5.000    22846856.019 5 120061017.16415     -4212.397 5        35.548                                    22846848.595 3  93554024.31113     -3282.345 3        21.000    22846852.093 5  93554033.27905     -3282.352 5        30.641
G02         6.000    20958865.541 7 110139580.01707      -106.545 7        47.021                                    20958859.333 5  85823026.38605       -83.031 5        33.018
G14         7.000    24364483.322 6 128036238.26116     -2292.230 6        38.652                                                                                                    24364511.648 3                     -1785.824 3        20.381
E03         9.000    24278826.960 7 127586095.14607        79.107 7        44.126                                                                    24278827.255 8  95275390.46008        58.849 8        48.632    24278825.984 7  97760806.54607        60.367 7        47.016
G17        10.000    24022932.964 5 126241381.33215      1958.932 5        31.502                                    24022922.836 4  98369852.85514      1526.384 4        25.534    24022930.247 6  98369874.94106      1526.821 6        40.048
E05        11.000                                                                                                                                    24637474.743 6  96682749.61406     -1994.058 6        39.237    24637474.588 6  99204983.73806     -2046.296 6        36.110
E13        12.000    25051130.439 6 131644437.54106      1094.923 6        38.075                                                                    25051103.125 5  98305923.77205       817.447 5        34.271    25051104.181 6 100870397.43606       838.771 6        41.163
E21        15.000    27429890.306 4                     -2414.639 4        28.910
E15        16.000    23524018.579 7 123619542.44507     -1208.477 7        42.656                                                                    23524015.716 6  92313280.20906      -902.378 6        38.829    23524019.086 7  94721492.96307      -925.797 7        43.213
S23        17.000    38312014.843 6 201330987.77806      -851.151 6        38.396
E08        19.000    26341049.119 6 138423154.59606      2183.594 6        37.070                                                                    26341046.281 6 103367953.52806      1630.718 6        38.778    26341041.426 5 106064520.60405      1673.263 5        35.286
R14        23.000    23981209.457 6 127833339.90506      -491.869 6        36.639
R06        25.000    19703446.618 6 105141356.80306     -2386.571 6        37.146
R13        26.000    24426677.518 4                     -3598.277 4        28.474
R07        27.000    20011446.418 8 107122861.91408      1540.525 8        49.481                                                                    20011441.835 6  83317734.10906      1198.165 6        39.486
C41        29.000                                                                                                                                    23644621.007 6 123123794.10606      1706.995 6        39.943                                                                    23644639.218 5 100048213.59215      1386.831 5        30.906
E34        32.000    26395480.355 6 138709230.34406     -3117.707 6        38.207                                                                    26395481.284 5 103581528.80105     -2328.322 5        32.916    26395479.068 5 106283660.47705     -2388.905 5        34.586
R23        33.000    22930011.715 6 122660083.19816      3034.032 6        37.289
R22        35.000    19695503.266 7 105135935.11507       797.461 7        45.786                                                                    19695501.803 7  81772421.92607       620.365 7        44.632
C33        37.000                                                                                                                                    22016912.385 8 114647878.56408     -1050.029 8        50.007                                                                    22016925.219 8  93160799.09908      -853.212 8        49.633
R21        39.000    20405046.421 6                     -3282.575 6        38.853
C27        41.000                                                                                                                                    23102952.581 7 120303356.66607      1316.399 7        45.624                                                                    23102951.415 7  97756186.66907      1069.630 7        43.714
C14        42.000                                                                                                                                    22836235.129 6 118914298.85906     -2643.575 6        41.704                                                                    22836229.985 6  96627601.45006     -2147.766 6        38.961
C39        45.000                                                                                                                                    39600854.478 5                       226.093 5        34.510
C43        48.000                                                                                                                                    25100963.536 4                     -4057.770 4        25.594                                                                    25100960.830 5 106210392.29705     -3296.806 5        34.881
C42        50.000                                                                                                                                    24800582.862 5                     -3695.416 5        32.269                                                                    24800585.014 6                     -3002.968 6        36.941
C28        55.000                                                                                                                                    21666054.057 8 112820801.18608     -1284.660 8        50.167                                                                    21666053.044 8  91676145.51408     -1043.964 8        51.807
I09        56.000    37317019.497 6 146440001.14206      -502.046 6        38.829
> 2025 01 02 23 30 20.0000000  0 32
G10         1.000    24452574.522 4                     -3930.994 4        25.248                                                                                                    24452547.575 4                     -3063.284 4        24.286
G03         2.000    21802669.730 6 114573774.30706      1757.905 6        39.979                                    21802677.230 4  89278323.20804      1369.833 4        24.511    21802675.170 5  89278301.13605      1369.781 5        33.713
G32         3.000    22369074.016 7 117550391.83707     -2402.091 7        46.934                                    22369069.827 7  91597600.95707     -1871.741 7        42.339    22369070.343 6  91597600.85506     -1871.834 6        39.441
G21         4.000    20905633.307 6 109859900.64706     -1620.779 6        37.327                                    20905627.867 4  85605084.86204     -1262.925 4        27.796
G08         5.000                                                                                                                                                                    22850861.258 5  93570447.69805     -3283.431 5        32.563
G02         6.000    20958968.572 7 110140117.11207      -108.474 7        46.705                                    20958961.304 5  85823444.87805       -84.535 5        33.521
G14         7.000    24366667.580 5                     -2294.334 5        33.922                                                                                                    24366693.598 4                     -1787.694 4        26.216
E03         9.000    24278753.221 7 127585706.33907        76.557 7        46.422                                                                    24278753.660 8  95275100.09008        57.064 8        48.820    24278751.593 8  97760508.60208        58.556 8        48.697
G17        10.000    24021070.150 5 126231587.96905      1957.533 5        31.253                                    24021060.369 4  98362221.74804      1525.320 4        24.707    24021065.666 6  98362243.63106      1525.583 6        38.793
E05        11.000                                                                                                                                    24640015.868 6  96692723.31406     -1995.502 6        38.556    24640016.665 5  99215217.61905     -2047.364 5        33.461
E13        12.000                                                                                                                                    25050062.219 5  98301837.32505       817.455 5        30.423    25050059.889 6 100866204.13106       838.507 6        38.474
E21        15.000    27432187.298 5 144157114.84815     -2416.453 5        34.319                                                                    27432185.793 5 107649790.15715     -1804.450 5        35.133
E15        16.000    23525168.928 7 123625587.02807     -1209.837 7        45.682                                                                    23525164.398 6  92317794.06006      -903.598 6        36.200    23525168.516 7  94726124.52307      -926.882 7        42.057
S23        17.000    38312808.530 6 201335240.82106      -850.823 6        41.421
E08        19.000    26338973.123 6 138412237.53706      2182.788 6        36.514                                                                    26338968.795 6 103359801.17506      1630.023 6        38.526    26338966.130 6 106056155.60706      1672.470 6        38.402
R14        23.000    23981683.324 5 127835808.66015      -496.240 5        34.438
R06        25.000    19705684.643 6 105153298.46806     -2390.364 6        36.234
R13        26.000    24430051.398 3                     -3600.078 3        21.643
R07        27.000    20010007.641 7 107115166.95607      1537.082 7        42.345                                                                    20010005.166 6  83311749.13906      1195.561 6        41.387
C41        29.000                                                                                                                                    23642979.738 6 123115261.40006      1705.563 6        37.675                                                                    23642995.468 5 100041280.30505      1386.167 5        32.856
E34        32.000    26398446.596 5 138724820.92605     -3118.536 5        35.233                                                                    26398445.814 5 103593171.15705     -2328.723 5        33.509    26398444.748 5 106295606.53705     -2389.461 5        33.862
R23        33.000    22927175.983 6 122644913.79106      3033.864 6        41.039
R22        35.000    19694757.974 7 105131954.41807       794.604 7        47.193                                                                    19694756.278 7  81769325.85107       618.052 7        46.263
C33        37.000                                                                                                                                    22017922.736 8 114653134.54008     -1052.434 8        48.147                                                                    22017934.689 8  93165069.96408      -855.279 8        48.596
R21        39.000    20408120.807 6 109207972.63716     -3285.827 6        40.143                                                                    20408107.742 5  84939466.92015     -2555.480 5        31.743
C27        41.000                                                                                                                                    23101688.894 7 120296778.44707      1314.686 7        44.393                                                                    23101688.381 7  97750841.28707      1068.318 7        44.713
C14        42.000                                                                                                                                    22838773.176 7 118927519.71807     -2644.859 7        42.015                                                                    22838767.887 7  96638344.54007     -2149.397 7        42.967
C39        45.000                                                                                                                                    39600633.946 4                       226.011 4        27.234
C43        48.000                                                                                                                                    25104859.409 4                     -4058.003 4        28.891                                                                    25104855.288 5 106226877.27405     -3297.527 5        33.335
C42        50.000                                                                                                                                    24804132.472 5                     -3696.280 5        34.776                                                                    24804129.236 6                     -3003.855 6        38.102
C28        55.000                                                                                                                                    21667289.374 8 112827230.85608     -1287.255 8        50.742                                                                    21667287.648 8  91681370.10708     -1045.978 8        51.451
I09        56.000    37317660.269 6 146442511.60606      -502.274 6        36.227
> 2025 01 02 23 30 25.0000000  0 32
G10         1.000    24456318.371 3                     -3931.343 3        23.619
G03         2.000    21800996.648 6 114564989.69506      1756.229 6        39.526                                    21801004.061 4  89271478.20004      1368.424 4        25.865    21800999.070 6  89271455.29406      1368.516 6        38.195
G32         3.000    22371360.843 7 117562409.21807     -2404.706 7        46.863                                    22371356.427 7  91606965.14107     -1873.792 7        42.258    22371357.668 6  91606965.12806     -1873.995 6        37.187
G21         4.000    20907176.121 6 109868007.81806     -1622.387 6        37.679                                    20907170.819 4  85611402.10104     -1264.189 4        28.133
G08         5.000    22854874.313 5 120103153.39205     -4215.122 5        33.952                                    22854868.311 3  93586857.74803     -3284.494 3        22.438    22854871.526 5  93586866.70905     -3284.399 5        35.586
G02         6.000    20959072.620 8 110140662.99008      -110.111 8        48.477                                    20959065.256 5  85823870.22905       -85.811 5        33.778
G14         7.000                                                                                                                                                                    24368875.898 4                     -1790.075 4        28.104
E03         9.000    24278682.160 7 127585328.88707        74.295 7        46.854                                                                    24278681.694 8  95274818.24208        55.564 8        48.189    24278679.817 8  97760219.39108        56.936 8        48.128
G17        10.000    24019207.214 6 126221801.77306      1956.497 6        39.682                                    24019199.396 4  98354596.14904      1524.543 4        27.557    24019203.269 6  98354618.15406      1524.685 6        39.517
E05        11.000    24642565.520 3                     -2674.242 3        23.733                                                                    24642560.228 6  96702703.65206     -1996.596 6        38.565    24642560.004 6  99225458.25106     -2048.988 6        36.000
E13        12.000    25049012.979 5 131633494.88805      1093.918 5        31.321                                                                    25049022.920 4  98297752.49204       816.760 4        29.223    25049020.646 7 100862012.91507       838.083 7        42.241
E21        15.000                                                                                                                                    27434481.117 5 107658814.62705     -1805.509 5        33.940    27434481.651 5 110467335.87505     -1852.664 5        31.577
E15        16.000    23526320.581 7 123631637.84207     -1210.917 7        45.222                                                                    23526319.476 6  92322312.57506      -904.232 6        41.480    23526321.178 7  94730760.88507      -927.584 7        43.973
S23        17.000    38313627.525 6 201339493.47806      -850.312 6        38.240
E08        19.000    26336899.124 5 138401324.44205      2182.195 5        34.986                                                                    26336891.563 6 103351651.74606      1629.537 6        40.336    26336890.444 6 106047793.61306      1672.104 6        38.105
R14        23.000    23982145.259 5                      -500.273 5        31.472
R06        25.000    19707926.135 6 105165258.12906     -2393.547 6        37.716
R13        26.000    24433416.115 4                     -3603.705 4        26.862
R07        27.000    20008573.511 7 107107488.98107      1533.980 7        46.721                                                                    20008570.431 6  83305777.32806      1193.001 6        41.056
C41        29.000                                                                                                                                    23641344.182 6 123106736.69206      1704.568 6        41.073                                                                    23641358.508 4 100034353.13204      1386.217 4        29.090
E34        32.000    26401414.108 6 138740414.86706     -3118.935 6        36.775                                                                    26401414.211 5 103604815.99105     -2329.104 5        32.054    26401416.332 5 106307555.12705     -2389.990 5        33.599
R23        33.000    22924335.524 6 122629746.27406      3033.268 6        38.877
R22        35.000    19694015.960 7 105127987.62307       791.812 7        43.386                                                                    19694013.688 7  81766240.59607       616.050 7        45.299
C33        37.000                                                                                                                                    22018934.095 7 114658402.37007     -1054.591 7        47.206                                                                    22018945.778 8  93169350.55508      -857.034 8        48.942
R21        39.000    20411192.097 6 109224407.10706     -3287.563 6        38.658                                                                    20411181.138 5  84952249.26505     -2557.068 5        31.668
C27        41.000                                                                                                                                    23100426.143 7 120290208.13207      1313.509 7        43.572                                                                    23100426.265 7  97745502.34407      1067.337 7        42.127
C14        42.000                                                                                                                                    22841313.746 7 118940749.71807     -2646.716 7        42.138    22841311.827 6                     -2047.116 6        38.913    22841309.501 6  96649095.08606     -2150.672 6        40.482
C39        45.000                                                                                                                                    39600411.255 5                       223.969 5        30.838
C43        48.000                                                                                                                                    25108760.325 4 130747909.78814     -4058.630 4        29.640                                                                    25108751.685 5 106243365.34405     -3297.677 5        33.018
C42        50.000                                                                                                                                                                                                                                                                    24807678.972 6 104969433.86416     -3004.255 6        36.393
C28        55.000                                                                                                                                    21668525.519 8 112833672.50808     -1289.495 8        48.680                                                                    21668524.549 8  91686604.51408     -1047.799 8        50.522
I09        56.000    37318298.181 5 146445022.98005      -502.310 5        33.737
> 2025 01 02 23 30 30.0000000  0 30
G10         1.000    24460055.605 4                     -3929.910 4        24.316                                                                                                    24460030.983 3                     -3063.125 3        23.048
G03         2.000    21799326.876 6 114556212.83606      1754.455 6        41.073                                    21799332.475 4  89264639.22604      1367.038 4        25.293    21799329.909 6  89264616.23806      1367.190 6        37.543
G32         3.000    22373649.993 8 117574440.97408     -2407.712 8        49.569                                    22373645.889 6  91616340.51606     -1876.136 6        41.447    22373647.897 6  91616340.51206     -1876.461 6        39.766
G21         4.000    20908721.374 6 109876124.65606     -1624.575 6        40.241                                    20908715.465 4  85617726.93304     -1265.926 4        27.976
G08         5.000    22858881.732 6 120124231.31806     -4215.996 6        38.015                                    22858880.220 4  93603282.07604     -3285.166 4        24.436    22858883.892 5  93603291.21105     -3285.616 5        34.629
G02         6.000    20959178.923 8 110141218.65808      -112.180 8        49.436                                    20959170.701 5  85824303.23605       -87.397 5        34.862
G14         7.000    24371038.440 4                     -2299.257 4        28.701
E03         9.000    24278612.355 8 127584963.64008        71.869 8        48.378                                                                    24278612.005 8  95274545.45708        53.604 8        48.697    24278610.341 8  97759939.51508        55.121 8        48.472
G17        10.000    24017349.162 6 126212024.03206      1954.334 6        37.323                                    24017339.944 4  98346977.14104      1522.817 4        28.209    24017341.010 6  98346999.21206      1522.998 6        37.444
E05        11.000                                                                                                                                    24645106.082 6  96712691.22806     -1998.240 6        39.159    24645105.032 6  99235706.47006     -2050.363 6        36.215
E13        12.000                                                                                                                                                                                                    25047980.878 6 100857824.57106       837.449 6        39.895
E21        15.000    27436786.395 5 144181294.33005     -2419.670 5        31.064                                                                    27436781.394 4 107667846.56704     -1807.086 4        29.754    27436782.036 5 110476603.24905     -1854.172 5        34.724
E15        16.000    23527472.090 6 123637695.66406     -1212.226 6        41.840                                                                    23527471.508 6  92326836.28206      -905.323 6        39.315    23527473.537 7  94735402.63007      -928.913 7        46.561
S23        17.000    38314423.689 6 201343746.66506      -850.755 6        38.411
E08        19.000    26334820.865 5 138390415.97305      2181.260 5        34.410                                                                    26334813.380 6 103343505.88506      1628.909 6        38.940    26334814.870 6 106039435.25406      1671.340 6        40.267
R06        25.000    19710170.175 6 105177236.56206     -2397.640 6        38.129
R13        26.000    24436785.653 4                     -3606.249 4        28.360
R07        27.000    20007143.375 7 107099828.66007      1530.496 7        45.199                                                                    20007139.742 6  83299819.32906      1190.169 6        41.456
C41        29.000                                                                                                                                    23639708.962 6 123098220.63106      1702.501 6        41.378                                                                    23639723.957 6 100027433.07306      1383.153 6        37.811
E34        32.000    26404382.039 6 138756012.99606     -3119.858 6        38.033                                                                    26404379.661 5 103616464.00705     -2329.978 5        31.283    26404381.847 5 106319506.91405     -2390.986 5        33.287
R23        33.000    22921504.862 6 122614581.51106      3032.474 6        37.278
R22        35.000    19693274.186 7 105124035.52507       788.969 7        45.293                                                                    19693273.287 7  81763166.75207       613.687 7        46.458
C33        37.000                                                                                                                                    22019948.194 7 114663682.95007     -1057.398 7        47.602                                                                    22019959.717 8  93173641.45708      -859.312 8        49.066
R21        39.000    20414266.714 5 109240856.61215     -3291.371 5        34.257                                                                    20414257.206 4  84965043.30814     -2560.109 4        26.539
C27        41.000                                                                                                                                    23099168.277 6 120283646.56606      1311.407 6        41.871                                                                    23099166.275 6  97740170.56806      1065.624 6        41.344
C14        42.000                                                                                                                                    22843857.995 7 118953989.67107     -2649.008 7        42.639    22843855.411 5  91982853.33115     -2048.108 5        34.119    22843852.162 6  96659853.57706     -2152.638 6        38.904
C39        45.000                                                                                                                                    39600199.613 4                       222.994 4        24.887
C43        48.000                                                                                                                                    25112650.644 4 130768205.32804     -4058.425 4        26.299                                                                    25112649.506 5 106259857.20905     -3298.740 5        32.018
C28        55.000                                                                                                                                    21669765.280 8 112840127.06808     -1292.256 8        50.041                                                                    21669764.047 8  91691849.38808     -1050.109 8        50.766
I09        56.000    37318939.754 6 146447535.99506      -502.634 6        36.272
> 2025 01 02 23 30 35.0000000  0 31
G10         1.000    24463788.466 4                     -3931.548 4        28.047                                                                                                    24463766.460 4                     -3063.348 4        25.714
G03         2.000    21797661.199 6 114547444.13006      1752.993 6        38.544                                    21797662.010 4  89257806.39104      1365.935 4        24.376    21797658.716 5  89257783.32405      1366.102 5        34.490
G32         3.000    22375942.875 8 117586486.43208     -2410.365 8        49.866                                    22375937.824 6  91625726.59306     -1878.217 6        41.399    22375938.910 6  91625726.60106     -1878.174 6        41.204
G21         4.000    20910267.118 6 109884250.58306     -1625.935 6        38.556                                    20910261.702 4  85624058.83704     -1266.983 4        26.299
G08         5.000    22862896.250 6 120145315.70306     -4217.368 6        40.081                                    22862893.546 4  93619711.46304     -3286.268 4        26.467    22862898.391 6  93619720.62106     -3286.485 6        36.076
G02         6.000    20959285.885 7 110141783.49107      -113.655 7        46.975                                    20959277.698 5  85824743.37405       -88.571 5        33.287
G14         7.000    24373224.910 5 128082197.02515     -2302.263 5        33.593                                                                                                    24373206.423 5                     -1793.314 5        34.143
E03         9.000    24278544.632 7 127584609.98207        69.813 7        46.923                                                                    24278544.381 8  95274281.38108        52.095 8        48.008    24278543.796 8  97759668.55608        53.414 8        48.659
G17        10.000    24015489.682 5 126202254.18805      1952.878 5        35.181                                    24015481.761 4  98339364.31704      1521.720 4        29.128    24015484.102 6  98339386.22606      1522.191 6        38.045
E05        11.000    24647656.843 5 129524354.91415     -2677.869 5        31.887                                                                    24647651.769 6  96722685.60506     -1999.426 6        39.625    24647651.996 6  99245961.49506     -2051.708 6        36.042
E13        12.000                                                                                                                                    25046941.692 5                       815.673 5        31.728    25046941.065 6 100853638.50406       837.246 6        38.790
E21        15.000    27439088.866 4 144193398.44204     -2421.735 4        28.341                                                                    27439087.743 4 107676885.43204     -1808.499 4        26.395    27439083.684 5 110485877.86505     -1855.328 5        33.659
E15        16.000    23528626.985 7 123643759.96907     -1213.323 7        43.786                                                                    23528624.963 6  92331364.76106      -906.089 6        41.144    23528627.305 7  94740049.26207      -929.669 7        45.834
S23        17.000    38315242.693 6 201347999.83606      -850.447 6        39.030
E08        19.000    26332745.412 4 138379511.73804      2180.318 4        29.763                                                                    26332739.263 6 103335363.13906      1628.309 6        39.748    26332740.866 6 106031080.04206      1670.957 6        40.093
R14        23.000    23983097.907 5 127843410.88415      -508.561 5        35.114
R06        25.000    19712418.355 6 105189233.20606     -2401.096 6        39.444
R13        26.000    24440168.372 5                     -3608.622 5        33.461
R07        27.000    20005712.846 7 107092185.74607      1527.049 7        47.332                                                                    20005712.404 7  83293874.77807      1187.684 7        42.882
C41        29.000                                                                                                                                    23638075.421 6 123089712.56406      1700.885 6        39.189                                                                    23638093.245 5                      1382.223 5        31.042
E34        32.000    26407352.010 6 138771614.75606     -3120.662 6        40.410                                                                    26407349.432 5 103628114.64005     -2330.319 5        30.838    26407351.290 5 106331461.51105     -2391.163 5        34.543
R23        33.000    22918666.778 6 122599418.99206      3032.682 6        37.652
R22        35.000    19692537.877 7 105120097.57207       786.335 7        46.412                                                                    19692534.569 7  81760103.86707       611.565 7        44.780
C33        37.000                                                                                                                                    22020964.430 8 114668975.63408     -1059.534 8        48.197                                                                    22020976.340 8  93177942.15708      -861.075 8        48.649
