     3.04           OBSERVATION DATA    M                   RINEX VERSION / TYPE
ssrcrin-15.6.1x                         20250102 073000 UTC PGM / RUN BY / DATE 
(00000000023479385599111004) Septentrio proprietary         COMMENT             
ract                                                        MARKER NAME         
01                                                          MARKER NUMBER       
geodetic                                                    MARKER TYPE         
NFB                 CLIMERS@TUW                             OBSERVER / AGENCY   
3296359             SEPT ASTERX SB3 PROB4.14.4              REC # / TYPE / VERS 
Unknown             Unknown                                 ANT # / TYPE        
  4127446.7170  1206915.8075  4695544.4248                  APPROX POSITION XYZ 
        0.0000        0.0000        0.0000                  ANTENNA: DELTA H/E/N
G   23 X1  C1C L1C D1C S1C C1W S1W C2W L2W D2W S2W C2L L2L  SYS / # / OBS TYPES 
       D2L S2L C5Q L5Q D5Q S5Q C1L L1L D1L S1L              SYS / # / OBS TYPES 
E   21 X1  C1C L1C D1C S1C C6C L6C D6C S6C C5Q L5Q D5Q S5Q  SYS / # / OBS TYPES 
       C7Q L7Q D7Q S7Q C8Q L8Q D8Q S8Q                      SYS / # / OBS TYPES 
S    9 X1  C1C L1C D1C S1C C5I L5I D5I S5I                  SYS / # / OBS TYPES 
R   17 X1  C1C L1C D1C S1C C2P L2P D2P S2P C2C L2C D2C S2C  SYS / # / OBS TYPES 
       C3Q L3Q D3Q S3Q                                      SYS / # / OBS TYPES 
C   25 X1  C1P L1P D1P S1P C5P L5P D5P S5P C2I L2I D2I S2I  SYS / # / OBS TYPES 
       C7I L7I D7I S7I C6I L6I D6I S6I C7D L7D D7D S7D      SYS / # / OBS TYPES 
J   17 X1  C1C L1C D1C S1C C2L L2L D2L S2L C5Q L5Q D5Q S5Q  SYS / # / OBS TYPES 
       C1L L1L D1L S1L                                      SYS / # / OBS TYPES 
I    5 X1  C5A L5A D5A S5A                                  SYS / # / OBS TYPES 
SEPTENTRIO RECEIVERS OUTPUT ALIGNED CARRIER PHASES.         COMMENT             
NO FURTHER PHASE SHIFT APPLIED IN THE RINEX ENCODER.        COMMENT             
G L1C                                                       SYS / PHASE SHIFT   
G L2W                                                       SYS / PHASE SHIFT   
G L2L  0.00000                                              SYS / PHASE SHIFT   
G L5Q  0.00000                                              SYS / PHASE SHIFT   
G L1L  0.00000                                              SYS / PHASE SHIFT   
E L1C  0.00000                                              SYS / PHASE SHIFT   
E L6C  0.00000                                              SYS / PHASE SHIFT   
E L5Q  0.00000                                              SYS / PHASE SHIFT   
E L7Q  0.00000                                              SYS / PHASE SHIFT   
E L8Q  0.00000                                              SYS / PHASE SHIFT   
S L1C                                                       SYS / PHASE SHIFT   
S L5I                                                       SYS / PHASE SHIFT   
R L1C                                                       SYS / PHASE SHIFT   
R L2P  0.00000                                              SYS / PHASE SHIFT   
R L2C                                                       SYS / PHASE SHIFT   
R L3Q  0.00000                                              SYS / PHASE SHIFT   
C L1P  0.00000                                              SYS / PHASE SHIFT   
C L5P  0.00000                                              SYS / PHASE SHIFT   
C L2I                                                       SYS / PHASE SHIFT   
C L7I                                                       SYS / PHASE SHIFT   
C L6I                                                       SYS / PHASE SHIFT   
C L7D                                                       SYS / PHASE SHIFT   
J L1C                                                       SYS / PHASE SHIFT   
J L2L  0.00000                                              SYS / PHASE SHIFT   
J L5Q  0.00000                                              SYS / PHASE SHIFT   
J L1L  0.00000                                              SYS / PHASE SHIFT   
I L5A                                                       SYS / PHASE SHIFT   
  2025     1     2     7    30    0.0000000     GPS         TIME OF FIRST OBS   
 C1C    0.000 C2C    0.000 C2P    0.000                     GLONASS COD/PHS/BIS 
DBHZ                                                        SIGNAL STRENGTH UNIT
    18                                                      LEAP SECONDS        
 24 R01  1 R02 -4 R03  5 R04  6 R05  1 R06 -4 R07  5 R08  6 GLONASS SLOT / FRQ #
    R09 -2 R10 -7 R11  0 R12 -1 R13 -2 R14 -7 R15  0 R16 -1 GLONASS SLOT / FRQ #
    R17  4 R18 -3 R19  3 R20  2 R21  4 R22 -3 R23  3 R24  2 GLONASS SLOT / FRQ #
                                                            END OF HEADER       
> 2025 01 02 07 30  0.0000000  0 33
G13         1.000    20942754.474 7 110054901.68507      1307.803 7        42.612                                    20942750.860 3  85757005.49403      1019.081 3        21.833
G18         2.000    24992075.910 4                      -461.971 4        28.341                                                                                                    24992019.777 5 102338159.24005      -359.939 5        35.052
G20         4.000    21665842.654 7 113854801.13807     -3314.433 7        42.013                                    21665839.922 2  88717976.44802     -2582.693 2        17.774
G07         5.000    22694050.219 6 119258245.82406     -3257.578 6        36.881                                    22694044.344 4  92928456.02604     -2538.375 4        26.970    22694048.319 5  92928270.02805     -2538.215 5        32.754
G30         7.000    20629106.977 7 108406684.68207     -1814.826 7        45.326                                    20629106.320 7  84472742.93707     -1414.145 7        42.282    20629106.286 6  84472709.92306     -1414.051 6        41.318
G14         8.000    21397209.357 6 112442971.52906      1421.574 6        36.616                                    21397213.317 1  87617969.07901      1107.721 1        10.444    21397205.243 5  87618026.12005      1107.969 5        31.555
G15         9.000    23606853.175 6 124054840.83506      2744.034 6        38.489                                    23606879.344 2  96666208.66902      2138.222 2        13.515    23606849.876 3                      2138.681 3        23.676
E21        10.000    27009361.877 4 141935004.55504     -3101.193 4        27.090                                                                    27009336.673 5 105990459.69405     -2315.530 5        32.737    27009337.392 4 108755405.39904     -2376.595 4        29.024
E06        11.000    23268663.207 7 122277645.52907      -511.770 7        44.871                                                                    23268664.370 7  91311271.41707      -382.118 7        47.046    23268663.741 7  93693241.35107      -392.145 7        46.983
E31        13.000                                                                                                                                    25398632.872 6  99669742.26806      1409.525 6        37.255    25398630.269 5 102269747.64805      1446.348 5        33.000
G05        14.000    21062036.157 8 110681813.98408     -1023.456 8        48.220                                    21062032.768 7  86245536.33007      -797.495 7        45.163    21062033.707 7  86245494.34407      -797.527 7        43.996
E04        17.000    23647842.970 6 124270268.77706     -1773.878 6        41.256                                                                    23647842.794 7  92799248.01507     -1324.642 7        44.731    23647842.936 7  95220028.83707     -1359.200 7        47.504
E05        18.000    26794757.477 5 140807550.72305      1739.016 5        33.132                                                                    26794756.677 4 105148383.91604      1298.227 4        29.033    26794743.979 5 107891331.48005      1332.375 5        34.029
E09        21.000    24245469.696 4 127410824.16704       587.233 4        28.417                                                                    24245485.972 5  95144418.90405       438.405 5        34.233    24245468.563 5  97626456.49205       450.042 5        34.090
E36        22.000                                                                                                                                    27153577.771 6 106556523.09806     -2248.424 6        37.747    27153575.893 5 109336198.66505     -2307.104 5        33.719
S23        24.000    38159277.372 6 200528310.19206      -849.084 6        38.592
E34        26.000    27451201.761 6 144257030.90706      -746.728 6        38.066                                                                    27451198.013 5 107724383.99705      -557.759 5        34.595    27451196.929 5 110534597.16405      -572.039 5        34.414
R13        27.000    23105274.902 5 123380875.90105      3418.828 5        33.090
R19        29.000                                                                                                                                    23622753.421 5  98284531.01805      -583.141 5        34.481
R11        30.000    20184396.424 7 107859305.16007     -3357.846 7        42.506                                                                    20184396.235 7  83890542.48407     -2611.707 7        47.857
C36        34.000                                                                                                                                    21969453.331 7 114400702.59007       703.058 7        42.495                                                                    21969457.378 7  92960048.39907       571.287 7        45.260
R02        35.000    19715165.818 7 105203846.20807      1108.755 7        44.057                                                                    19715167.084 7  81825412.01307       862.414 7        42.455
R03        36.000    23585736.274 6 126256408.22906      3148.555 6        41.433                                                                    23585726.088 5  98199317.27305      2449.217 5        33.479
C45        37.000                                                                                                                                    25588951.848 3                      2424.190 3        23.467                                                                    25588945.293 4 108275199.13304      1970.338 4        29.052
R12        38.000    19714676.604 7 105312155.10507      1342.250 7        46.997                                                                    19714677.041 7  81909862.80407      1043.999 7        43.676
C40        40.000                                                                                                                                    39647591.008 4                       441.940 4        26.742                                                                    39647593.120 4                       359.655 4        29.175
C05        43.000                                                                                                                                    39327251.554 5 204787346.93905      -906.680 5        32.144    39327267.757 5 158354529.52905      -700.818 5        32.311
R01        44.000    19742609.259 7 105535491.83407     -2798.934 7        42.662                                                                    19742607.463 5  82083225.58505     -2176.696 5        32.162
C10        45.000                                                                                                                                                                                                    39800475.959 5                       395.932 5        31.577
C09        47.000                                                                                                                                    40455587.190 4                     -1546.534 4        26.144    40455563.032 3                     -1195.732 3        23.695
C19        48.000                                                                                                                                    22699413.916 8 118201867.35808     -2821.717 8        48.866                                                                    22699409.239 8  96048589.99308     -2292.976 8        48.717
C22        51.000                                                                                                                                    21982889.768 7 114470689.76707       369.136 7        45.353                                                                    21982885.700 7  93016773.17507       299.945 7        42.383
C21        55.000                                                                                                                                    26058591.824 5 135694047.14005      2313.397 5        35.852                                                                    26058587.519 5 110262423.21605      1879.862 5        30.196
> 2025 01 02 07 30  5.0000000  0 34
G13         1.000    20941510.500 7 110048367.30407      1306.190 7        42.207                                    20941506.743 3  85751913.75403      1017.814 3        21.405
G18         2.000    24992512.501 4                      -465.125 4        26.946                                                                                                    24992461.063 5 102339965.11605      -362.399 5        34.848
G20         4.000    21668997.544 7 113871379.95507     -3317.057 7        42.552                                    21668995.537 3  88730895.00603     -2584.727 3        18.209
G07         5.000    22697150.776 6 119274535.42406     -3258.563 6        36.514                                    22697144.905 4  92941149.19504     -2539.148 4        26.228    22697147.865 5  92940963.18005     -2538.808 5        33.102
G30         7.000    20630834.484 7 108415764.18607     -1816.782 7        44.184                                    20630833.869 6  84479817.86006     -1415.672 6        41.480    20630833.896 6  84479784.83906     -1415.605 6        40.508
G14         8.000    21395857.268 6 112435870.03406      1419.194 6        36.174                                    21395861.769 1  87612435.50901      1105.830 1        11.333    21395854.603 5  87612492.50205      1105.837 5        32.503
G15         9.000    23604243.743 6 124041123.17406      2743.364 6        39.712                                    23604269.070 2  96655519.47702      2137.726 2        13.515    23604240.590 3                      2137.111 3        23.962
E21        10.000    27012311.862 4 141950514.52004     -3102.368 4        25.383                                                                    27012287.808 5 106002041.74205     -2317.041 5        31.615    27012287.472 4 108767289.50804     -2376.907 4        28.436
E06        11.000    23269150.833 7 122280207.93407      -513.012 7        44.906                                                                    23269151.988 7  91313184.89807      -383.132 7        46.944    23269151.304 7  93695204.74607      -393.179 7        46.828
E31        13.000                                                                                                                                    25396837.368 6  99662697.01106      1408.636 6        37.142    25396835.165 5 102262518.60705      1445.128 5        34.076
G05        14.000    21063011.590 8 110686940.79708     -1027.057 8        48.859                                    21063008.659 7  86249531.24207      -800.303 7        45.243    21063009.697 7  86249489.25807      -800.290 7        43.920
E04        17.000    23649531.351 6 124279141.72406     -1775.279 6        41.168                                                                    23649531.384 7  92805873.89207     -1325.638 7        45.255    23649531.467 7  95226827.57207     -1360.180 7        47.148
E05        18.000    26793105.142 5 140798855.91005      1739.191 5        34.090                                                                    26793104.478 4 105141891.00304      1298.745 4        27.928    26793088.910 5 107884669.19705      1332.292 5        33.425
E09        21.000                                                                                                                                    24244929.264 5  95142227.85105       437.962 5        34.133    24244910.850 5  97624208.26905       449.518 5        33.216
E36        22.000                                                                                                                                    27156443.284 6 106567768.42106     -2249.807 6        37.868    27156440.804 5 109347737.36705     -2308.314 5        33.371
S23        24.000    38160084.929 6 200532555.96606      -849.050 6        38.838
E34        26.000    27451914.061 6 144260771.99606      -749.484 6        38.135                                                                    27451909.578 5 107727177.63405      -559.382 5        33.988    27451909.501 5 110537463.72105      -574.378 5        34.095
R13        27.000    23102069.732 5 123363783.82905      3417.730 5        32.473
R18        28.000    23839942.343 4 127258980.67114     -3283.593 4        29.204
R19        29.000                                                                                                                                    23623452.468 5  98287455.78905      -586.327 5        31.087
R11        30.000    20187538.461 6 107876102.25206     -3361.005 6        40.555                                                                    20187540.028 8  83903606.90608     -2614.090 8        48.704
C36        34.000                                                                                                                                    21968782.203 7 114397193.31107       700.746 7        42.104                                                                    21968783.580 7  92957196.82307       569.467 7        45.430
R02        35.000    19714129.783 7 105198309.61107      1106.114 7        45.065                                                                    19714128.917 6  81821105.74506       860.303 6        41.342
R03        36.000    23582802.286 6 126240666.21106      3148.454 6        40.451                                                                    23582785.740 4  98187073.45004      2448.878 4        29.175
C45        37.000                                                                                                                                                                                                                                                                    25586617.828 4 108265352.16804      1969.465 4        28.104
R12        38.000    19713423.487 7 105305452.94707      1338.752 7        45.223                                                                    19713422.262 7  81904650.02307      1041.237 7        43.882
C40        40.000                                                                                                                                    39647173.068 4                       441.497 4        28.095                                                                    39647168.978 4                       358.582 4        28.863
C05        43.000                                                                                                                                    39328120.583 5 204791880.99105      -906.990 5        32.269    39328139.656 5 158358035.52005      -701.199 5        32.557
R01        44.000    19745228.515 7 105549495.19307     -2802.186 7        43.340                                                                    19745224.467 5  82094117.03905     -2179.447 5        32.180
C10        45.000                                                                                                                                                                                                    39799986.894 5                       395.448 5        32.275
C09        47.000                                                                                                                                    40457068.759 4                     -1546.448 4        27.665    40457055.704 3                     -1196.325 3        23.771
C19        48.000                                                                                                                                    22702124.064 8 118215981.60408     -2823.812 8        49.124                                                                    22702119.738 8  96060058.97008     -2294.630 8        48.844
C22        51.000                                                                                                                                    21982535.722 7 114468849.59707       367.075 7        46.206                                                                    21982532.648 6  93015277.89306       298.051 6        41.974
C21        55.000                                                                                                                                    26056373.926 6 135682481.53006      2313.095 6        37.331                                                                    26056366.709 5 110253025.21405      1879.517 5        30.566
> 2025 01 02 07 30 10.0000000  0 34
G13         1.000    20940268.547 7 110041841.01607      1304.576 7        42.728                                    20940264.549 3  85746828.32603      1016.573 3        21.262
G18         2.000    24992952.612 4                      -467.990 4        27.257                                                                                                    24992905.620 5 102341783.23305      -364.868 5        34.905
G20         4.000    21672155.125 7 113887971.18607     -3319.464 7        42.959                                    21672153.424 3  88743823.24703     -2586.581 3        18.537
G07         5.000    22700250.928 6 119290829.35606     -3259.196 6        37.493                                    22700246.189 4  92953845.76604     -2539.630 4        25.684    22700247.806 5  92953659.75605     -2539.467 5        34.057
G30         7.000    20632564.302 7 108424853.67107     -1818.818 7        42.952                                    20632563.197 6  84486900.56806     -1417.257 6        40.584    20632563.433 6  84486867.54506     -1417.169 6        39.844
G14         8.000    21394507.960 5 112428780.98405      1416.649 5        35.133                                    21394512.479 1  87606911.59501      1103.880 1        10.148    21394506.052 5  87606968.60105      1103.984 5        32.359
G15         9.000    23601634.995 6 124027408.66706      2742.616 6        40.060                                    23601659.074 2  96644832.79202      2137.102 2        14.714    23601637.686 4                      2136.876 4        25.774
E21        10.000    27015262.193 3                     -3104.011 3        22.381                                                                    27015240.431 5 106013629.53505     -2318.194 5        30.747    27015239.779 4 108779179.61104     -2378.879 4        27.772
E06        11.000    23269639.383 7 122282776.91007      -514.331 7        44.898                                                                    23269640.902 7  91315103.26707      -384.059 7        46.769    23269640.089 7  93697173.15607      -394.134 7        46.698
E31        13.000    25395039.178 6 133451829.02716      1884.987 6        36.057                                                                    25395042.865 6  99655656.50806      1407.818 6        36.968    25395041.090 5 102255294.44205      1444.368 5        35.176
G05        14.000    21063990.988 8 110692085.61108     -1030.644 8        49.272                                    21063988.007 7  86253540.18007      -803.100 7        45.491    21063988.507 7  86253498.18907      -803.026 7        44.117
E04        17.000    23651220.969 6 124288021.11206     -1776.327 6        41.471                                                                    23651221.309 7  92812504.61407     -1326.593 7        46.098    23651221.246 7  95233631.27707     -1361.186 7        46.913
E05        18.000    26791449.886 5 140790160.77005      1739.109 5        35.048                                                                                                                                    26791433.959 5 107878006.61805      1332.823 5        33.323
E09        21.000                                                                                                                                    24244372.204 5  95140040.42505       437.102 5        33.748    24244354.425 5  97621963.76005       448.621 5        32.659
E36        22.000                                                                                                                                    27159310.276 6 106579019.67306     -2250.572 6        37.694    27159307.897 5 109359282.11505     -2309.318 5        33.090
S23        24.000    38160893.229 6 200536801.76006      -849.052 6        38.504
E34        26.000    27452627.861 6 144264525.86606      -751.890 6        37.962                                                                    27452622.651 5 107729980.84205      -561.218 5        33.527    27452624.006 5 110540340.02305      -576.221 5        33.665
R13        27.000    23098868.071 5 123346697.42705      3416.864 5        32.784
R18        28.000                                                                                                                                    23842996.250 4                     -2556.398 4        26.994
R19        29.000                                                                                                                                    23624157.282 4  98290397.37204      -589.340 4        26.132
R11        30.000    20190684.369 6 107892914.85306     -3363.952 6        41.070                                                                    20190686.078 8  83916683.38008     -2616.416 8        49.035
C36        34.000                                                                                                                                    21968107.682 6 114393695.11906       698.644 6        40.172                                                                    21968111.867 7  92954354.24507       567.649 7        45.454
R02        35.000    19713095.359 7 105192786.50907      1103.289 7        45.454                                                                    19713093.647 6  81816809.97806       858.151 6        40.369
R03        36.000    23579868.718 6 126224924.56106      3148.319 6        38.634                                                                    23579842.726 4  98174830.07804      2449.165 4        25.940
C45        37.000                                                                                                                                                                                                                                                                    25584290.147 4 108255507.97504      1969.048 4        26.635
R12        38.000    19712174.294 7 105298768.93107      1335.173 7        43.537                                                                    19712169.991 7  81899451.34307      1038.448 7        43.996
C40        40.000                                                                                                                                    39646760.771 4                       440.053 4        28.000                                                                    39646746.182 4                       358.070 4        28.275
C05        43.000                                                                                                                                    39328991.597 5 204796415.14405      -906.571 5        32.042    39329010.952 5 158361541.62505      -700.856 5        32.844
R01        44.000    19747851.558 7 105563514.59207     -2805.357 7        43.505                                                                    19747852.398 5  82105020.99905     -2181.956 5        33.084
C10        45.000                                                                                                                                                                                                    39799496.661 5                       395.065 5        32.922
C09        47.000                                                                                                                                    40458549.837 4                     -1546.550 4        27.473    40458546.530 4                     -1195.707 4        24.361
C19        48.000                                                                                                                                    22704836.430 8 118230106.24908     -2825.909 8        49.093                                                                    22704832.319 8  96071536.40708     -2296.321 8        48.779
C22        51.000                                                                                                                                    21982184.193 7 114467020.60107       364.797 7        46.440                                                                    21982181.644 6  93013791.68006       296.387 6        41.738
C21        55.000                                                                                                                                    26054161.882 6 135670918.32306      2312.473 6        38.411                                                                    26054146.255 5 110243629.15305      1878.916 5        30.408
> 2025 01 02 07 30 15.0000000  0 33
G13         1.000    20939028.892 7 110035322.65007      1302.888 7        42.578                                    20939024.313 3  85741749.06503      1015.241 3        20.976
G18         2.000                                                                                                                                                                    24993352.723 6 102343613.48406      -367.311 6        36.877
G20         4.000    21675314.548 7 113904574.60907     -3321.941 7        42.239                                    21675313.609 3  88756760.95903     -2588.533 3        18.119
G07         5.000    22703351.985 6 119307127.43506     -3259.931 6        37.992                                    22703348.413 4  92966545.56104     -2540.198 4        25.353    22703348.206 5  92966359.53805     -2540.008 5        34.586
G30         7.000    20634295.696 7 108433952.90307     -1820.789 7        43.363                                    20634294.261 6  84493990.86306     -1418.795 6        39.586    20634294.448 6  84493957.85906     -1418.937 6        38.739
G14         8.000    21393161.604 6 112421704.14606      1414.339 6        36.484                                    21393165.470 1  87601397.16201      1102.080 1         9.619    21393159.309 5  87601454.23505      1101.831 5        30.264
G15         9.000    23599025.788 6 124013697.09406      2742.060 6        39.631                                    23599049.318 2  96634148.41602      2136.650 2        14.571    23599033.538 4                      2136.667 4        26.982
E21        10.000    27018217.739 4                     -3104.521 4        25.759                                                                    27018193.823 4 106025222.95904     -2319.088 4        28.919    27018193.840 4 108791075.41404     -2379.429 4        26.515
E06        11.000    23270129.432 7 122285352.19507      -515.736 7        45.077                                                                    23270130.861 7  91317026.37507      -385.116 7        46.589    23270130.047 7  93699146.41407      -395.107 7        46.513
E31        13.000    25393247.007 6 133442407.01406      1883.911 6        36.843                                                                    25393249.881 6  99648620.63406      1406.763 6        36.836    25393248.736 6 102248074.99906      1443.541 6        36.125
G05        14.000    21064973.225 8 110697248.20608     -1034.287 8        48.973                                    21064970.767 7  86257562.97707      -805.936 7        45.762    21064971.369 7  86257520.97807      -805.929 7        44.491
E04        17.000    23652911.506 7 124296906.78207     -1777.761 7        42.440                                                                    23652912.412 7  92819140.01407     -1327.577 7        46.546    23652912.217 7  95240439.78407     -1362.173 7        46.790
E05        18.000    26789796.484 5 140781465.07405      1739.268 5        35.086                                                                    26789817.434 4 105128903.98104      1298.703 4        28.948    26789779.297 5 107871343.64005      1332.838 5        33.096
E09        21.000                                                                                                                                    24243816.769 5  95137856.41505       436.354 5        32.545    24243798.398 5  97619722.76605       447.950 5        32.383
E36        22.000                                                                                                                                    27162178.596 6 106590276.71906     -2251.987 6        37.626    27162176.876 5 109370832.82505     -2310.688 5        33.725
S23        24.000    38161702.950 6 200541047.61606      -849.095 6        38.643
E34        26.000    27453343.297 6 144268292.31906      -754.380 6        37.645                                                                    27453339.105 5 107732793.47805      -563.814 5        32.844    27453341.034 5 110543225.98305      -577.981 5        33.653
R13        27.000    23095669.354 5 123329616.31805      3415.602 5        34.300
R18        28.000                                                                                                                                    23846073.366 4                     -2560.339 4        25.038
R19        29.000                                                                                                                                    23624856.184 3                      -592.362 3        20.929
R11        30.000    20193833.435 7 107909742.80807     -3367.056 7        43.103                                                                    20193834.964 8  83929771.78908     -2618.873 8        48.741
C36        34.000                                                                                                                                    21967435.107 6 114390207.81406       696.454 6        38.306                                                                    21967442.202 7  92951520.49007       565.780 7        45.421
R02        35.000    19712062.404 7 105187276.83907      1100.651 7        45.654                                                                    19712061.049 6  81812524.65906       855.938 6        39.577
R03        36.000    23576932.256 6 126209183.01906      3148.306 6        37.040                                                                    23576908.849 4  98162586.49104      2448.609 4        26.731
R12        38.000    19710929.308 6 105292102.90306      1331.541 6        40.503                                                                    19710922.112 7  81894266.65907      1035.585 7        43.854
C40        40.000                                                                                                                                    39646336.821 4                       439.615 4        28.711                                                                    39646324.682 4                       357.630 4        27.269
C05        43.000                                                                                                                                    39329862.709 5 204800949.28505      -906.681 5        32.048    39329882.422 5 158365047.69705      -701.095 5        32.503
R01        44.000    19750475.922 6 105577549.68506     -2808.580 6        40.799                                                                    19750476.367 5  82115937.22705     -2184.333 5        32.575
C10        45.000                                                                                                                                                                                                    39799006.007 5                       394.653 5        32.796
C09        47.000                                                                                                                                    40460033.289 4                     -1545.844 4        27.737    40460037.391 3                     -1193.788 3        22.609
C19        48.000                                                                                                                                    22707550.825 8 118244241.06408     -2827.991 8        48.977                                                                    22707546.792 8  96083022.08608     -2298.009 8        48.846
C22        51.000                                                                                                                                    21981835.260 7 114465202.55407       362.552 7        45.926                                                                    21981832.673 6  93012314.35106       294.541 6        41.483
C21        55.000                                                                                                                                    26051949.560 6 135659357.25706      2312.163 6        38.429                                                                    26051925.250 5 110234234.79905      1878.911 5        30.000
> 2025 01 02 07 30 20.0000000  0 33
G13         1.000    20937789.474 7 110028812.59007      1301.066 7        42.686                                    20937785.651 3  85736676.28303      1013.814 3        20.857
G18         2.000    24993862.596 5                      -474.482 5        33.742                                                                                                    24993802.575 6 102345456.14106      -369.843 6        37.059
G20         4.000    21678474.708 6 113921190.61206     -3324.651 6        40.312                                    21678476.133 2  88769708.49502     -2590.610 2        16.528
G07         5.000    22706453.035 6 119323430.11406     -3261.098 6        39.315                                    22706451.473 4  92979248.93104     -2541.113 4        25.323    22706450.219 5  92979062.92105     -2540.909 5        34.862
G30         7.000    20636030.067 7 108443062.25507     -1823.050 7        45.142                                    20636027.149 6  84501089.05006     -1420.560 6        38.565    20636028.546 6  84501056.06006     -1420.698 6        38.312
G14         8.000    21391818.950 6 112414639.91906      1411.635 6        38.544                                    21391820.911 1  87595892.69701      1100.010 1         8.762
G15         9.000    23596416.317 6 123999988.92806      2741.198 6        38.958                                    23596439.948 2  96623466.70202      2136.023 2        13.030
E21        10.000    27021175.941 4                     -3107.322 4        28.521                                                                    27021148.783 4 106036822.26004     -2320.695 4        27.856    27021148.842 4 108802977.30604     -2380.676 4        26.084
E06        11.000    23270621.085 7 122287934.21107      -517.152 7        45.463                                                                    23270622.073 7  91318954.50407      -386.228 7        46.367    23270621.313 7  93701124.83707      -396.269 7        46.213
E31        13.000    25391455.734 6 133432991.57106      1882.299 6        37.278                                                                    25391458.026 6  99641589.61606      1405.690 6        36.741    25391457.102 6 102240860.58706      1442.306 6        36.870
G05        14.000    21065958.649 8 110702428.96908     -1038.091 8        48.801                                    21065956.988 7  86261599.92407      -808.897 7        45.856    21065957.119 7  86261557.92407      -808.910 7        44.769
E04        17.000    23654603.515 7 124305799.11607     -1779.181 7        42.663                                                                    23654604.816 7  92825780.38607     -1328.677 7        47.321    23654604.379 7  95247253.38907     -1363.251 7        46.658
E05        18.000    26788143.594 5 140772769.22605      1739.012 5        34.924                                                                    26788165.888 4 105122410.25404      1298.615 4        29.915    26788124.983 5 107864680.56705      1332.321 5        32.808
E09        21.000                                                                                                                                    24243261.914 5  95135676.12105       435.669 5        31.804    24243242.919 5  97617485.66605       446.538 5        31.804
E36        22.000                                                                                                                                    27165048.442 6 106601539.79706     -2253.156 6        37.505    27165048.005 5 109382389.73605     -2312.001 5        33.910
S23        24.000    38162507.145 6 200545293.97306      -849.213 6        38.553
E34        26.000    27454060.464 6 144272071.74006      -757.290 6        37.361                                                                    27454058.712 5 107735615.72405      -565.391 5        32.689    27454060.351 5 110546121.90305      -580.230 5        34.224
R13        27.000    23092473.878 5 123312541.10905      3414.454 5        35.148
R18        28.000    23849161.146 4                     -3294.037 4        24.135
R11        30.000    20196985.500 7 107926586.36707     -3370.390 7        45.937                                                                    20196986.832 8  83942872.29808     -2621.382 8        48.289
C36        34.000                                                                                                                                    21966769.261 6 114386731.73506       693.949 6        38.757                                                                    21966774.703 7  92948695.89407       563.828 7        45.226
R02        35.000    19711033.228 7 105181781.22007      1097.699 7        46.383                                                                    19711032.034 6  81808250.28906       853.659 6        40.045
R03        36.000    23573996.557 5 126193441.98005      3148.258 5        34.452                                                                    23573969.039 4  98150343.47004      2448.653 4        29.953
C45        37.000                                                                                                                                                                                                                                                                    25579635.480 4 108235827.80504      1968.125 4        24.060
R12        38.000    19709685.220 6 105285455.21006      1327.741 6        37.210                                                                    19709677.462 7  81889096.20507      1032.551 7        43.192
C40        40.000                                                                                                                                    39645912.012 4                       438.672 4        29.280                                                                    39645904.045 4                       356.461 4        26.503
C05        43.000                                                                                                                                    39330735.552 5 204805483.72005      -906.478 5        31.992    39330751.486 5 158368554.00005      -701.252 5        32.479
R01        44.000    19753100.992 6 105591601.15006     -2812.053 6        38.204                                                                    19753101.109 5  82126866.14605     -2186.709 5        30.453
C10        45.000                                                                                                                                                                                                    39798515.640 5                       394.082 5        32.455
C09        47.000                                                                                                                                    40461517.975 4                     -1546.078 4        28.009    40461526.410 3                     -1195.620 3        22.533
C19        48.000                                                                                                                                    22710267.123 8 118258386.43008     -2830.197 8        48.739                                                                    22710263.322 8  96094516.36308     -2299.930 8        48.937
C22        51.000                                                                                                                                    21981488.657 7 114463395.88407       360.077 7        45.130                                                                    21981485.518 6  93010846.27106       292.548 6        41.409
C21        55.000                                                                                                                                    26049728.225 6 135647798.68806      2311.367 6        38.447                                                                    26049706.667 5 110224842.53305      1878.074 5        30.098
> 2025 01 02 07 30 25.0000000  0 33
G13         1.000    20936552.515 7 110022309.98307      1299.593 7        44.012                                    20936548.608 3  85731609.33103      1012.663 3        20.857
G18         2.000    24994308.420 6 131346006.43916      -477.678 6        36.934                                                                                                    24994254.725 6 102347310.56106      -372.190 6        36.079
G20         4.000    21681637.991 6 113937818.33406     -3326.763 6        38.426                                    21681640.727 2  88782665.15102     -2592.225 2        13.879
G07         5.000    22709556.624 6 119339736.46906     -3261.752 6        40.892                                    22709555.012 4  92991955.17504     -2541.623 4        25.429    22709553.577 5  92991769.15805     -2541.506 5        34.505
G30         7.000    20637764.969 7 108452180.89407     -1824.716 7        45.038                                    20637761.830 6  84508194.46806     -1421.854 6        37.921    20637763.999 6  84508161.49306     -1422.124 6        38.595
G14         8.000    21390476.911 6 112407587.49606      1409.035 6        39.447                                    21390478.526 1  87590397.32001      1097.908 1         8.286    21390469.448 3  87590454.35303      1097.746 3        22.895
G15         9.000    23593807.311 6 123986283.27806      2740.670 6        39.234                                    23593831.118 1  96612786.95001      2135.562 1        10.370
E21        10.000    27024132.144 5                     -3108.667 5        30.204                                                                    27024105.019 4 106048426.79904     -2321.317 4        26.970    27024105.428 4 108814884.55504     -2382.062 4        25.639
E06        11.000    23271113.498 7 122290522.11307      -518.332 7        46.219                                                                    23271114.409 7  91320887.02707      -387.057 7        46.038    23271113.705 7  93703107.77007      -397.111 7        46.027
E31        13.000    25389664.744 6 133423581.88406      1881.111 6        37.274                                                                    25389666.978 6  99634562.92006      1404.784 6        36.174    25389666.500 6 102233650.57206      1441.461 6        37.233
G05        14.000    21066948.097 8 110707627.09508     -1041.534 8        49.103                                    21066946.504 7  86265650.40507      -811.582 7        45.992    21066946.591 7  86265608.41407      -811.488 7        45.600
E04        17.000    23656296.646 7 124314697.27807     -1780.399 7        42.358                                                                    23656298.220 7  92832425.11707     -1329.479 7        47.994    23656297.487 7  95254071.46207     -1364.206 7        46.288
E05        18.000    26786490.428 5 140764072.40605      1739.280 5        34.252                                                                    26786511.610 5 105115915.76005      1299.140 5        31.298    26786470.536 5 107858016.71905      1332.417 5        32.234
E09        21.000    24242696.251 5                       582.768 5        33.731                                                                    24242706.815 5  95133498.94405       434.979 5        30.241    24242688.355 5  97615251.67205       446.877 5        31.381
E36        22.000                                                                                                                                    27167919.927 6 106612808.29106     -2254.332 6        37.739    27167919.382 5 109393952.20505     -2313.276 5        34.367
S23        24.000    38163313.262 6 200549539.79606      -849.228 6        38.510
E34        26.000    27454780.607 6 144275863.29106      -759.441 6        36.208                                                                    27454780.522 5 107738447.08305      -567.327 5        32.641    27454781.796 5 110549027.09505      -582.158 5        34.119
R13        27.000    23089279.254 5 123295470.78405      3413.526 5        35.867
R18        28.000    23852252.012 4                     -3296.519 4        28.531
R11        30.000    20200141.258 7 107943444.69707     -3373.208 7        47.494                                                                    20200141.990 8  83955984.31208     -2623.631 8        48.446
C36        34.000                                                                                                                                    21966106.500 6 114383266.07906       691.797 6        38.829                                                                    21966109.208 7  92945879.74707       562.297 7        45.327
R02        35.000    19710006.569 7 105176298.43307      1095.203 7        46.828                                                                    19710004.522 6  81803985.87606       851.721 6        41.309
R03        36.000    23571063.705 5 126177700.70905      3148.173 5        31.811                                                                    23571030.231 5  98138100.31005      2448.042 5        32.413
C45        37.000                                                                                                                                    25577336.674 4                      2420.478 4        24.165
R12        38.000    19708429.296 5 105278825.17505      1324.333 5        30.823                                                                    19708436.236 7  81883939.44607      1029.913 7        42.961
C40        40.000                                                                                                                                    39645491.358 5                       437.815 5        30.325                                                                    39645485.171 4                       355.913 4        26.515
C05        43.000                                                                                                                                    39331605.211 5 204810017.73405      -906.939 5        32.000    39331621.244 5 158372059.96605      -700.983 5        32.114
R01        44.000    19755732.251 6 105605667.89906     -2815.017 6        39.297                                                                    19755731.640 4  82137806.99604     -2189.596 4        27.748
C10        45.000                                                                                                                                                                                                    39798024.625 5                       393.792 5        32.479
C09        47.000                                                                                                                                    40463002.468 4                     -1546.120 4        27.174    40463010.694 3                     -1194.780 3        19.881
C19        48.000                                                                                                                                    22712985.476 8 118272541.52408     -2832.104 8        48.393                                                                    22712981.694 8  96106018.51208     -2301.266 8        48.954
C22        51.000                                                                                                                                    21981144.160 7 114461599.72807       358.024 7        43.657                                                                    21981140.529 6  93009386.72306       290.940 6        41.080
C21        55.000                                                                                                                                    26047504.728 6 135636241.85506      2310.920 6        36.983                                                                    26047489.184 5 110215451.63205      1877.756 5        30.423
> 2025 01 02 07 30 30.0000000  0 34
G13         1.000    20935316.235 7 110015815.10407      1297.854 7        43.191                                    20935313.197 3  85726548.35503      1011.338 3        20.690
G18         2.000                                                                                                                                                                    24994709.027 5 102349176.91305      -374.964 5        33.521
G20         4.000    21684805.232 6 113954457.96106     -3329.462 6        39.081                                    21684807.347 1  88795631.10301     -2594.358 1        10.889
G07         5.000    22712661.638 6 119356046.73006     -3262.880 6        41.805                                    22712659.150 4  93004664.44904     -2542.488 4        25.233    22712656.954 5  93004478.43205     -2542.269 5        34.614
G30         7.000    20639500.859 7 108461309.06407     -1826.880 7        44.608                                    20639498.474 6  84515307.31606     -1423.539 6        37.202    20639500.707 6  84515274.32706     -1423.503 6        38.781
G14         8.000    21389136.051 6 112400547.07206      1406.613 6        38.504                                    21389138.434 1  87584911.31401      1096.047 1         6.750    21389126.669 3                      1096.445 3        21.429
G15         9.000    23591201.155 6 123972580.33606      2739.950 6        39.000                                    23591222.928 1  96602109.29301      2135.019 1         7.000
E21        10.000    27027087.444 5                     -3110.097 5        31.426                                                                    27027064.062 4 106060036.80804     -2322.141 4        27.317    27027062.025 4 108826797.36804     -2382.528 4        24.120
E06        11.000    23271607.033 7 122293116.12807      -519.757 7        46.488                                                                    23271607.928 7  91322824.11707      -388.160 7        45.449    23271607.361 7  93705095.38007      -398.213 7        45.765
E31        13.000    25387874.168 6 133414178.10206      1879.813 6        37.694                                                                    25387877.461 6  99627540.61506      1403.795 6        36.034    25387876.888 6 102226445.10406      1440.408 6        36.699
G05        14.000    21067940.895 8 110712842.75008     -1045.206 8        49.119                                    21067939.321 7  86269714.54407      -814.446 7        45.843    21067939.527 7  86269672.55307      -814.459 7        45.770
E04        17.000    23657991.491 7 124323601.48407     -1781.868 7        42.749                                                                    23657992.720 8  92839074.35508     -1330.572 8        48.349    23657991.785 7  95260894.15707     -1365.315 7        46.001
E05        18.000    26784833.647 5 140755374.76305      1739.107 5        32.174                                                                    26784855.290 5 105109420.75805      1298.719 5        30.672    26784814.527 5 107851352.23605      1332.813 5        31.970
E09        21.000    24242140.302 6 127393311.04216       581.572 6        36.412                                                                    24242153.128 4  95131325.02804       434.055 4        29.033    24242135.042 5  97613021.12605       445.972 5        31.260
E36        22.000    27170796.851 5 142783497.31215     -3020.573 5        33.240                                                                    27170793.139 6 106624082.37506     -2255.539 6        37.535    27170791.451 5 109405520.40105     -2314.454 5        34.795
S23        24.000    38164122.854 6 200553785.32806      -849.621 6        38.508
E34        26.000    27455503.970 5 144279667.20805      -762.431 5        34.314                                                                    27455504.559 5 107741287.62305      -569.197 5        31.532    27455505.820 5 110551941.73805      -584.209 5        34.667
R13        27.000    23086083.669 5 123278405.58405      3412.341 5        35.700
R18        28.000    23855349.398 4                     -3299.361 4        26.970
R19        29.000                                                                                                                                    23627031.785 5                      -603.437 5        30.687
R11        30.000    20203298.381 7 107960317.98407     -3376.494 7        47.461                                                                    20203299.824 8  83969107.96608     -2626.149 8        48.156
C36        34.000                                                                                                                                    21965442.479 6 114379811.05706       689.782 6        38.541                                                                    21965445.658 7  92943072.24807       560.372 7        45.055
R02        35.000    19708980.195 7 105170828.77007      1092.258 7        45.111                                                                    19708979.642 7  81799731.69807       849.478 7        43.022
R03        36.000                                                                                                                                    23568090.006 6  98125857.03106      2448.549 6        36.121
C45        37.000                                                                                                                                    25575009.217 3                      2421.393 3        22.552
