     3.04           OBSERVATION DATA    M                   RINEX VERSION / TYPE
ssrcrin-15.6.1x                         20250102 033000 UTC PGM / RUN BY / DATE 
(00000000023479385599111004) Septentrio proprietary         COMMENT             
ract                                                        MARKER NAME         
01                                                          MARKER NUMBER       
geodetic                                                    MARKER TYPE         
NFB                 CLIMERS@TUW                             OBSERVER / AGENCY   
3296359             SEPT ASTERX SB3 PROB4.14.4              REC # / TYPE / VERS 
Unknown             Unknown                                 ANT # / TYPE        
  4127447.2361  1206914.9183  4695543.0079                  APPROX POSITION XYZ 
        0.0000        0.0000        0.0000                  ANTENNA: DELTA H/E/N
G   23 X1  C1C L1C D1C S1C C1W S1W C2W L2W D2W S2W C2L L2L  SYS / # / OBS TYPES 
       D2L S2L C5Q L5Q D5Q S5Q C1L L1L D1L S1L              SYS / # / OBS TYPES 
E   21 X1  C1C L1C D1C S1C C6C L6C D6C S6C C5Q L5Q D5Q S5Q  SYS / # / OBS TYPES 
       C7Q L7Q D7Q S7Q C8Q L8Q D8Q S8Q                      SYS / # / OBS TYPES 
S    9 X1  C1C L1C D1C S1C C5I L5I D5I S5I                  SYS / # / OBS TYPES 
R   17 X1  C1C L1C D1C S1C C2P L2P D2P S2P C2C L2C D2C S2C  SYS / # / OBS TYPES 
       C3Q L3Q D3Q S3Q                                      SYS / # / OBS TYPES 
C   25 X1  C1P L1P D1P S1P C5P L5P D5P S5P C2I L2I D2I S2I  SYS / # / OBS TYPES 
       C7I L7I D7I S7I C6I L6I D6I S6I C7D L7D D7D S7D      SYS / # / OBS TYPES 
J   17 X1  C1C L1C D1C S1C C2L L2L D2L S2L C5Q L5Q D5Q S5Q  SYS / # / OBS TYPES 
       C1L L1L D1L S1L                                      SYS / # / OBS TYPES 
I    5 X1  C5A L5A D5A S5A                                  SYS / # / OBS TYPES 
SEPTENTRIO RECEIVERS OUTPUT ALIGNED CARRIER PHASES.         COMMENT             
NO FURTHER PHASE SHIFT APPLIED IN THE RINEX ENCODER.        COMMENT             
G L1C                                                       SYS / PHASE SHIFT   
G L2W                                                       SYS / PHASE SHIFT   
G L2L  0.00000                                              SYS / PHASE SHIFT   
G L5Q  0.00000                                              SYS / PHASE SHIFT   
G L1L  0.00000                                              SYS / PHASE SHIFT   
E L1C  0.00000                                              SYS / PHASE SHIFT   
E L6C  0.00000                                              SYS / PHASE SHIFT   
E L5Q  0.00000                                              SYS / PHASE SHIFT   
E L7Q  0.00000                                              SYS / PHASE SHIFT   
E L8Q  0.00000                                              SYS / PHASE SHIFT   
S L1C                                                       SYS / PHASE SHIFT   
S L5I                                                       SYS / PHASE SHIFT   
R L1C                                                       SYS / PHASE SHIFT   
R L2P  0.00000                                              SYS / PHASE SHIFT   
R L2C                                                       SYS / PHASE SHIFT   
R L3Q  0.00000                                              SYS / PHASE SHIFT   
C L1P  0.00000                                              SYS / PHASE SHIFT   
C L5P  0.00000                                              SYS / PHASE SHIFT   
C L2I                                                       SYS / PHASE SHIFT   
C L7I                                                       SYS / PHASE SHIFT   
C L6I                                                       SYS / PHASE SHIFT   
C L7D                                                       SYS / PHASE SHIFT   
J L1C                                                       SYS / PHASE SHIFT   
J L2L  0.00000                                              SYS / PHASE SHIFT   
J L5Q  0.00000                                              SYS / PHASE SHIFT   
J L1L  0.00000                                              SYS / PHASE SHIFT   
I L5A                                                       SYS / PHASE SHIFT   
  2025     1     2     3    30    0.0000000     GPS         TIME OF FIRST OBS   
 C1C    0.000 C2C    0.000 C2P    0.000                     GLONASS COD/PHS/BIS 
DBHZ                                                        SIGNAL STRENGTH UNIT
    18                                                      LEAP SECONDS        
 24 R01  1 R02 -4 R03  5 R04  6 R05  1 R06 -4 R07  5 R08  6 GLONASS SLOT / FRQ #
    R09 -2 R10 -7 R11  0 R12 -1 R13 -2 R14 -7 R15  0 R16 -1 GLONASS SLOT / FRQ #
    R17  4 R18 -3 R19  3 R20  2 R21  4 R22 -3 R23  3 R24  2 GLONASS SLOT / FRQ #
                                                            END OF HEADER       
> 2025 01 02 03 30  0.0000000  0 38
G03         1.000    22007434.710 6 115649849.98806     -3555.843 6        39.958                                    22007440.215 4  90116699.69604     -2770.795 4        29.526    22007434.758 5  90116778.63505     -2770.538 5        32.994
G19         2.000    24137625.280 4                     -3777.159 4        24.541
G20         4.000    25473808.608 5 133865778.02505      2581.610 5        30.030
G07         5.000    23209431.044 7 121966459.71607      2251.578 7        44.840                                    23209417.302 4  95038740.70304      1754.474 4        28.047    23209424.467 5  95038724.70805      1754.264 5        31.887
G09         6.000    20145957.397 7 105867723.25507      -178.658 7        44.695                                    20145950.333 6  82494343.80406      -139.213 6        36.023    20145954.798 5  82494330.85205      -139.173 5        34.167
G31        10.000    24345879.477 4                     -4206.107 4        26.371
G04        12.000    20434262.382 7 107382817.24407     -2036.525 7        47.902                                    20434257.774 5  83674845.24905     -1586.905 5        32.473    20434258.123 7  83674869.25107     -1586.880 7        43.903
E12        13.000    24232329.011 7 127341771.73307     -1876.901 7        43.979                                                                    24232324.249 7  95092862.40007     -1401.559 7        44.927    24232324.384 7  97573568.03007     -1438.152 7        46.668
E29        14.000    25531986.451 7 134171488.70407     -3070.187 7        44.674                                                                    25531985.605 7 100192986.11107     -2292.728 7        42.853    25531985.315 7 102806761.10907     -2352.554 7        46.293
G06        15.000    21320847.900 7 112041800.46407      -211.986 7        46.301                                    21320841.553 5  87305290.31405      -165.179 5        32.665    21320843.688 5  87305294.29305      -165.221 5        33.569
E11        16.000    25447879.019 7 133729859.00507      1019.442 7        44.218                                                                    25447872.817 6  99862950.30706       761.203 6        37.592    25447873.114 6 102468052.72106       781.077 6        38.943
E04        17.000                                                                                                                                    25595481.262 5 100442238.39405      1001.132 5        31.457    25595483.764 6 103062405.69606      1026.929 6        39.195
R08        18.000    19999424.739 7 107096177.87207       375.621 7        42.876                                                                    19999437.967 5  83296924.65405       291.706 5        32.868
E19        20.000    22963151.131 6 120672184.22206     -1185.312 6        38.423                                                                    22963148.991 6  90112357.07406      -885.048 6        41.282    22963149.770 7  92463101.25407      -908.252 7        43.314
S36        23.000    38293196.677 6 201232156.64806      -852.509 6        36.095
S23        24.000    38236228.689 6 200932692.66606      -848.219 6        40.010
G11        25.000    23636360.114 7 124209884.06007      1993.004 7        46.525                                    23636354.437 5  96786956.66105      1552.988 5        32.180    23636354.040 7  96786925.65307      1552.932 7        43.050
R16        26.000    22648588.947 5 120984758.87305     -2700.229 5        34.157                                                                    22648591.956 5                     -2100.331 5        33.066
E33        28.000    26583533.573 6 139697424.15606     -3998.307 6        40.818                                                                    26583532.898 7 104319498.81807     -2985.632 7        44.200    26583529.221 6 107040862.31006     -3063.665 6        38.222
E10        29.000    24237477.103 7 127368815.09607      -439.647 7        46.389                                                                    24237476.014 7  95113117.95607      -328.314 7        44.305    24237475.160 7  97594416.94007      -336.947 7        43.892
C20        31.000                                                                                                                                    22016019.740 7 114643350.50407      -376.243 7        47.955                                                                    22016014.280 7  93156991.49007      -305.678 7        47.237
R23        33.000    20360015.945 6 108912378.63006     -2502.831 6        40.102
R07        34.000    20229341.788 7 108289207.86507     -2680.340 7        43.372                                                                    20229338.576 6  84224961.86506     -2084.667 6        39.057
R22        35.000    22317075.915 4 119129746.90304     -5113.188 4        27.928                                                                    22317085.668 6  92656708.37606     -3976.896 6        39.327
C32        36.000                                                                                                                                    23782111.898 5 123839648.63705     -2989.599 5        34.771                                                                    23782109.887 6 100629907.85906     -2429.295 6        41.125
R09        37.000    21482175.152 5 114713551.87605      1037.818 5        35.757                                                                    21482191.992 5                       807.296 5        33.659
C23        40.000                                                                                                                                    24592540.107 5 128059869.10905     -1071.881 5        33.970                                                                    24592528.564 7 104059093.32207      -870.975 7        43.439
C35        41.000                                                                                                                                    24736055.099 7 128807157.82207      -171.541 7        43.010                                                                    24736053.051 7 104666345.87707      -139.317 7        44.587
C37        42.000                                                                                                                                    24400688.550 7 127060925.24607      1553.042 7        44.175
R24        43.000    22242940.486 7 118942986.27907      1888.557 7        43.230                                                                    22242936.867 7  92511212.47707      1468.872 7        42.070
R01        44.000    23900525.719 4 127761987.88704      2440.251 4        27.521
C16        45.000                                                                                                                                                                                                    39347518.048 5 158436136.68005     -1283.015 5        34.000    39347535.036 4                     -1347.733 4        26.491
C39        46.000                                                                                                                                    40055462.900 4                     -1948.013 4        27.042
C09        47.000                                                                                                                                    38618084.948 6 201094492.73206     -1152.167 6        36.594    38618074.930 7 155499100.83507      -890.833 7        44.804    38618073.461 6 163405713.69206      -936.163 6        37.875
C19        48.000                                                                                                                                    24646199.518 6 128339337.30506      1588.416 6        37.652                                                                    24646188.145 6 104286086.46606      1290.767 6        38.991
C06        50.000                                                                                                                                                                                                    38791131.647 5 156195805.14405     -1245.125 5        35.914    38791129.561 5                     -1308.520 5        31.955
C29        54.000                                                                                                                                    24109146.241 7 125542829.86907     -3168.285 7        43.257                                                                    24109138.827 5 102013705.45105     -2574.020 5        30.189
I09        58.000    37687800.344 6 147895017.67106      -953.143 6        40.605
> 2025 01 02 03 30  5.0000000  0 38
G03         1.000    22010820.730 6 115667632.49106     -3557.390 6        40.315                                    22010822.814 4  90130556.18704     -2771.993 4        28.152    22010818.878 5  90130635.09605     -2771.678 5        31.457
G19         2.000    24141219.485 4                     -3778.320 4        26.539
G20         4.000    25471346.191 4 133852867.99504      2582.173 4        28.995
G07         5.000    23207288.588 7 121955204.71207      2250.277 7        44.623                                    23207275.846 4  95029970.58204      1753.460 4        29.299    23207281.634 5  95029954.57605      1753.589 5        33.994
G09         6.000    20146127.995 7 105868621.51407      -180.919 7        43.922                                    20146120.944 5  82495043.74005      -140.971 5        35.019    20146124.787 5  82495030.75405      -140.780 5        34.543
G31        10.000                                                                                                                                                                    24349909.950 3                     -3278.527 3        23.200
G04        12.000    20436200.849 7 107393004.74607     -2038.672 7        46.992                                    20436196.955 5  83682783.55705     -1588.578 5        32.563    20436196.989 7  83682807.57307     -1588.635 7        43.645
E12        13.000    24234115.781 7 127351161.50307     -1879.233 7        43.985                                                                    24234111.071 7  95099874.24607     -1403.406 7        45.007    24234111.383 7  97580762.78707     -1439.915 7        46.681
E29        14.000    25534908.054 7 134186841.06407     -3070.927 7        44.671                                                                    25534907.244 7 100204450.52407     -2293.119 7        43.884    25534906.680 7 102818524.59807     -2352.968 7        46.387
G06        15.000    21321050.931 7 112042868.06407      -215.344 7        46.268                                    21321044.574 5  87306122.20405      -167.796 5        33.413    21321047.557 5  87306126.20505      -167.926 5        34.681
E11        16.000    25446910.002 7 133724766.29307      1017.628 7        43.839                                                                    25446903.567 6  99859147.29306       759.976 6        37.580    25446904.124 6 102464150.50506       779.705 6        38.865
E04        17.000    25594210.225 5 134498495.49415      1339.067 5        35.733                                                                    25594206.070 5 100437235.88005      1000.059 5        31.570    25594208.904 6 103057272.67606      1026.131 6        39.297
R08        18.000    19999074.438 7 107094304.23907       373.570 7        42.493                                                                    19999089.208 5  83295467.26305       290.262 5        31.019
E19        20.000    22964279.918 6 120678113.87706     -1186.924 6        38.646                                                                    22964277.196 6  90116785.06006      -886.225 6        40.987    22964278.014 7  92467644.74607      -909.388 7        43.062
S36        23.000    38294008.174 6 201236417.96006      -852.276 6        36.491
S23        24.000    38237037.525 6 200936932.60006      -848.159 6        39.985
G11        25.000    23634464.501 7 124199923.55907      1991.038 7        46.481                                    23634458.805 5  96779195.24005      1551.458 5        32.263    23634458.804 7  96779164.23107      1551.364 7        42.870
R16        26.000    22651119.692 4 120998271.21204     -2704.746 4        26.886                                                                    22651121.061 5                     -2103.510 5        30.958
E33        28.000    26587338.114 6 139717416.17706     -3998.924 6        41.857                                                                    26587337.382 7 104334427.93107     -2986.239 7        44.254    26587333.678 6 107056180.84806     -3063.954 6        38.489
E10        29.000    24237896.563 7 127371019.05407      -442.118 7        46.048                                                                    24237895.333 7  95114763.76007      -330.067 7        44.009    24237895.014 7  97596105.68107      -338.688 7        44.027
C20        31.000                                                                                                                                    22016381.967 8 114645234.91508      -377.699 8        48.149                                                                    22016376.162 7  93158522.74307      -306.887 7        47.310
R23        33.000    20362359.571 7 108924903.10807     -2507.253 7        43.573
R07        34.000    20231842.394 7 108302612.76907     -2681.944 7        42.004                                                                    20231840.470 6  84235387.96006     -2085.873 6        37.486
R22        35.000    22321863.289 4 119155316.17304     -5114.640 4        25.053                                                                    22321877.484 6  92676595.75306     -3978.232 6        38.201
C32        36.000                                                                                                                                    23784984.209 6 123854598.22606     -2990.461 6        37.471                                                                    23784980.846 6 100642055.70106     -2429.961 6        40.927
R09        37.000    21481205.227 6 114708371.06006      1034.147 6        37.512                                                                    21481212.990 5  89217734.61915       804.545 5        35.310
C23        40.000                                                                                                                                    24593566.955 5 128065234.95005     -1074.796 5        33.030                                                                    24593558.992 7 104063453.51407      -873.205 7        43.602
C35        41.000                                                                                                                                    24736222.156 7 128808022.28507      -174.473 7        42.555                                                                    24736218.998 7 104667048.33707      -141.662 7        44.792
C37        42.000                                                                                                                                    24399198.393 7 127053163.58907      1551.350 7        45.105                                                                    24399213.895 4 103241036.21714      1260.866 4        27.856
R24        43.000    22241172.031 6 118933551.43106      1885.129 6        41.883                                                                    22241172.894 7  92503874.27507      1466.204 7        42.133
R01        44.000    23898243.187 4 127749783.16004      2440.679 4        26.000
C16        45.000                                                                                                                                                                                                    39349110.859 5 158442551.34005     -1283.292 5        33.084    39349128.875 4                     -1347.995 4        25.459
C39        46.000                                                                                                                                    40057332.798 4                     -1948.660 4        26.814
C09        47.000                                                                                                                                    38619191.092 6 201100253.89606     -1152.697 6        36.730    38619181.484 7 155503555.74007      -891.310 7        44.743    38619179.698 6 163410395.12606      -936.578 6        37.815
C19        48.000                                                                                                                                    24644678.869 6 128331395.92406      1587.967 6        37.603                                                                    24644663.482 6 104279633.53106      1290.255 6        38.883
C06        50.000                                                                                                                                                                                                    38792678.193 5 156202031.23105     -1245.474 5        35.929    38792675.213 5                     -1308.847 5        31.743
C29        54.000                                                                                                                                    24112190.415 7 125558675.24407     -3170.032 7        43.126                                                                    24112183.446 5 102026581.16505     -2575.830 5        31.396
I09        58.000    37689014.562 6 147899783.33706      -953.308 6        40.594
> 2025 01 02 03 30 10.0000000  0 38
G03         1.000    22014206.255 6 115685421.72306     -3558.423 6        41.092                                    22014206.191 4  90144417.91304     -2772.797 4        27.126    22014203.178 5  90144496.80305     -2772.162 5        30.981
G19         2.000    24144815.197 4                     -3779.950 4        29.204
G20         4.000    25468890.589 4 133839956.68904      2582.633 4        29.592
G07         5.000    23205147.894 7 121943955.03907      2249.492 7        45.032                                    23205135.741 5  95021204.62305      1752.846 5        30.702    23205141.598 5  95021188.61005      1752.731 5        35.733
G09         6.000    20146301.661 7 105869530.73907      -182.763 7        44.659                                    20146294.009 5  82495752.23305      -142.414 5        34.552    20146296.645 5  82495739.27205      -142.365 5        34.476
G31        10.000    24353907.756 4                     -4209.543 4        28.464                                                                                                    24353917.163 3                     -3279.777 3        23.790
G04        12.000    20438140.769 7 107403201.91207     -2040.275 7        46.436                                    20438137.756 5  83690729.40405     -1589.828 5        32.563    20438136.923 7  83690753.40307     -1589.760 7        42.546
E12        13.000    24235904.643 7 127360562.31707     -1881.177 7        44.421                                                                    24235899.967 7  95106894.32807     -1404.805 7        45.088    24235900.530 7  97587966.00507     -1441.396 7        46.921
E29        14.000    25537830.307 7 134202195.81307     -3071.102 7        45.016                                                                    25537829.199 7 100215916.72407     -2293.227 7        44.439    25537828.426 7 102830289.91607     -2353.132 7        46.348
G06        15.000    21321257.118 7 112043951.67007      -218.258 7        46.624                                    21321250.533 5  87306966.56505      -170.068 5        34.229    21321253.859 5  87306970.56705      -170.077 5        34.767
E11        16.000    25445942.364 7 133719681.94907      1016.150 7        43.543                                                                    25445936.396 6  99855350.55706       758.750 6        37.637    25445936.745 6 102460254.71306       778.594 6        39.261
E04        17.000    25592935.924 5 134491800.76305      1338.433 5        35.362                                                                    25592931.487 5 100432236.61305       999.153 5        30.808    25592934.912 6 103052142.95706      1025.692 6        39.000
R08        18.000    19998725.795 7 107092439.64507       372.115 7        43.426                                                                    19998749.205 5  83294016.91505       289.734 5        33.228
E19        20.000    22965409.899 6 120684050.18806     -1187.836 6        39.772                                                                    22965406.706 6  90121218.03306      -887.037 6        40.958    22965407.549 7  92472193.36207      -910.175 7        42.999
S36        23.000    38294817.506 6 201240678.28606      -851.953 6        36.287
S23        24.000    38237843.888 6 200941171.97906      -847.713 6        39.949
G11        25.000    23632570.620 7 124189972.36007      1989.365 7        46.571                                    23632564.902 5  96771441.07005      1550.154 5        32.455    23632565.671 7  96771410.06707      1550.097 7        43.005
R16        26.000                                                                                                                                    22653653.913 4                     -2106.278 4        29.052
E33        28.000    26591142.987 7 139737411.29607     -3999.250 7        42.595                                                                    26591142.313 7 104349359.34707     -2986.409 7        44.397    26591138.641 6 107071501.80206     -3064.382 6        38.631
E10        29.000    24238318.375 7 127373234.37007      -444.054 7        46.219                                                                    24238316.831 7  95116418.05807      -331.560 7        43.300    24238316.857 7  97597803.14107      -340.273 7        44.375
C20        31.000                                                                                                                                    22016745.426 8 114647125.89508      -378.828 8        48.251                                                                    22016739.376 7  93160059.29307      -307.771 7        47.231
R23        33.000    20364709.553 7 108937449.12007     -2511.260 7        45.398
R07        34.000    20234346.926 7 108316024.91607     -2683.086 7        42.241                                                                    20234345.589 6  84245819.60706     -2086.801 6        36.257
R22        35.000    22326654.306 4 119180892.43804     -5115.640 4        29.867                                                                    22326671.279 6  92696488.36306     -3978.989 6        36.215
C32        36.000                                                                                                                                    23787855.689 6 123869551.44206     -2990.845 6        40.226                                                                    23787852.442 6 100654206.44406     -2430.440 6        40.613
R09        37.000    21480239.362 6 114703208.70206      1030.736 6        37.664                                                                    21480245.413 5  89213719.48405       801.621 5        35.700
C23        40.000                                                                                                                                    24594597.495 5 128070614.36005     -1076.954 5        30.234                                                                    24594591.966 7 104067824.63807      -875.266 7        43.517
C35        41.000                                                                                                                                    24736390.793 7 128808900.01907      -176.863 7        42.006                                                                    24736387.418 7 104667761.54607      -143.671 7        44.752
C37        42.000                                                                                                                                    24397709.824 7 127045410.06307      1550.030 7        45.535                                                                    24397725.070 4 103234735.73304      1259.290 4        27.521
R24        43.000    22239407.254 6 118924133.00806      1882.066 6        40.546                                                                    22239410.624 7  92496548.87207      1463.894 7        42.138
R01        44.000    23895963.251 4 127737580.01704      2440.450 4        24.150
C16        45.000                                                                                                                                                                                                    39350704.084 5 158448967.22505     -1283.150 5        32.557    39350722.700 4                     -1348.337 4        26.000
C39        46.000                                                                                                                                    40059199.759 4                     -1948.901 4        28.398
C09        47.000                                                                                                                                    38620298.281 6 201106017.48606     -1152.943 6        36.393    38620288.553 7 155508012.52007      -891.501 7        44.688    38620286.783 6 163415078.48306      -936.959 6        37.754
C19        48.000                                                                                                                                                                                                                                                                    24643139.299 6 104273182.56506      1290.002 6        38.808
C06        50.000                                                                                                                                    38794223.900 4                     -1611.062 4        27.341    38794226.115 6 156208258.77706     -1245.688 6        36.163    38794222.113 5                     -1308.988 5        32.144
C29        54.000                                                                                                                                    24115234.628 7 125574529.06707     -3171.500 7        42.459                                                                    24115229.363 5 102039463.68405     -2577.135 5        31.532
I09        58.000    37690228.802 6 147904549.14306      -953.175 6        40.636
> 2025 01 02 03 30 15.0000000  0 37
G03         1.000    22017592.737 6 115703217.88906     -3559.481 6        41.189                                    22017590.659 4  90158285.02604     -2773.615 4        26.623    22017590.566 5  90158363.98305     -2773.560 5        31.238
G19         2.000    24148414.621 5                     -3780.804 5        30.445
G20         4.000    25466434.157 4 133827044.30704      2582.448 4        29.602
G07         5.000    23203008.116 7 121932710.91407      2248.583 7        45.112                                    23202997.062 5  95012442.98405      1752.136 5        31.977    23203002.496 6  95012426.94906      1752.124 6        36.635
G09         6.000    20146477.593 7 105870451.19407      -184.967 7        45.926                                    20146469.681 5  82496469.48305      -144.131 5        34.486    20146472.651 5  82496456.51705      -144.100 5        34.362
G31        10.000    24357912.837 4                     -4210.168 4        28.000                                                                                                    24357929.282 3                     -3281.074 3        23.733
G04        12.000    20440083.678 7 107413408.95107     -2042.108 7        45.731                                    20440080.171 5  83698682.95005     -1591.254 5        32.563    20440079.583 7  83698706.94907     -1591.300 7        42.136
E12        13.000    24237695.456 7 127369974.39807     -1883.258 7        44.652                                                                    24237691.068 7  95113922.82307     -1406.352 7        45.020    24237691.733 7  97595177.85707     -1443.004 7        47.184
E29        14.000    25540753.020 7 134217553.16407     -3071.435 7        45.394                                                                    25540751.525 7 100227384.87207     -2293.622 7        44.692    25540750.745 7 102842057.23407     -2353.484 7        46.246
G06        15.000    21321466.377 7 112045051.50807      -221.321 7        46.661                                    21321459.648 5  87307823.57705      -172.458 5        35.019    21321463.307 5  87307827.57305      -172.489 5        35.205
E11        16.000    25444976.082 7 133714606.21407      1014.634 7        43.060                                                                    25444970.585 6  99851560.24506       757.705 6        37.671    25444970.852 6 102456365.52906       777.415 6        39.526
E04        17.000    25591661.914 5 134485110.53905      1337.729 5        34.410                                                                    25591657.407 4 100427240.70304       998.946 4        29.725    25591661.706 6 103047016.70406      1025.067 6        38.910
R08        18.000    19998379.005 6 107090584.37106       370.470 6        41.552                                                                    19998405.021 6  83292573.84006       287.929 6        36.072
E19        20.000    22966541.318 6 120689993.36006     -1188.982 6        40.217                                                                    22966537.509 6  90125656.12206      -887.986 6        40.431    22966538.327 7  92476747.21707      -911.118 7        42.682
S36        23.000    38295623.776 6 201244938.72406      -851.387 6        36.163
S23        24.000    38238651.213 6 200945410.91906      -847.506 6        40.079
G11        25.000    23630678.647 7 124180030.68307      1987.621 7        46.177                                    23630672.856 5  96763694.31805      1548.798 5        32.731    23630674.166 7  96763663.30007      1548.911 7        43.215
R16        26.000    22656185.073 4                     -2711.857 4        28.796                                                                    22656189.019 4                     -2109.303 4        29.346
E33        28.000    26594948.670 7 139757409.75407     -3999.780 7        43.124                                                                    26594947.873 7 104364293.25707     -2986.846 7        44.144    26594944.091 6 107086825.28106     -3064.730 6        38.480
E10        29.000    24238742.046 7 127375461.28207      -446.280 7        46.434                                                                    24238740.324 7  95118081.01707      -333.180 7        42.571    24238740.757 7  97599509.47107      -341.975 7        44.536
C20        31.000                                                                                                                                    22017110.332 8 114649023.64108      -379.920 8        48.514                                                                    22017104.010 7  93161601.36907      -308.878 7        47.237
R23        33.000    20367061.783 7 108950016.82207     -2515.496 7        46.140
R07        34.000    20236854.402 7 108329444.68607     -2684.429 7        42.478                                                                    20236853.652 5  84256257.19805     -2087.646 5        34.795
R22        35.000    22331447.293 5 119206475.46505     -5116.978 5        31.894                                                                    22331471.017 5  92716386.35905     -3980.007 5        34.119
C32        36.000                                                                                                                                    23790726.283 6 123884508.51606     -2991.545 6        41.042                                                                    23790725.128 6 100666360.30706     -2431.065 6        40.746
R09        37.000    21479277.469 5 114698065.07005      1027.101 5        35.652                                                                    21479282.578 5  89209718.94205       798.932 5        35.343
C23        40.000                                                                                                                                    24595630.419 4 128076007.39904     -1079.799 4        29.659                                                                    24595627.509 7 104072206.92907      -877.511 7        43.062
C35        41.000                                                                                                                                    24736561.470 6 128809791.24906      -179.335 6        41.487                                                                    24736558.570 7 104668485.74407      -145.838 7        44.546
C37        42.000                                                                                                                                    24396222.344 7 127037664.89907      1548.490 7        45.351                                                                    24396232.302 4 103228442.00904      1258.522 4        29.991
R24        43.000    22237651.198 6 118914731.55106      1878.930 6        38.805                                                                    22237652.667 6  92489236.62706      1461.366 6        40.908
C16        45.000                                                                                                                                    39352298.520 5 204917749.64215     -1659.600 5        34.005    39352298.205 5 158455384.46405     -1283.192 5        31.472    39352317.387 4                     -1348.282 4        26.036
C39        46.000                                                                                                                                    40061066.589 4                     -1948.820 4        28.588
C09        47.000                                                                                                                                    38621406.824 6 201111783.68606     -1153.172 6        36.533    38621395.786 7 155512471.32207      -891.743 7        44.734    38621394.077 6 163419764.00706      -937.264 6        37.928
C19        48.000                                                                                                                                                                                                                                                                    24641615.341 6 104266733.81406      1289.673 6        38.712
C06        50.000                                                                                                                                    38795774.283 4                     -1611.334 4        27.114    38795774.334 6 156214487.94206     -1245.763 6        36.000    38795769.392 5                     -1309.355 5        32.018
C29        54.000                                                                                                                                    24118276.450 6 125590391.57706     -3173.116 6        41.411                                                                    24118276.513 5 102052353.23105     -2578.387 5        33.389
I09        58.000    37691443.566 6 147909315.26506      -952.960 6        40.377
> 2025 01 02 03 30 20.0000000  0 38
G03         1.000    22020980.183 6 115721021.06706     -3561.172 6        41.249                                    22020976.871 4  90172157.61504     -2774.950 4        26.491    22020977.391 5  90172236.61005     -2774.996 5        32.407
G19         2.000    24152013.343 4                     -3781.487 4        29.905
G20         4.000    25463977.218 4 133814130.95804      2582.776 4        29.299
G07         5.000    23200869.142 7 121921472.44607      2247.388 7        45.303                                    23200859.587 5  95003685.74805      1751.208 5        32.910    23200864.051 6  95003669.72706      1751.139 6        37.626
G09         6.000    20146654.739 7 105871382.92207      -187.268 7        45.735                                    20146647.866 5  82497195.51905      -145.919 5        34.543    20146650.827 5  82497182.52905      -145.771 5        35.810
G31        10.000    24361918.015 4                     -4211.917 4        28.588                                                                                                    24361935.194 4                     -3282.264 4        25.293
G04        12.000    20442027.801 7 107423625.94307     -2044.234 7        44.947                                    20442024.414 5  83706644.24805     -1592.913 5        32.126    20442024.505 7  83706668.25107     -1592.925 7        42.838
E12        13.000    24239488.637 7 127379397.81507     -1885.679 7        45.096                                                                    24239484.328 7  95120959.78807     -1408.060 7        45.058    24239485.026 7  97602398.39707     -1444.842 7        47.433
E29        14.000    25543676.168 7 134232913.19507     -3072.157 7        45.536                                                                    25543674.236 7 100238855.01507     -2294.023 7        45.019    25543673.537 7 102853826.59407     -2353.959 7        46.313
G06        15.000    21321678.771 7 112046167.67007      -224.739 7        46.833                                    21321671.970 5  87308693.30705      -175.128 5        35.681    21321676.877 6  87308697.31806      -175.461 6        36.389
E11        16.000    25444012.187 7 133709539.19807      1012.661 7        42.470                                                                    25444006.248 6  99847776.43506       756.176 6        37.679    25444007.141 6 102452483.02806       775.902 6        39.718
E04        17.000    25590389.317 5 134478424.92305      1336.936 5        33.449                                                                    25590384.805 4 100422248.17504       998.357 4        28.891    25590389.464 6 103041893.96706      1024.187 6        38.796
R08        18.000    19998034.346 6 107088738.34406       368.344 6        40.167                                                                    19998055.943 6  83291138.02906       286.408 6        36.325
E19        20.000    22967673.189 6 120695943.44006     -1190.422 6        40.021                                                                    22967669.906 6  90130099.36106      -888.973 6        40.346    22967670.600 7  92481306.37607      -912.243 7        42.332
S36        23.000    38296436.958 5 201249197.05205      -851.625 5        35.657
S23        24.000    38239458.010 6 200949649.67606      -847.668 6        40.300
G11        25.000    23628789.156 7 124170098.63607      1985.621 7        45.567                                    23628782.728 5  96755955.06505      1547.237 5        32.521    23628784.820 7  96755924.04307      1547.278 7        43.649
R16        26.000    22658735.659 5                     -2716.370 5        33.910                                                                    22658728.123 4                     -2112.212 4        26.874
E33        28.000    26598754.994 7 139777411.58807     -4000.507 7        43.473                                                                    26598754.191 7 104379229.70107     -2987.385 7        43.943    26598750.320 6 107102151.37806     -3065.449 6        38.327
E10        29.000    24239168.263 7 127377699.85607      -448.667 7        46.395                                                                    24239166.305 6  95119752.67906      -334.928 6        41.871    24239166.803 7  97601224.74107      -343.742 7        44.775
C20        31.000                                                                                                                                    22017476.507 8 114650928.23608      -381.452 8        48.607                                                                    22017469.910 7  93163149.00107      -309.922 7        47.230
R23        33.000    20369413.783 7 108962606.41307     -2519.985 7        46.067
R07        34.000    20239362.244 7 108342872.07807     -2686.132 7        43.970                                                                    20239361.572 5  84266700.72605     -2088.880 5        32.671
R22        35.000    22336244.321 5 119232065.43105     -5118.295 5        33.461                                                                    22336272.794 5  92736289.86905     -3980.783 5        31.894
C32        36.000                                                                                                                                    23793597.827 6 123899469.49606     -2992.439 6        41.955                                                                    23793598.314 6 100678517.32606     -2431.557 6        41.187
R09        37.000                                                                                                                                    21478327.790 4  89205732.91404       795.805 4        28.275
C23        40.000                                                                                                                                    24596668.481 4 128081414.20904     -1082.216 4        28.948                                                                    24596665.434 7 104076600.41507      -879.706 7        42.483
C35        41.000                                                                                                                                    24736734.786 6 128810696.05606      -182.217 6        41.421                                                                    24736732.173 7 104669220.97207      -147.928 7        44.197
C37        42.000                                                                                                                                    24394736.352 7 127029928.17107      1546.717 7        45.020                                                                    24394742.967 5 103222155.26405      1256.545 5        32.742
R24        43.000    22235896.828 5 118905346.94505      1875.409 5        35.505                                                                    22235897.446 6  92481937.50206      1458.502 6        39.778
R01        44.000    23891404.433 4                      2439.443 4        24.647
C16        45.000                                                                                                                                    39353892.250 5 204926050.42205     -1660.114 5        34.838    39353891.327 5 158461803.15905     -1283.786 5        30.989    39353911.436 4                     -1348.792 4        25.789
C39        46.000                                                                                                                                    40062940.687 4                     -1949.448 4        27.760
C09        47.000                                                                                                                                    38622514.997 6 201117552.62406     -1153.921 6        36.537    38622503.901 7 155516932.22007      -892.106 7        44.912    38622502.040 6 163424451.71106      -937.293 6        37.588
C19        48.000                                                                                                                                                                                                                                                                    24640091.408 6 104260287.32106      1289.346 6        38.748
C06        50.000                                                                                                                                    38797324.044 4                     -1611.836 4        27.030    38797320.539 5 156220718.74505     -1246.290 5        35.829    38797316.265 5                     -1309.682 5        32.383
C29        54.000                                                                                                                                    24121324.327 6 125606262.77606     -3175.010 6        39.297                                                                    24121324.697 5 102065249.84105     -2579.895 5        34.710
I09        58.000    37692658.551 6 147914081.79606      -953.145 6        40.498
> 2025 01 02 03 30 25.0000000  0 38
G03         1.000    22024368.618 6 115738831.36106     -3562.472 6        41.435                                    22024365.257 4  90186035.75704     -2775.946 4        26.204    22024367.042 5  90186114.79005     -2776.180 5        33.162
G19         2.000    24155607.740 4                     -3782.396 4        26.251
G20         4.000    25461526.129 4 133801216.67204      2582.757 4        27.868
G07         5.000    23198731.953 7 121910239.74607      2246.044 7        45.251                                    23198723.260 5  94994933.01105      1750.163 5        33.844    23198726.805 6  94994916.99506      1750.139 6        38.453
G09         6.000    20146833.865 7 105872326.03907      -189.693 7        45.160                                    20146828.556 5  82497930.43005      -147.815 5        35.100    20146831.547 6  82497917.43306      -147.763 6        36.658
G31        10.000    24365928.453 4                     -4213.468 4        28.019                                                                                                    24365946.615 4                     -3283.659 4        25.534
G04        12.000    20443974.634 7 107433852.98507     -2046.310 7        44.257                                    20443970.540 5  83714613.38005     -1594.539 5        32.174    20443970.983 7  83714637.38607     -1594.405 7        43.621
E12        13.000    24241284.476 7 127388832.67907     -1888.018 7        45.898                                                                    24241279.722 7  95128005.29807     -1409.842 7        44.944    24241280.517 7  97609627.70607     -1446.720 7        47.486
E29        14.000    25546599.621 7 134248276.00007     -3072.812 7        45.967                                                                    25546597.547 7 100250327.23707     -2294.536 7        45.124    25546596.921 7 102865598.09007     -2354.372 7        46.059
G06        15.000    21321894.443 7 112047300.25807      -228.031 7        45.673                                    21321887.663 6  87309575.84406      -177.687 6        36.420    21321892.819 6  87309579.84306      -177.519 6        37.849
E11        16.000    25443049.803 7 133704481.00007      1010.926 7        42.110                                                                    25443044.002 6  99843999.21306       754.672 6        37.471    25443044.657 6 102448607.25806       774.563 6        39.820
E04        17.000    25589119.771 5 134471744.03805      1335.484 5        32.365                                                                    25589113.479 4 100417259.23804       997.574 4        28.995    25589118.177 6 103036774.85306      1023.478 6        38.315
R08        18.000    19997695.205 7 107086901.68607       366.416 7        42.011
E19        20.000    22968806.087 6 120701900.58906     -1192.129 6        39.444                                                                    22968803.385 6  90134547.88706      -890.126 6        40.036    22968804.067 6  92485870.92706      -913.388 6        41.924
S36        23.000    38297245.830 5 201253455.86505      -851.673 5        35.371
S23        24.000    38240263.595 6 200953888.50206      -847.643 6        40.260
G11        25.000    23626900.915 7 124160176.32107      1983.617 7        45.001                                    23626894.433 5  96748223.40005      1545.680 5        32.455    23626896.354 7  96748192.37007      1545.706 7        43.418
R16        26.000    22661282.059 6 121052488.64116     -2720.124 6        37.229                                                                    22661269.444 4                     -2116.106 4        26.683
E33        28.000    26602561.831 7 139797416.92807     -4001.388 7        43.863                                                                    26602560.753 7 104394168.75407     -2988.073 7        43.407    26602557.261 6 107117480.14906     -3066.065 6        38.051
E10        29.000    24239596.700 7 127379950.20407      -451.144 7        46.439                                                                    24239594.580 6  95121433.14806      -336.819 6        41.032    24239595.034 7  97602949.03907      -345.626 7        44.555
C20        31.000                                                                                                                                    22017843.515 8 114652839.80008      -382.959 8        48.317                                                                    22017837.079 7  93164702.30907      -311.181 7        47.173
R23        33.000    20371766.274 7 108975217.99607     -2524.416 7        44.829
R07        34.000    20241874.560 7 108356307.16007     -2687.685 7        45.097                                                                    20241873.196 5  84277150.25105     -2090.323 5        33.611
R22        35.000    22341041.901 6 119257662.47406     -5120.125 6        36.231                                                                    22341067.349 5  92756198.79905     -3982.176 5        32.820
C32        36.000                                                                                                                                    23796471.618 7 123914434.46907     -2993.301 7        42.497                                                                    23796472.369 6 100690677.59906     -2432.258 6        41.304
R09        37.000    21477343.735 4 114687834.27304      1020.623 4        25.338
C23        40.000                                                                                                                                    24597712.093 4 128086834.95204     -1085.291 4        26.383                                                                    24597705.909 6 104081005.19706      -881.977 6        41.585
C35        41.000                                                                                                                                    24736910.534 6 128811614.53506      -185.038 6        41.707                                                                    24736908.409 7 104669967.33007      -150.241 7        43.769
C37        42.000                                                                                                                                    24393252.519 7 127022199.99207      1544.781 7        44.548                                                                    24393260.506 5 103215875.50805      1255.230 5        34.724
R24        43.000    22234146.525 5 118895979.42905      1872.003 5        35.605                                                                    22234147.056 6  92474651.61506      1455.950 6        38.841
R01        44.000    23889119.725 4                      2439.144 4        26.443
C16        45.000                                                                                                                                    39355485.686 5 204934353.20805     -1660.787 5        34.205    39355485.702 4 158468223.41604     -1284.040 4        29.962    39355507.398 4                     -1349.443 4        26.527
C39        46.000                                                                                                                                    40064813.541 4                     -1949.515 4        27.880
C09        47.000                                                                                                                                    38623623.564 6 201123324.36606     -1154.618 6        36.053    38623612.258 7 155521395.30007      -892.765 7        44.886    38623610.487 6 163429141.73606      -938.151 6        37.735
C19        48.000                                                                                                                                                                                                                                                                    24638568.674 6 104253843.18506      1288.625 6        38.435
C06        50.000                                                                                                                                    38798869.289 4                     -1612.769 4        27.150    38798867.464 5 156226951.30205     -1246.657 5        35.586    38798864.032 5                     -1310.200 5        32.569
C29        54.000                                                                                                                                    24124376.270 6 125622142.74706     -3176.797 6        37.501                                                                    24124375.520 6 102078153.60106     -2581.389 6        36.628
I09        58.000    37693873.093 6 147918848.78306      -953.404 6        40.732
> 2025 01 02 03 30 30.0000000  0 37
G03         1.000    22027758.776 6 115756648.88006     -3564.002 6        41.452                                    22027755.610 4  90199919.52804     -2777.141 4        26.527    22027756.929 5  90199998.56105     -2776.954 5        32.713
G20         4.000    25459069.622 4 133788301.61104      2582.678 4        25.083
G07         5.000    23196595.487 7 121899012.92707      2244.828 7        45.357                                    23196588.056 5  94986184.84405      1749.216 5        34.395    23196590.769 6  94986168.82406      1748.917 6        38.592
G09         6.000    20147015.711 7 105873280.67107      -192.044 7        46.032                                    20147011.575 5  82498674.31405      -149.646 5        35.871    20147014.085 6  82498661.31406      -149.808 6        37.357
G31        10.000    24369938.049 4                     -4215.973 4        27.868                                                                                                    24369958.966 4                     -3284.190 4        25.865
G04        12.000    20445922.402 7 107444090.19307     -2048.365 7        45.409                                    20445918.728 5  83722590.43305     -1596.138 5        31.940    20445918.419 7  83722614.42707     -1596.120 7        43.382
