     3.04           OBSERVATION DATA    M                   RINEX VERSION / TYPE
ssrcrin-15.6.1x                         20250102 034500 UTC PGM / RUN BY / DATE 
(00000000023479385599111004) Septentrio proprietary         COMMENT             
ract                                                        MARKER NAME         
01                                                          MARKER NUMBER       
geodetic                                                    MARKER TYPE         
NFB                 CLIMERS@TUW                             OBSERVER / AGENCY   
3296359             SEPT ASTERX SB3 PROB4.14.4              REC # / TYPE / VERS 
Unknown             Unknown                                 ANT # / TYPE        
  4127446.4280  1206914.8552  4695542.8799                  APPROX POSITION XYZ 
        0.0000        0.0000        0.0000                  ANTENNA: DELTA H/E/N
G   23 X1  C1C L1C D1C S1C C1W S1W C2W L2W D2W S2W C2L L2L  SYS / # / OBS TYPES 
       D2L S2L C5Q L5Q D5Q S5Q C1L L1L D1L S1L              SYS / # / OBS TYPES 
E   21 X1  C1C L1C D1C S1C C6C L6C D6C S6C C5Q L5Q D5Q S5Q  SYS / # / OBS TYPES 
       C7Q L7Q D7Q S7Q C8Q L8Q D8Q S8Q                      SYS / # / OBS TYPES 
S    9 X1  C1C L1C D1C S1C C5I L5I D5I S5I                  SYS / # / OBS TYPES 
R   17 X1  C1C L1C D1C S1C C2P L2P D2P S2P C2C L2C D2C S2C  SYS / # / OBS TYPES 
       C3Q L3Q D3Q S3Q                                      SYS / # / OBS TYPES 
C   25 X1  C1P L1P D1P S1P C5P L5P D5P S5P C2I L2I D2I S2I  SYS / # / OBS TYPES 
       C7I L7I D7I S7I C6I L6I D6I S6I C7D L7D D7D S7D      SYS / # / OBS TYPES 
J   17 X1  C1C L1C D1C S1C C2L L2L D2L S2L C5Q L5Q D5Q S5Q  SYS / # / OBS TYPES 
       C1L L1L D1L S1L                                      SYS / # / OBS TYPES 
I    5 X1  C5A L5A D5A S5A                                  SYS / # / OBS TYPES 
SEPTENTRIO RECEIVERS OUTPUT ALIGNED CARRIER PHASES.         COMMENT             
NO FURTHER PHASE SHIFT APPLIED IN THE RINEX ENCODER.        COMMENT             
G L1C                                                       SYS / PHASE SHIFT   
G L2W                                                       SYS / PHASE SHIFT   
G L2L  0.00000                                              SYS / PHASE SHIFT   
G L5Q  0.00000                                              SYS / PHASE SHIFT   
G L1L  0.00000                                              SYS / PHASE SHIFT   
E L1C  0.00000                                              SYS / PHASE SHIFT   
E L6C  0.00000                                              SYS / PHASE SHIFT   
E L5Q  0.00000                                              SYS / PHASE SHIFT   
E L7Q  0.00000                                              SYS / PHASE SHIFT   
E L8Q  0.00000                                              SYS / PHASE SHIFT   
S L1C                                                       SYS / PHASE SHIFT   
S L5I                                                       SYS / PHASE SHIFT   
R L1C                                                       SYS / PHASE SHIFT   
R L2P  0.00000                                              SYS / PHASE SHIFT   
R L2C                                                       SYS / PHASE SHIFT   
R L3Q  0.00000                                              SYS / PHASE SHIFT   
C L1P  0.00000                                              SYS / PHASE SHIFT   
C L5P  0.00000                                              SYS / PHASE SHIFT   
C L2I                                                       SYS / PHASE SHIFT   
C L7I                                                       SYS / PHASE SHIFT   
C L6I                                                       SYS / PHASE SHIFT   
C L7D                                                       SYS / PHASE SHIFT   
J L1C                                                       SYS / PHASE SHIFT   
J L2L  0.00000                                              SYS / PHASE SHIFT   
J L5Q  0.00000                                              SYS / PHASE SHIFT   
J L1L  0.00000                                              SYS / PHASE SHIFT   
I L5A                                                       SYS / PHASE SHIFT   
  2025     1     2     3    45    0.0000000     GPS         TIME OF FIRST OBS   
 C1C    0.000 C2C    0.000 C2P    0.000                     GLONASS COD/PHS/BIS 
DBHZ                                                        SIGNAL STRENGTH UNIT
    18                                                      LEAP SECONDS        
 24 R01  1 R02 -4 R03  5 R04  6 R05  1 R06 -4 R07  5 R08  6 GLONASS SLOT / FRQ #
    R09 -2 R10 -7 R11  0 R12 -1 R13 -2 R14 -7 R15  0 R16 -1 GLONASS SLOT / FRQ #
    R17  4 R18 -3 R19  3 R20  2 R21  4 R22 -3 R23  3 R24  2 GLONASS SLOT / FRQ #
                                                            END OF HEADER       
> 2025 01 02 03 45  0.0000000  0 39
G03         1.000    22338278.574 6 117388437.55506     -3804.376 6        40.825                                    22338277.347 5  91471484.13505     -2964.450 5        32.677    22338276.810 6  91471520.10806     -2964.555 6        38.120
G20         4.000    24730566.532 5 129960089.29105      2589.493 5        31.909
G07         5.000    22543914.127 6 118469061.70506      2008.600 6        41.995                                    22543908.101 1  92313525.44901      1565.100 1         8.286    22543955.683 3                      1565.925 3        20.524
G09         6.000    19912092.219 8 104638749.20508      -590.208 8        50.780                                    19912090.436 7  81536701.86307      -459.900 7        46.652    19912089.189 6  81536688.85806      -459.951 6        41.793
G31        10.000    24789287.123 3                     -4456.478 3        23.562                                                                                                    24789247.668 3                     -3473.464 3        19.224
E06        11.000    27287138.775 5                      1710.190 5        31.570                                                                    27287112.595 4                      1276.272 4        26.551
G04        12.000    20513617.535 7 107799829.04307     -2384.862 7        43.602                                    20513612.021 5  83999789.40905     -1858.334 5        32.880    20513613.333 7  83999813.42607     -1858.298 7        46.182
E12        13.000    24289267.784 6 127640989.06206     -2286.448 6        40.496                                                                    24289265.513 6  95316303.91706     -1707.441 6        40.808    24289266.215 6  97802838.38906     -1751.928 6        37.652
E29        14.000    25766278.104 6 135402696.59106     -3162.686 6        39.997                                                                    25766275.870 6 101112394.62306     -2361.644 6        39.072    25766276.690 7 103750154.11307     -2423.329 7        42.318
G06        15.000    21109012.873 8 110928602.17008      -818.585 8        50.760                                    21109008.754 7  86437862.26007      -637.856 7        44.877    21109010.924 7  86437960.27307      -637.896 7        42.233
E11        16.000    25002316.732 6 131388409.10606       675.104 6        41.452                                                                    25002311.099 7  98114465.35307       504.051 7        42.354    25002311.144 6 100673955.09506       517.258 6        41.452
E04        17.000    25081275.665 7 131802984.02007      1162.318 7        43.378                                                                    25081270.727 6  98424366.25806       867.748 6        37.043    25081270.347 6 100991902.22206       890.488 6        39.207
R08        18.000    19665448.403 8 105307746.49908        30.402 8        48.915                                                                    19665445.386 7  81905996.12707        23.692 7        42.019
E19        20.000    22887942.298 7 120276950.80907     -1433.945 7        44.396                                                                    22887938.592 7  89817215.11307     -1070.855 7        45.061    22887938.683 7  92160259.89907     -1098.856 7        47.068
S36        23.000    38139314.019 5 200423543.07105      -851.963 5        34.905
S23        24.000    38081629.636 6 200120275.61506      -847.972 6        39.919
G11        25.000    23027714.282 6 121011433.67006      1600.712 6        41.764                                    23027708.585 4  94294658.27904      1247.310 4        27.808    23027709.237 6  94294627.26206      1247.410 6        41.919
R16        26.000    22862279.806 6 122126141.71906     -3380.907 6        36.457                                                                    22862309.614 5                     -2629.606 5        34.362
E33        28.000    26978417.714 5 141772500.86905     -4106.621 5        32.910                                                                    26978407.429 5 105869084.09305     -3066.420 5        31.977    26978406.064 3                     -3146.221 3        21.786
E10        29.000    24050191.472 7 126384699.08407      -877.156 7        47.023                                                                    24050190.196 8  94378167.88608      -654.969 8        50.395    24050189.496 8  96840294.26108      -672.077 8        50.022
C20        31.000                                                                                                                                    21803424.840 7 113536311.88607      -633.864 7        46.830                                                                    21803419.013 7  92257431.88207      -515.000 7        46.931
R23        33.000    20546053.484 7 109907773.33607     -3258.453 7        44.709
R07        34.000    20403169.033 8 109219756.54208     -2949.271 8        49.206                                                                    20403164.707 4  84948881.60404     -2293.551 4        29.251
R22        35.000    22897842.567 4 122230227.31104     -5310.986 4        29.081                                                                    22897859.643 4  95068040.81104     -4131.696 4        24.617
C32        36.000                                                                                                                                                                                                                                                                    24011533.253 5 101600749.65605     -2545.304 5        31.132
R09        37.000    21067451.987 4                       312.618 4        29.469                                                                    21067460.191 3                       242.652 3        20.714
C23        40.000                                                                                                                                    24521474.979 6 127689760.70606     -1573.534 6        40.660                                                                    24521467.041 7 103758414.86207     -1278.680 7        42.398
C35        41.000                                                                                                                                    24509209.787 6 127625985.63506      -674.168 6        36.813                                                                    24509217.993 5 103706500.71705      -547.821 5        30.823
C37        42.000                                                                                                                                    23861263.225 6 124251992.39506      1208.783 6        41.828                                                                    23861268.706 6 100964801.85006       982.178 6        36.276
R24        43.000    21679972.379 6 115932368.10906      1222.254 6        39.057                                                                    21679960.415 7  90169701.46807       950.685 7        42.921
R01        44.000    23196206.840 5 123997060.19305      2361.335 5        34.548
C16        45.000                                                                                                                                    39340626.003 5 204857007.23105     -1728.214 5        32.275    39340608.002 5 158408334.98705     -1336.594 5        33.533
C39        46.000                                                                                                                                    40096161.279 4                     -1990.175 4        25.564                                                                    40096143.899 4                     -1617.090 4        27.198
C09        47.000                                                                                                                                    38526230.423 5 200616211.89805     -1252.760 5        32.162    38526244.470 5 155129278.01305      -968.403 5        33.371    38526227.920 5 163017085.70605     -1017.736 5        30.166
C19        48.000                                                                                                                                    24081577.434 7 125399075.65907      1473.527 7        44.305                                                                    24081572.444 7 101897004.77607      1197.301 7        42.631
C06        50.000                                                                                                                                                                                                    38776755.479 5 156137782.69105     -1307.099 5        32.006    38776720.531 5                     -1373.329 5        30.000
C29        54.000                                                                                                                                    24382854.333 5 126968126.05805     -3456.449 5        34.819                                                                    24382833.585 3                     -2806.658 3        20.643
I09        58.000    37608904.001 6 147585414.73706      -973.362 6        37.501
I06        59.000    37931893.003 6 148852899.06106      -588.500 6        36.181
> 2025 01 02 03 45  5.0000000  0 38
G03         1.000    22341899.111 6 117407462.18906     -3805.615 6        40.343                                    22341897.850 5  91486308.53205     -2965.419 5        33.030    22341897.635 6  91486344.53406     -2965.455 6        38.486
G20         4.000    24728104.380 5 129947140.50705      2589.632 5        31.668
G07         5.000    22542002.384 6 118459021.92006      2007.146 6        41.774                                    22541997.739 1  92305702.28001      1564.046 1        10.074
G09         6.000    19912654.565 8 104641705.32408      -592.469 8        50.799                                    19912652.935 7  81539005.33307      -461.663 7        46.295    19912652.274 6  81538992.30906      -461.603 6        41.740
G31        10.000    24793529.615 4                     -4459.185 4        24.150
E06        11.000    27285514.216 5                      1709.659 5        30.166                                                                    27285485.693 4                      1276.784 4        25.338
G04        12.000    20515887.272 7 107811756.87307     -2386.631 7        43.592                                    20515881.714 5  84009083.82305     -1859.714 5        33.581    20515882.968 7  84009107.83407     -1859.654 7        46.173
E12        13.000    24291444.068 6 127652426.13006     -2288.432 6        40.083                                                                    24291442.115 6  95324844.59506     -1708.928 6        40.381    24291442.009 6  97811601.85206     -1753.486 6        37.845
E29        14.000    25769287.387 6 135418510.35306     -3163.101 6        40.157                                                                    25769285.159 6 101124203.58606     -2362.017 6        39.276    25769286.191 7 103762271.14607     -2423.695 7        42.017
G06        15.000    21109793.125 8 110932702.82908      -821.870 8        51.047                                    21109789.602 7  86441057.57607      -640.417 7        45.357    21109791.500 7  86441155.58007      -640.422 7        42.954
E11        16.000    25001675.200 6 131385038.11506       672.983 6        41.654                                                                    25001669.572 7  98111948.06207       502.537 7        42.438    25001669.841 6 100671372.13406       515.725 6        41.845
E04        17.000    25080169.564 7 131797174.80107      1161.359 7        42.789                                                                    25080165.378 6  98420028.22006       867.205 6        37.198    25080164.599 6 100987450.99806       889.873 6        38.276
R08        18.000    19665420.228 8 105307598.77108        28.538 8        48.818                                                                    19665417.684 7  81905881.24107        22.220 7        42.527
E19        20.000    22889307.020 7 120284123.70107     -1435.310 7        44.370                                                                    22889303.649 7  89822571.49007     -1071.881 7        45.270    22889303.727 7  92165756.00107     -1099.768 7        47.260
S36        23.000    38140126.227 5 200427802.60405      -852.138 5        34.671
S23        24.000    38082437.770 6 200124514.18206      -847.669 6        40.241
G11        25.000    23026192.389 6 121003435.48506      1598.417 6        41.092                                    23026186.646 4  94288425.91904      1245.523 4        27.617    23026187.297 7  94288394.91407      1245.554 7        42.510
R16        26.000                                                                                                                                    22865468.929 5  95000321.61515     -2632.080 5        33.281
E33        28.000    26982327.896 5 141793034.29105     -4106.935 5        32.461                                                                    26982314.864 5 105884417.50005     -3066.801 5        31.691    26982315.550 3                     -3147.139 3        23.886
E10        29.000    24051026.952 7 126389090.21607      -879.479 7        46.674                                                                    24051025.852 8  94381446.98108      -656.752 8        50.493    24051025.108 8  96843658.89708      -673.898 8        50.080
C20        31.000                                                                                                                                    21804033.861 7 113539483.86007      -635.190 7        46.735                                                                    21804028.192 7  92260009.36407      -516.045 7        47.143
R23        33.000    20549100.246 7 109924074.42707     -3262.267 7        44.539
R07        34.000    20405924.486 8 109234505.62108     -2950.585 8        50.064                                                                    20405920.751 4  84960353.14704     -2295.260 4        29.583
R22        35.000    22902816.833 4 122256786.60614     -5311.830 4        24.647
C32        36.000                                                                                                                                                                                                                                                                    24014541.857 5 101613478.41805     -2546.381 5        31.509
R09        37.000    21067166.706 6 112497472.13816       308.481 6        38.676                                                                    21067170.841 4                       239.888 4        28.787
C23        40.000                                                                                                                                    24522989.110 6 127697635.03406     -1576.278 6        40.381                                                                    24522979.721 7 103764813.39407     -1280.830 7        42.648
C35        41.000                                                                                                                                    24509859.548 6 127629362.26306      -676.836 6        39.949                                                                    24509871.476 5 103709244.51605      -549.672 5        31.502
C37        42.000                                                                                                                                    23860103.163 6 124245953.20006      1206.738 6        40.708                                                                    23860108.375 5 100959894.48805       980.564 5        35.329
R24        43.000    21678828.442 6 115926265.75806      1218.616 6        38.420                                                                    21678820.311 7  90164955.24407       947.649 7        43.799
C16        45.000                                                                                                                                    39342283.771 5 204865648.87105     -1728.607 5        32.425    39342267.379 5 158415017.22805     -1336.651 5        33.958
C39        46.000                                                                                                                                    40098061.141 4                     -1991.274 4        24.917                                                                    40098055.299 4                     -1617.366 4        27.006
C09        47.000                                                                                                                                    38527433.701 5 200622476.09105     -1253.182 5        31.283                                                                    38527430.630 5 163022175.93305     -1018.706 5        30.241
C19        48.000                                                                                                                                    24080162.183 7 125391709.45807      1472.834 7        44.081                                                                    24080157.540 6 101891019.10606      1196.822 6        41.983
C06        50.000                                                                                                                                                                                                    38778378.279 5 156144317.99705     -1307.565 5        31.313    38778343.811 4                     -1373.674 4        29.886
C29        54.000                                                                                                                                    24386176.215 5 126985411.34705     -3457.727 5        35.862                                                                    24386153.317 3                     -2810.034 3        19.582
I09        58.000    37610144.213 6 147590281.62706      -973.462 6        37.369
I06        59.000    37932642.945 6 148855841.13006      -588.506 6        36.212
> 2025 01 02 03 45 10.0000000  0 38
G03         1.000    22345520.707 6 117426493.04006     -3806.865 6        39.550                                    22345519.489 5  91501137.77505     -2966.395 5        33.257    22345518.671 6  91501173.75206     -2966.453 6        39.018
G20         4.000    24725639.187 5 129934191.77205      2589.605 5        31.479
G07         5.000    22540093.307 6 118448989.46306      2005.640 6        41.943                                    22540088.848 2  92297884.79202      1562.849 2        14.048
G09         6.000    19913218.920 8 104644672.43308      -594.620 8        50.631                                    19913217.321 7  81541317.36007      -463.343 7        46.051    19913215.770 6  81541304.35006      -463.474 6        41.263
G31        10.000    24797763.588 3                     -4459.943 3        23.924
E06        11.000    27283883.523 4                      1709.576 4        29.194                                                                    27283862.034 4                      1276.355 4        24.662
G04        12.000    20518158.383 7 107823693.50307     -2388.359 7        44.518                                    20518153.160 5  84018385.10205     -1861.061 5        34.081    20518154.143 7  84018409.10907     -1860.985 7        45.991
E12        13.000    24293622.863 6 127663874.03206     -2290.790 6        39.480                                                                    24293620.536 6  95333393.37206     -1710.691 6        39.766    24293620.264 6  97820373.63606     -1755.486 6        38.183
E29        14.000    25772297.115 6 135434326.03006     -3163.468 6        39.904                                                                    25772294.827 6 101136013.99006     -2362.391 6        39.847    25772295.527 6 103774389.64506     -2423.970 6        41.619
G06        15.000    21110576.474 8 110936820.24308      -825.226 8        50.660                                    21110573.571 7  86444265.94507      -643.032 7        45.783    21110575.167 7  86444363.94607      -643.080 7        43.081
E11        16.000    25001035.236 6 131381676.98406       671.094 6        41.893                                                                    25001030.001 7  98109438.13507       501.083 7        42.385    25001030.491 6 100668796.73506       514.116 6        41.945
E04        17.000    25079064.843 7 131791370.32307      1160.161 7        42.083                                                                    25079060.694 6  98415693.71606       866.534 6        37.112    25079060.179 6 100983003.39706       889.011 6        37.743
R08        18.000    19665393.878 8 105307460.44508        26.531 8        49.114                                                                    19665391.746 7  81905773.67107        20.684 7        44.134
E19        20.000    22890673.109 7 120291302.89307     -1436.593 7        44.272                                                                    22890669.866 7  89827932.56807     -1072.754 7        45.467    22890669.967 7  92171256.94207     -1100.775 7        47.392
S36        23.000    38140935.130 5 200432061.89105      -852.418 5        34.938
S23        24.000    38083246.405 6 200128752.52406      -847.698 6        40.150
G11        25.000    23024671.999 6 120995448.94506      1595.967 6        41.600                                    23024666.884 4  94282202.63804      1243.611 4        27.222    23024667.620 7  94282171.64107      1243.646 7        42.840
R16        26.000    22868646.011 5 122159983.44005     -3388.095 5        32.491
E33        28.000    26986236.298 5 141813569.78905     -4107.559 5        31.336                                                                    26986222.668 5 105899752.41005     -3067.188 5        31.381    26986223.721 4                     -3147.064 4        25.173
E10        29.000    24051864.647 7 126393493.38607      -882.018 7        46.467                                                                    24051863.819 8  94384735.07208      -658.680 8        50.598    24051862.947 8  96847032.76008      -675.846 8        50.061
C20        31.000                                                                                                                                    21804644.179 7 113542662.73607      -636.594 7        47.267                                                                    21804638.783 7  92262592.48907      -517.372 7        47.151
R23        33.000    20552151.277 7 109940395.00307     -3266.221 7        44.376
R07        34.000    20408682.120 8 109249261.29708     -2951.961 8        50.426                                                                    20408677.944 5  84971829.75005     -2296.071 5        31.306
C32        36.000                                                                                                                                    24017554.770 6 125065742.96216     -3134.139 6        37.161                                                                    24017551.165 5 101626210.00905     -2546.951 5        31.909
R09        37.000    21066881.303 7 112495939.64917       304.243 7        42.624                                                                    21066889.782 5                       236.668 5        34.924
C23        40.000                                                                                                                                    24524503.561 6 127705522.82806     -1578.991 6        39.769                                                                    24524494.925 7 103771222.89007     -1283.091 7        42.770
C35        41.000                                                                                                                                    24510514.660 7 127632752.64007      -679.637 7        42.783                                                                    24510526.866 5 103711999.53205      -552.134 5        31.253
C37        42.000                                                                                                                                    23858945.416 6 124239924.16706      1204.650 6        39.706                                                                    23858949.995 5 100954995.41205       978.979 5        34.433
R24        43.000    21677689.801 6 115920182.96406      1214.423 6        38.640                                                                    21677682.994 7  90160224.21507       944.560 7        43.661
R01        44.000    23191775.811 5 123973449.55805      2360.573 5        34.133
C16        45.000                                                                                                                                    39343942.489 5 204874291.92605     -1728.788 5        32.593    39343928.002 5 158421700.57005     -1336.842 5        34.133
C39        46.000                                                                                                                                    40099971.047 4                     -1990.194 4        25.098                                                                    40099966.958 4                     -1617.152 4        27.150
C09        47.000                                                                                                                                    38528635.263 5 200628742.61805     -1253.429 5        31.155    38528672.658 5 155138967.63905      -969.565 5        33.635    38528633.855 5 163027267.94705     -1018.602 5        30.725
C19        48.000                                                                                                                                    24078747.703 7 125384346.34307      1472.136 7        44.480                                                                    24078743.190 6 101885035.98606      1196.206 6        41.056
C06        50.000                                                                                                                                    38780016.232 4                     -1690.859 4        25.729    38780003.268 5 156150854.66205     -1307.778 5        30.943    38779967.917 4                     -1373.912 4        29.772
C29        54.000                                                                                                                                    24389497.776 6 127002703.29706     -3459.099 6        36.783                                                                    24389469.267 3                     -2805.899 3        18.716
I09        58.000    37611384.058 6 147595148.83006      -973.569 6        36.983
I06        59.000    37933392.721 6 148858783.14106      -588.382 6        36.242
> 2025 01 02 03 45 15.0000000  0 40
G03         1.000    22349143.887 6 117445530.46706     -3808.333 6        39.847                                    22349142.326 5  91515972.13905     -2967.535 5        33.222    22349141.237 6  91516008.11906     -2967.527 6        39.024
G19         2.000    24511846.233 3                     -3949.468 3        20.548
G20         4.000    24723176.629 5 129921243.47005      2589.485 5        31.019
G07         5.000    22538186.780 6 118438964.66706      2004.114 6        41.700                                    22538181.562 2  92290073.22802      1561.645 2        16.491    22538166.211 3                      1560.712 3        23.714
G09         6.000    19913785.477 8 104647650.92608      -597.052 8        49.971                                    19913783.634 7  81543638.25807      -465.233 7        45.562    19913782.043 6  81543625.22606      -465.115 6        39.928
G31        10.000    24802006.899 4                     -4461.909 4        25.880
E06        11.000    27282250.383 4                      1708.848 4        29.943
G04        12.000    20520431.337 7 107835639.29507     -2390.242 7        44.507                                    20520426.407 5  84027693.52105     -1862.527 5        34.310    20520427.650 7  84027717.52707     -1862.506 7        46.018
E12        13.000    24295803.467 6 127675333.09206     -2293.056 6        38.772                                                                    24295801.064 6  95341950.46606     -1712.340 6        38.805    24295801.021 6  97829153.94106     -1757.144 6        38.165
E29        14.000    25775306.776 6 135450143.96206     -3163.917 6        39.474                                                                    25775304.640 6 101147826.06506     -2362.716 6        40.286    25775305.420 6 103786509.86706     -2424.396 6        41.101
G06        15.000    21111363.086 8 110940954.77608      -828.775 8        49.938                                    21111360.648 7  86447487.65307      -645.797 7        45.893    21111361.148 7  86447585.65407      -645.757 7        42.252
E11        16.000    25000397.584 6 131378326.12206       669.065 6        41.294                                                                    25000392.233 7  98106935.86707       499.684 7        42.324    25000393.084 7 100666229.18707       512.642 7        42.144
E04        17.000    25077961.695 6 131785570.92706      1159.098 6        41.120                                                                    25077956.392 6  98411363.02006       865.579 6        37.202    25077957.364 6 100978559.68606       888.343 6        37.395
R08        18.000    19665369.826 8 105307331.76808        24.582 8        48.619                                                                    19665367.489 7  81905673.59907        19.079 7        43.854
E19        20.000    22892040.556 7 120298488.75107     -1437.998 7        44.032                                                                    22892037.513 7  89833298.63207     -1073.818 7        45.753    22892037.393 7  92176762.99107     -1101.821 7        47.503
S36        23.000    38141746.613 5 200436322.02105      -852.542 5        35.133
S23        24.000    38084051.248 6 200132990.76106      -847.810 6        40.362
G11        25.000    23023154.452 7 120987474.42607      1593.556 7        42.607                                    23023149.265 4  94275988.72404      1241.732 4        26.455    23023149.710 7  94275957.72707      1241.696 7        42.307
R16        26.000    22871821.321 4 122176930.59104     -3391.954 4        26.228
E33        28.000    26990145.644 4 141834107.59204     -4108.077 4        29.697                                                                    26990130.549 5 105915089.11205     -3067.467 5        30.958    26990132.787 4                     -3147.765 4        27.078
E10        29.000    24052704.800 7 126397908.95707      -884.561 7        45.815                                                                    24052704.152 8  94388032.42208      -660.524 8        50.799    24052703.230 8  96850416.12708      -677.775 8        49.786
C20        31.000                                                                                                                                    21805256.392 7 113545848.89007      -638.111 7        47.337                                                                    21805250.682 7  92265181.51307      -518.492 7        47.164
R23        33.000    20555205.869 7 109956735.32507     -3270.214 7        45.123
R07        34.000    20411440.876 8 109264024.18008     -2953.452 8        49.850                                                                    20411435.110 5  84983312.01905     -2297.195 5        34.981
R22        35.000    22912744.581 4                     -5314.084 4        26.850                                                                    22912767.253 4                     -4132.947 4        25.970
C32        36.000                                                                                                                                    24020566.126 6 125081414.90706     -3134.894 6        38.318                                                                    24020561.377 5 101638944.71405     -2547.212 5        31.525
R09        37.000    21066603.415 7 112494428.45107       299.943 7        44.745                                                                    21066603.335 6  87495722.81516       233.456 6        36.873
C23        40.000                                                                                                                                    24526021.568 6 127713424.43906     -1581.888 6        39.808                                                                    24526012.856 7 103777643.58807     -1285.459 7        42.904
C35        41.000                                                                                                                                    24511172.775 7 127636157.10207      -682.466 7        43.234                                                                    24511183.279 4 103714765.97604      -554.503 4        29.498
C37        42.000                                                                                                                                    23857788.343 6 124233905.63706      1202.448 6        39.486                                                                    23857794.256 5 100950104.90305       976.655 5        34.124
R24        43.000    21676553.972 6 115914120.08106      1210.232 6        38.685                                                                    21676548.378 7  90155508.63707       941.350 7        43.191
R01        44.000    23189571.543 5 123961647.73105      2360.003 5        32.748
C16        45.000                                                                                                                                    39345602.910 5 204882936.81205     -1729.383 5        32.784    39345587.964 5 158428385.30905     -1337.166 5        34.057
C39        46.000                                                                                                                                    40101884.258 4                     -1990.681 4        24.541                                                                    40101878.643 4                     -1617.327 4        27.593
C09        47.000                                                                                                                                    38529840.158 5 200635011.85905     -1254.418 5        31.721    38529880.260 5 155143815.40505      -969.920 5        34.162    38529838.237 5 163032362.22905     -1019.110 5        30.445
C19        48.000                                                                                                                                    24077334.485 7 125376986.66207      1471.371 7        45.058                                                                    24077329.579 6 101879055.63406      1195.664 6        40.036
C06        50.000                                                                                                                                                                                                    38781626.721 5 156157392.92705     -1307.899 5        30.596    38781591.617 4                     -1374.539 4        29.242
C29        54.000                                                                                                                                    24392820.177 6 127020002.33606     -3460.785 6        36.533
I09        58.000    37612625.046 6 147600016.66106      -973.663 6        36.805
I06        59.000    37934142.284 6 148861725.34806      -588.615 6        36.408
> 2025 01 02 03 45 20.0000000  0 39
G03         1.000    22352768.117 6 117464574.50706     -3809.335 6        40.491                                    22352766.433 5  91530811.65905     -2968.315 5        33.683    22352765.751 6  91530847.63106     -2968.256 6        39.441
G20         4.000    24720711.924 5 129908295.60705      2589.927 5        30.204
G07         5.000    22536280.771 6 118428947.63906      2002.790 6        40.930                                    22536275.904 3  92282267.71803      1560.629 3        18.866
G09         6.000    19914354.529 8 104650640.82908      -599.065 8        49.388                                    19914351.986 7  81545968.05407      -466.803 7        45.299    19914351.595 6  81545955.02506      -466.762 6        39.024
G31        10.000    24806258.236 4                     -4463.117 4        26.299
E06        11.000    27280621.693 5                      1708.347 5        31.751                                                                    27280638.727 5                      1275.845 5        30.121
G04        12.000    20522706.288 7 107847594.33207     -2391.802 7        44.506                                    20522701.479 5  84037009.13205     -1863.742 5        34.276    20522702.857 7  84037033.13407     -1863.756 7        45.964
E12        13.000    24297986.313 6 127686803.38906     -2295.179 6        39.504                                                                    24297983.818 6  95350515.95406     -1713.979 6        37.917    24297983.692 6  97837942.85906     -1758.636 6        38.210
E29        14.000    25778317.183 6 135465964.22906     -3164.046 6        39.411                                                                    25778315.022 6 101159639.88706     -2362.802 6        40.398    25778316.017 6 103798631.89606     -2424.700 6        40.815
G06        15.000    21112153.378 8 110945106.49008      -831.947 8        49.864                                    21112150.757 7  86450722.75307      -648.271 7        46.024    21112151.248 6  86450820.75706      -648.301 6        40.987
E11        16.000    24999761.850 6 131374985.56706       667.174 6        40.913                                                                    24999756.692 7  98104441.30707       498.179 7        42.205    24999757.784 7 100663669.54407       511.259 7        42.188
E04        17.000    25076858.990 6 131779776.70006      1158.353 6        40.934                                                                    25076853.635 6  98407036.19706       864.738 6        37.263    25076855.453 6 100974119.94806       887.480 6        37.176
R08        18.000    19665346.934 7 105307212.87507        22.883 7        47.914                                                                    19665343.912 6  81905581.12306        17.795 6        41.838
E19        20.000    22893409.263 7 120305681.24607     -1439.028 7        44.399                                                                    22893406.227 7  89838669.65107     -1074.664 7        45.992    22893406.169 7  92182274.12207     -1102.688 7        47.671
S36        23.000    38142558.539 5 200440581.69605      -851.579 5        35.138
S23        24.000    38084857.504 6 200137228.97306      -847.560 6        40.236
G11        25.000    23021639.019 7 120979512.02507      1591.330 7        42.741                                    23021633.792 4  94269784.25904      1239.994 4        26.096    23021634.096 6  94269753.24906      1240.012 6        41.642
R16        26.000                                                                                                                                    22874956.957 5  95039864.96105     -2640.221 5        33.311
E33        28.000    26994054.173 4 141854647.91104     -4108.101 4        27.437                                                                    26994039.555 5 105930427.65205     -3068.194 5        31.011    26994041.088 4                     -3148.185 4        27.928
E10        29.000    24053547.229 7 126402337.01307      -886.816 7        45.648                                                                    24053546.844 8  94391339.09008      -662.253 8        50.923    24053545.903 8  96853809.06208      -679.535 8        49.707
C20        31.000                                                                                                                                    21805869.389 7 113549042.40307      -639.324 7        47.209                                                                    21805863.915 7  92267776.49607      -519.609 7        47.121
R23        33.000    20558265.498 7 109973095.42607     -3273.961 7        46.707
R07        34.000    20414199.108 8 109278794.22308     -2954.638 8        49.300                                                                    20414193.472 6  84994799.81606     -2298.119 6        36.336
R22        35.000                                                                                                                                    22917746.896 5                     -4133.554 5        30.898
C32        36.000                                                                                                                                    24023577.998 6 125097090.78106     -3135.437 6        38.703                                                                    24023570.956 5 101651682.65705     -2547.830 5        31.977
R09        37.000    21066327.898 7 112492938.68807       295.889 7        44.861                                                                    21066320.200 6  87494564.14406       230.067 6        36.386
C23        40.000                                                                                                                                    24527543.836 6 127721339.91306     -1584.318 6        41.285                                                                    24527533.005 7 103784075.55607     -1287.512 7        43.151
C35        41.000                                                                                                                                    24511826.925 7 127639575.71707      -685.112 7        43.426                                                                    24511841.779 4 103717543.95404      -557.021 4        27.808
C37        42.000                                                                                                                                    23856633.719 6 124227897.68806      1200.631 6        39.192                                                                    23856640.356 5 100945222.94905       975.463 5        34.281
R24        43.000    21675423.798 6 115908077.09506      1206.600 6        37.921                                                                    21675417.729 7  90150808.56107       938.409 7        42.286
R01        44.000    23187368.995 5 123949848.49305      2359.397 5        31.351
C16        45.000                                                                                                                                    39347263.979 5 204891583.46905     -1729.217 5        33.096    39347248.121 5 158435071.50305     -1337.495 5        34.467
C39        46.000                                                                                                                                    40103793.399 4                     -1991.458 4        24.015                                                                    40103790.530 4                     -1618.074 4        27.605
C09        47.000                                                                                                                                    38531044.641 5 200641283.84905     -1254.416 5        31.826    38531082.036 5 155148665.33205      -970.448 5        33.748    38531042.417 5 163037458.72505     -1019.197 5        30.717
C19        48.000                                                                                                                                    24075922.016 7 125369630.50607      1470.965 7        45.830                                                                    24075916.711 6 101873078.14406      1195.193 6        39.354
C06        50.000                                                                                                                                    38783245.409 4                     -1691.137 4        26.467    38783250.391 5 156163932.95905     -1308.622 5        30.325    38783216.985 4                     -1374.515 4        29.166
C29        54.000                                                                                                                                    24396144.184 6 127037308.49006     -3461.890 6        37.025
I09        58.000    37613865.687 6 147604885.10806      -973.703 6        36.722
I06        59.000    37934891.028 6 148864667.84306      -588.600 6        36.302
> 2025 01 02 03 45 25.0000000  0 39
G03         1.000    22356393.119 6 117483625.05306     -3810.434 6        41.681                                    22356391.796 5  91545656.24105     -2969.167 5        34.143    22356391.838 6  91545692.21006     -2969.046 6        39.874
G20         4.000    24718246.978 5 129895348.16005      2589.946 5        30.377
G07         5.000    22534375.740 6 118418938.25306      2001.343 6        40.717                                    22534371.588 3  92274468.17303      1559.485 3        21.857    22534373.452 5                      1559.366 5        30.000
G09         6.000    19914925.876 8 104653642.02008      -601.145 8        48.946                                    19914922.386 7  81548306.63307      -468.424 7        44.901    19914922.737 6  81548293.61606      -468.395 6        38.363
G31        10.000    24810514.094 4                     -4463.562 4        27.413
E06        11.000    27278996.048 5                      1707.728 5        32.305                                                                    27279009.040 5                      1275.240 5        30.921
G04        12.000    20524982.371 7 107859558.44007     -2393.462 7        44.954                                    20524978.300 5  84046331.82305     -1865.035 5        33.826    20524979.611 7  84046355.81507     -1865.015 7        46.185
E12        13.000    24300171.226 6 127698284.76906     -2297.001 6        40.069                                                                    24300169.257 6  95359089.72806     -1715.465 6        37.119    24300168.807 6  97846740.29606     -1760.167 6        38.423
E29        14.000    25781327.902 6 135481786.67406     -3164.354 6        39.432                                                                    25781325.689 6 101171455.35906     -2363.117 6        40.412    25781327.033 6 103810755.59006     -2424.779 6        40.651
G06        15.000    21112947.117 8 110949275.23108      -835.138 8        50.220                                    21112943.898 7  86453971.12407      -650.757 7        45.947    21112945.544 6  86454069.12606      -650.671 6        40.596
E11        16.000    24999128.053 6 131371655.22106       665.505 6        40.086                                                                    24999123.020 7  98101954.35007       496.922 7        42.114    24999124.307 7 100661117.72007       509.843 7        42.387
E04        17.000    25075757.397 6 131773987.51706      1157.703 6        40.331                                                                    25075752.295 6  98402713.10106       864.537 6        37.202    25075753.285 6 100969684.07106       887.002 6        36.699
R08        18.000    19665326.426 7 105307103.58207        21.121 7        47.814                                                                    19665323.585 6  81905496.10706        16.486 6        41.335
E19        20.000    22894779.071 7 120312880.37507     -1440.127 7        44.316                                                                    22894776.251 7  89844045.61507     -1075.476 7        46.200    22894776.180 7  92187790.34007     -1103.532 7        47.969
S36        23.000    38143372.951 5 200444841.11805      -851.758 5        35.505
S23        24.000    38085663.523 6 200141467.32906      -847.747 6        40.448
G11        25.000    23020125.521 6 120971561.59406      1589.068 6        41.838                                    23020120.577 4  94263589.12204      1238.239 4        24.962    23020121.845 6  94263558.10806      1238.330 6        41.046
R16        26.000    22878215.280 4                     -3397.683 4        27.102                                                                    22878140.747 5  95053073.56615     -2643.014 5        34.467
E33        28.000                                                                                                                                    26997949.871 5 105945767.92005     -3068.053 5        31.147    26997950.051 4                     -3148.076 4        28.199
E10        29.000    24054391.944 7 126406777.41007      -889.055 7        45.329                                                                    24054391.863 8  94394654.96908      -663.844 8        51.115    24054390.840 8  96857211.44008      -681.196 8        49.691
C20        31.000                                                                                                                                    21806483.699 7 113552243.13407      -640.589 7        46.759                                                                    21806478.461 7  92270377.35007      -520.672 7        46.901
R23        33.000    20561328.813 7 109989475.25007     -3277.680 7        46.864
R07        34.000    20416957.707 8 109293571.48408     -2955.841 8        48.602                                                                    20416952.911 6  85006293.24206     -2299.042 6        36.212
R22        35.000    22922733.135 5                     -5315.207 5        32.030                                                                    22922727.971 5                     -4134.061 5        33.551
C32        36.000                                                                                                                                    24026589.152 6 125112770.45706     -3135.988 6        38.384                                                                    24026582.316 5 101664423.69105     -2548.716 5        31.947
R09        37.000    21066048.917 7 112491469.99407       291.929 7        44.001                                                                    21066040.561 5  87493421.78705       227.031 5        35.100
C23        40.000                                                                                                                                    24529068.425 7 127729269.11107     -1586.946 7        43.060                                                                    24529055.550 7 103790518.70507     -1289.779 7        42.916
C35        41.000                                                                                                                                    24512481.144 7 127643008.35307      -687.643 7        43.877                                                                    24512501.972 4 103720333.31804      -559.370 4        25.504
C37        42.000                                                                                                                                    23855481.356 6 124221900.19606      1198.741 6        39.252                                                                    23855488.706 5 100940349.53605       973.652 5        34.271
R24        43.000    21674294.724 5 115902054.04105      1202.425 5        34.786                                                                    21674291.630 7  90146123.98307       935.674 7        42.226
R01        44.000    23185161.289 4 123938051.78904      2359.236 4        28.389
C16        45.000                                                                                                                                    39348924.725 5 204900231.92205     -1730.009 5        33.168    39348908.873 5 158441759.00005     -1337.500 5        34.648
C39        46.000                                                                                                                                    40105705.277 3                     -1990.780 3        23.352                                                                    40105702.426 4                     -1617.858 4        26.970
C09        47.000                                                                                                                                    38532250.398 5 200647558.50005     -1255.006 5        31.487    38532284.248 5 155153517.28605      -970.733 5        33.425    38532247.835 5 163042557.37505     -1019.917 5        30.808
C19        48.000                                                                                                                                    24074509.949 7 125362277.74107      1470.453 7        46.251                                                                    24074504.614 6 101867103.43406      1194.565 6        38.378
C06        50.000                                                                                                                                    38784871.018 4                     -1692.077 4        26.347    38784874.457 5 156170474.41705     -1308.306 5        30.574    38784842.151 4                     -1375.339 4        29.498
C29        54.000                                                                                                                                    24399468.889 6 127054621.60606     -3463.124 6        37.456
I09        58.000    37615105.878 6 147609754.13906      -973.628 6        36.408
I06        59.000    37935641.501 6 148867610.45106      -588.097 6        36.185
> 2025 01 02 03 45 30.0000000  0 38
G03         1.000    22360019.922 7 117502682.58007     -3811.968 7        42.904                                    22360018.434 5  91560506.26605     -2970.359 5        35.024    22360017.785 6  91560542.23606     -2970.400 6        39.868
G20         4.000    24715783.463 4 129882401.59304      2589.082 4        29.564                                    24715772.305 1 101206956.66911      2017.446 1         5.857
G07         5.000    22532473.420 6 118408936.95106      1999.595 6        40.541                                    22532469.020 3  92266674.94203      1558.122 3        23.638    22532470.160 5                      1557.953 5        32.371
G09         6.000    19915499.384 8 104656654.97108      -603.565 8        49.278                                    19915495.063 7  81550654.38307      -470.310 7        45.094    19915496.841 6  81550641.35806      -470.226 6        38.084
G31        10.000    24814763.987 4                     -4465.101 4        26.180
