     3.04           OBSERVATION DATA    M                   RINEX VERSION / TYPE
ssrcrin-15.6.1x                         20250102 060000 UTC PGM / RUN BY / DATE 
(00000000023479385599111004) Septentrio proprietary         COMMENT             
ract                                                        MARKER NAME         
01                                                          MARKER NUMBER       
geodetic                                                    MARKER TYPE         
NFB                 CLIMERS@TUW                             OBSERVER / AGENCY   
3296359             SEPT ASTERX SB3 PROB4.14.4              REC # / TYPE / VERS 
Unknown             Unknown                                 ANT # / TYPE        
  4127445.6171  1206914.3115  4695542.2129                  APPROX POSITION XYZ 
        0.0000        0.0000        0.0000                  ANTENNA: DELTA H/E/N
G   23 X1  C1C L1C D1C S1C C1W S1W C2W L2W D2W S2W C2L L2L  SYS / # / OBS TYPES 
       D2L S2L C5Q L5Q D5Q S5Q C1L L1L D1L S1L              SYS / # / OBS TYPES 
E   21 X1  C1C L1C D1C S1C C6C L6C D6C S6C C5Q L5Q D5Q S5Q  SYS / # / OBS TYPES 
       C7Q L7Q D7Q S7Q C8Q L8Q D8Q S8Q                      SYS / # / OBS TYPES 
S    9 X1  C1C L1C D1C S1C C5I L5I D5I S5I                  SYS / # / OBS TYPES 
R   17 X1  C1C L1C D1C S1C C2P L2P D2P S2P C2C L2C D2C S2C  SYS / # / OBS TYPES 
       C3Q L3Q D3Q S3Q                                      SYS / # / OBS TYPES 
C   25 X1  C1P L1P D1P S1P C5P L5P D5P S5P C2I L2I D2I S2I  SYS / # / OBS TYPES 
       C7I L7I D7I S7I C6I L6I D6I S6I C7D L7D D7D S7D      SYS / # / OBS TYPES 
J   17 X1  C1C L1C D1C S1C C2L L2L D2L S2L C5Q L5Q D5Q S5Q  SYS / # / OBS TYPES 
       C1L L1L D1L S1L                                      SYS / # / OBS TYPES 
I    5 X1  C5A L5A D5A S5A                                  SYS / # / OBS TYPES 
SEPTENTRIO RECEIVERS OUTPUT ALIGNED CARRIER PHASES.         COMMENT             
NO FURTHER PHASE SHIFT APPLIED IN THE RINEX ENCODER.        COMMENT             
G L1C                                                       SYS / PHASE SHIFT   
G L2W                                                       SYS / PHASE SHIFT   
G L2L  0.00000                                              SYS / PHASE SHIFT   
G L5Q  0.00000                                              SYS / PHASE SHIFT   
G L1L  0.00000                                              SYS / PHASE SHIFT   
E L1C  0.00000                                              SYS / PHASE SHIFT   
E L6C  0.00000                                              SYS / PHASE SHIFT   
E L5Q  0.00000                                              SYS / PHASE SHIFT   
E L7Q  0.00000                                              SYS / PHASE SHIFT   
E L8Q  0.00000                                              SYS / PHASE SHIFT   
S L1C                                                       SYS / PHASE SHIFT   
S L5I                                                       SYS / PHASE SHIFT   
R L1C                                                       SYS / PHASE SHIFT   
R L2P  0.00000                                              SYS / PHASE SHIFT   
R L2C                                                       SYS / PHASE SHIFT   
R L3Q  0.00000                                              SYS / PHASE SHIFT   
C L1P  0.00000                                              SYS / PHASE SHIFT   
C L5P  0.00000                                              SYS / PHASE SHIFT   
C L2I                                                       SYS / PHASE SHIFT   
C L7I                                                       SYS / PHASE SHIFT   
C L6I                                                       SYS / PHASE SHIFT   
C L7D                                                       SYS / PHASE SHIFT   
J L1C                                                       SYS / PHASE SHIFT   
J L2L  0.00000                                              SYS / PHASE SHIFT   
J L5Q  0.00000                                              SYS / PHASE SHIFT   
J L1L  0.00000                                              SYS / PHASE SHIFT   
I L5A                                                       SYS / PHASE SHIFT   
  2025     1     2     6     0    0.0000000     GPS         TIME OF FIRST OBS   
 C1C    0.000 C2C    0.000 C2P    0.000                     GLONASS COD/PHS/BIS 
DBHZ                                                        SIGNAL STRENGTH UNIT
    18                                                      LEAP SECONDS        
 24 R01  1 R02 -4 R03  5 R04  6 R05  1 R06 -4 R07  5 R08  6 GLONASS SLOT / FRQ #
    R09 -2 R10 -7 R11  0 R12 -1 R13 -2 R14 -7 R15  0 R16 -1 GLONASS SLOT / FRQ #
    R17  4 R18 -3 R19  3 R20  2 R21  4 R22 -3 R23  3 R24  2 GLONASS SLOT / FRQ #
                                                            END OF HEADER       
> 2025 01 02 06 00  0.0000000  0 37
G13         1.000    23834504.955 5                      2375.245 5        31.449
G20         4.000    20823247.522 7 109427396.19407        47.551 7        46.069                                    20823242.841 3  85267729.52103        37.044 3        22.114
G07         5.000    20943038.631 7 110056436.54507     -1659.433 7        46.616                                    20943034.363 7  85758271.24207     -1293.065 7        46.056    20943034.076 7  85758217.23807     -1293.116 7        46.790
G09         6.000    22041773.025 6 115830652.69006     -3429.810 6        38.997                                    22041765.797 3  90257368.59403     -2672.567 3        23.257
G30         7.000    20895774.901 7 109808063.07307       662.800 7        46.411                                    20895770.964 5  85564646.72905       516.458 5        33.216    20895773.044 5  85564694.75905       516.703 5        33.653
E21        10.000    25818937.070 6 135679475.51906      -783.300 6        37.463                                                                    25818937.385 7 101319064.07107      -584.988 7        47.536    25818935.597 7 103962185.43707      -600.214 7        45.404
E06        11.000    24251755.206 7 127443833.74807       594.891 7        45.275                                                                    24251752.480 6  95169133.51306       444.139 6        40.434    24251754.671 7  97651784.14307       455.816 7        44.549
G05        14.000    22699989.525 6 119289530.14006      2129.440 6        40.191                                    22699983.342 5  92952856.22305      1659.312 5        31.547    22699986.162 6  92952667.22006      1659.360 6        40.727
G06        15.000    24636024.684 5 129463192.48105     -4368.800 5        35.133                                    24636024.878 3 100880378.93503     -3404.258 3        19.910    24636025.868 5 100880398.88105     -3404.099 5        33.162
E11        16.000    25719072.640 5 135154638.53305     -3080.925 5        33.305                                                                    25719067.724 5 100927164.18905     -2300.636 5        31.042    25719071.595 5 103560093.84705     -2360.437 5        32.814
E04        17.000    23384295.244 7 122885338.72707      -525.870 7        47.485                                                                    23384293.408 8  91765059.21108      -392.679 8        49.389    23384293.114 8  94158860.20808      -402.920 8        48.972
R08        18.000    20859990.328 6                     -3236.495 6        36.000
E19        20.000    25137544.579 4 132098689.14404     -2840.471 4        28.512                                                                    25137543.425 5  98645129.78505     -2121.310 5        32.150    25137543.982 5 101218505.43605     -2176.333 5        33.425
E09        21.000    26147919.535 7 137408239.92107      1279.590 7        42.347                                                                    26147919.077 6 102610055.97806       955.495 6        40.098    26147938.123 5 105286850.07705       980.626 5        35.238
E36        22.000    26110704.275 6 137212719.52106      -579.953 6        38.745                                                                    26110705.539 6 102464018.81106      -432.894 6        38.589    26110708.061 7 105136985.90907      -444.305 7        43.712
S36        23.000    38249474.914 5 201002462.18205      -851.979 5        33.695
S23        24.000    38185788.518 6 200667662.33206      -848.221 6        39.997
G11        25.000    23164035.353 6 121727998.79106     -3276.141 6        39.318                                    23164029.793 1  94852822.06301     -2552.859 1         7.250
R17        27.000    22469350.939 6 120238158.66706     -2072.417 6        41.716                                                                    22469350.550 6  93518406.17406     -1611.842 6        38.309
R18        28.000                                                                                                                                    23513865.012 5  97625591.00905       790.921 5        34.290
E10        29.000    26941320.167 4 141577412.44704     -3910.631 4        26.659                                                                    26941280.115 5 105723367.46205     -2920.449 5        31.743    26941282.427 5 108481377.07605     -2996.684 5        34.838
R11        30.000    19825746.872 6 105942783.75306      1079.275 6        41.128                                                                    19825746.543 6  82399934.73506       839.416 6        41.487
C20        31.000                                                                                                                                    23487267.384 7 122304324.17107     -3084.579 7        43.503                                                                    23487257.422 4  99382292.31404     -2506.728 4        27.641
R10        32.000    20861486.603 6 111203589.97206     -3281.503 6        37.939
C36        34.000                                                                                                                                    24635438.528 7 128283168.93707      2461.375 7        42.540                                                                    24635444.984 6 104240631.55506      2000.033 6        41.640
R02        35.000    22696247.585 7 121111532.63507      2564.882 7        45.735                                                                    22696245.559 5  94198012.48505      1994.860 5        31.019
R12        38.000    23464712.883 4 125344289.61604      3725.072 4        28.626
C05        40.000                                                                                                                                                                                                    39285834.283 5 158187765.70305      -699.388 5        34.852
C37        42.000                                                                                                                                    24050828.445 6 125239116.43106     -2958.688 6        41.004                                                                    24050830.922 6 101767003.82306     -2404.163 6        39.075
R24        43.000    23680357.134 5 126629530.51605     -4597.681 5        34.414                                                                    23680347.552 3                     -3573.038 3        21.667
R01        44.000    19520265.521 7 104347012.01607       410.093 7        47.763                                                                    19520262.626 6  81158769.37506       318.925 6        36.571
C09        47.000                                                                                                                                    39690292.726 4 206677775.19604     -1641.896 4        29.005    39690298.481 5 159816443.39805     -1269.722 5        30.936    39690290.929 4                     -1334.051 4        29.488
C19        48.000                                                                                                                                    21873616.816 7 113901822.06307      -529.676 7        47.288                                                                    21873610.966 7  92554412.38507      -430.523 7        47.297
C22        51.000                                                                                                                                    24193264.179 4 125980626.27504      1870.246 4        29.412                                                                    24193250.617 5 102369582.17905      1519.740 5        33.084
C44        52.000                                                                                                                                    26328105.779 3                     -2532.638 3        21.690
C12        54.000                                                                                                                                    26366260.844 6 137296052.43406     -1417.191 6        41.025    26366254.136 6 106166091.36106     -1095.973 6        38.844    26366251.529 6 111564239.61206     -1151.726 6        37.248
I09        59.000    38606008.870 5 151498275.98605     -1158.740 5        35.657
> 2025 01 02 06 00  5.0000000  0 36
G20         4.000    20823204.044 7 109427166.70207        44.348 7        46.760                                    20823198.975 3  85267550.68003        34.557 3        21.381
G07         5.000    20944618.228 7 110064739.52307     -1661.717 7        46.377                                    20944614.362 7  85764741.09307     -1294.844 7        46.043    20944613.958 7  85764687.08407     -1294.791 7        46.770
G09         6.000    22045038.254 6 115847805.24906     -3431.159 6        40.148                                    22045028.374 3  90270734.18203     -2673.607 3        22.895    22045024.129 4  90270763.18714     -2673.823 4        28.133
G30         7.000    20895145.756 7 109804755.37207       660.270 7        45.425                                    20895140.966 5  85562069.33205       514.489 5        33.251    20895142.085 5  85562117.37305       514.610 5        33.383
E21        10.000    25819684.228 6 135683398.66106      -786.087 6        38.225                                                                    25819683.824 7 101321993.69207      -586.900 7        47.500    25819682.166 7 103965191.49007      -602.246 7        45.470
E06        11.000    24251189.433 7 127440861.94107       593.850 7        44.554                                                                    24251187.071 6  95166914.30206       443.460 6        40.961    24251189.202 7  97649507.03607       455.128 7        44.330
G05        14.000    22697963.866 6 119278887.49106      2127.671 6        41.206                                    22697958.507 5  92944563.25705      1657.925 5        32.413    22697960.961 6  92944374.26406      1657.839 6        41.285
G06        15.000    24640182.465 5 129485037.76705     -4369.119 5        35.267                                    24640181.555 3 100897401.22403     -3404.522 3        20.143    24640181.517 5 100897421.20105     -3404.777 5        32.575
E11        16.000    25722005.774 5 135170046.68305     -3082.350 5        32.425                                                                    25722000.425 5 100938670.27605     -2301.568 5        31.623    25722004.549 5 103571900.12305     -2361.730 5        33.024
E04        17.000    23384796.376 7 122887971.05107      -527.029 7        47.482                                                                    23384794.309 8  91767024.89908      -393.543 8        49.621    23384794.112 8  94160877.18108      -403.849 8        48.968
R08        18.000    20863014.886 6 111720493.91316     -3238.478 6        37.845
E19        20.000    25140248.107 4 132112893.43404     -2841.177 4        29.498                                                                    25140246.242 5  98655736.87705     -2121.667 5        31.570    25140246.961 5 101229389.23705     -2176.791 5        33.527
E09        21.000    26146702.183 6 137401843.69006      1279.021 6        41.704                                                                    26146701.901 6 102605279.56606       955.173 6        39.811    26146721.427 6 105281949.06106       979.974 6        36.113
E36        22.000    26111257.271 6 137215626.40106      -582.586 6        36.794                                                                    26111259.004 6 102466189.55306      -435.186 6        38.384    26111261.548 7 105139213.27307      -446.485 7        43.661
S36        23.000    38250276.255 5 201006721.70405      -851.734 5        33.748
S23        24.000    38186595.342 6 200671904.44506      -848.615 6        39.568
G11        25.000    23167153.744 6 121744386.22106     -3278.578 6        38.967                                    23167147.869 1  94865591.47401     -2554.644 1         7.125    23167170.093 5                     -2554.673 5        30.460
R17        27.000    22471287.529 7 120248531.10807     -2076.667 7        42.059                                                                    22471290.650 6  93526473.63606     -1615.262 6        36.325
R18        28.000    23512924.302 5 125513586.70215      1012.773 5        35.481                                                                    23512916.113 5  97621644.76105       787.543 5        32.198
E10        29.000    26945042.297 4 141596969.38504     -3911.711 4        24.992                                                                    26945000.456 5 105737971.57205     -2920.964 5        31.155    26945003.688 5 108496362.21105     -2997.193 5        35.243
R11        30.000    19824739.903 6 105937398.46506      1075.003 6        40.772                                                                    19824739.167 7  82395746.16107       835.941 7        42.184
C20        31.000                                                                                                                                    23490230.668 7 122319750.95707     -3086.173 7        43.970                                                                    23490220.699 4  99394827.83504     -2507.444 4        26.683
R10        32.000    20864569.275 6 111220007.21706     -3285.344 6        36.896
C36        34.000                                                                                                                                    24633077.204 7 128270864.79607      2460.374 7        43.655                                                                    24633082.043 6 104230633.47206      1999.239 6        41.459
R02        35.000    22693843.891 7 121098709.66507      2564.404 7        45.713                                                                    22693840.510 5  94188039.09105      1994.349 5        30.626
R12        38.000    23461227.530 4 125325665.52504      3724.729 4        28.938
C05        40.000                                                                                                                                                                                                    39286703.281 5 158191263.47205      -699.432 5        35.371
C37        42.000                                                                                                                                    24053670.524 6 125253915.67906     -2960.877 6        40.818                                                                    24053672.730 6 101779029.44106     -2406.013 6        39.294
R24        43.000    23684651.500 5 126652522.40805     -4598.776 5        35.929
R01        44.000    19519883.988 8 104344967.39608       407.765 8        48.912                                                                    19519881.607 6  81157179.09306       316.944 6        37.369
C09        47.000                                                                                                                                    39691867.210 4 206685984.51604     -1641.600 4        27.377    39691877.123 5 159822791.39905     -1269.212 5        30.468    39691868.262 4                     -1334.052 4        29.877
C19        48.000                                                                                                                                    21874126.234 7 113904475.87007      -531.747 7        47.089                                                                    21874120.495 7  92556568.83607      -432.127 7        47.161
C22        51.000                                                                                                                                    24191466.145 4 125971276.73704      1869.366 4        27.497                                                                    24191455.539 5 102361984.90005      1519.050 5        33.653
C44        52.000                                                                                                                                    26330545.716 4                     -2533.424 4        26.455
C12        54.000                                                                                                                                    26367621.314 6 137303145.83806     -1420.005 6        40.117    26367616.344 6 106171576.44106     -1098.097 6        39.162    26367613.403 6 111570003.60906     -1153.938 6        37.240
I09        59.000    38607484.672 5 151504070.06205     -1159.009 5        35.143
> 2025 01 02 06 00 10.0000000  0 37
G13         1.000    23830007.344 5                      2374.446 5        31.555
G16         2.000    24858865.771 4                     -3699.636 4        24.226
G20         4.000    20823163.544 7 109426952.69607        41.359 7        47.279                                    20823157.907 3  85267383.92703        32.214 3        21.000
G07         5.000    20946200.274 7 110073053.09207     -1663.624 7        46.463                                    20946196.373 7  85771219.19407     -1296.331 7        46.087    20946195.811 7  85771165.18607     -1296.326 7        46.580
G09         6.000    22048305.842 6 115864963.57506     -3432.083 6        40.279                                    22048292.452 3  90284104.25303     -2674.349 3        22.114    22048294.696 4  90284133.28904     -2674.439 4        25.083
G30         7.000    20894518.856 7 109801459.40707       658.144 7        45.603                                    20894513.490 5  85559501.07005       512.841 5        34.057    20894514.538 5  85559549.07105       512.744 5        34.071
E21        10.000    25820432.902 6 135687334.12506      -788.138 6        39.183                                                                    25820432.549 7 101324932.52107      -588.597 7        47.384    25820430.990 7 103968206.98607      -603.866 7        45.517
E06        11.000    24250624.501 7 127437894.18807       593.308 7        43.740                                                                    24250622.578 6  95164698.11206       443.112 6        41.342    24250624.509 7  97647233.04207       454.568 7        44.572
G05        14.000    22695942.985 6 119268253.67106      2126.068 6        41.566                                    22695935.388 5  92936277.15605      1656.672 5        33.802    22695937.783 6  92936088.16806      1656.661 6        41.664
G06        15.000    24644340.363 5 129506883.75405     -4369.275 5        35.624                                    24644338.447 3 100914424.07003     -3404.640 3        19.612    24644339.073 5 100914443.97905     -3404.431 5        32.192
E11        16.000    25724939.886 5 135185463.33505     -3084.349 5        30.694                                                                    25724936.027 5 100950182.71505     -2303.150 5        32.138    25724939.220 5 103583712.89805     -2362.854 5        32.742
E04        17.000    23385298.194 7 122890608.57607      -527.804 7        46.970                                                                    23385296.172 8  91768994.46808      -394.100 8        49.597    23385296.013 8  94162898.12608      -404.388 8        49.046
R08        18.000    20866041.666 6 111736690.75616     -3240.144 6        39.526                                                                    20866038.572 5                     -2519.383 5        34.105
E19        20.000    25142952.574 4 132127100.53504     -2841.250 4        29.014                                                                    25142949.163 5  98666346.02405     -2121.663 5        30.672    25142950.989 5 101240275.19705     -2177.309 5        33.778
E09        21.000    26145484.459 6 137395449.57506      1278.759 6        40.791                                                                    26145484.805 6 102600504.72606       955.111 6        39.012    26145505.978 5 105277049.64105       980.036 5        35.486
E36        22.000    26111813.139 5 137218546.08705      -585.071 5        35.833                                                                    26111814.435 6 102468369.82006      -436.985 6        38.108    26111817.168 7 105141450.41107      -448.322 7        43.530
S36        23.000    38251087.121 5 201010981.19705      -851.725 5        34.462
S23        24.000    38187398.467 6 200676146.40206      -848.334 6        39.240
G11        25.000    23170276.119 6 121760784.23906     -3280.374 6        38.372                                    23170268.757 1  94878369.17001     -2556.352 1         4.857    23170290.011 5                     -2556.164 5        31.706
R17        27.000    22473226.846 7 120258924.08007     -2080.526 7        42.004                                                                    22473239.442 6  93534557.01006     -1618.093 6        36.352
R18        28.000    23511981.082 5 125508531.93505      1009.275 5        35.719                                                                    23511966.463 5  97617713.27505       785.000 5        32.557
E10        29.000                                                                                                                                    26948722.197 5 105752577.99705     -2920.976 5        30.091    26948726.365 5 108511349.69605     -2997.752 5        35.357
R11        30.000    19823736.465 6 105932033.79806      1070.945 6        39.685                                                                    19823735.084 7  82391573.63107       833.099 7        42.988
C20        31.000                                                                                                                                    23493195.305 7 122335184.74207     -3087.310 7        43.754                                                                    23493187.262 4  99407369.02004     -2509.009 4        27.006
R10        32.000    20867649.119 5 111236442.51005     -3288.688 5        33.557
C36        34.000                                                                                                                                    24630716.268 7 128258564.84907      2459.706 7        44.420                                                                    24630720.298 6 104220638.74106      1998.771 6        41.774
R02        35.000    22691442.119 7 121085887.85307      2564.309 7        47.279                                                                    22691433.688 4  94178066.47904      1994.569 4        28.246
R12        38.000    23457741.905 5 125307044.10705      3723.803 5        31.004
C05        40.000                                                                                                                                                                                                    39287570.825 5 158194761.21505      -699.564 5        35.329
C37        42.000                                                                                                                                    24056514.100 6 125268724.76906     -2962.711 6        40.684                                                                    24056516.449 6 101791062.99806     -2407.289 6        39.589
R24        43.000    23688953.542 6 126675519.92406     -4600.033 6        36.805                                                                    23688935.665 3                     -3577.664 3        22.648
R01        44.000    19519503.603 8 104342934.32008       405.639 8        48.735                                                                    19519501.887 6  81155597.79106       315.541 6        38.153
C09        47.000                                                                                                                                    39693444.932 4 206694193.75004     -1641.105 4        24.406    39693453.844 5 159829139.19705     -1269.371 5        30.709    39693444.702 5                     -1334.176 5        30.166
C19        48.000                                                                                                                                    21874637.497 7 113907139.17607      -533.463 7        47.670                                                                    21874631.950 7  92558732.96807      -433.397 7        47.212
C22        51.000                                                                                                                                    24189669.741 4 125961930.20904      1869.486 4        27.461                                                                    24189660.469 5 102354390.06205      1518.676 5        33.910
C12        54.000                                                                                                                                    26368983.796 6 137310252.19206     -1422.475 6        39.081    26368981.249 6 106177071.50806     -1099.810 6        39.802    26368978.458 6 111575778.08506     -1155.989 6        36.873
I09        59.000    38608963.178 5 151509864.57805     -1158.677 5        34.890
> 2025 01 02 06 00 15.0000000  0 38
G13         1.000    23827749.876 5                      2373.723 5        34.838
G20         4.000    20823125.626 7 109426753.98607        37.845 7        47.166                                    20823119.264 3  85267229.11003        29.484 3        20.976
G07         5.000    20947784.625 7 110081377.09407     -1666.147 7        46.329                                    20947780.364 7  85777705.42607     -1298.296 7        45.819    20947779.490 7  85777651.42507     -1298.380 7        46.189
G09         6.000    22051570.795 6 115882127.58006     -3433.606 6        39.027                                    22051558.195 3  90297478.77203     -2675.524 3        21.571    22051560.073 4  90297507.85204     -2676.265 4        25.203
G30         7.000    20893894.407 7 109798175.00307       655.376 7        45.315                                    20893888.442 5  85556941.80005       510.682 5        34.152    20893890.564 5  85556989.79205       510.518 5        32.150
E21        10.000    25821184.684 6 135691281.75206      -791.086 6        40.002                                                                    25821183.662 7 101327880.43707      -590.672 7        47.299    25821182.158 7 103971231.82107      -606.200 7        45.758
E06        11.000    24250060.835 7 127434930.33207       592.010 7        43.109                                                                    24250059.074 7  95162484.83307       442.217 7        42.133    24250060.466 7  97644962.02407       453.670 7        44.340
G05        14.000    22693921.664 6 119257628.57106      2123.894 6        40.973                                    22693913.978 5  92927997.85105      1654.983 5        35.000    22693915.538 6  92927808.86306      1654.849 6        41.373
G06        15.000    24648496.149 5 129528730.21105     -4369.568 5        34.924                                    24648495.200 3 100931447.23803     -3404.848 3        19.164    24648496.642 5 100931467.18805     -3405.079 5        32.245
E11        16.000    25727874.023 4 135200888.31704     -3086.197 4        29.972                                                                    25727871.169 5 100961701.40005     -2304.586 5        33.096    25727874.868 5 103595532.09605     -2364.539 5        33.557
E04        17.000    23385800.936 7 122893251.17907      -529.371 7        46.876                                                                    23385799.012 8  91770967.83708      -395.276 8        49.702    23385798.746 8  94164922.96908      -405.610 8        49.064
R08        18.000    20869068.164 6 111752897.34906     -3242.589 6        39.928                                                                    20869068.372 6  86918918.20316     -2521.912 6        36.408
E19        20.000    25145656.821 4 132141310.19804     -2842.128 4        29.877                                                                    25145652.060 5  98676957.14905     -2122.609 5        30.566    25145655.257 5 101251163.12105     -2178.134 5        33.641
E09        21.000    26144268.277 6 137389057.45706      1277.969 6        39.405                                                                    26144268.484 6 102595731.38606       954.433 6        38.510    26144289.043 5 105272151.75405       979.400 5        33.754
E36        22.000    26112370.161 5 137221478.34205      -587.774 5        33.850                                                                    26112372.305 6 102470559.50306      -439.136 6        37.641    26112375.514 7 105143697.20907      -450.566 7        43.640
S36        23.000    38251890.283 5 201015240.80205      -851.961 5        33.150
S23        24.000    38188211.663 6 200680388.09206      -848.517 6        39.090
G11        25.000    23173404.256 6 121777192.71906     -3283.111 6        36.488                                    23173391.546 1  94891155.06201     -2558.284 1         4.714    23173412.491 5                     -2558.013 5        34.048
R17        27.000    22475172.856 6 120269337.52806     -2085.102 6        41.483                                                                    22475185.134 5  93542656.33505     -1621.581 5        35.100
R18        28.000    23511040.217 5 125503496.15405      1004.906 5        34.362                                                                    23511028.124 4  97613796.34004       782.025 4        29.858
E10        29.000                                                                                                                                    26952445.834 5 105767186.60405     -2921.930 5        30.913    26952449.792 5 108526339.43505     -2998.466 5        35.676
R11        30.000    19822737.784 6 105926689.52006      1066.474 6        39.084                                                                    19822734.619 7  82387417.01107       829.473 7        43.219
C20        31.000                                                                                                                                    23496160.712 7 122350625.37307     -3089.214 7        44.095                                                                    23496154.272 4  99419915.79504     -2509.738 4        27.245
R10        32.000    20870733.913 5 111252895.90905     -3292.910 5        31.426
C36        34.000                                                                                                                                    24628354.266 7 128246268.94007      2458.391 7        44.602                                                                    24628358.823 6 104210647.28306      1997.699 6        41.733
R02        35.000    22689040.217 7 121073067.17207      2563.785 7        46.991                                                                    22689032.233 4  94168094.84504      1994.162 4        26.707
R09        37.000    24255850.512 3                     -5061.222 3        19.373
R12        38.000    23454259.838 5 125288424.95205      3723.486 5        30.309
C05        40.000                                                                                                                                                                                                    39288439.504 5 158198258.77305      -699.895 5        35.609
C37        42.000                                                                                                                                    24059357.885 6 125283543.53706     -2965.011 6        37.841                                                                    24059361.696 6 101803104.41806     -2409.254 6        39.429
R24        43.000    23693259.615 6 126698522.95806     -4601.556 6        36.749                                                                    23693242.933 3                     -3580.178 3        22.933
R01        44.000    19519123.864 7 104340912.53007       402.886 7        47.492                                                                    19519123.554 6  81154025.31006       313.304 6        38.108
C09        47.000                                                                                                                                    39695022.485 4 206702402.61804     -1641.655 4        26.958    39695031.923 5 159835486.92905     -1269.645 5        30.883    39695022.312 4                     -1334.470 4        29.327
C19        48.000                                                                                                                                    21875151.103 8 113909811.84908      -535.843 8        48.515                                                                    21875145.176 7  92560904.72007      -435.309 7        46.870
C22        51.000                                                                                                                                    24187875.676 4 125952586.54704      1868.228 4        29.725                                                                    24187865.276 5 102346797.53405      1518.067 5        33.479
C44        52.000                                                                                                                                    26335439.933 5                     -2537.266 5        31.004
C12        54.000                                                                                                                                    26370351.478 6 137317371.40506     -1425.482 6        37.709    26370348.723 6 106182576.52706     -1102.195 6        40.083    26370345.100 6 111581563.00506     -1158.296 6        36.253
I09        59.000    38610437.978 5 151515659.51305     -1159.209 5        34.381
> 2025 01 02 06 00 20.0000000  0 37
G13         1.000    23825489.384 5 125203802.99415      2373.549 5        34.857
G20         4.000    20823090.513 7 109426571.32407        35.108 7        46.783                                    20823083.289 3  85267086.80503        27.350 3        21.667
G07         5.000    20949370.526 7 110089712.27807     -1668.009 7        46.570                                    20949366.520 7  85784200.36407     -1299.745 7        45.535    20949365.836 7  85784146.36207     -1299.805 7        45.923
G09         6.000    22054836.660 6 115899297.96306     -3434.665 6        39.249                                    22054825.542 3  90310858.24103     -2676.344 3        20.333    22054836.068 4  90310887.23404     -2675.291 4        26.192
G30         7.000    20893271.540 7 109794902.88707       653.359 7        46.163                                    20893265.894 5  85554392.10905       509.102 5        34.976    20893268.879 5  85554440.13705       509.100 5        32.006
E21        10.000    25821937.361 6 135695242.31706      -793.316 6        39.342                                                                    25821937.179 7 101330837.99207      -592.360 7        47.143    25821936.081 7 103974266.53007      -607.858 7        45.660
E06        11.000    24249497.871 6 127431971.10206       591.552 6        41.647                                                                    24249496.229 6  95160275.02006       441.610 6        41.671    24249497.382 7  97642694.55007       453.272 7        44.081
G05        14.000    22691901.663 6 119247013.13506      2122.254 6        40.439                                    22691894.387 6  92919726.08006      1653.700 6        36.480    22691895.617 6  92919537.08306      1653.698 6        41.340
G06        15.000    24652653.499 5 129550577.88505     -4369.581 5        33.581                                    24652652.485 3 100948471.38003     -3404.850 3        18.866    24652653.053 5 100948491.36205     -3404.757 5        32.096
E11        16.000    25730809.072 4 135216322.38604     -3086.829 4        28.360                                                                    25730806.995 5 100973226.80005     -2305.307 5        32.036    25730812.956 5 103607358.22905     -2365.733 5        33.048
E04        17.000    23386304.902 7 122895899.56607      -530.166 7        46.356                                                                    23386303.032 8  91772945.53108      -395.840 8        49.836    23386302.581 8  94166952.25408      -406.186 8        48.745
R08        18.000    20872094.931 6 111769114.28406     -3244.528 6        37.043                                                                    20872098.884 6  86931531.32606     -2523.439 6        38.874
E19        20.000    25148363.122 5 132155523.21205     -2842.750 5        31.034                                                                    25148356.241 4  98687570.77904     -2122.910 4        29.498    25148360.307 5 101262053.62705     -2178.162 5        33.497
E09        21.000    26143052.472 6 137382668.03406      1277.826 6        37.490                                                                    26143052.764 6 102590960.08206       953.916 6        38.919    26143069.838 5 105267255.92005       978.900 5        32.353
E36        22.000    26112932.694 5 137224423.92805      -590.525 5        33.341                                                                    26112932.663 6 102472759.13706      -440.837 6        37.338    26112935.898 7 105145954.22207      -452.207 7        42.688
S36        23.000    38252700.787 5 201019500.95605      -852.331 5        32.509
S23        24.000    38189008.019 6 200684630.42806      -848.421 6        38.508
G11        25.000    23176525.997 6 121793612.30306     -3284.714 6        37.603                                    23176516.450 1  94903949.41801     -2559.495 1         6.500    23176535.003 5  94904045.39915     -2559.688 5        32.228
R17        27.000    22477122.877 6 120279772.19806     -2088.866 6        41.487                                                                    22477136.887 5  93550772.18005     -1624.620 5        33.186
R18        28.000    23510096.902 6 125498479.95406      1001.142 6        36.450                                                                    23510090.474 4  97609894.76004       779.186 4        29.052
E10        29.000    26956184.193 4                     -3913.324 4        25.925                                                                    26956172.119 5 105781797.94905     -2922.645 5        32.437    26956172.614 5 108541331.95205     -2998.470 5        35.100
R11        30.000    19821741.657 6 105921366.51506      1062.573 6        40.293                                                                    19821738.358 7  82383276.89007       826.466 7        43.448
C20        31.000                                                                                                                                    23499127.426 7 122366073.56207     -3090.262 7        46.353                                                                    23499124.291 5  99432468.81205     -2511.407 5        30.000
R10        32.000    20873827.005 5 111269368.22305     -3296.335 5        32.916
C36        34.000                                                                                                                                    24625993.351 7 128233977.78807      2457.944 7        45.311                                                                    24625998.449 7 104200659.72907      1997.299 7        42.066
R02        35.000    22686636.646 7 121060248.36707      2563.619 7        46.344                                                                    22686632.564 4  94158124.68504      1993.825 4        28.095
R12        38.000    23450774.667 5 125269808.90605      3723.223 5        30.038
C05        40.000                                                                                                                                                                                                    39289308.251 5 158201756.72105      -699.832 5        34.386
C37        42.000                                                                                                                                    24062206.236 6 125298372.71106     -2966.903 6        36.427                                                                    24062209.812 6 101815154.30106     -2410.672 6        39.676
R24        43.000    23697561.570 5 126721532.10505     -4602.277 5        32.946                                                                    23697544.728 3                     -3578.747 3        21.857
R01        44.000    19518746.577 7 104338902.77607       400.875 7        46.640                                                                    19518746.509 6  81152462.15706       311.871 6        38.024
C09        47.000                                                                                                                                    39696603.054 4 206710612.02704     -1641.629 4        28.427    39696611.814 5 159841834.95005     -1269.582 5        32.060    39696600.057 4                     -1333.950 4        28.085
C19        48.000                                                                                                                                    21875666.233 8 113912494.59108      -537.426 8        48.919                                                                    21875660.269 7  92563084.69207      -436.641 7        46.691
C22        51.000                                                                                                                                    24186079.910 5 125943246.44705      1867.830 5        31.577                                                                    24186072.363 5 102339207.97005      1517.874 5        35.419
C44        52.000                                                                                                                                    26337873.864 5                     -2539.124 5        32.186
C12        54.000                                                                                                                                    26371721.915 6 137324504.13606     -1427.796 6        38.165    26371718.436 6 106188092.01406     -1104.123 6        39.529    26371713.523 5 111587358.92305     -1160.135 5        35.976
I09        59.000    38611915.095 5 151521455.38305     -1159.252 5        35.143
> 2025 01 02 06 00 25.0000000  0 37
G13         1.000    23823231.248 5 125191937.49405      2372.569 5        35.086
G20         4.000    20823058.424 7 109426404.28907        31.833 7        46.685                                    20823051.129 3  85266956.64703        24.806 3        22.686
G07         5.000    20950958.527 7 110098058.18907     -1670.277 7        46.389                                    20950954.684 7  85790703.66607     -1301.512 7        45.523    20950953.951 7  85790649.65107     -1301.532 7        45.505
G09         6.000    22058105.045 6 115916474.32706     -3435.758 6        37.047                                    22058095.251 2  90324242.33702     -2677.167 2        17.509    22058112.411 4  90324271.38004     -2677.196 4        28.957
G30         7.000    20892651.024 7 109791642.64507       650.866 7        46.024                                    20892645.765 5  85551851.66305       507.164 5        35.981    20892649.331 5  85551899.69805       507.317 5        34.762
E21        10.000    25822692.954 6 135699215.32906      -796.015 6        37.970                                                                    25822693.189 7 101333804.85007      -594.345 7        46.918    25822692.048 7 103977310.78807      -609.899 7        45.561
E06        11.000    24248936.364 7 127429016.04007       590.503 7        42.531                                                                    24248933.879 7  95158068.32007       441.007 7        42.370    24248934.896 7  97640430.28507       452.489 7        44.313
G05        14.000    22689883.268 6 119236406.86806      2120.300 6        39.607                                    22689876.532 6  92911461.46406      1652.187 6        37.429    22689878.020 6  92911272.45106      1652.201 6        41.387
G06        15.000    24656811.520 5 129572426.34105     -4369.834 5        34.200                                    24656809.892 2 100965496.14902     -3405.054 2        17.849    24656812.631 5 100965516.07905     -3404.906 5        31.358
E11        16.000    25733746.533 4 135231765.12104     -3089.508 4        27.090                                                                    25733743.869 5 100984758.64305     -2306.888 5        33.521    25733752.182 5 103619190.94405     -2367.527 5        32.455
E04        17.000    23386809.882 7 122898553.30107      -531.288 7        46.604                                                                    23386808.137 8  91774927.21708      -396.781 8        49.949    23386807.455 8  94168985.64108      -407.174 8        49.017
R08        18.000    20875125.861 5 111785341.18405     -3246.250 5        33.198                                                                    20875131.429 6  86944152.27906     -2524.968 6        40.052
E19        20.000    25151069.027 5 132169739.18305     -2843.525 5        31.819                                                                    25151061.207 4  98698186.56504     -2123.684 4        29.697    25151065.994 5 101272946.37605     -2178.913 5        33.587
E09        21.000    26141837.675 6 137376280.88106      1277.180 6        36.522                                                                    26141836.185 6 102586190.43806       953.726 6        37.951    26141854.016 5 105262361.76405       978.249 5        30.898
E36        22.000    26113497.898 5 137227382.41505      -593.175 5        33.000                                                                    26113495.040 6 102474968.38506      -442.859 6        36.866    26113497.984 6 105148221.12006      -454.379 6        41.685
S36        23.000    38253529.191 5 201023761.03005      -851.580 5        35.329
S23        24.000    38189824.721 6 200688872.67106      -848.481 6        39.841
G11        25.000    23179646.561 6 121810042.72506     -3287.218 6        39.784                                    23179643.219 1  94916752.32001     -2561.447 1         4.857    23179662.578 5  94916848.28905     -2561.366 5        31.283
R17        27.000    22479075.848 7 120290227.52907     -2093.101 7        42.950                                                                    22479092.903 5  93558904.07005     -1627.967 5        32.868
R18        28.000    23509164.868 6 125493482.93906       997.549 6        36.911                                                                    23509155.110 5  97606008.22305       775.823 5        30.551
E10        29.000    26959912.086 5                     -3914.190 5        30.113                                                                    26959896.852 5 105796411.67505     -2922.954 5        34.162    26959896.094 5 108556326.95005     -2999.311 5        34.976
R11        30.000    19820749.586 6 105916064.25306      1058.248 6        40.031                                                                    19820745.217 6  82379152.88006       823.096 6        41.032
C20        31.000                                                                                                                                    23502095.105 7 122381528.89707     -3091.858 7        46.147                                                                    23502088.089 4  99445027.44704     -2512.674 4        28.701
R10        32.000    20876925.460 5 111285858.65705     -3300.124 5        33.473
C36        34.000                                                                                                                                    24623634.513 7 128221690.96407      2456.914 7        44.861                                                                    24623638.834 7 104190675.67307      1996.273 7        42.044
R02        35.000    22684233.763 7 121047430.99707      2563.296 7        46.680                                                                    22684232.599 4  94148155.62604      1993.343 4        29.659
R12        38.000    23447285.385 4 125251195.50304      3722.660 4        29.554
C05        40.000                                                                                                                                                                                                    39290176.493 5 158205254.73505      -699.518 5        34.138
C37        42.000                                                                                                                                    24065058.351 6 125313211.71606     -2968.671 6        37.902                                                                    24065059.622 6 101827212.22706     -2412.260 6        40.093
R24        43.000    23701861.094 5 126744546.97605     -4603.470 5        31.358                                                                    23701851.598 3                     -3581.396 3        22.743
R01        44.000    19518373.072 7 104336904.56707       398.424 7        45.953                                                                    19518373.201 6  81150908.00906       309.776 6        37.282
C09        47.000                                                                                                                                    39698179.648 4 206718821.44204     -1641.667 4        27.186    39698190.696 5 159848182.89205     -1269.419 5        30.483    39698175.298 4                     -1334.326 4        27.748
C19        48.000                                                                                                                                    21876183.023 8 113915187.00808      -539.508 8        49.516                                                                    21876177.236 7  92565272.49707      -438.451 7        46.485
C22        51.000                                                                                                                                    24184285.223 5 125933909.56005      1866.808 5        31.321                                                                    24184280.906 5 102331620.97305      1517.089 5        35.667
C44        52.000                                                                                                                                    26340304.276 5                     -2541.088 5        33.455
C12        54.000                                                                                                                                    26373094.102 6 137331649.93506     -1430.366 6        37.251    26373088.550 6 106193617.62306     -1106.214 6        38.213    26373085.421 5 111593165.47905     -1162.491 5        35.724
I09        59.000    38613392.215 5 151527251.81905     -1159.525 5        34.771
> 2025 01 02 06 00 30.0000000  0 38
G13         1.000    23820969.636 5 125180074.82605      2371.992 5        33.263
G16         2.000    24873028.518 3                     -3708.280 3        23.143
G20         4.000    20823030.049 7 109426253.19807        28.509 7        46.281                                    20823022.627 3  85266838.91203        22.214 3        22.781
G07         5.000    20952548.587 7 110106415.13707     -1672.654 7        46.864                                    20952544.910 7  85797215.57207     -1303.369 7        44.948    20952543.924 7  85797161.56307     -1303.351 7        44.935
G09         6.000    22061373.337 5 115933656.90805     -3437.244 5        35.100                                    22061366.685 2  90337631.28302     -2678.348 2        16.717    22061381.865 5  90337660.30805     -2678.418 5        31.713
G30         7.000    20892033.097 7 109788394.59407       648.225 7        46.427                                    20892028.136 6  85549320.72406       505.107 6        36.620    20892031.398 6  85549368.71506       504.985 6        36.151
E21        10.000    25823451.286 6 135703201.07806      -798.641 6        38.213                                                                    25823451.354 7 101336781.24807      -596.402 7        46.496    25823450.537 7 103980364.82607      -611.919 7        45.112
E06        11.000    24248375.242 7 127426065.49007       589.453 7        42.356                                                                    24248373.050 7  95155864.99707       440.165 7        42.588    24248373.526 7  97638169.46707       451.781 7        44.382
G05        14.000    22687867.103 6 119225810.06906      2118.221 6        41.692                                    22687860.425 6  92903204.20806      1650.564 6        38.105    22687861.617 6  92903015.22506      1650.540 6        41.907
G06        15.000    24660969.958 5 129594275.84605     -4370.240 5        33.659                                    24660967.530 2 100982521.70102     -3405.378 2        17.132    24660969.497 5 100982541.67105     -3405.461 5        31.940
E11        16.000    25736685.426 4 135247216.76804     -3091.758 4        25.459                                                                    25736683.482 5 100996297.20405     -2308.762 5        32.964    25736692.329 5 103631030.50105     -2368.827 5        32.455
E04        17.000    23387316.112 7 122901212.73307      -532.641 7        46.860                                                                    23387314.283 8  91776913.14508      -397.817 8        49.694    23387313.482 8  94171023.37108      -408.165 8        48.809
R08        18.000    20878159.564 6 111801578.45206     -3248.667 6        37.735                                                                    20878162.263 6  86956781.14706     -2526.620 6        40.114
E19        20.000    25153775.512 5 132183958.33705     -2844.577 5        31.517                                                                    25153767.969 5  98708804.73305     -2123.802 5        30.400    25153771.945 5 101283841.57205     -2179.311 5        33.347
E09        21.000    26140622.964 6 137369896.29706      1276.761 6        36.454                                                                    26140620.797 6 102581422.71206       953.326 6        36.662    26140636.993 4 105257469.56204       977.953 4        29.128
E36        22.000    26114065.025 5 137230354.12205      -596.174 5        30.702                                                                    26114061.081 6 102477187.52306      -445.036 6        36.643    26114062.827 6 105150498.13506      -456.625 6        41.046
