     3.04           OBSERVATION DATA    M                   RINEX VERSION / TYPE
ssrcrin-15.6.1x                         20250102 161500 UTC PGM / RUN BY / DATE 
(00000000023479385599111004) Septentrio proprietary         COMMENT             
ract                                                        MARKER NAME         
01                                                          MARKER NUMBER       
geodetic                                                    MARKER TYPE         
NFB                 CLIMERS@TUW                             OBSERVER / AGENCY   
3296359             SEPT ASTERX SB3 PROB4.14.4              REC # / TYPE / VERS 
Unknown             Unknown                                 ANT # / TYPE        
  4127448.9082  1206914.6614  4695543.6332                  APPROX POSITION XYZ 
        0.0000        0.0000        0.0000                  ANTENNA: DELTA H/E/N
G   23 X1  C1C L1C D1C S1C C1W S1W C2W L2W D2W S2W C2L L2L  SYS / # / OBS TYPES 
       D2L S2L C5Q L5Q D5Q S5Q C1L L1L D1L S1L              SYS / # / OBS TYPES 
E   21 X1  C1C L1C D1C S1C C6C L6C D6C S6C C5Q L5Q D5Q S5Q  SYS / # / OBS TYPES 
       C7Q L7Q D7Q S7Q C8Q L8Q D8Q S8Q                      SYS / # / OBS TYPES 
S    9 X1  C1C L1C D1C S1C C5I L5I D5I S5I                  SYS / # / OBS TYPES 
R   17 X1  C1C L1C D1C S1C C2P L2P D2P S2P C2C L2C D2C S2C  SYS / # / OBS TYPES 
       C3Q L3Q D3Q S3Q                                      SYS / # / OBS TYPES 
C   25 X1  C1P L1P D1P S1P C5P L5P D5P S5P C2I L2I D2I S2I  SYS / # / OBS TYPES 
       C7I L7I D7I S7I C6I L6I D6I S6I C7D L7D D7D S7D      SYS / # / OBS TYPES 
J   17 X1  C1C L1C D1C S1C C2L L2L D2L S2L C5Q L5Q D5Q S5Q  SYS / # / OBS TYPES 
       C1L L1L D1L S1L                                      SYS / # / OBS TYPES 
I    5 X1  C5A L5A D5A S5A                                  SYS / # / OBS TYPES 
SEPTENTRIO RECEIVERS OUTPUT ALIGNED CARRIER PHASES.         COMMENT             
NO FURTHER PHASE SHIFT APPLIED IN THE RINEX ENCODER.        COMMENT             
G L1C                                                       SYS / PHASE SHIFT   
G L2W                                                       SYS / PHASE SHIFT   
G L2L  0.00000                                              SYS / PHASE SHIFT   
G L5Q  0.00000                                              SYS / PHASE SHIFT   
G L1L  0.00000                                              SYS / PHASE SHIFT   
E L1C  0.00000                                              SYS / PHASE SHIFT   
E L6C  0.00000                                              SYS / PHASE SHIFT   
E L5Q  0.00000                                              SYS / PHASE SHIFT   
E L7Q  0.00000                                              SYS / PHASE SHIFT   
E L8Q  0.00000                                              SYS / PHASE SHIFT   
S L1C                                                       SYS / PHASE SHIFT   
S L5I                                                       SYS / PHASE SHIFT   
R L1C                                                       SYS / PHASE SHIFT   
R L2P  0.00000                                              SYS / PHASE SHIFT   
R L2C                                                       SYS / PHASE SHIFT   
R L3Q  0.00000                                              SYS / PHASE SHIFT   
C L1P  0.00000                                              SYS / PHASE SHIFT   
C L5P  0.00000                                              SYS / PHASE SHIFT   
C L2I                                                       SYS / PHASE SHIFT   
C L7I                                                       SYS / PHASE SHIFT   
C L6I                                                       SYS / PHASE SHIFT   
C L7D                                                       SYS / PHASE SHIFT   
J L1C                                                       SYS / PHASE SHIFT   
J L2L  0.00000                                              SYS / PHASE SHIFT   
J L5Q  0.00000                                              SYS / PHASE SHIFT   
J L1L  0.00000                                              SYS / PHASE SHIFT   
I L5A                                                       SYS / PHASE SHIFT   
  2025     1     2    16    15    0.0000000     GPS         TIME OF FIRST OBS   
 C1C    0.000 C2C    0.000 C2P    0.000                     GLONASS COD/PHS/BIS 
DBHZ                                                        SIGNAL STRENGTH UNIT
    18                                                      LEAP SECONDS        
 24 R01  1 R02 -4 R03  5 R04  6 R05  1 R06 -4 R07  5 R08  6 GLONASS SLOT / FRQ #
    R09 -2 R10 -7 R11  0 R12 -1 R13 -2 R14 -7 R15  0 R16 -1 GLONASS SLOT / FRQ #
    R17  4 R18 -3 R19  3 R20  2 R21  4 R22 -3 R23  3 R24  2 GLONASS SLOT / FRQ #
                                                            END OF HEADER       
> 2025 01 02 16 15  0.0000000  0 41
G20         1.000    23705235.876 5 124571871.20705     -1440.081 5        35.943
G11         2.000    25104737.060 4                     -4296.897 4        25.353                                                                                                    25104694.945 4                     -3348.525 4        28.720
G25         3.000                                                                                                                                                                    21453706.122 4                     -2768.006 4        27.820
G05         4.000    23449102.924 5 123225860.62905       954.718 5        32.090                                    23449088.873 1  96020098.13401       743.773 1         4.286
E25         6.000    24036674.282 7 126313623.99307     -2274.699 7        46.427                                                                    24036674.547 6  94325241.36106     -1698.564 6        41.552    24036674.603 7  96785795.20307     -1742.905 7        42.535
G31         7.000    21703776.770 7 114054086.47807      -795.142 7        43.486                                    21703856.339 1  88873712.61201      -619.636 1         5.714    21703770.536 5  88873315.60805      -619.489 5        35.624
G28         8.000    21767236.410 7 114387728.00507     -2522.230 7        43.145                                    21767232.775 4  89133134.52404     -1965.377 4        25.609    21767233.838 6  89133212.52106     -1965.434 6        41.754
G29         9.000    20517316.794 8 107819308.34408     -1606.965 8        49.246                                    20517314.847 7  84015050.58407     -1252.183 7        46.936    20517314.414 7  84015002.60507     -1252.095 7        43.264
E11        10.000    24110624.275 6 126702190.33306     -1467.068 6        36.348                                                                    24110622.415 7  94615267.53507     -1095.488 7        42.991    24110618.541 6  97083544.28006     -1123.974 6        38.874
E10        11.000    25788322.289 6 135518539.21206     -2882.164 6        39.961                                                                    25788323.632 6 101198970.65406     -2152.165 6        38.291    25788359.999 4 103838857.50904     -2208.247 4        29.441
G18        12.000    22206211.536 6 116694421.50406      2081.780 6        39.099                                    22206212.739 2  90930756.55102      1622.158 2        14.762    22206209.423 5  90930688.59405      1621.534 5        31.132
E12        13.000                                                                                                                                    27943750.514 3                     -2718.688 3        23.467    27943735.746 3                     -2789.112 3        23.524
G04        14.000    25185860.216 4 132352834.64204      -874.066 4        26.335
G26        17.000    22157520.604 5 116438582.55405      1856.165 5        35.695                                    22157542.129 3  90731388.38803      1446.353 3        18.030    22157534.970 5  90731436.41705      1446.177 5        34.867
E07        18.000    28038488.342 5 147343236.87505     -1754.755 5        35.790                                                                    28038489.351 5 110029038.15905     -1310.588 5        30.091    28038486.511 5 112899422.75205     -1344.510 5        34.390
E30        19.000    27892709.042 4                      1795.248 4        29.194                                                                    27892713.269 3                      1340.574 3        21.452    27892741.281 4 112312485.45304      1375.027 4        29.801
E08        20.000                                                                                                                                    28440433.096 4                     -2524.069 4        25.774    28440451.100 4                     -2590.492 4        26.515
E02        21.000    23667965.716 7 124376225.05207       294.040 7        45.606                                                                    23667964.909 6  92878250.59006       219.718 6        41.099    23667966.284 6  95301170.35706       225.330 6        39.886
S23        22.000    38221214.433 6 200853866.82606      -866.572 6        37.478
R08        23.000    24117420.508 4                     -2393.845 4        26.946                                                                    24117436.546 5 100448265.04705     -1862.412 5        31.992
E36        24.000    24542114.878 7 128969667.83107      1309.811 7        44.153                                                                    24542115.436 6  96308674.44706       978.200 6        40.303    24542115.760 7  98821057.67007      1003.594 7        44.891
R18        25.000    19117949.298 7 102052960.87207      -957.744 7        47.818                                                                    19117951.047 7  79374514.13507      -744.947 7        45.178
G16        26.000    24729401.069 4                      2732.036 4        28.531
S21        27.000    38499628.927 5 202317033.44305      -862.671 5        35.657
R19        29.000    20821262.885 5 111379756.36905      2217.551 5        31.502                                                                    20821265.435 4                      1724.305 4        26.551
R15        30.000    21769704.699 7 116330670.33707     -4606.115 7        44.470                                                                    21769705.175 6  90479455.65306     -3582.502 6        40.553
S36        31.000    38270854.255 6 201114711.61606      -862.316 6        36.151
R16        34.000    19162493.038 7 102363206.44307     -1162.505 7        46.175                                                                    19162493.426 6  79615517.65406      -904.039 6        38.790
C44        35.000                                                                                                                                    21423123.330 7 111556129.69307     -1339.477 7        46.201                                                                    21423121.943 8  90648400.61408     -1088.503 8        48.813
R17        36.000    21137855.665 8 113112895.29808     -4227.417 8        48.379                                                                    21137853.860 6  87977038.29606     -3288.007 6        38.679
R09        37.000    21419144.016 7 114377071.04607      2636.772 7        42.514                                                                    21419143.123 6  88959966.28906      2050.830 6        41.905
C11        38.000                                                                                                                                    25259151.894 6 131531047.94806      2211.657 6        36.234    25259168.930 4 101708114.37504      1709.543 4        29.554    25259133.841 6 106879666.23106      1797.091 6        36.401
C12        41.000                                                                                                                                    21910413.369 7 114093353.53407       176.902 7        42.027    21910413.571 7  88224221.40107       136.736 7        47.933    21910412.357 8  92710181.85408       143.768 8        49.204
C35        42.000                                                                                                                                    24096907.416 6 125478922.30406     -3556.008 6        37.841                                                                    24096907.788 5 101961944.19605     -2889.790 5        31.932
C38        44.000                                                                                                                                    38784680.210 6 201961994.48906      -311.939 6        38.619                                                                    38784679.999 4 164110688.94504      -253.574 4        29.630
C25        45.000                                                                                                                                    22852544.969 6 118999143.51706       920.600 6        38.916                                                                    22852539.457 7  96696759.77107       748.161 7        43.488
C08        46.000                                                                                                                                    38353954.775 6 199719143.77006       310.789 6        37.267    38353954.216 7 154435461.71507       240.446 7        46.995    38353951.504 7 162288134.93907       252.655 7        42.885
C26        48.000                                                                                                                                    25395813.276 5 132242664.07805     -4208.757 5        34.567
C24        51.000                                                                                                                                    21885039.186 7 113961162.48907     -2326.540 7        47.213                                                                    21885038.711 8  92602843.64808     -1890.477 8        48.757
C34        52.000                                                                                                                                    23123884.579 7 120412150.60707      1563.285 7        44.928                                                                    23123883.930 6  97844807.84406      1270.404 6        39.231
I06        58.000    38765738.389 6 152125159.20006      -679.518 6        36.015
> 2025 01 02 16 15  5.0000000  0 41
G20         1.000    23706613.330 5 124579078.62905     -1443.344 5        34.533
G11         2.000    25108832.888 4                     -4298.957 4        24.075                                                                                                    25108781.131 4                     -3349.760 4        27.988
G25         3.000    21457113.988 5 112757759.50015     -3554.829 5        33.629                                    21457083.812 3  87863164.16913     -2769.971 3        18.269    21457089.066 5                     -2770.037 5        30.151
G05         4.000    23448198.064 4 123221093.57604       951.660 4        28.493                                    23448181.451 1  96016383.41001       741.298 1         3.400
E25         6.000    24038839.240 7 126325000.08507     -2276.025 7        46.869                                                                    24038839.253 6  94333736.49206     -1699.632 6        41.173    24038839.245 7  96794511.94207     -1744.018 7        42.157
G31         7.000    21704533.739 7 114058070.17107      -798.604 7        43.272                                    21704614.033 1  88876817.11701      -622.374 1         6.000    21704528.096 5  88876419.81005      -622.468 5        35.076
G28         8.000    21769637.961 7 114400346.11707     -2525.209 7        43.627                                    21769634.846 4  89142966.82204     -1967.687 4        26.515    21769635.609 7  89143044.82207     -1967.629 7        42.398
G29         9.000    20518846.932 8 107827347.58508     -1609.009 8        49.294                                    20518844.486 7  84021314.93107     -1253.772 7        46.756    20518844.470 7  84021266.95307     -1253.767 7        43.082
E11        10.000    24112021.482 5 126709530.54005     -1469.054 5        35.200                                                                    24112019.071 7  94620748.86507     -1097.244 7        42.760    24112015.539 6  97089168.62006     -1125.927 6        38.724
E10        11.000    25791065.551 6 135532953.25306     -2883.792 6        39.832                                                                    25791067.294 6 101209734.37406     -2153.363 6        38.489    25791103.517 4 103849902.07604     -2209.573 4        28.209
G18        12.000    22204231.962 6 116684017.11106      2079.725 6        36.805                                    22204232.727 2  90922649.16202      1620.561 2        13.030    22204231.170 5  90922581.27205      1620.742 5        31.449
E12        13.000                                                                                                                                    27947213.951 3                     -2718.929 3        22.895    27947198.123 3                     -2790.803 3        23.010
G04        14.000    25186686.191 3 132357209.36303      -876.536 3        23.657                                                                                                    25186759.182 4                      -682.671 4        26.491
G26        17.000    22155761.843 5 116429305.40005      1854.540 5        35.690                                    22155776.070 2  90724159.44702      1445.102 2        16.113    22155769.440 5  90724207.49205      1444.859 5        34.114
E07        18.000    28040151.312 5 147352015.03805     -1756.835 5        34.338                                                                    28040160.158 5 110035593.25305     -1311.450 5        30.181    28040157.303 5 112906148.90205     -1346.363 5        34.519
E30        19.000    27891001.298 5                      1794.767 5        30.430                                                                    27891002.654 3                      1340.494 3        19.672    27891036.586 4 112305608.75204      1375.450 4        29.336
E08        20.000                                                                                                                                    28443653.751 4                     -2525.511 4        25.218    28443666.925 4                     -2591.064 4        26.204
E02        21.000    23667686.015 7 124374757.43707       292.715 7        45.062                                                                    23667685.478 6  92877154.65806       218.502 6        40.513    23667686.648 6  95300045.82606       224.251 6        40.181
S23        22.000    38222035.674 6 200858199.04506      -866.625 6        37.656
R08        23.000    24119661.681 4                     -2397.913 4        28.256
E36        24.000    24540868.902 7 128963122.45807      1308.064 7        43.346                                                                    24540870.021 6  96303786.68806       976.656 6        40.684    24540869.697 7  98816042.40007      1002.247 7        44.454
R18        25.000    19118847.809 7 102057758.42107      -961.562 7        47.763                                                                    19118849.618 7  79378245.57507      -747.932 7        45.132
G16        26.000    24726798.651 5                      2731.547 5        30.883
S21        27.000    38500451.120 5 202321345.80105      -862.565 5        35.129
R19        29.000    20819193.666 5 111368676.21705      2214.713 5        30.996
R15        30.000    21774015.068 7 116353705.15207     -4608.102 7        44.570                                                                    21774016.479 6  90497371.61006     -3584.026 6        41.035
S36        31.000    38271680.736 6 201119022.84306      -862.339 6        36.079
R16        34.000    19163582.693 7 102369027.65107     -1166.357 7        46.204                                                                    19163582.709 6  79620045.28206      -907.379 6        38.396
C44        35.000                                                                                                                                    21424411.654 7 111562832.08407     -1341.594 7        45.929                                                                    21424408.952 8  90653846.82308     -1090.188 8        48.726
R17        36.000    21141809.327 8 113134036.34308     -4229.267 8        48.999                                                                    21141805.998 6  87993481.31906     -3289.394 6        39.351
R09        37.000    21416676.886 7 114363891.12707      2634.948 7        43.147                                                                    21416674.736 7  88949715.25107      2049.422 7        42.455
C11        38.000                                                                                                                                    25257025.160 6 131519992.39806      2210.557 6        36.242                                                                    25257010.419 5 106870682.69605      1796.305 5        35.771
C12        41.000                                                                                                                                    21910244.504 6 114092473.87606       174.758 6        41.959    21910245.192 8  88223541.20508       135.074 8        48.505    21910243.473 8  92709467.04308       141.955 8        49.055
C35        42.000                                                                                                                                    24100323.912 6 125496704.00006     -3556.912 6        37.822                                                                    24100324.116 5 101976393.20205     -2890.211 5        32.862
C38        44.000                                                                                                                                    38784980.166 6 201963555.51706      -312.836 6        38.730                                                                    38784980.072 4 164111957.35604      -253.988 4        29.166
C25        45.000                                                                                                                                    22851662.710 6 118994544.63006       918.561 6        39.213                                                                    22851656.126 7  96693022.81907       746.352 7        43.276
C08        46.000                                                                                                                                    38353656.511 6 199717591.21906       309.794 6        37.025    38353655.919 7 154434261.14507       239.638 7        46.834    38353653.229 7 162286873.30507       251.749 7        42.610
C26        48.000                                                                                                                                    25399854.696 5 132263708.50605     -4209.435 5        35.119
C24        51.000                                                                                                                                    21887274.281 7 113972800.24907     -2328.838 7        46.818                                                                    21887273.634 8  92612300.25408     -1892.446 8        48.576
C34        52.000                                                                                                                                    23122383.039 7 120404337.15807      1561.779 7        46.368                                                                    23122383.519 6  97838458.77206      1269.097 6        39.880
I06        58.000    38766603.729 6 152128556.58706      -679.506 6        36.370
> 2025 01 02 16 15 10.0000000  0 40
G20         1.000    23707990.047 5 124586302.08505     -1446.369 5        32.126
G11         2.000    25112920.469 3                     -4299.653 3        22.286                                                                                                    25112873.547 4                     -3350.399 4        27.677
G25         3.000                                                                                                                                                                    21460473.534 5                     -2771.324 5        31.147
E25         6.000    24041005.222 7 126336383.56507     -2277.618 7        46.460                                                                    24041005.357 6  94342237.14906     -1700.788 6        41.373    24041005.715 6  96803234.34906     -1745.209 6        41.495
G31         7.000    21705295.779 7 114062071.74707      -802.244 7        43.026                                    21705375.622 1  88879935.27501      -625.017 1         7.625    21705290.212 5  88879537.93705      -625.322 5        34.600
G28         8.000    21772041.552 7 114412979.81007     -2528.409 7        43.954                                    21772039.841 4  89152811.26204     -1970.184 4        27.186    21772039.994 7  89152889.25707     -1970.080 7        42.859
G29         9.000    20520379.022 8 107835397.67608     -1611.268 8        48.973                                    20520376.227 7  84027587.73507     -1255.532 7        46.648    20520376.519 7  84027539.75307     -1255.570 7        42.802
E11        10.000    24113420.520 5 126716883.02305     -1472.249 5        34.681                                                                    24113418.003 7  94626239.32407     -1099.165 7        42.961    24113414.885 6  97094802.31306     -1127.873 6        38.607
E10        11.000    25793809.829 6 135547376.19706     -2885.598 6        38.441                                                                    25793812.170 6 101220504.75806     -2154.989 6        38.775    25793845.081 4 103860953.53904     -2211.459 4        28.009
G18        12.000    22202253.458 5 116673623.13305      2077.740 5        33.545                                    22202254.771 1  90914549.97501      1619.011 1        11.259    22202257.873 5  90914482.04905      1619.018 5        32.659
E12        13.000                                                                                                                                    27950679.723 3                     -2719.693 3        23.162    27950662.799 4                     -2790.621 4        24.195
G04        14.000    25187521.694 4 132361599.73404      -879.545 4        25.293
G26        17.000    22154007.281 6 116420036.35806      1852.901 6        36.703                                    22154011.899 2  90716936.90302      1443.821 2        13.394    22154003.824 5  90716984.94405      1443.798 5        32.210
E07        18.000    28041821.898 5 147360804.68705     -1759.357 5        32.880                                                                    28041832.143 5 110042156.96005     -1313.823 5        31.004    28041830.279 5 112912883.80705     -1347.866 5        34.986
E30        19.000    27889294.095 4                      1794.731 4        29.071                                                                                                                                    27889329.993 4 112298732.75504      1374.842 4        28.322
E08        20.000                                                                                                                                    28446878.331 4                     -2525.283 4        27.174    28446885.469 4                     -2591.118 4        26.359
E02        21.000    23667407.586 7 124373296.58707       291.393 7        43.528                                                                    23667407.375 6  92876063.76706       217.519 6        40.238    23667408.352 6  95298926.47706       223.320 6        40.200
S23        22.000    38222861.811 6 200862531.86906      -866.799 6        37.758
R08        23.000    24121905.631 4                     -2401.594 4        28.436
E36        24.000    24539624.857 6 128956586.75606      1306.097 6        41.795                                                                    24539626.601 6  96298906.13606       975.284 6        41.106    24539625.446 7  98811034.53207      1000.760 7        43.926
R18        25.000    19119750.490 7 102062575.75307      -965.599 7        47.592                                                                    19119751.655 7  79381992.39207      -751.042 7        45.029
G16        26.000    24724198.376 5                      2731.384 5        33.599
S21        27.000    38501268.541 5 202325658.94005      -862.585 5        35.424
R19        29.000    20817127.937 5 111357610.38005      2211.398 5        31.140                                                                    20817127.704 3                      1721.693 3        21.214
R15        30.000    21778327.594 7 116376750.47207     -4610.300 7        45.720                                                                    21778329.545 6  90515295.73806     -3585.755 6        40.868
S36        31.000    38272494.062 6 201123334.00106      -862.636 6        36.208
R16        34.000    19164675.375 7 102374869.11307     -1170.461 7        45.717                                                                    19164677.259 6  79624588.64906      -910.313 6        38.610
C44        35.000                                                                                                                                    21425700.767 7 111569545.51507     -1343.922 7        45.640                                                                    21425698.073 8  90659302.06608     -1092.088 8        48.561
R17        36.000    21145764.478 8 113155186.93908     -4231.235 8        48.547                                                                    21145758.108 6  88009931.78006     -3290.941 6        40.405
R09        37.000    21414209.801 7 114350720.67407      2632.997 7        43.215                                                                    21414208.397 7  88939471.57407      2047.883 7        42.468
C11        38.000                                                                                                                                    25254897.325 6 131508941.48206      2209.337 6        36.250                                                                    25254887.435 5 106861702.97405      1795.423 5        35.114
C12        41.000                                                                                                                                    21910078.351 7 114091605.58007       172.473 7        42.201    21910078.272 8  88222869.80308       133.300 8        48.902    21910076.900 8  92708761.52208       140.033 8        48.911
C35        42.000                                                                                                                                    24103741.957 6 125514490.36806     -3557.913 6        38.646                                                                    24103741.061 5 101990846.11905     -2890.942 5        34.290
C38        44.000                                                                                                                                    38785281.383 6 201965122.47006      -314.141 6        39.369                                                                    38785281.281 4 164113230.73104      -255.202 4        29.867
C25        45.000                                                                                                                                    22850782.664 6 118989956.87406       916.307 6        38.468                                                                    22850775.014 7  96689294.95607       744.482 7        43.124
C08        46.000                                                                                                                                    38353359.199 6 199716044.60406       308.598 6        37.244    38353358.686 7 154433065.23807       238.630 7        46.904    38353356.343 7 162285616.61407       250.683 7        42.504
C26        48.000                                                                                                                                    25403897.313 5 132284756.81105     -4210.269 5        35.676
C24        51.000                                                                                                                                    21889511.400 7 113984450.57107     -2331.508 7        46.175                                                                    21889510.858 8  92621767.12808     -1894.536 8        48.340
C34        52.000                                                                                                                                    23120883.337 7 120396531.66107      1560.180 7        46.895                                                                    23120885.145 6  97832116.23806      1267.667 6        40.744
I06        58.000    38767469.949 6 152131954.20006      -679.589 6        36.174
> 2025 01 02 16 15 15.0000000  0 40
G20         1.000    23709360.638 5 124593540.77905     -1449.434 5        32.569
G11         2.000    25117010.913 3                     -4301.081 3        21.452                                                                                                    25116964.227 4                     -3350.968 4        27.904
G25         3.000    21463857.650 6 112793324.88306     -3558.492 6        40.262                                    21463852.918 3  87890877.28603     -2772.844 3        22.552    21463858.512 5                     -2772.698 5        31.094
E25         6.000    24043172.251 7 126347773.52707     -2278.825 7        46.334                                                                    24043172.837 6  94350742.63706     -1701.672 6        41.173    24043172.894 6  96811961.70906     -1746.110 6        40.949
G31         7.000    21706060.500 7 114066090.28307      -805.504 7        42.049                                    21706140.171 1  88883066.46801      -627.599 1         5.143    21706054.446 5  88882669.24005      -627.699 5        34.257
G28         8.000    21774448.077 7 114425628.15007     -2531.286 7        43.934                                    21774447.398 4  89162667.11704     -1972.419 4        27.329    21774447.030 7  89162745.11507     -1972.440 7        43.266
G29         9.000    20521912.756 8 107843457.69008     -1613.156 8        48.730                                    20521909.873 7  84033868.27207     -1257.004 7        46.232    20521910.083 7  84033820.29007     -1256.932 7        42.667
E11        10.000    24114821.728 5 126724246.71205     -1474.119 5        34.524                                                                    24114819.030 7  94631738.20207     -1100.871 7        42.753    24114816.301 6  97100444.61706     -1129.331 6        38.471
E10        11.000    25796555.039 6 135561807.15606     -2887.227 6        37.486                                                                    25796558.631 6 101231281.10006     -2156.039 6        38.676    25796587.651 4 103872011.09304     -2211.969 4        28.085
G18        12.000    22200276.353 5 116663238.63705      2076.135 5        32.347                                    22200278.735 1  90906458.15201      1617.724 1         9.905    22200283.509 5  90906390.25905      1617.482 5        32.856
E12        13.000                                                                                                                                    27954145.686 3                     -2720.857 3        22.781    27954126.656 4                     -2792.436 4        24.692
G04        14.000    25188365.313 4                      -882.433 4        26.575
G26        17.000    22152244.260 6 116410774.57906      1851.493 6        36.295                                    22152249.476 1  90709720.03401      1442.772 1        11.778    22152241.590 5  90709767.94305      1443.298 5        30.891
E07        18.000    28043498.905 5 147369604.86505     -1761.116 5        32.425                                                                    28043507.017 5 110048728.50605     -1315.374 5        31.638    28043506.296 5 112919626.81105     -1349.767 5        35.000
E30        19.000    27887585.631 4                      1794.672 4        28.265                                                                                                                                    27887623.539 4 112291856.72604      1375.599 4        27.581
E08        20.000                                                                                                                                    28450099.357 4                     -2526.070 4        27.701    28450103.830 4                     -2592.023 4        25.594
E02        21.000    23667130.623 7 124371841.61907       290.193 7        42.582                                                                    23667130.484 6  92874977.26606       216.755 6        39.553    23667131.433 6  95297811.63106       222.456 6        40.362
S23        22.000    38223684.164 6 200866864.29906      -866.585 6        37.917
R08        23.000    24124148.503 4                     -2405.501 4        27.174                                                                    24124207.838 4 100476262.99914     -1870.956 4        28.057
E36        24.000    24538382.478 6 128950059.83406      1304.362 6        40.167                                                                    24538384.662 6  96294032.14506       974.048 6        41.533    24538383.363 7  98806033.38507       999.451 7        43.052
R18        25.000    19120656.312 7 102067411.86307      -969.262 7        47.671                                                                    19120657.714 7  79385753.81407      -753.814 7        45.764
G16        26.000    24721599.161 5 129912881.25115      2731.213 5        35.367
S21        27.000    38502092.711 5 202329971.66405      -862.818 5        35.590
R19        29.000    20815063.078 5 111346558.03405      2208.683 5        31.668
R15        30.000    21782643.094 7 116399805.14107     -4612.039 7        46.634                                                                    21782643.157 6  90533227.11106     -3587.127 6        39.781
S36        31.000    38273320.440 5 201127645.21205      -862.614 5        35.886
R16        34.000    19165772.602 7 102380729.95407     -1174.350 7        45.681                                                                    19165775.311 6  79629147.09906      -913.164 6        40.124
C44        35.000                                                                                                                                    21426991.064 7 111576269.07107     -1345.894 7        44.894                                                                    21426989.102 8  90664765.48908     -1093.587 8        48.475
R17        36.000    21149717.400 7 113176345.97607     -4232.940 7        47.088                                                                    21149713.043 6  88026388.82306     -3292.189 6        41.080
R09        37.000    21411742.263 6 114337558.62006      2631.410 6        41.983                                                                    21411742.764 7  88929234.45307      2046.692 7        42.466
C11        38.000                                                                                                                                    25252771.115 5 131497894.35505      2208.942 5        35.876                                                                    25252765.694 5 106852726.33105      1794.757 5        35.148
C12        41.000                                                                                                                                    21909914.926 7 114090747.76507       170.462 7        42.914    21909913.471 8  88222206.50908       131.709 8        49.286    21909912.247 8  92708064.47508       138.462 8        49.117
C35        42.000                                                                                                                                    24107159.023 6 125532280.51706     -3558.539 6        39.970                                                                    24107158.169 5 102005302.07505     -2891.718 5        35.767
C38        44.000                                                                                                                                    38785584.283 6 201966694.41706      -315.133 6        39.754                                                                    38785584.138 4 164114508.04204      -256.083 4        29.839
C25        45.000                                                                                                                                    22849905.116 6 118985379.33406       914.331 6        37.301                                                                    22849895.833 7  96685575.36107       742.776 7        42.775
C08        46.000                                                                                                                                    38353063.769 6 199714503.13806       307.623 6        37.599    38353062.675 7 154431873.27107       237.915 7        46.787    38353060.416 7 162284364.04007       249.959 7        42.612
C26        48.000                                                                                                                                    25407941.638 5 132305808.08005     -4210.641 5        35.148
C24        51.000                                                                                                                                    21891750.912 7 113996112.54507     -2333.717 7        45.573                                                                    21891750.383 8  92631243.41708     -1896.383 8        48.149
C34        52.000                                                                                                                                    23119386.335 7 120388733.20807      1558.801 7        47.473                                                                    23119387.874 6  97825779.35606      1266.680 6        41.743
I06        58.000    38768336.001 6 152135351.38306      -679.509 6        36.004
> 2025 01 02 16 15 20.0000000  0 40
G20         1.000    23710744.892 5 124600795.39005     -1452.421 5        33.228
G11         2.000    25121098.714 3                     -4298.944 3        18.896                                                                                                    25121058.029 4                     -3351.871 4        28.057
G25         3.000    21467243.702 6 112811121.40906     -3560.007 6        40.853                                    21467240.579 4  87904744.71604     -2774.030 4        24.992    21467245.623 5                     -2774.135 5        31.645
E25         6.000    24045340.956 7 126359170.74607     -2279.933 7        46.369                                                                    24045341.716 6  94359253.55406     -1702.586 6        40.896    24045341.474 6  96820694.62406     -1746.960 6        40.973
G31         7.000    21706826.803 6 114070126.58506      -808.845 6        41.123                                    21706907.971 1  88886211.77601      -630.191 1         6.625    21706822.851 5  88885814.40705      -630.426 5        34.319
G28         8.000    21776858.035 7 114438291.91107     -2534.100 7        43.579                                    21776857.835 4  89172534.98804     -1974.622 4        27.437    21776857.110 7  89172612.96907     -1974.608 7        43.208
G29         9.000    20523448.450 8 107851528.45008     -1614.970 8        48.561                                    20523445.553 7  84040157.18007     -1258.418 7        46.146    20523446.111 7  84040109.20707     -1258.461 7        42.622
E11        10.000    24116225.429 5 126731622.47505     -1476.221 5        34.329                                                                    24116222.351 7  94637246.07807     -1102.348 7        42.362    24116220.192 6  97106096.18606     -1131.098 6        38.465
E10        11.000    25799302.654 6 135576246.90106     -2888.749 6        36.892                                                                    25799306.869 6 101242064.01206     -2157.082 6        38.517    25799332.982 4 103883075.27504     -2213.333 4        28.237
G18        12.000    22198303.942 5 116652864.44905      2074.183 5        32.820                                    22198304.527 1  90898374.36901      1616.305 1         8.476    22198307.854 5  90898306.52305      1615.925 5        31.381
E12        13.000                                                                                                                                    27957611.958 3                     -2721.294 3        22.095    27957591.985 4                     -2792.952 4        25.865
G04        14.000    25189206.690 4 132370425.04314      -885.619 4        29.810                                                                                                    25189225.197 4                      -690.039 4        28.284
G26        17.000                                                                                                                                                                    22150481.497 4  90702557.29504      1441.747 4        28.872
E07        18.000    28045175.665 5 147378416.29905     -1762.735 5        31.630                                                                    28045185.250 5 110055308.45005     -1316.145 5        32.102    28045184.401 5 112926378.42905     -1351.012 5        35.500
E30        19.000    27885877.449 4                      1794.801 4        27.389                                                                    27885909.543 4                      1340.180 4        26.503    27885915.724 4 112284981.33204      1375.265 4        27.629
E08        20.000                                                                                                                                    28453319.534 4                     -2526.748 4        28.303    28453322.003 4                     -2592.725 4        24.812
E02        21.000    23666854.831 6 124370393.28106       289.375 6        41.614                                                                    23666854.687 6  92873895.72206       215.960 6        38.973    23666855.945 6  95296701.86906       221.621 6        40.694
S23        22.000    38224512.291 6 200871197.27406      -866.656 6        38.321
R08        23.000    24126396.405 4                     -2408.979 4        26.395                                                                    24126452.437 4 100485624.41814     -1873.167 4        25.008
E36        24.000    24537142.043 6 128943542.47006      1302.845 6        38.276                                                                    24537144.642 6  96289165.28806       972.813 6        41.897    24537143.282 7  98801039.56707       998.103 7        42.281
R18        25.000    19121566.659 8 102072267.58708      -972.906 8        48.380                                                                    19121567.483 7  79389530.49807      -756.714 7        46.520
G16        26.000    24718995.965 6 129899226.09906      2731.045 6        36.427
S21        27.000    38502911.263 5 202334284.61105      -862.273 5        35.681
R19        29.000    20813002.366 5 111335520.00605      2206.276 5        32.593                                                                    20813023.367 4                      1715.551 4        25.699
R15        30.000    21786959.643 7 116422870.06807     -4613.750 7        46.974                                                                    21786958.494 6  90551166.46406     -3588.369 6        38.538
S36        31.000    38274138.407 5 201131957.37005      -862.270 5        35.895
R16        34.000    19166874.397 7 102386611.07207     -1178.032 7        47.187                                                                    19166875.767 6  79633721.30506      -916.237 6        41.046
C44        35.000                                                                                                                                    21428283.612 7 111583003.55707     -1347.739 7        43.752                                                                    21428282.211 8  90670237.78008     -1095.267 8        48.199
R17        36.000    21153670.171 7 113197514.41007     -4234.375 7        45.911                                                                    21153668.377 6  88042853.18206     -3293.482 6        41.609
R09        37.000    21409278.240 6 114324405.96606      2629.653 6        40.753                                                                    21409280.418 7  88919004.64307      2045.424 7        43.215
C11        38.000                                                                                                                                    25250648.913 5 131486851.72605      2208.450 5        35.038                                                                    25250644.865 5 106843753.29405      1794.585 5        34.676
C12        41.000                                                                                                                                    21909752.811 7 114089901.17307       168.473 7        42.927    21909750.415 8  88221551.88908       130.166 8        49.230    21909749.632 8  92707376.55308       136.767 8        49.009
C35        42.000                                                                                                                                    24110575.607 6 125550075.21606     -3559.164 6        40.434                                                                    24110575.626 6 102019761.73106     -2892.217 6        36.461
C38        44.000                                                                                                                                    38785888.029 6 201968272.11706      -315.886 6        40.136                                                                    38785887.334 4 164115790.05304      -256.259 4        29.649
C25        45.000                                                                                                                                    22849029.644 6 118980812.81406       912.263 6        36.469                                                                    22849018.854 7  96681864.67707       741.265 7        42.375
C08        46.000                                                                                                                                    38352768.957 6 199712967.57506       306.688 6        38.174    38352767.844 7 154430685.88807       237.212 7        46.705    38352765.542 7 162283116.25007       249.256 7        42.665
C26        48.000                                                                                                                                    25411986.423 5 132326863.06105     -4210.979 5        34.667
C24        51.000                                                                                                                                    21893993.513 7 114007786.92807     -2336.000 7        45.085                                                                    21893992.303 8  92640729.78808     -1898.183 8        48.052
C34        52.000                                                                                                                                    23117890.257 7 120380942.57407      1557.563 7        47.490                                                                    23117892.009 7  97819448.83007      1265.585 7        42.345
I06        58.000    38769202.035 6 152138748.65706      -679.142 6        36.284
> 2025 01 02 16 15 25.0000000  0 40
G20         1.000    23712130.044 5 124608065.47805     -1455.213 5        33.234
G11         2.000                                                                                                                                                                    25125149.358 4                     -3352.670 4        27.713
G25         3.000    21470633.304 6 112828927.01506     -3561.766 6        40.620                                    21470630.181 4  87918619.22704     -2775.408 4        26.802    21470634.103 5                     -2775.551 5        32.353
E25         6.000    24047511.212 7 126370574.72907     -2281.309 7        46.788                                                                    24047511.881 6  94367769.49106     -1703.373 6        40.875    24047511.353 6  96829432.72106     -1747.820 6        40.939
G31         7.000    21707598.370 6 114074180.13706      -812.135 6        41.661                                    21707678.718 1  88889370.36201      -632.839 1         8.667    21707593.810 5  88888973.02405      -632.738 5        34.990
G28         8.000    21779271.057 7 114450970.58607     -2537.016 7        43.822                                    21779270.955 4  89182414.47804     -1976.904 4        27.437    21779269.273 7  89182492.45107     -1976.928 7        43.179
G29         9.000    20524986.312 8 107859609.41408     -1616.972 8        48.458                                    20524983.192 7  84046454.04507     -1259.982 7        46.025    20524983.880 7  84046406.07407     -1259.949 7        42.489
E11        10.000    24117630.319 5 126739009.82905     -1478.605 5        34.033                                                                    24117627.959 7  94642762.60907     -1104.045 7        42.085    24117626.128 6  97111756.61406     -1132.773 6        38.964
E10        11.000    25802052.001 6 135590694.91106     -2890.260 6        36.730                                                                    25802056.677 6 101252853.07806     -2158.203 6        38.381    25802080.534 4 103894145.85304     -2214.658 4        28.000
G18        12.000    22196330.852 5 116642500.02305      2072.158 5        31.509                                    22196332.152 1  90890298.22201      1614.575 1         4.000    22196336.065 4  90890230.35004      1614.448 4        27.102
E12        13.000                                                                                                                                    27961077.868 3                     -2720.630 3        21.429    27961056.992 4                     -2792.870 4        26.982
G04        14.000    25190056.263 4 132374860.20404      -888.305 4        29.839                                                                                                    25190075.749 4                      -692.255 4        28.256
G26        17.000    22148710.022 6 116392274.78706      1848.781 6        36.828                                    22148728.704 2  90695304.58602      1440.684 2        12.485    22148722.508 4  90695352.52404      1440.235 4        28.597
E07        18.000    28046854.987 5 147387238.60705     -1765.512 5        31.841                                                                    28046864.872 5 110061896.53105     -1318.094 5        32.976    28046864.607 5 112933138.35205     -1352.668 5        35.881
E30        19.000    27884170.376 4                      1794.676 4        26.719                                                                    27884200.302 4                      1340.270 4        27.090    27884205.023 4 112278106.07904      1375.249 4        28.171
E08        20.000                                                                                                                                    28456541.669 4                     -2526.899 4        28.483    28456542.488 4                     -2592.641 4        25.008
E02        21.000    23666579.928 6 124368951.12006       288.034 6        40.114                                                                    23666580.064 6  92872818.76406       215.168 6        38.447    23666581.684 6  95295596.82306       220.755 6        41.392
S23        22.000    38225334.457 6 200875530.09706      -866.369 6        38.033
R08        23.000    24128647.617 4                     -2412.494 4        26.910
E36        24.000    24535905.176 6 128937034.16506      1300.938 6        36.291                                                                    24535906.289 7  96284305.20207       971.493 7        42.417    24535904.956 7  98796052.69707       996.841 7        42.017
R18        25.000    19122479.957 7 102077142.36607      -976.565 7        47.732                                                                    19122480.346 7  79393322.00707      -759.669 7        46.643
G16        26.000    24716395.432 6 129885572.06006      2730.893 6        36.567
S21        27.000    38503731.990 5 202338597.56605      -862.420 5        35.914
R19        29.000    20810940.932 5 111324495.86105      2203.765 5        32.635
R15        30.000    21791278.034 7 116445944.61607     -4615.683 7        46.638                                                                    21791275.728 6  90569113.29506     -3589.980 6        37.762
S36        31.000    38274959.531 6 201136269.29706      -862.005 6        36.023
R16        34.000    19167980.303 8 102392511.95208     -1181.844 8        49.082                                                                    19167980.859 6  79638310.86906      -919.207 6        41.564
C44        35.000                                                                                                                                    21429577.756 7 111589748.44407     -1349.817 7        42.883                                                                    21429577.349 7  90675718.54507     -1096.833 7        47.988
R17        36.000    21157628.190 7 113218691.71207     -4236.113 7        44.862                                                                    21157626.457 7  88059324.43107     -3294.803 7        42.171
R09        37.000    21406818.053 6 114311262.08006      2628.104 6        39.808                                                                    21406819.917 7  88908781.63507      2044.085 7        44.196
C11        38.000                                                                                                                                    25248528.907 5 131475813.18405      2207.433 5        33.772                                                                    25248524.712 5 106834783.62905      1793.879 5        34.176
C12        41.000                                                                                                                                    21909592.005 7 114089065.35307       166.318 7        42.298    21909589.460 8  88220905.58008       128.650 8        49.076    21909589.107 8  92706697.39408       135.207 8        48.955
C35        42.000                                                                                                                                    24113992.226 6 125567873.99106     -3560.021 6        40.734                                                                    24113993.604 6 102034224.69506     -2892.881 6        37.561
