     3.04           OBSERVATION DATA    M                   RINEX VERSION / TYPE
ssrcrin-15.6.1x                         20250102 081500 UTC PGM / RUN BY / DATE 
(00000000023479385599111004) Septentrio proprietary         COMMENT             
ract                                                        MARKER NAME         
01                                                          MARKER NUMBER       
geodetic                                                    MARKER TYPE         
NFB                 CLIMERS@TUW                             OBSERVER / AGENCY   
3296359             SEPT ASTERX SB3 PROB4.14.4              REC # / TYPE / VERS 
Unknown             Unknown                                 ANT # / TYPE        
  4127447.1014  1206914.4202  4695544.0687                  APPROX POSITION XYZ 
        0.0000        0.0000        0.0000                  ANTENNA: DELTA H/E/N
G   23 X1  C1C L1C D1C S1C C1W S1W C2W L2W D2W S2W C2L L2L  SYS / # / OBS TYPES 
       D2L S2L C5Q L5Q D5Q S5Q C1L L1L D1L S1L              SYS / # / OBS TYPES 
E   21 X1  C1C L1C D1C S1C C6C L6C D6C S6C C5Q L5Q D5Q S5Q  SYS / # / OBS TYPES 
       C7Q L7Q D7Q S7Q C8Q L8Q D8Q S8Q                      SYS / # / OBS TYPES 
S    9 X1  C1C L1C D1C S1C C5I L5I D5I S5I                  SYS / # / OBS TYPES 
R   17 X1  C1C L1C D1C S1C C2P L2P D2P S2P C2C L2C D2C S2C  SYS / # / OBS TYPES 
       C3Q L3Q D3Q S3Q                                      SYS / # / OBS TYPES 
C   25 X1  C1P L1P D1P S1P C5P L5P D5P S5P C2I L2I D2I S2I  SYS / # / OBS TYPES 
       C7I L7I D7I S7I C6I L6I D6I S6I C7D L7D D7D S7D      SYS / # / OBS TYPES 
J   17 X1  C1C L1C D1C S1C C2L L2L D2L S2L C5Q L5Q D5Q S5Q  SYS / # / OBS TYPES 
       C1L L1L D1L S1L                                      SYS / # / OBS TYPES 
I    5 X1  C5A L5A D5A S5A                                  SYS / # / OBS TYPES 
SEPTENTRIO RECEIVERS OUTPUT ALIGNED CARRIER PHASES.         COMMENT             
NO FURTHER PHASE SHIFT APPLIED IN THE RINEX ENCODER.        COMMENT             
G L1C                                                       SYS / PHASE SHIFT   
G L2W                                                       SYS / PHASE SHIFT   
G L2L  0.00000                                              SYS / PHASE SHIFT   
G L5Q  0.00000                                              SYS / PHASE SHIFT   
G L1L  0.00000                                              SYS / PHASE SHIFT   
E L1C  0.00000                                              SYS / PHASE SHIFT   
E L6C  0.00000                                              SYS / PHASE SHIFT   
E L5Q  0.00000                                              SYS / PHASE SHIFT   
E L7Q  0.00000                                              SYS / PHASE SHIFT   
E L8Q  0.00000                                              SYS / PHASE SHIFT   
S L1C                                                       SYS / PHASE SHIFT   
S L5I                                                       SYS / PHASE SHIFT   
R L1C                                                       SYS / PHASE SHIFT   
R L2P  0.00000                                              SYS / PHASE SHIFT   
R L2C                                                       SYS / PHASE SHIFT   
R L3Q  0.00000                                              SYS / PHASE SHIFT   
C L1P  0.00000                                              SYS / PHASE SHIFT   
C L5P  0.00000                                              SYS / PHASE SHIFT   
C L2I                                                       SYS / PHASE SHIFT   
C L7I                                                       SYS / PHASE SHIFT   
C L6I                                                       SYS / PHASE SHIFT   
C L7D                                                       SYS / PHASE SHIFT   
J L1C                                                       SYS / PHASE SHIFT   
J L2L  0.00000                                              SYS / PHASE SHIFT   
J L5Q  0.00000                                              SYS / PHASE SHIFT   
J L1L  0.00000                                              SYS / PHASE SHIFT   
I L5A                                                       SYS / PHASE SHIFT   
  2025     1     2     8    15    0.0000000     GPS         TIME OF FIRST OBS   
 C1C    0.000 C2C    0.000 C2P    0.000                     GLONASS COD/PHS/BIS 
DBHZ                                                        SIGNAL STRENGTH UNIT
    18                                                      LEAP SECONDS        
 24 R01  1 R02 -4 R03  5 R04  6 R05  1 R06 -4 R07  5 R08  6 GLONASS SLOT / FRQ #
    R09 -2 R10 -7 R11  0 R12 -1 R13 -2 R14 -7 R15  0 R16 -1 GLONASS SLOT / FRQ #
    R17  4 R18 -3 R19  3 R20  2 R21  4 R22 -3 R23  3 R24  2 GLONASS SLOT / FRQ #
                                                            END OF HEADER       
> 2025 01 02 08 15  0.0000000  0 32
G13         1.000    20224525.461 7 106280770.55507       257.852 7        46.404                                    20224520.348 5  82816056.57905       200.930 5        32.228
G18         2.000    25352634.062 5 133228986.29105     -2066.101 5        35.990
G20         4.000    23347684.072 6 122693038.32206     -4270.870 6        38.739
G07         5.000    24162447.475 5                     -3585.772 5        30.574                                                                                                    24162435.753 3                     -2793.477 3        20.690
G30         6.000    21509747.023 5 113034486.14905     -2731.797 5        35.014                                    21509746.522 3  88078801.45803     -2128.665 3        22.762    21509751.122 5  88078820.43005     -2128.749 5        34.371
G14         8.000    20746273.323 6 109022379.29206      -113.178 6        40.293                                    20746271.663 3  84952504.82603       -88.196 3        22.552    20746271.435 6  84952535.82806       -88.232 6        40.052
G15         9.000    22027892.272 6 115757391.09906      2136.398 6        41.349                                    22027892.099 4  90200524.06804      1664.732 4        29.251    22027894.481 6  90200541.07506      1664.487 6        38.087
E06        11.000    23421614.172 7 123081396.00107     -1273.327 7        45.846                                                                    23421616.001 7  91911470.56407      -950.848 7        47.812    23421615.405 8  94309098.32508      -975.726 8        48.482
E31        13.000    24335703.824 6 127885140.02806      1022.653 6        37.028                                                                    24335707.098 7  95498561.94007       763.781 7        47.283    24335704.826 6  97989802.82306       783.629 6        38.868
G05        14.000    21768046.191 7 114392080.18007     -2836.032 7        44.561                                    21768045.378 7  89136425.69707     -2209.890 7        43.054    21768046.074 7  89136393.70607     -2209.937 7        43.918
E04        17.000    24438023.438 7 128422669.29807     -2471.648 7        46.726                                                                    24438024.571 7  95900059.95207     -1845.559 7        42.169    24438024.424 7  98401732.24607     -1893.895 7        43.549
E05        18.000    25599407.296 5 134525793.62905      1720.440 5        35.905                                                                    25599390.958 6 100457550.38806      1284.822 6        36.567    25599398.379 4 103078263.12804      1317.854 4        25.534
E09        21.000    23791985.161 7 125027800.32607       -26.741 7        42.836                                                                    23791986.147 7  93364828.92707       -20.030 7        46.334    23791985.307 7  95800493.72907       -20.475 7        42.459
S36        23.000    38363513.089 5 201601709.35705      -852.065 5        32.497
S23        24.000    38296406.815 6 201248885.01006      -851.430 6        39.363
E34        26.000    27877577.164 5 146497676.03405     -2049.233 5        33.731                                                                    27877576.427 4 109397611.63304     -1530.681 4        24.180    27877626.948 4 112251580.22004     -1570.334 4        28.957
R13        27.000    21285008.424 5 113660870.67905      2481.633 5        34.486
C05        28.000                                                                                                                                                                                                    39497587.773 5 159040388.57705      -700.419 5        35.533
R19        29.000    24267516.375 5                     -2914.511 5        32.114                                                                    24267521.344 4                     -2266.955 4        27.737
R11        30.000    21919075.658 7 117128834.03007     -4535.053 7        43.219                                                                    21919075.130 5  91100430.29505     -3527.410 5        35.614
C07        32.000                                                                                                                                    39233163.840 3                      -168.149 3        23.333    39233160.634 6 157975872.43606      -129.868 6        39.649    39233158.057 5 166008374.06305      -136.228 5        30.000
C10        33.000                                                                                                                                    39322388.228 6 204762087.86606       164.788 6        36.522    39322387.595 5 158335019.00505       127.555 5        35.029    39322382.777 5 166385882.48205       134.263 5        31.630
C36        34.000                                                                                                                                    21617387.243 7 112567409.37407      -502.648 7        46.247                                                                    21617392.538 8  91470346.40008      -408.438 8        48.951
R02        35.000    19282593.993 8 102895543.32108      -689.682 8        50.535                                                                    19282595.071 7  80030062.07807      -536.432 7        45.418
R03        36.000    21761656.225 7 116491929.40507      2765.439 7        46.826                                                                    21761655.407 6  90604758.32806      2150.857 6        41.716
C45        37.000                                                                                                                                    24152640.343 6 125769146.58006      1908.427 6        38.075                                                                    24152633.967 7 102197690.76307      1550.744 7        42.633
R12        38.000    19251553.822 8 102838247.19908      -711.324 8        48.992                                                                    19251555.004 7  79985711.72107      -553.214 7        46.661
C40        40.000                                                                                                                                    39250240.340 6 204386367.00906       -75.796 6        39.691
R01        44.000    21263525.432 6 113665781.38806     -4336.125 6        40.238                                                                    21263526.731 6  88406671.84506     -3372.287 6        37.070
C19        48.000                                                                                                                                    24126036.469 7 125630729.30907     -3782.918 7        42.758                                                                    24126033.125 6 102085161.71406     -3073.829 6        37.115
C22        51.000                                                                                                                                    21829187.153 8 113670306.52208      -978.445 8        51.876                                                                    21829182.407 8  92366393.47008      -795.111 8        51.414
C21        55.000                                                                                                                                    24662287.119 7 128423085.68107      1830.760 7        45.392                                                                    24662282.541 7 104354167.38707      1487.723 7        44.957
> 2025 01 02 08 15  5.0000000  0 32
G13         1.000    20224282.738 7 106279487.72407       255.467 7        47.407                                    20224276.059 5  82815056.96305       199.067 5        32.144
G18         2.000    25354600.053 5 133239324.44205     -2068.777 5        35.138
G20         4.000    23351749.126 6 122714395.79006     -4271.933 6        39.390
G07         5.000    24165858.576 4                     -3586.276 4        29.289
G30         6.000    21512350.518 5 113048148.85005     -2733.400 5        35.490                                    21512346.833 4  88089447.71304     -2129.925 4        25.789    21512350.724 5  88089466.65305     -2129.738 5        31.328
G14         8.000    20746382.611 6 109022953.89506      -116.358 6        38.973                                    20746380.721 3  84952952.58203       -90.670 3        22.305    20746380.953 6  84952983.57106       -90.780 6        40.281
G15         9.000    22025861.698 6 115746714.54606      2134.609 6        39.006                                    22025860.793 4  90192204.67604      1663.332 4        28.834    22025862.388 6  90192221.68506      1663.272 6        36.907
E06        11.000    23422826.861 7 123087767.28707     -1275.019 7        46.104                                                                    23422828.416 7  91916228.33307      -952.060 7        47.976    23422827.787 8  94313980.21408      -976.940 8        48.416
E31        13.000    24334733.167 6 127880031.71106      1020.899 6        37.251                                                                    24334734.756 7  95494747.30307       762.347 7        47.225    24334733.945 6  97985888.68906       781.975 6        39.529
G05        14.000    21770745.681 7 114406268.48607     -2839.116 7        43.647                                    21770745.460 7  89147481.50407     -2212.295 7        42.770    21770746.084 7  89147449.51207     -2212.282 7        43.943
E04        17.000    24440376.233 7 128435031.57807     -2473.132 7        47.770                                                                    24440377.366 6  95909291.53606     -1846.806 6        41.917    24440376.615 7  98411204.63407     -1894.991 7        43.151
E05        18.000    25597772.341 6 134517192.91006      1720.177 6        36.405                                                                    25597754.259 6 100451127.77806      1284.536 6        36.900    25597762.527 4 103071672.98004      1318.131 4        26.156
E09        21.000    23792010.903 7 125027938.41007       -28.275 7        43.014                                                                    23792012.727 7  93364932.00107       -21.048 7        46.509    23792011.672 7  95800599.50807       -21.595 7        43.166
S36        23.000    38364330.551 5 201605972.34005      -852.671 5        32.916
S23        24.000    38297214.010 6 201253142.89106      -851.458 6        39.640
E34        26.000    27879530.486 5 146507928.72205     -2051.245 5        33.695                                                                                                                                    27879581.828 4 112259436.14804     -1571.789 4        29.355
R13        27.000    21282687.151 6 113648468.85306      2479.381 6        36.038
C05        28.000                                                                                                                                                                                                    39498457.356 5 159043892.05905      -700.769 5        35.019
R19        29.000    24270241.225 5                     -2917.944 5        32.623                                                                    24270247.674 4                     -2269.720 4        26.671
R11        30.000    21923316.693 6 117151513.81506     -4536.787 6        38.637                                                                    21923319.186 6  91118070.11206     -3528.423 6        37.410
C07        32.000                                                                                                                                    39233325.364 4                      -168.569 4        24.496    39233322.150 6 157976523.74306      -130.571 6        39.096    39233319.582 5 166009058.49005      -136.939 5        30.211
C10        33.000                                                                                                                                    39322232.756 6 204761266.28506       163.968 6        37.195    39322229.425 5 158334383.71305       126.955 5        35.524    39322224.960 5 166385214.90605       133.272 5        31.781
C36        34.000                                                                                                                                    21617871.363 7 112569928.89807      -504.942 7        46.130                                                                    21617876.380 8  91472393.69308      -410.160 8        48.751
R02        35.000    19283242.262 8 102899002.28708      -693.716 8        51.025                                                                    19283243.094 7  80032752.35907      -539.511 7        44.415
R03        36.000    21759074.891 7 116478107.22707      2763.645 7        46.843                                                                    21759073.181 6  90594007.71706      2149.482 6        41.063
C45        37.000                                                                                                                                    24150804.709 5 125759608.11405      1907.306 5        35.771                                                                    24150802.341 7 102189939.94207      1549.800 7        43.024
R12        38.000    19252221.571 8 102841814.02908      -715.210 8        50.077                                                                    19252222.500 7  79988485.92107      -556.284 7        45.875
C40        40.000                                                                                                                                    39250311.532 6 204386749.29606       -76.877 6        39.787
R01        44.000    21267578.415 6 113687468.71006     -4338.685 6        40.720                                                                    21267582.717 6  88423539.74306     -3374.395 6        37.595
C19        48.000                                                                                                                                    24129669.185 7 125649648.31807     -3784.390 7        42.440                                                                    24129667.086 6 102100534.95206     -3075.036 6        37.134
C22        51.000                                                                                                                                    21830128.066 8 113675206.53808      -981.337 8        51.909                                                                    21830123.255 8  92370375.09208      -797.254 8        51.129
C21        55.000                                                                                                                                    24660530.095 7 128413936.15107      1829.209 7        44.792                                                                    24660525.258 7 104346732.61007      1486.622 7        44.460
> 2025 01 02 08 15 10.0000000  0 32
G13         1.000    20224040.149 7 106278216.13607       253.313 7        47.216                                    20224033.947 5  82814066.10405       197.382 5        32.084
G18         2.000    25356571.127 5 133249675.67105     -2071.381 5        35.233
G20         4.000    23355814.026 6 122735758.23506     -4272.963 6        40.043
G07         5.000    24169270.321 4                     -3586.612 4        26.539
G30         6.000    21514952.049 6 113061818.55706     -2734.700 6        38.129                                    21514948.245 4  88100099.44104     -2130.924 4        27.677    21514952.622 5  88100118.36105     -2130.406 5        31.857
G14         8.000    20746494.734 5 109023543.81205      -119.633 5        35.690                                    20746492.610 3  84953412.27903       -93.220 3        20.905    20746492.923 7  84953443.23007       -92.953 7        42.008
G15         9.000    22023830.312 6 115736046.30706      2132.841 6        36.964                                    22023831.102 4  90183891.74404      1661.958 4        28.076    22023831.977 6  90183908.75306      1661.888 6        36.261
E06        11.000    23424040.722 7 123094146.02407     -1276.420 7        46.453                                                                    23424042.176 7  91920991.67007      -953.197 7        47.653    23424041.561 8  94318867.80408      -977.997 8        48.476
E31        13.000    24333762.859 6 127874932.77906      1019.152 6        36.423                                                                    24333764.571 7  95490939.65307       760.887 7        47.079    24333763.915 6  97981981.70006       780.875 6        40.172
G05        14.000    21773448.686 7 114420471.39107     -2841.967 7        42.745                                    21773448.287 7  89158548.68607     -2214.521 7        42.389    21773448.818 7  89158516.71207     -2214.512 7        44.187
E04        17.000    24442729.988 8 128447400.14308     -2474.272 8        48.553                                                                    24442730.722 7  95918527.78707     -1847.693 7        42.197    24442729.973 7  98420681.82907     -1896.014 7        43.217
E05        18.000    25596140.230 6 134508593.02406      1719.717 6        37.546                                                                    25596117.762 6 100444705.82606      1284.287 6        37.115    25596126.913 4 103065083.41604      1317.990 4        26.575
E09        21.000    23792038.862 7 125028083.01407       -29.403 7        42.756                                                                    23792040.275 7  93365039.98907       -22.025 7        46.576    23792039.158 7  95800710.31907       -22.586 7        44.181
S36        23.000    38365143.796 5 201610234.55505      -852.297 5        34.033
S23        24.000    38298023.266 6 201257400.44306      -851.374 6        39.237
E34        26.000    27881482.863 5 146518192.21605     -2053.627 5        33.623                                                                    27881482.713 4 109412932.10104     -1533.117 4        25.068    27881539.286 4 112267300.28204     -1573.598 4        29.204
R13        27.000    21280367.820 6 113636078.45506      2477.086 6        38.039
C05        28.000                                                                                                                                                                                                    39499327.587 5 159047395.35905      -700.659 5        34.729
R19        29.000    24272975.918 5                     -2921.459 5        31.087                                                                    24272976.361 4                     -2273.130 4        25.323
R11        30.000    21927559.609 4 117174199.78304     -4537.547 4        29.545                                                                    21927563.486 6  91135714.81806     -3529.356 6        37.807
C07        32.000                                                                                                                                    39233492.040 4                      -169.627 4        26.790    39233484.671 6 157977178.06906      -130.985 6        37.936    39233481.619 4 166009746.11704      -137.342 4        29.318
C10        33.000                                                                                                                                    39322076.324 6 204760447.97406       163.356 6        36.707    39322071.769 5 158333750.92605       126.447 5        34.214    39322067.501 5 166384549.97205       132.631 5        31.683
C36        34.000                                                                                                                                    21618358.017 7 112572459.22007      -507.057 7        46.460                                                                    21618362.354 8  91474449.82308      -411.966 8        48.576
R02        35.000    19283894.014 8 102902480.20008      -697.430 8        50.702                                                                    19283895.277 7  80035457.39507      -542.358 7        43.903
R03        36.000    21756495.088 7 116464292.36607      2762.387 7        46.771                                                                    21756492.896 6  90583262.81306      2148.553 6        41.402
C45        37.000                                                                                                                                    24148970.864 5 125750075.52905      1906.266 5        35.224                                                                    24148971.673 7 102182193.94207      1548.901 7        42.163
R12        38.000    19252893.151 8 102845399.50008      -718.813 8        50.047                                                                    19252893.885 7  79991274.61607      -559.078 7        44.867
C40        40.000                                                                                                                                    39250384.787 6 204387136.39906       -77.948 6        38.769
R01        44.000    21271639.195 6 113709167.66906     -4340.876 6        40.195                                                                    21271642.128 6  88440416.66406     -3375.957 6        37.501
C19        48.000                                                                                                                                    24133303.385 7 125668574.40107     -3785.873 7        43.623                                                                    24133302.421 6 102115913.94306     -3076.180 6        37.924
C22        51.000                                                                                                                                    21831071.577 8 113680119.83708      -983.832 8        51.397                                                                    21831066.730 8  92374367.57408      -799.442 8        51.029
C21        55.000                                                                                                                                    24658774.076 7 128404793.33107      1828.029 7        44.612                                                                    24658769.247 7 104339303.34407      1485.386 7        43.803
> 2025 01 02 08 15 15.0000000  0 32
G13         1.000    20223799.388 7 106276955.53807       251.165 7        47.308                                    20223794.009 5  82813083.81405       195.718 5        32.054
G18         2.000    25358546.533 6 133260039.72706     -2073.755 6        36.132
G20         4.000    23359880.020 6 122757125.52706     -4273.779 6        39.562
G07         5.000    24172680.828 4                     -3587.209 4        27.796                                                                                                    24172687.990 3                     -2796.358 3        20.357
G30         6.000    21517556.037 6 113075495.02606     -2735.853 6        40.861                                    21517550.984 4  88110756.42504     -2131.823 4        29.308    21517554.865 5  88110775.38705     -2131.780 5        32.515
G14         8.000    20746608.735 5 109024148.76105      -122.178 5        32.066                                    20746607.441 3  84953883.64403       -95.200 3        20.024    20746607.985 7  84953914.67807       -95.418 7        42.502
G15         9.000    22021800.615 5 115725386.19305      2131.089 5        33.665                                    22021802.841 4  90175585.15004      1660.580 4        27.689    22021802.457 5  90175602.12405      1660.825 5        35.276
E06        11.000    23425255.677 7 123100532.04907     -1277.821 7        46.006                                                                    23425257.555 7  91925760.44407      -954.208 7        47.662    23425256.857 8  94323760.99008      -979.076 8        48.241
E31        13.000    24332793.674 5 127869843.04805      1017.226 5        35.462                                                                    24332796.136 7  95487138.87007       759.613 7        46.912    24332795.473 6  97978081.78106       779.359 6        40.656
G05        14.000    21776154.953 7 114434688.75707     -2844.657 7        42.025                                    21776153.807 6  89169627.14406     -2216.620 6        41.614    21776154.545 7  89169595.15407     -2216.631 7        44.376
E04        17.000    24445085.270 8 128459774.82408     -2475.315 8        48.792                                                                    24445085.377 7  95927768.61107     -1848.526 7        42.059    24445084.545 7  98430163.70507     -1896.741 7        42.861
E05        18.000    25594507.262 6 134499993.74106      1719.987 6        38.093                                                                    25594482.465 6 100438284.30106      1284.382 6        37.645    25594491.514 4 103058494.38404      1317.943 4        26.060
E09        21.000    23792068.366 7 125028234.04507       -30.670 7        42.233                                                                    23792069.136 7  93365152.76207       -22.959 7        46.580    23792067.727 7  95800826.02907       -23.545 7        44.835
S36        23.000    38365950.285 5 201614495.81405      -851.883 5        33.952
S23        24.000    38298830.045 6 201261657.55906      -851.384 6        38.820
E34        26.000    27883436.816 5 146528466.25405     -2055.468 5        32.725                                                                    27883438.600 4 109420604.24904     -1535.422 4        26.922    27883495.670 4 112275172.59104     -1575.062 4        25.128
R13        27.000    21278049.965 6 113623699.58306      2474.884 6        39.087
C05        28.000                                                                                                                                                                                                    39500197.094 5 159050898.39205      -700.457 5        34.795
R19        29.000    24275705.387 5                     -2924.678 5        30.951
R11        30.000    21931797.106 5                     -4539.112 5        32.365                                                                    21931811.296 6  91153364.32506     -3530.212 6        38.601
C07        32.000                                                                                                                                    39233658.290 4                      -170.663 4        29.630    39233646.723 6 157977835.22306      -131.721 6        38.216    39233644.405 4 166010436.72004      -138.299 4        28.512
C10        33.000                                                                                                                                    39321919.097 6 204759632.86406       162.624 6        36.605    39321914.570 5 158333120.57605       126.126 5        32.898    39321911.479 5 166383887.60605       132.130 5        31.804
C36        34.000                                                                                                                                    21618846.572 7 112575000.19907      -509.108 7        47.260                                                                    21618850.417 8  91476514.58908      -413.775 8        48.534
R02        35.000    19284548.933 8 102905977.25208      -701.132 8        50.063                                                                    19284550.418 7  80038177.31807      -545.261 7        43.431
R03        36.000    21753915.135 7 116450484.38507      2760.948 7        46.683                                                                    21753913.017 6  90572523.26806      2147.359 6        41.986
C45        37.000                                                                                                                                    24147141.041 6 125740548.72306      1904.765 6        37.240                                                                    24147141.866 6 102174452.65706      1547.950 6        41.938
R12        38.000    19253567.260 8 102849003.50508      -722.540 8        49.723                                                                    19253568.314 7  79994077.73107      -561.971 7        44.131
C40        40.000                                                                                                                                    39250460.845 6 204387528.17306       -78.750 6        38.300
R01        44.000    21275702.051 6 113730878.19506     -4342.942 6        40.706                                                                    21275703.315 6  88457302.59406     -3377.983 6        36.957
C19        48.000                                                                                                                                    24136938.538 7 125687507.32607     -3787.026 7        43.666                                                                    24136938.877 6 102131298.48906     -3077.378 6        40.114
C22        51.000                                                                                                                                    21832017.712 8 113685046.33708      -986.495 8        50.944                                                                    21832012.738 8  92378370.75608      -801.648 8        50.908
C21        55.000                                                                                                                                    24657018.993 7 128395657.11007      1826.734 7        44.199                                                                    24657014.842 7 104331879.38907      1484.328 7        43.596
> 2025 01 02 08 15 20.0000000  0 32
G13         1.000    20223561.636 7 106275706.35107       248.500 7        47.301                                    20223556.231 5  82812110.42505       193.638 5        31.630
G18         2.000    25360529.492 6 133270416.95006     -2076.836 6        36.019
G20         4.000    23363946.732 6 122778497.85906     -4275.230 6        38.204
G07         5.000    24176089.845 3                     -3587.158 3        21.214                                                                                                    24176107.851 4                     -2796.024 4        24.241
G30         6.000    21520160.219 7 113089178.54807     -2737.652 7        42.182                                    21520155.114 5  88121418.90105     -2133.226 5        30.506    21520158.624 5  88121437.88105     -2133.592 5        33.078
G14         8.000    20746727.461 4 109024769.27004      -126.140 4        29.697                                    20746725.215 3  84954367.17203       -98.284 3        18.388    20746725.735 6  84954398.14706       -98.118 6        41.013
G15         9.000    22019774.644 5 115714734.41905      2129.190 5        35.948                                    22019776.176 4  90167285.05104      1659.131 4        26.275    22019773.860 5  90167302.04805      1659.060 5        33.838
E06        11.000    23426472.089 7 123106925.63707     -1279.644 7        45.877                                                                    23426474.127 7  91930534.87007      -955.601 7        47.638    23426473.533 8  94328659.96208      -980.496 8        48.137
E31        13.000    24331826.758 6 127864762.72006      1014.916 6        36.042                                                                    24331829.530 7  95483345.15607       757.882 7        47.417    24331828.661 6  97974189.11206       777.809 6        41.266
G05        14.000    21778863.818 6 114448920.80606     -2848.221 6        41.998                                    21778862.125 6  89180717.04906     -2219.386 6        41.006    21778862.790 7  89180685.03307     -2219.237 7        44.715
E04        17.000    24447441.279 8 128472155.90908     -2477.005 8        48.940                                                                    24447441.602 7  95937014.20307     -1849.704 7        42.275    24447440.012 7  98439650.49107     -1897.928 7        42.224
E05        18.000    25592869.412 6 134491395.40806      1719.441 6        38.207                                                                    25592846.151 6 100431863.49906      1283.943 6        37.603    25592856.772 5 103051906.06005      1317.388 5        30.347
E09        21.000    23792099.226 6 125028391.72806       -32.340 6        41.721                                                                    23792099.276 7  93365270.52307       -24.201 7        46.690    23792097.509 7  95800946.86607       -24.852 7        45.567
E36        22.000                                                                                                                                    28583320.656 4                     -2668.709 4        24.000
S36        23.000    38366770.000 5 201618757.30505      -852.493 5        32.473
S23        24.000    38299639.784 6 201265914.72406      -851.518 6        38.985
E34        26.000    27885394.427 5 146538751.16905     -2058.277 5        35.729                                                                    27885397.305 4 109428284.47604     -1536.804 4        27.928
R13        27.000    21275734.085 6 113611332.11606      2472.103 6        39.393
C05        28.000                                                                                                                                                                                                    39501066.517 5 159054401.30905      -700.486 5        34.438
R11        30.000                                                                                                                                    21936060.778 6  91171018.82306     -3531.395 6        38.547
C07        32.000                                                                                                                                    39233821.723 5                      -171.122 5        32.168    39233810.370 6 157978495.41006      -132.319 6        38.168    39233809.024 4 166011130.36604      -139.042 4        28.540
C10        33.000                                                                                                                                    39321760.120 5 204758821.08705       161.586 5        35.443    39321759.526 5 158332492.84105       125.135 5        32.581    39321756.624 5 166383227.95405       131.240 5        31.849
C36        34.000                                                                                                                                    21619336.524 7 112577552.09507      -511.717 7        47.841                                                                    21619340.648 8  91478588.21008      -415.783 8        48.660
R02        35.000    19285207.768 8 102909493.25508      -705.419 8        49.897                                                                    19285209.003 7  80040911.98307      -548.614 7        43.001
R03        36.000    21751335.828 7 116436683.95307      2759.194 7        45.597                                                                    21751335.264 6  90561789.58106      2145.906 6        40.582
C45        37.000                                                                                                                                    24145312.300 6 125731027.94706      1903.419 6        37.134                                                                    24145312.401 6 102166716.25906      1546.645 6        40.155
R12        38.000    19254244.497 8 102852626.30608      -726.667 8        49.349                                                                    19254247.058 7  79996895.47507      -565.205 7        44.280
C40        40.000                                                                                                                                    39250537.586 6 204387924.85806       -79.823 6        38.492
R01        44.000    21279765.050 6 113752600.41906     -4345.785 6        39.384                                                                    21279766.779 5  88474197.61005     -3380.292 5        35.810
C19        48.000                                                                                                                                    24140575.448 7 125706447.40007     -3788.943 7        43.266                                                                    24140577.421 6 102146688.82406     -3078.881 6        41.359
C22        51.000                                                                                                                                    21832966.356 8 113689986.25908      -989.496 8        50.799                                                                    21832961.207 8  92382384.83508      -804.087 8        50.747
C21        55.000                                                                                                                                    24655265.652 7 128386527.71707      1825.014 7        43.518                                                                    24655261.803 7 104324461.00707      1482.882 7        43.386
> 2025 01 02 08 15 25.0000000  0 32
G13         1.000    20223325.559 7 106274469.09907       246.251 7        46.469                                    20223320.724 5  82811146.32105       191.877 5        31.004
G20         4.000    23368014.559 6 122799875.77206     -4276.109 6        38.195
G07         5.000                                                                                                                                                                    24179523.205 4                     -2795.822 4        24.180
G30         6.000    21522765.425 7 113102869.62907     -2739.002 7        43.668                                    21522760.898 5  88132087.24105     -2134.277 5        32.186    21522766.260 5  88132106.20405     -2134.146 5        35.786
G14         8.000    20746850.610 5 109025405.65305      -129.293 5        31.577                                    20746846.083 2  84954863.06402      -100.711 2        17.245    20746846.872 6  84954893.97706      -100.476 6        39.739
G15         9.000    22017754.388 6 115704091.57906      2127.671 6        39.018                                    22017750.822 4  90158991.94904      1657.926 4        25.714    22017748.079 5  90159008.97005      1657.927 5        32.766
E06        11.000    23427690.153 7 123113327.28007     -1281.121 7        45.425                                                                    23427692.429 7  91935315.32307      -956.695 7        47.452    23427691.663 7  94333565.12207      -981.629 7        47.938
E31        13.000    24330862.569 6 127859692.40706      1012.925 6        37.403                                                                    24330864.858 7  95479558.88707       756.447 7        47.551    24330863.325 6  97970304.06806       776.199 6        41.681
G05        14.000    21781573.938 7 114463167.93607     -2850.860 7        44.098                                    21781573.194 6  89191818.69006     -2221.441 6        40.689    21781573.828 7  89191786.68807     -2221.427 7        44.476
E04        17.000    24449798.296 8 128484543.86208     -2478.254 8        49.044                                                                    24449798.596 6  95946264.93206     -1850.732 6        41.964    24449796.825 6  98449142.54406     -1898.984 6        41.170
E05        18.000    25591227.212 6 134482798.53406      1719.216 6        38.126                                                                    25591209.774 6 100425443.76806      1283.577 6        36.767    25591221.672 5 103045318.79605      1317.631 5        31.260
E09        21.000    23792129.932 6 125028556.59706       -33.634 6        40.501                                                                    23792130.486 7  93365393.63407       -25.157 7        46.704    23792128.702 7  95801073.19707       -25.792 7        45.910
E36        22.000                                                                                                                                    28586724.156 3                     -2669.592 3        23.543
S36        23.000    38367570.729 5 201623019.14605      -851.849 5        31.819
S23        24.000    38300447.055 6 201270172.37906      -851.603 6        38.640
E34        26.000    27887355.125 6 146549047.40506     -2060.251 6        37.444                                                                    27887356.567 4 109435973.23704     -1538.878 4        28.929
R13        27.000    21273419.855 6 113598976.86806      2469.931 6        38.604
C05        28.000                                                                                                                                                                                                    39501937.468 5 159057904.52305      -700.784 5        34.010
R19        29.000    24281165.672 4                     -2931.016 4        27.317
R11        30.000                                                                                                                                    21940308.237 6  91188678.66606     -3532.583 6        36.408
C07        32.000                                                                                                                                    39233984.446 5                      -171.902 5        32.096    39233976.068 6 157979159.05006      -133.140 6        38.165    39233976.781 4 166011827.75304      -139.866 4        28.360
C10        33.000                                                                                                                                    39321604.734 5 204758013.26205       161.076 5        34.652    39321604.016 5 158331868.20105       124.483 5        32.701    39321600.997 5 166382571.48105       131.042 5        32.425
C36        34.000                                                                                                                                    21619828.712 8 112580115.39208      -513.823 8        48.076                                                                    21619833.082 8  91480671.07108      -417.393 8        48.995
R02        35.000    19285870.596 8 102913028.95508      -709.113 8        49.702                                                                    19285871.323 6  80043661.97606      -551.524 6        41.700
R03        36.000    21748757.842 7 116422891.30107      2757.683 7        45.017                                                                    21748759.044 6  90551061.95106      2144.836 6        40.169
C45        37.000                                                                                                                                    24143485.274 5 125721513.74605      1902.345 5        35.510                                                                    24143485.290 6 102158985.15806      1545.817 6        39.033
R12        38.000    19254927.178 8 102856268.39308      -730.310 8        50.009                                                                    19254929.004 7  79999728.20307      -568.114 7        43.693
C40        40.000                                                                                                                                    39250615.197 6 204388326.97306       -80.879 6        38.393
R01        44.000    21283828.529 6 113774334.70906     -4348.176 6        37.701                                                                    21283830.160 5  88491102.00905     -3382.048 5        34.490
C19        48.000                                                                                                                                    24144214.031 7 125725395.09407     -3790.288 7        42.544                                                                    24144216.496 6 102162085.32206     -3079.762 6        41.807
C22        51.000                                                                                                                                    21833917.422 8 113694940.12308      -992.213 8        50.996                                                                    21833912.542 8  92386410.22508      -806.152 8        50.502
C21        55.000                                                                                                                                    24653513.213 7 128377405.65307      1823.699 7        43.452                                                                    24653510.186 7 104317048.58107      1481.953 7        43.399
> 2025 01 02 08 15 30.0000000  0 33
G13         1.000    20223092.850 7 106273243.36207       244.113 7        45.500                                    20223087.426 5  82810191.19205       190.222 5        30.740
G18         2.000                                                                                                                                                                    25364577.744 3                     -1622.685 3        23.962
G20         4.000    23372083.834 6 122821258.88206     -4276.962 6        39.069
G07         5.000    24182944.606 3                     -3589.657 3        20.929                                                                                                    24182945.472 3                     -2796.485 3        20.643
G30         6.000    21525372.254 7 113116567.84607     -2740.244 7        44.179                                    21525368.140 5  88142761.14905     -2135.254 5        33.515    21525371.340 6  88142780.13106     -2135.097 6        37.595
G14         8.000    20746973.758 4 109026057.38204      -131.959 4        28.900                                    20746969.987 2  84955370.89402      -102.792 2        15.048    20746972.501 6  84955401.89006      -102.815 6        40.012
G15         9.000    22015730.592 7 115693457.29907      2126.098 7        43.082                                    22015726.773 4  90150705.49304      1656.673 4        25.789    22015726.171 5  90150722.53105      1656.741 5        31.781
E06        11.000    23428909.646 7 123119736.60407     -1282.536 7        44.740                                                                    23428911.957 7  91940101.50007      -957.690 7        47.727    23428911.164 7  94338476.15007      -982.684 7        47.848
E31        13.000    24329898.825 6 127854631.62506      1011.257 6        36.968                                                                    24329901.840 7  95475779.75607       755.138 7        47.694    24329900.675 7  97966426.36607       774.976 7        42.015
G05        14.000    21784288.270 7 114477429.79107     -2853.773 7        43.441                                    21784286.995 6  89202931.81006     -2223.719 6        40.601    21784287.405 7  89202899.81607     -2223.621 7        44.360
E04        17.000    24452156.816 8 128496938.32708     -2479.504 8        48.757                                                                    24452157.372 7  95955520.50807     -1851.537 7        42.091    24452154.820 6  98458639.57606     -1899.989 6        40.229
E05        18.000    25589583.404 6 134474202.65606      1719.225 6        36.563                                                                    25589573.355 6 100419024.78906      1283.902 6        36.302    25589586.778 5 103038732.42805      1317.568 5        31.947
E09        21.000    23792160.224 6 125028728.28506       -34.801 6        38.778                                                                    23792163.040 7  93365521.80507       -26.070 7        46.507    23792160.859 7  95801204.71007       -26.699 7        46.300
E36        22.000                                                                                                                                    28590129.364 4                     -2669.682 4        24.947
S36        23.000    38368394.805 5 201627280.87605      -851.994 5        31.570
S23        24.000    38301263.484 6 201274430.07206      -851.213 6        38.988
E34        26.000    27889316.990 6 146559354.59206     -2062.508 6        36.480                                                                    27889317.954 5 109443670.12805     -1540.410 5        30.309
R13        27.000    21271106.608 6 113586633.15406      2467.795 6        38.766
C05        28.000                                                                                                                                                                                                    39502806.800 5 159061407.76005      -700.626 5        34.338
R19        29.000    24283911.047 5                     -2934.903 5        30.174                                                                    24283894.704 3                     -2285.782 3        22.781
R11        30.000    21944572.800 6 117265035.34116     -4542.951 6        39.141                                                                    21944556.249 5  91206343.53505     -3533.484 5        35.143
C07        32.000                                                                                                                                    39234150.213 5                      -172.704 5        30.581    39234141.001 6 157979825.77506      -133.740 6        37.263    39234148.174 4 166012528.29004      -140.323 4        28.882
C10        33.000                                                                                                                                    39321449.807 5 204757208.90505       160.654 5        35.457    39321450.635 5 158331246.26305       124.000 5        32.695    39321446.831 5 166381917.91205       130.314 5        31.977
C36        34.000                                                                                                                                    21620323.037 7 112582689.69207      -515.904 7        47.952                                                                    21620327.614 8  91482762.89808      -419.226 8        49.080
R02        35.000    19286536.429 8 102916583.97708      -712.826 8        49.405                                                                    19286536.664 6  80046426.98706      -554.465 6        39.883
R03        36.000    21746181.768 7 116409106.21107      2756.378 7        44.432                                                                    21746184.803 6  90540340.22006      2143.919 6        39.504
C45        37.000                                                                                                                                    24141659.373 6 125712005.59906      1901.315 6        36.972                                                                    24141660.110 6 102151259.06706      1544.789 6        38.880
R12        38.000    19255612.810 8 102859929.30808      -733.993 8        49.636                                                                    19255613.980 7  80002575.56107      -570.800 7        43.295
C40        40.000                                                                                                                                    39250693.624 6 204388734.13306       -81.894 6        38.817
R01        44.000    21287898.196 5 113796080.96905     -4350.223 5        34.733                                                                    21287899.419 5  88508015.69605     -3383.672 5        34.881
C19        48.000                                                                                                                                    24147854.940 7 125744349.97507     -3791.516 7        42.576                                                                    24147856.647 7 102177487.70407     -3081.050 7        42.328
C22        51.000                                                                                                                                    21834871.666 8 113699907.50608      -994.685 8        51.246                                                                    21834866.391 8  92390446.62508      -808.328 8        50.127
C21        55.000                                                                                                                                    24651763.282 7 128368290.57307      1822.472 7        43.930                                                                    24651759.727 7 104309641.81907      1480.922 7        43.020
> 2025 01 02 08 15 35.0000000  0 32
G13         1.000    20222861.108 7 106272028.87307       241.864 7        44.269                                    20222856.323 4  82809244.82804       188.460 4        29.877
G20         4.000    23376153.930 6 122842646.97406     -4278.050 6        39.508
G30         6.000    21527979.826 7 113130273.01007     -2741.628 7        42.650                                    21527976.634 5  88153440.46505     -2136.334 5        33.359    21527978.266 6  88153459.47706     -2136.394 6        38.535
G14         8.000    20747098.476 4 109026724.47904      -134.334 4        25.759                                    20747096.767 1  84955890.70501      -104.654 1        10.889    20747100.120 7  84955921.71407      -105.012 7        42.561
G15         9.000    22013707.995 7 115682831.38007      2124.252 7        43.600                                    22013704.012 4  90142425.54704      1655.255 4        25.429    22013702.669 5  90142442.59505      1655.371 5        30.951
G23        10.000    25511369.975 5                      2489.114 5        34.533
E06        11.000    23430130.710 7 123126153.37507     -1284.064 7        44.439                                                                    23430132.812 7  91944893.23507      -958.876 7        47.047    23430132.295 8  94343392.88208      -983.889 8        48.063
E31        13.000    24328936.874 6 127849580.28006      1009.282 6        36.125                                                                    24328940.466 7  95472007.63407       753.714 7        47.754    24328939.895 7  97962555.85007       773.420 7        42.882
G05        14.000    21787004.210 7 114491706.21707     -2856.672 7        43.865                                    21787003.635 6  89214056.29306     -2225.974 6        40.279    21787004.295 7  89214024.30607     -2226.011 7        43.562
E04        17.000    24454516.998 8 128509339.04408     -2480.808 8        49.367                                                                    24454517.122 7  95964780.76607     -1852.633 7        42.282    24454514.349 6  98468141.40506     -1900.778 6        40.462
