     3.04           OBSERVATION DATA    M                   RINEX VERSION / TYPE
ssrcrin-15.6.1x                         20250102 160000 UTC PGM / RUN BY / DATE 
(00000000023479385599111004) Septentrio proprietary         COMMENT             
ract                                                        MARKER NAME         
01                                                          MARKER NUMBER       
geodetic                                                    MARKER TYPE         
NFB                 CLIMERS@TUW                             OBSERVER / AGENCY   
3296359             SEPT ASTERX SB3 PROB4.14.4              REC # / TYPE / VERS 
Unknown             Unknown                                 ANT # / TYPE        
  4127447.4715  1206915.1145  4695542.4518                  APPROX POSITION XYZ 
        0.0000        0.0000        0.0000                  ANTENNA: DELTA H/E/N
G   23 X1  C1C L1C D1C S1C C1W S1W C2W L2W D2W S2W C2L L2L  SYS / # / OBS TYPES 
       D2L S2L C5Q L5Q D5Q S5Q C1L L1L D1L S1L              SYS / # / OBS TYPES 
E   21 X1  C1C L1C D1C S1C C6C L6C D6C S6C C5Q L5Q D5Q S5Q  SYS / # / OBS TYPES 
       C7Q L7Q D7Q S7Q C8Q L8Q D8Q S8Q                      SYS / # / OBS TYPES 
S    9 X1  C1C L1C D1C S1C C5I L5I D5I S5I                  SYS / # / OBS TYPES 
R   17 X1  C1C L1C D1C S1C C2P L2P D2P S2P C2C L2C D2C S2C  SYS / # / OBS TYPES 
       C3Q L3Q D3Q S3Q                                      SYS / # / OBS TYPES 
C   25 X1  C1P L1P D1P S1P C5P L5P D5P S5P C2I L2I D2I S2I  SYS / # / OBS TYPES 
       C7I L7I D7I S7I C6I L6I D6I S6I C7D L7D D7D S7D      SYS / # / OBS TYPES 
J   17 X1  C1C L1C D1C S1C C2L L2L D2L S2L C5Q L5Q D5Q S5Q  SYS / # / OBS TYPES 
       C1L L1L D1L S1L                                      SYS / # / OBS TYPES 
I    5 X1  C5A L5A D5A S5A                                  SYS / # / OBS TYPES 
SEPTENTRIO RECEIVERS OUTPUT ALIGNED CARRIER PHASES.         COMMENT             
NO FURTHER PHASE SHIFT APPLIED IN THE RINEX ENCODER.        COMMENT             
G L1C                                                       SYS / PHASE SHIFT   
G L2W                                                       SYS / PHASE SHIFT   
G L2L  0.00000                                              SYS / PHASE SHIFT   
G L5Q  0.00000                                              SYS / PHASE SHIFT   
G L1L  0.00000                                              SYS / PHASE SHIFT   
E L1C  0.00000                                              SYS / PHASE SHIFT   
E L6C  0.00000                                              SYS / PHASE SHIFT   
E L5Q  0.00000                                              SYS / PHASE SHIFT   
E L7Q  0.00000                                              SYS / PHASE SHIFT   
E L8Q  0.00000                                              SYS / PHASE SHIFT   
S L1C                                                       SYS / PHASE SHIFT   
S L5I                                                       SYS / PHASE SHIFT   
R L1C                                                       SYS / PHASE SHIFT   
R L2P  0.00000                                              SYS / PHASE SHIFT   
R L2C                                                       SYS / PHASE SHIFT   
R L3Q  0.00000                                              SYS / PHASE SHIFT   
C L1P  0.00000                                              SYS / PHASE SHIFT   
C L5P  0.00000                                              SYS / PHASE SHIFT   
C L2I                                                       SYS / PHASE SHIFT   
C L7I                                                       SYS / PHASE SHIFT   
C L6I                                                       SYS / PHASE SHIFT   
C L7D                                                       SYS / PHASE SHIFT   
J L1C                                                       SYS / PHASE SHIFT   
J L2L  0.00000                                              SYS / PHASE SHIFT   
J L5Q  0.00000                                              SYS / PHASE SHIFT   
J L1L  0.00000                                              SYS / PHASE SHIFT   
I L5A                                                       SYS / PHASE SHIFT   
  2025     1     2    16     0    0.0000000     GPS         TIME OF FIRST OBS   
 C1C    0.000 C2C    0.000 C2P    0.000                     GLONASS COD/PHS/BIS 
DBHZ                                                        SIGNAL STRENGTH UNIT
    18                                                      LEAP SECONDS        
 24 R01  1 R02 -4 R03  5 R04  6 R05  1 R06 -4 R07  5 R08  6 GLONASS SLOT / FRQ #
    R09 -2 R10 -7 R11  0 R12 -1 R13 -2 R14 -7 R15  0 R16 -1 GLONASS SLOT / FRQ #
    R17  4 R18 -3 R19  3 R20  2 R21  4 R22 -3 R23  3 R24  2 GLONASS SLOT / FRQ #
                                                            END OF HEADER       
> 2025 01 02 16 00  0.0000000  0 40
G11         2.000                                                                                                                                                                    24385730.427 4                     -3183.149 4        28.313
G25         3.000    20874376.096 6 109695756.75806     -3206.603 6        40.942                                    20874379.108 6  85477199.83106     -2498.649 6        37.558    20874378.759 6  85477118.78606     -2498.634 6        40.567
G05         4.000    23651738.245 4                      1397.491 4        26.192
E25         6.000    23668101.692 7 124376772.14707     -2029.545 7        47.035                                                                    23668104.572 8  92878890.30408     -1515.563 8        48.804    23668104.282 8  95301713.31308     -1555.111 8        50.309
G31         7.000    21620763.967 6 113618074.78406      -176.243 6        36.707                                                                                                    21620762.735 6  88533487.47106      -137.190 6        36.333
G28         8.000    21382984.659 6 112368470.15606     -1957.108 6        40.918                                    21382982.668 4  87559746.58104     -1525.019 4        24.827    21382984.457 5  87559864.59005     -1525.095 5        35.848
G29         9.000    20274544.764 8 106543528.55608     -1223.760 8        48.526                                    20274538.973 6  83020935.49006      -953.588 6        36.068    20274541.932 5  83020887.50005      -953.308 5        33.467
E11        10.000    23895901.440 6 125573811.46006     -1037.196 6        38.345                                                                    23895900.580 7  93772645.78807      -774.440 7        42.768    23895899.622 6  96218940.32806      -794.553 6        39.387
E10        11.000                                                                                                                                    25321850.245 6  99368414.73906     -1909.694 6        38.327    25321852.428 7 101960571.14307     -1959.402 7        47.044
G18        12.000    22591135.581 6 118717296.10606      2402.095 6        37.233                                    22591136.857 2  92506987.42802      1871.747 2        14.143    22591139.149 5  92507063.41805      1871.637 5        35.052
E12        13.000    27335254.698 4                     -3456.385 4        24.511                                                                                                                                    27335242.394 4 110067678.25404     -2648.759 4        28.692
G04        14.000    25082620.046 4 131810121.34204      -332.328 4        25.218                                                                                                    25082622.633 3                      -259.892 3        20.810
G12        15.000    24301048.957 4                     -4325.792 4        24.000
G26        17.000    22497064.121 6 118222853.08406      2099.232 6        39.444                                    22497058.647 3  92121735.09503      1635.761 3        22.152    22497059.582 4  92121730.06004      1635.853 4        29.848
E07        18.000    27772274.424 5 145944301.43305     -1349.823 5        34.629                                                                    27772286.030 7 108984419.17907     -1008.016 7        42.199    27772283.046 6 111827505.24506     -1034.379 6        40.276
E30        19.000                                                                                                                                    28200469.373 5 110664727.06205      1340.715 5        32.144    28200466.916 4                      1376.023 4        29.081
E08        20.000                                                                                                                                    27873716.734 4 109382504.38804     -2409.939 4        28.009
E02        21.000    23736604.115 7 124736691.38507       502.978 7        44.405                                                                    23736604.026 7  93147595.88007       375.619 7        45.619    23736603.691 7  95577542.25707       385.439 7        46.170
S23        22.000    38072790.871 6 200073937.52306      -866.439 6        36.393
E36        24.000    24793457.008 6 130290521.45406      1619.120 6        39.955                                                                    24793462.250 6  97294992.47806      1209.042 6        39.589    24793461.879 7  99833106.20107      1240.640 7        45.481
R18        25.000    19015544.798 8 101506309.15608      -252.529 8        49.618                                                                    19015545.863 7  78949339.38307      -196.432 7        43.937
S21        27.000    38351904.994 5 201540717.78905      -862.385 5        35.071
R19        29.000    21234169.472 6 113588488.73806      2679.488 6        36.132                                                                    21234174.622 5  88346615.75005      2083.705 5        30.664
R15        30.000    21025585.107 6 112354383.06306     -4218.975 6        37.539
S36        31.000    38123177.923 6 200338650.84206      -862.538 6        36.091
R16        34.000    19025636.689 8 101632135.44908      -468.176 8        48.735                                                                    19025636.758 7  79046906.03607      -364.190 7        43.649
C44        35.000                                                                                                                                    21224972.146 8 110524310.21308      -949.050 8        49.011                                                                    21224972.366 7  89809961.92907      -771.087 7        47.014
R17        36.000    20456880.882 7 109469303.04807     -3852.647 7        43.924                                                                    20456879.871 6  85142528.02506     -2996.573 6        40.315
R09        37.000    21887341.285 5 116877185.12705      2902.129 5        32.299                                                                    21887327.388 6  90904444.89806      2257.087 6        41.619
C12        41.000                                                                                                                                    21974536.869 7 114427233.89507       564.516 7        46.237    21974534.372 8  88482397.39508       436.556 8        50.473    21974533.216 7  92981485.77207       458.878 7        45.794
C35        42.000                                                                                                                                    23496513.576 8 122352494.21608     -3383.494 8        49.508                                                                    23496513.136 7  99421464.80007     -2749.224 7        42.315
C05        43.000                                                                                                                                                                                                    39324285.815 4                      -623.653 4        29.697
C38        44.000                                                                                                                                    38747383.167 6 201767787.69906      -119.804 6        38.219                                                                    38747382.309 6 163952855.49306       -97.297 6        37.607
C25        45.000                                                                                                                                    23042938.678 7 119990619.86107      1273.769 7        46.776                                                                    23042937.728 7  97502394.50007      1035.129 7        43.088
C08        46.000                                                                                                                                    38424439.786 6 200086163.75806       503.408 6        39.498    38424581.393 4 154719331.03704       389.115 4        24.421    38424432.621 5 162586367.69905       409.278 5        30.762
C26        48.000                                                                                                                                    24680057.126 5 128515568.80705     -4065.448 5        33.030                                                                    24680064.957 5 104429400.94305     -3303.334 5        32.335
C24        51.000                                                                                                                                    21520778.375 6 112064368.70206     -1885.828 6        41.738                                                                    21520779.227 7  91061542.94807     -1532.223 7        45.544
C34        52.000                                                                                                                                    23416319.796 6 121934924.64106      1816.371 6        40.129                                                                    23416348.403 5  99082183.01605      1476.315 5        33.503
I06        58.000    38609073.601 5 151510361.91505      -686.640 5        32.874
I02        59.000    37810148.946 6 148375171.26306     -1080.842 6        36.295
> 2025 01 02 16 00  5.0000000  0 42
G20         1.000    23507415.418 4                      -882.471 4        26.886
G11         2.000                                                                                                                                                                    24389620.824 4                     -3184.643 4        28.597
G25         3.000    20877428.396 7 109711795.16407     -3209.003 7        42.637                                    20877431.362 6  85489697.27806     -2500.521 6        37.418    20877431.281 6  85489616.24206     -2500.512 6        40.446
G05         4.000    23650404.669 4                      1395.142 4        28.588
E25         6.000    23670033.583 7 124386923.47207     -2031.214 7        46.855                                                                    23670036.277 8  92886470.84108     -1516.734 8        48.846    23670036.016 8  95309491.60708     -1556.349 8        50.413
G31         7.000    21620932.641 5 113618963.75205      -179.539 5        34.609                                                                                                    21620931.074 5  88534180.20205      -139.744 5        35.862
G28         8.000    21384848.210 6 112378263.93106     -1960.536 6        39.856                                    21384845.157 3  87567378.11103     -1527.695 3        23.162    21384847.156 5  87567496.13005     -1527.928 5        34.286
G29         9.000    20275710.189 8 106549652.99008     -1226.173 8        48.098                                    20275703.853 5  83025707.77505      -955.459 5        35.295    20275707.080 5  83025659.79805      -955.680 5        33.210
E11        10.000    23896889.714 6 125579002.38406     -1039.742 6        37.796                                                                    23896888.490 7  93776522.15107      -776.363 7        43.031    23896887.120 6  96222917.80606      -796.662 6        39.012
E10        11.000                                                                                                                                    25324284.836 6  99377966.54906     -1911.295 6        38.739    25324286.277 7 101970372.14307     -1961.151 7        46.955
G18        12.000    22588852.422 6 118705289.22006      2400.186 6        36.786                                    22588852.122 2  92497631.45802      1870.253 2        14.286    22588856.203 6  92497707.45806      1870.158 6        36.352
E12        13.000    27338543.138 4                     -3457.415 4        24.361                                                                                                                                    27338531.361 4 110080922.60304     -2649.604 4        27.665
G04        14.000                                                                                                                                                                    25082943.132 4                      -260.996 4        24.617
G12        15.000    24305166.990 3                     -4327.654 3        22.609
G26        17.000    22495066.444 6 118212359.37306      2097.881 6        37.743                                    22495061.468 3  92113558.24603      1634.698 3        22.000    22495063.006 5  92113553.27305      1634.476 5        30.219
E07        18.000    27773560.825 5 145951056.62005     -1352.366 5        33.898                                                                    27773571.927 7 108989463.63707     -1009.947 7        42.343    27773568.837 6 111832681.29006     -1036.253 6        39.793
E30        19.000    28198740.804 3                      1797.814 3        22.286                                                                    28198761.147 5 110658022.67305      1340.940 5        31.494    28198760.630 4                      1375.774 4        29.393
E08        20.000                                                                                                                                    27876791.568 4 109394553.85804     -2410.202 4        28.645
E02        21.000    23736125.390 7 124734179.10707       501.644 7        44.460                                                                    23736126.073 7  93145719.84607       374.596 7        45.980    23736125.429 7  95575617.27507       384.416 7        45.980
S23        22.000    38073613.520 6 200078269.96006      -866.708 6        36.544
R08        23.000    23774165.754 4                     -1703.827 4        24.316
E36        24.000    24791918.283 6 130282430.18306      1617.280 6        41.280                                                                    24791922.356 6  97288950.33306      1207.615 6        39.234    24791921.725 7  99826906.39807      1239.258 7        45.561
R18        25.000    19015783.511 8 101507581.77908      -256.726 8        49.690                                                                    19015784.602 7  78950329.21307      -199.671 7        44.489
S21        27.000    38352721.338 5 201545029.53405      -862.432 5        34.971
R19        29.000    21231666.602 6 113575096.59806      2676.933 6        36.594                                                                    21231670.257 4  88336199.62204      2082.245 4        29.972
R15        30.000    21029533.124 5 112375483.68205     -4221.555 5        34.514                                                                    21029509.885 6  87403081.25116     -3283.544 6        39.048
S36        31.000    38123998.582 6 200342963.25906      -862.520 6        36.333
R16        34.000    19026077.035 8 101634486.00308      -472.191 8        48.594                                                                    19026076.919 7  79048734.23907      -367.175 7        43.418
C44        35.000                                                                                                                                    21225884.202 8 110529061.14408      -951.572 8        48.832                                                                    21225884.759 7  89813822.45707      -773.185 7        47.015
R17        36.000    20460481.025 7 109488572.36607     -3855.232 7        42.095                                                                    20460480.669 6  85157515.28606     -2998.492 6        39.982
R09        37.000    21884620.284 3                      2899.762 3        19.672                                                                    21884611.273 6  90893161.62506      2256.049 6        41.471
C12        41.000                                                                                                                                    21973995.892 7 114424416.39007       562.149 7        45.926    21973993.207 8  88480218.73908       434.733 8        50.418    21973991.825 7  92979196.33707       456.928 7        45.484
C35        42.000                                                                                                                                    23499762.388 8 122369414.34408     -3384.772 8        49.198                                                                    23499762.263 7  99435213.79407     -2750.395 7        42.235
C05        43.000                                                                                                                                                                                                    39325058.681 5                      -622.840 5        30.189
C38        44.000                                                                                                                                    38747499.955 6 201768390.16006      -121.490 6        38.982                                                                    38747498.053 6 163953345.04306       -98.604 6        37.554
C25        45.000                                                                                                                                    23041716.395 7 119984255.72907      1271.680 7        46.080                                                                    23041715.389 7  97497223.12007      1033.368 7        43.132
C08        46.000                                                                                                                                    38423957.234 6 200083649.78006       502.079 6        39.096    38424088.419 3                       389.247 3        22.629    38423949.606 5 162584324.85905       408.335 5        30.740
C26        48.000                                                                                                                                    24683960.845 5 128535899.09205     -4067.010 5        33.096                                                                    24683969.885 5 104445920.96305     -3304.480 5        32.114
C24        51.000                                                                                                                                    21522590.543 6 112073804.08306     -1888.573 6        40.768                                                                    21522591.002 7  91069209.96007     -1534.509 7        45.487
C34        52.000                                                                                                                                    23414576.483 6 121925845.30606      1814.961 6        40.841
I06        58.000    38609947.446 5 151513794.33905      -686.800 5        33.144
I02        59.000    37811526.151 5 148380574.92105     -1080.818 5        35.867
> 2025 01 02 16 00 10.0000000  0 42
G20         1.000    23508250.985 4                      -885.531 4        26.048
G11         2.000                                                                                                                                                                    24393505.447 4                     -3185.331 4        28.379
G25         3.000    20880483.720 7 109727843.58007     -3210.677 7        43.778                                    20880485.431 6  85502202.53906     -2501.823 6        37.463    20880485.260 6  85502121.50906     -2501.864 6        40.844
G05         4.000    23649076.499 4                      1393.105 4        27.521
E25         6.000    23671966.512 7 124397081.52507     -2032.256 7        46.860                                                                    23671969.261 8  92894056.41108     -1517.579 8        49.037    23671969.017 8  95317275.06708     -1557.179 8        50.212
G31         7.000    21621103.328 5 113619869.70905      -182.990 5        31.894                                                                                                    21621103.759 6  88534886.11106      -142.286 6        36.125
G28         8.000    21386715.662 6 112388073.91806     -1963.520 6        39.198                                    21386710.933 3  87575022.27203     -1530.042 3        21.095    21386713.687 5  87575140.30005     -1530.063 5        32.988
G29         9.000    20276877.748 7 106555788.35407     -1228.152 7        47.431                                    20276871.018 5  83030488.56805      -957.004 5        34.771    20276874.627 5  83030440.57105      -956.919 5        34.133
E11        10.000    23897879.656 6 125584205.49206     -1041.758 6        38.480                                                                    23897878.765 7  93780407.60407      -777.913 7        43.287    23897876.960 6  96226904.61506      -798.139 6        38.267
E10        11.000                                                                                                                                    25326721.245 6  99387525.54106     -1912.354 6        38.991    25326722.026 7 101980180.51507     -1962.521 7        46.502
G18        12.000    22586569.185 6 118693290.21806      2399.170 6        36.836                                    22586569.086 2  92488281.64102      1869.468 2        14.810    22586573.321 6  92488357.63906      1869.352 6        37.705
E12        13.000    27341835.160 3                     -3458.221 3        22.743                                                                                                                                    27341820.117 4 110094171.31304     -2650.002 4        26.982
G04        14.000    25083297.093 4 131813470.84304      -337.112 4        26.731                                                                                                    25083262.594 3                      -261.019 3        22.019
G12        15.000    24309287.479 4                     -4327.976 4        24.481
G26        17.000    22493070.204 6 118201871.60106      2097.097 6        36.405                                    22493065.425 3  92105386.02803      1634.091 3        21.310    22493064.622 5  92105381.02405      1634.526 5        30.189
E07        18.000    27774848.322 5 145957823.31305     -1354.377 5        34.824                                                                    27774860.180 7 108994516.67907     -1011.394 7        42.565    27774856.133 6 111837866.15106     -1037.727 6        39.108
E30        19.000                                                                                                                                    28197052.907 4 110651318.12704      1340.533 4        29.810    28197055.542 4                      1375.807 4        29.109
E08        20.000                                                                                                                                    27879864.053 4 109406607.24504     -2411.146 4        28.370
E02        21.000    23735648.466 7 124731672.20007       500.962 7        44.235                                                                    23735649.027 7  93143847.82807       374.047 7        46.237    23735648.318 7  95573696.41707       383.813 7        45.642
S23        22.000    38074442.898 6 200082602.17706      -866.206 6        36.968
R08        23.000    23775767.149 4                     -1708.086 4        28.986                                                                    23775764.422 4                     -1328.478 4        28.512
E36        24.000    24790380.587 6 130274346.92506      1615.953 6        41.907                                                                    24790383.856 6  97282914.14606      1206.537 6        38.997    24790383.359 7  99820712.74207      1238.120 7        45.094
R18        25.000    19016025.122 8 101508874.28508      -260.371 8        49.958                                                                    19016026.990 7  78951334.50907      -202.590 7        44.491
S21        27.000    38353545.686 5 201549341.13105      -862.189 5        35.100
R19        29.000    21229162.178 5 113561716.24205      2675.028 5        35.710                                                                    21229169.547 4  88325792.77604      2080.342 4        27.425
R15        30.000    21033482.906 5 112396595.97005     -4223.438 5        34.995                                                                    21033470.072 6  87419501.83506     -3284.983 6        39.501
S36        31.000    38124818.454 6 200347275.34706      -862.067 6        36.397
R16        34.000    19026519.503 7 101636855.17807      -475.636 7        47.959                                                                    19026520.517 7  79050576.93807      -369.970 7        43.845
C44        35.000                                                                                                                                    21226798.789 8 110533823.21308      -953.411 8        49.044                                                                    21226799.245 7  89817692.01807      -774.689 7        47.025
R17        36.000    20464083.482 7 109507853.48507     -3857.414 7        42.899                                                                    20464083.987 6  85172511.68106     -2999.983 6        40.539
R09        37.000                                                                                                                                    21881896.355 6  90881882.94016      2255.339 6        41.661
C12        41.000                                                                                                                                    21973455.443 7 114421609.53007       560.309 7        45.068    21973454.039 8  88478048.30908       433.270 8        50.217    21973452.479 7  92976915.54107       455.406 7        45.348
C35        42.000                                                                                                                                    23503012.105 8 122386339.88508     -3385.564 8        48.629                                                                    23503012.598 6  99448967.17306     -2750.937 6        41.933
C05        43.000                                                                                                                                                                                                    39325833.108 5                      -622.816 5        30.181
C38        44.000                                                                                                                                    38747616.699 6 201768997.83306      -121.990 6        39.529                                                                    38747614.872 6 163953838.83706       -99.162 6        37.611
C25        45.000                                                                                                                                    23040496.117 7 119977900.60107      1270.201 7        45.359                                                                    23040494.790 7  97492059.05507      1032.137 7        43.145
C08        46.000                                                                                                                                    38423475.692 6 200081140.94806       501.283 6        38.637                                                                    38423467.606 5 162582286.28105       407.368 5        30.234
C26        48.000                                                                                                                                    24687864.349 5 128556233.92905     -4067.283 5        32.036                                                                    24687875.268 5 104462444.68205     -3304.801 5        32.251
C24        51.000                                                                                                                                    21524405.178 6 112083251.85106     -1890.615 6        39.901                                                                    21524405.168 7  91076887.03207     -1536.324 7        45.567
C34        52.000                                                                                                                                    23412833.919 6 121916772.60806      1813.932 6        41.449                                                                    23412839.006 6  99067432.89706      1474.199 6        36.628
I06        58.000    38610822.873 5 151517226.55605      -686.447 5        33.868
I02        59.000    37812903.981 5 148385979.12605     -1080.886 5        35.843
> 2025 01 02 16 00 15.0000000  0 40
G20         1.000    23509088.914 3                      -888.043 3        23.314
G11         2.000                                                                                                                                                                    24397397.203 4                     -3186.741 4        27.796
G25         3.000    20883538.918 7 109743901.80107     -3212.642 7        43.137                                    20883541.315 6  85514715.44006     -2503.354 6        37.198    20883541.031 6  85514634.40006     -2503.370 6        40.777
E25         6.000    23673901.017 7 124407246.08907     -2033.553 7        46.698                                                                    23673903.575 8  92901646.82908     -1518.535 8        49.282    23673903.264 8  95325063.50208     -1558.141 8        50.254
G31         7.000    21621278.521 5 113620792.36405      -186.231 5        31.608                                                                                                    21621279.985 6  88535605.08106      -145.090 6        37.595
G28         8.000    21388586.634 6 112397899.95606     -1966.918 6        37.486                                    21388579.736 3  87582678.92403     -1532.686 3        19.522    21388584.010 5  87582796.93105     -1532.555 5        32.491
G29         9.000    20278047.291 7 106561934.40607     -1230.234 7        46.836                                    20278040.535 5  83035277.68305      -958.619 5        34.267    20278045.460 5  83035229.71605      -958.723 5        34.957
E11        10.000    23898871.847 6 125589420.52006     -1044.079 6        39.240                                                                    23898871.200 7  93784301.95407      -779.692 7        43.318    23898868.923 6  96230900.54406      -799.942 6        37.671
E10        11.000    25329157.103 6 133105621.15816     -2562.816 6        37.025                                                                    25329159.231 6  99397091.54306     -1913.790 6        39.547    25329159.495 7 101989996.06107     -1963.837 7        46.080
G18        12.000    22584287.733 6 118681298.96106      2397.521 6        36.968                                    22584287.593 2  92478937.80902      1868.168 2        14.429    22584291.888 6  92479013.83306      1868.095 6        38.276
E12        13.000    27345126.158 3                     -3460.689 3        22.686                                                                                                                                    27345111.021 4 110107424.35404     -2651.155 4        26.168
G12        15.000    24313409.479 4                     -4328.492 4        25.383
G26        17.000    22491076.660 5 118191389.52805      2095.808 5        34.771                                    22491070.666 3  92097218.23003      1633.084 3        19.373    22491071.340 5  92097213.27105      1633.096 5        30.294
E07        18.000    27776137.742 5 145964601.25305     -1356.398 5        34.067                                                                    27776150.876 7 108999578.14007     -1013.141 7        42.969    27776146.038 6 111843059.65406     -1039.625 6        38.456
E30        19.000                                                                                                                                    28195344.560 4 110644613.10004      1341.333 4        28.019    28195349.922 4                      1376.115 4        28.597
E08        20.000    27882957.089 4                     -3229.842 4        29.791                                                                    27882933.173 4 109418664.20604     -2411.733 4        28.872
E02        21.000    23735172.236 7 124729170.47407       499.772 7        43.585                                                                    23735173.029 7  93141979.66007       373.290 7        46.435    23735172.195 7  95571779.51307       382.980 7        45.573
S23        22.000    38075265.757 6 200086934.33106      -866.327 6        36.847
R08        23.000    23777371.370 4                     -1711.971 4        26.719                                                                    23777355.927 4                     -1331.493 4        28.986
E36        24.000    24788843.131 6 130266271.43106      1614.484 6        41.983                                                                    24788846.788 6  97276883.76206      1205.463 6        38.694    24788846.444 7  99814525.04207      1236.921 7        44.951
R18        25.000    19016271.247 8 101510186.36808      -264.383 8        50.487                                                                    19016272.847 7  78952355.01307      -205.652 7        44.507
S21        27.000    38354364.364 5 201553652.36605      -862.223 5        35.510
R19        29.000    21226661.574 5 113548347.64105      2672.328 5        34.643                                                                    21226659.773 3                      2078.314 3        21.214
R15        30.000    21037434.234 5 112417719.57605     -4225.928 5        32.844                                                                    21037423.327 6  87435931.30806     -3286.736 6        38.679
S36        31.000    38125643.017 6 200351586.37706      -862.230 6        36.858
R16        34.000    19026965.657 7 101639242.83807      -479.373 7        46.745                                                                    19026967.815 7  79052434.01307      -372.839 7        43.884
C44        35.000                                                                                                                                    21227715.085 8 110538596.17608      -955.584 8        49.305                                                                    21227715.780 7  89821570.48707      -776.615 7        47.209
R17        36.000    20467690.412 7 109527146.20007     -3859.608 7        43.848                                                                    20467690.069 6  85187517.13706     -3002.059 6        41.642
R09        37.000                                                                                                                                    21879181.816 7  90870608.70107      2254.432 7        42.218
C12        41.000                                                                                                                                    21972917.292 7 114418813.10307       558.252 7        44.477    21972917.094 8  88475885.94708       431.724 8        50.057    21972915.490 7  92974643.27407       453.565 7        45.202
C35        42.000                                                                                                                                    23506262.710 7 122403270.61007     -3386.607 7        47.939                                                                    23506263.724 6  99462724.81906     -2752.017 6        41.754
C05        43.000                                                                                                                                                                                                    39326606.770 5                      -622.859 5        30.166
C38        44.000                                                                                                                                    38747733.726 6 201769610.55606      -122.914 6        40.243                                                                    38747732.505 6 163954336.77306      -100.106 6        37.554
C25        45.000                                                                                                                                    23039277.058 7 119971554.27707      1268.449 7        43.602                                                                    23039275.688 7  97486902.19007      1030.716 7        42.764
C08        46.000                                                                                                                                    38422994.738 6 200078637.13106       500.325 6        38.520                                                                    38422986.557 4 162580251.68704       406.632 4        29.640
C26        48.000                                                                                                                                    24691770.338 5 128576573.12105     -4067.849 5        30.189                                                                    24691781.562 5 104478971.96405     -3305.796 5        31.608
C24        51.000                                                                                                                                    21526222.451 6 112092711.77506     -1893.170 6        40.341                                                                    21526221.989 7  91084574.02407     -1538.402 7        45.812
C34        52.000                                                                                                                                    23411092.707 7 121907706.31407      1812.710 7        42.324                                                                    23411091.860 6  99060065.82406      1472.891 6        36.972
I06        58.000    38611696.474 5 151520658.36005      -686.339 5        34.371
I02        59.000    37814280.750 5 148391383.86805     -1080.839 5        35.843
> 2025 01 02 16 00 20.0000000  0 40
G20         1.000    23509928.962 4                      -892.229 4        25.669
G11         2.000    24401306.110 3                     -4091.418 3        23.352                                                                                                    24401289.590 4                     -3188.053 4        25.895
G25         3.000    20886596.279 7 109759970.71307     -3215.208 7        42.487                                    20886599.087 6  85527236.66506     -2505.357 6        36.786    20886598.016 6  85527155.63006     -2505.302 6        40.200
E25         6.000    23675836.520 7 124417418.06407     -2035.341 7        46.717                                                                    23675839.322 8  92909242.79008     -1519.945 8        49.459    23675838.877 8  95332857.62108     -1559.562 8        50.285
G31         7.000    21621460.902 6 113621732.59006      -190.016 6        37.217                                                                                                    21621459.367 6  88536337.78406      -148.160 6        38.204
G28         8.000    21390461.101 5 112407742.91405     -1970.306 5        33.186                                    21390452.098 2  87590348.74502     -1535.299 2        17.208    21390457.003 5  87590466.75805     -1535.470 5        31.389
G29         9.000    20279219.763 7 106568092.06107     -1232.875 7        46.267                                    20279212.695 5  83040075.83705      -960.680 5        34.400    20279216.804 5  83040027.86205      -960.739 5        35.943
E11        10.000    23899866.759 6 125594648.37006     -1047.048 6        40.188                                                                    23899865.968 7  93788205.87507      -781.887 7        43.223    23899863.438 6  96234906.31406      -802.218 6        37.187
E10        11.000    25331597.537 6 133118441.57106     -2565.190 6        38.009                                                                    25331599.158 6  99406665.23306     -1915.742 6        40.257    25331598.668 7 101999819.48807     -1965.607 7        45.621
G18        12.000    22582007.611 6 118669316.29406      2395.473 6        36.042                                    22582007.732 2  92469600.69902      1866.595 2        14.476    22582011.971 6  92469676.72706      1866.531 6        38.799
E12        13.000    27348418.399 3                     -3461.331 3        21.310                                                                                                                                    27348402.970 4 110120682.28604     -2652.500 4        25.549
G04        14.000                                                                                                                                                                    25083901.044 3                      -268.770 3        23.676
G26        17.000    22489082.580 5 118180914.11205      2094.558 5        33.114                                    22489077.556 3  92089055.60803      1632.112 3        18.239    22489083.173 5  92089050.58905      1631.933 5        32.934
E07        18.000    27777428.453 5 145971391.41905     -1359.691 5        33.353                                                                    27777443.675 7 109004648.69007     -1015.050 7        43.191    27777438.250 6 111848262.45806     -1041.449 6        37.524
E30        19.000                                                                                                                                    28193636.019 4 110637908.40804      1341.007 4        26.263    28193644.427 4                      1376.007 4        28.768
E08        20.000    27886032.438 5                     -3230.643 5        31.253                                                                    27886004.391 4 109430725.50504     -2413.052 4        29.005
E02        21.000    23734697.079 7 124726674.80707       498.270 7        42.599                                                                    23734698.067 7  93140116.02507       372.131 7        46.539    23734697.316 7  95569867.24907       381.913 7        45.509
S23        22.000    38076087.212 6 200091267.11006      -866.976 6        36.178
R08        23.000    23778969.332 4                     -1715.052 4        24.241                                                                    23778955.354 4                     -1334.582 4        29.232
E36        24.000    24787307.957 6 130258204.64706      1612.401 6        41.955                                                                    24787311.882 6  97270859.87506      1204.178 6        39.048    24787311.191 7  99808344.00507      1235.392 7        44.721
R18        25.000    19016521.459 8 101511519.04308      -268.781 8        50.920                                                                    19016522.197 7  78953391.54507      -209.046 7        45.148
S21        27.000    38355181.017 5 201557964.29505      -862.741 5        35.310
R19        29.000    21224162.902 5 113534991.58605      2669.971 5        32.802
R15        30.000                                                                                                                                    21041378.729 6                     -3288.959 6        37.527
S36        31.000    38126463.524 6 200355897.74506      -862.567 6        36.828
R16        34.000    19027415.659 7 101641649.87307      -483.561 7        45.315                                                                    19027418.176 7  79054306.15807      -376.133 7        43.809
C44        35.000                                                                                                                                    21228633.796 8 110543380.94108      -958.365 8        49.318                                                                    21228634.651 7  89825458.48407      -778.692 7        47.352
R17        36.000    20471298.667 7 109546451.41207     -3862.465 7        44.561                                                                    20471297.753 7  85202532.30907     -3004.191 7        42.626
R09        37.000                                                                                                                                    21876468.333 7  90859339.74607      2253.098 7        43.156
C12        41.000                                                                                                                                    21972383.128 7 114416028.01207       555.736 7        44.635    21972382.044 8  88473732.34808       429.691 8        49.908    21972380.576 7  92972380.15807       451.639 7        44.921
C35        42.000                                                                                                                                    23509514.899 7 122420207.39607     -3388.139 7        47.003                                                                    23509516.199 6  99476487.33306     -2753.142 6        41.621
C05        43.000                                                                                                                                                                                                    39327380.204 5                      -623.535 5        30.226
C38        44.000                                                                                                                                    38747852.884 6 201770229.21206      -124.553 6        40.493                                                                    38747851.128 6 163954839.47406      -101.140 6        37.645
C25        45.000                                                                                                                                    23038060.842 7 119965217.70007      1266.060 7        42.042                                                                    23038058.640 7  97481753.16907      1028.974 7        42.428
C08        46.000                                                                                                                                    38422514.496 6 200076139.12406       498.919 6        37.943                                                                    38422507.031 4 162578221.88004       405.284 4        29.460
C26        48.000                                                                                                                                    24695679.708 4 128596917.53104     -4069.046 4        27.653                                                                    24695689.119 5 104495503.47905     -3306.967 5        31.525
C24        51.000                                                                                                                                    21528042.383 6 112102184.74606     -1896.123 6        41.404                                                                    21528041.379 7  91092271.58107     -1540.674 7        46.335
C34        52.000                                                                                                                                    23409353.163 7 121898647.35407      1810.803 7        42.227                                                                    23409352.928 6  99052704.68306      1471.656 6        37.826
I06        58.000    38612572.019 5 151524090.44805      -686.447 5        35.024
I02        59.000    37815656.972 5 148396789.71505     -1081.299 5        35.529
> 2025 01 02 16 00 25.0000000  0 41
G20         1.000    23510784.526 5                      -895.598 5        30.249
G11         2.000    24405191.172 4                     -4092.490 4        26.946                                                                                                    24405180.684 4                     -3189.032 4        24.045
G25         3.000    20889655.864 7 109776049.64407     -3216.735 7        42.404                                    20889658.374 6  85539765.70106     -2506.544 6        36.019    20889657.109 6  85539684.67006     -2506.533 6        38.601
E25         6.000    23677773.586 7 124427596.81607     -2036.451 7        46.748                                                                    23677776.264 8  92916843.80708     -1520.669 8        49.824    23677775.853 8  95340656.93308     -1560.358 8        50.308
G31         7.000    21621644.332 6 113622689.81206      -193.051 6        40.644                                                                                                    21621641.641 6  88537083.70606      -150.419 6        38.763
G28         8.000    21392334.670 5 112417602.14905     -1973.487 5        30.581                                    21392328.078 2  87598031.29202     -1537.747 2        14.190    21392334.561 5  87598149.26605     -1537.788 5        33.287
G29         9.000    20280393.871 7 106574260.67807     -1234.785 7        47.033                                    20280387.279 5  83044882.53705      -962.169 5        34.514    20280391.964 6  83044834.57706      -962.303 6        36.839
E11        10.000    23900863.352 6 125599888.39906     -1049.203 6        40.293                                                                    23900863.188 7  93792118.90807      -783.564 7        42.942    23900860.261 6  96238921.42406      -803.881 6        36.983
E10        11.000    25334039.470 6 133131271.61506     -2566.985 6        39.513                                                                    25334040.807 6  99416246.12506     -1917.042 6        40.858    25334039.831 7 102009650.31607     -1966.977 7        45.023
G18        12.000    22579728.547 6 118657341.66006      2393.900 6        37.202                                    22579729.498 2  92460269.83902      1865.374 2        16.000    22579733.371 6  92460345.84106      1865.575 6        39.246
E12        13.000    27351716.686 3                     -3459.449 3        20.548
G04        14.000                                                                                                                                                                    25084231.130 3                      -270.305 3        23.733
G12        15.000    24321664.979 4                     -4329.355 4        26.838
G26        17.000    22487086.518 5 118170444.60505      2093.171 5        31.751                                    22487085.489 2  92080897.62602      1631.020 2        17.774    22487094.932 5  92080892.58405      1631.049 5        34.471
E07        18.000    27778723.031 5 145978193.06005     -1361.542 5        34.195                                                                    27778738.456 7 109009727.86107     -1016.699 7        43.238    27778732.638 6 111853474.14406     -1043.371 6        36.491
E30        19.000                                                                                                                                    28191926.592 4 110631203.49804      1341.427 4        25.398    28191941.097 4                      1375.955 4        29.365
E08        20.000    27889106.844 5                     -3231.809 5        31.449                                                                    27889078.957 4 109442790.57504     -2413.267 4        29.052
E02        21.000    23734223.005 6 124724184.56506       497.449 6        41.540                                                                    23734224.186 7  93138256.44807       371.545 7        46.528    23734223.507 7  95567959.15807       381.239 7        45.539
S23        22.000    38076915.285 6 200095599.80406      -866.552 6        36.473
R08        23.000    23780569.104 4                     -1719.683 4        28.085                                                                    23780561.297 5                     -1337.558 5        30.589
E36        24.000    24785774.716 6 130250145.92806      1610.933 6        41.592                                                                    24785778.028 6  97264842.04206      1202.942 6        39.513    24785777.642 7  99802169.15107      1234.353 7        44.629
R18        25.000    19016774.740 8 101512871.55908      -272.471 8        50.828                                                                    19016775.683 7  78954443.51207      -211.968 7        45.834
S21        27.000    38356005.463 5 201562276.38105      -862.573 5        35.024
R19        29.000    21221668.649 5 113521647.45005      2667.193 5        30.679
R15        30.000                                                                                                                                    21045336.238 6  87468818.26016     -3290.653 6        36.631
S36        31.000    38127282.390 6 200360208.79006      -862.184 6        36.885
R16        34.000    19027870.036 7 101644075.60507      -487.056 7        45.645                                                                    19027872.378 7  79056192.84507      -378.713 7        43.526
C44        35.000                                                                                                                                    21229554.644 8 110548176.85108      -960.238 8        49.456                                                                    21229555.785 7  89829355.55707      -780.193 7        47.704
R17        36.000    20474909.351 7 109565768.41107     -3864.534 7        44.683                                                                    20474907.959 7  85217556.65207     -3005.830 7        42.967
R09        37.000    21873842.145 3                      2896.054 3        23.086                                                                    21873755.695 7  90848075.37817      2252.387 7        44.131
C12        41.000                                                                                                                                    21971851.462 7 114413253.59707       553.791 7        45.309    21971849.447 8  88471587.00508       428.247 8        49.876    21971847.558 7  92970125.72807       450.153 7        44.933
C35        42.000                                                                                                                                    23512768.464 7 122437149.60207     -3388.941 7        46.111                                                                    23512770.035 6  99490254.26606     -2753.696 6        41.912
C05        43.000                                                                                                                                                                                                    39328153.594 5                      -623.163 5        30.491
