     3.04           OBSERVATION DATA    M                   RINEX VERSION / TYPE
ssrcrin-15.6.1x                         20250102 064500 UTC PGM / RUN BY / DATE 
(00000000023479385599111004) Septentrio proprietary         COMMENT             
ract                                                        MARKER NAME         
01                                                          MARKER NUMBER       
geodetic                                                    MARKER TYPE         
NFB                 CLIMERS@TUW                             OBSERVER / AGENCY   
3296359             SEPT ASTERX SB3 PROB4.14.4              REC # / TYPE / VERS 
Unknown             Unknown                                 ANT # / TYPE        
  4127447.1367  1206914.9603  4695545.1967                  APPROX POSITION XYZ 
        0.0000        0.0000        0.0000                  ANTENNA: DELTA H/E/N
G   23 X1  C1C L1C D1C S1C C1W S1W C2W L2W D2W S2W C2L L2L  SYS / # / OBS TYPES 
       D2L S2L C5Q L5Q D5Q S5Q C1L L1L D1L S1L              SYS / # / OBS TYPES 
E   21 X1  C1C L1C D1C S1C C6C L6C D6C S6C C5Q L5Q D5Q S5Q  SYS / # / OBS TYPES 
       C7Q L7Q D7Q S7Q C8Q L8Q D8Q S8Q                      SYS / # / OBS TYPES 
S    9 X1  C1C L1C D1C S1C C5I L5I D5I S5I                  SYS / # / OBS TYPES 
R   17 X1  C1C L1C D1C S1C C2P L2P D2P S2P C2C L2C D2C S2C  SYS / # / OBS TYPES 
       C3Q L3Q D3Q S3Q                                      SYS / # / OBS TYPES 
C   25 X1  C1P L1P D1P S1P C5P L5P D5P S5P C2I L2I D2I S2I  SYS / # / OBS TYPES 
       C7I L7I D7I S7I C6I L6I D6I S6I C7D L7D D7D S7D      SYS / # / OBS TYPES 
J   17 X1  C1C L1C D1C S1C C2L L2L D2L S2L C5Q L5Q D5Q S5Q  SYS / # / OBS TYPES 
       C1L L1L D1L S1L                                      SYS / # / OBS TYPES 
I    5 X1  C5A L5A D5A S5A                                  SYS / # / OBS TYPES 
SEPTENTRIO RECEIVERS OUTPUT ALIGNED CARRIER PHASES.         COMMENT             
NO FURTHER PHASE SHIFT APPLIED IN THE RINEX ENCODER.        COMMENT             
G L1C                                                       SYS / PHASE SHIFT   
G L2W                                                       SYS / PHASE SHIFT   
G L2L  0.00000                                              SYS / PHASE SHIFT   
G L5Q  0.00000                                              SYS / PHASE SHIFT   
G L1L  0.00000                                              SYS / PHASE SHIFT   
E L1C  0.00000                                              SYS / PHASE SHIFT   
E L6C  0.00000                                              SYS / PHASE SHIFT   
E L5Q  0.00000                                              SYS / PHASE SHIFT   
E L7Q  0.00000                                              SYS / PHASE SHIFT   
E L8Q  0.00000                                              SYS / PHASE SHIFT   
S L1C                                                       SYS / PHASE SHIFT   
S L5I                                                       SYS / PHASE SHIFT   
R L1C                                                       SYS / PHASE SHIFT   
R L2P  0.00000                                              SYS / PHASE SHIFT   
R L2C                                                       SYS / PHASE SHIFT   
R L3Q  0.00000                                              SYS / PHASE SHIFT   
C L1P  0.00000                                              SYS / PHASE SHIFT   
C L5P  0.00000                                              SYS / PHASE SHIFT   
C L2I                                                       SYS / PHASE SHIFT   
C L7I                                                       SYS / PHASE SHIFT   
C L6I                                                       SYS / PHASE SHIFT   
C L7D                                                       SYS / PHASE SHIFT   
J L1C                                                       SYS / PHASE SHIFT   
J L2L  0.00000                                              SYS / PHASE SHIFT   
J L5Q  0.00000                                              SYS / PHASE SHIFT   
J L1L  0.00000                                              SYS / PHASE SHIFT   
I L5A                                                       SYS / PHASE SHIFT   
  2025     1     2     6    45    0.0000000     GPS         TIME OF FIRST OBS   
 C1C    0.000 C2C    0.000 C2P    0.000                     GLONASS COD/PHS/BIS 
DBHZ                                                        SIGNAL STRENGTH UNIT
    18                                                      LEAP SECONDS        
 24 R01  1 R02 -4 R03  5 R04  6 R05  1 R06 -4 R07  5 R08  6 GLONASS SLOT / FRQ #
    R09 -2 R10 -7 R11  0 R12 -1 R13 -2 R14 -7 R15  0 R16 -1 GLONASS SLOT / FRQ #
    R17  4 R18 -3 R19  3 R20  2 R21  4 R22 -3 R23  3 R24  2 GLONASS SLOT / FRQ #
                                                            END OF HEADER       
> 2025 01 02 06 45  0.0000000  0 34
G13         1.000    22403194.699 5 117729566.10505      1987.289 5        34.776
G20         4.000    20950668.264 7 110096555.64807     -1726.832 7        43.924                                    20950663.940 5  85789474.07405     -1345.590 5        33.257
G07         5.000                                                                                                                                                                    21763541.763 6  89118045.45806     -2057.695 6        40.329
G09         6.000    23651380.319 4 124288818.68204     -3968.831 4        29.782                                                                                                    23651397.627 4                     -3092.499 4        26.240
G30         7.000    20589307.249 8 108197550.48908      -636.577 8        52.870                                    20589303.695 7  84309699.76007      -496.035 7        47.466    20589304.975 6  84309747.77906      -496.020 6        41.046
G14         8.000    23013358.967 5                      2425.207 5        32.156                                                                                                    23013358.453 6  94235872.66106      1889.451 6        40.322
E21        10.000    26261021.822 6 138002601.85706     -2080.481 6        36.843                                                                                                                                    26261019.827 5 105742243.37105     -1594.436 5        35.581
E06        11.000    23768803.713 7 124905909.05107       101.723 7        44.003                                                                    23768805.228 5  93273939.94705        76.154 5        32.383    23768811.505 5  95707164.64405        77.726 5        34.252
E31        13.000    27100025.218 5 142411599.80105      2323.134 5        33.617                                                                    27100030.072 5 106346378.80005      1734.899 5        33.784    27100026.380 5 109120576.51205      1780.151 5        32.455
G05        14.000    21617681.477 6 113601774.45406       805.060 6        40.539                                    21617676.234 4  88520859.48104       627.336 4        25.669    21617677.953 6  88520807.48206       627.289 6        36.839
E11        16.000                                                                                                                                    27196213.685 3                     -2796.607 3        21.929
E04        17.000    23505806.338 7 123523829.14907     -1122.227 7        46.875                                                                    23505804.791 8  92241883.53708      -838.050 8        48.147    23505805.280 7  94648123.79907      -859.896 7        47.148
R08        18.000                                                                                                                                    22448096.166 4                     -3277.790 4        26.826
E19        20.000    26373237.648 4                     -3129.685 4        27.054
E09        21.000    25259188.098 5 132737964.90105       997.268 5        31.555                                                                    25259185.676 6  99122484.21306       744.928 6        37.077    25259189.883 6 101708297.74806       764.315 6        40.746
E36        22.000    26463072.522 6 139064357.99806     -1938.068 6        36.480                                                                    26463077.050 7 103846815.16907     -1447.475 7        43.289    26463077.147 7 106555813.58207     -1485.297 7        43.090
S36        23.000    38387469.624 6 201727559.93806      -852.262 6        41.943
S23        24.000    38322224.577 6 201384628.53306      -850.075 6        41.142
G11        25.000    24775820.011 5                     -4024.792 5        31.623
E34        26.000    28009532.759 5 147191276.66505       559.161 5        33.048                                                                    28009529.484 5 109915552.15305       418.127 5        34.048    28009526.508 5 112782755.82105       428.409 5        34.943
R18        28.000    23262173.206 5 124175322.17005     -1247.906 5        35.643                                                                    23262174.181 6  96580672.86306      -970.483 6        37.267
R11        30.000    19576573.482 7 104611238.62407     -1301.002 7        44.035                                                                    19576570.348 7  81364310.86507     -1011.761 7        42.610
C20        31.000                                                                                                                                    24971620.950 4 130033785.67004     -3764.553 4        29.062                                                                    24971618.821 5 105663097.05505     -3058.967 5        35.229
C36        34.000                                                                                                                                    23220357.044 6 120914655.23206      1765.132 6        40.174                                                                    23220367.077 6  98252968.85906      1434.523 6        39.036
R02        35.000    21175993.940 8 112999099.49708      2168.762 8        51.811                                                                    21175990.537 7  87888389.86407      1686.813 7        44.898
C05        36.000                                                                                                                                    39456056.186 5 205458017.25205      -907.784 5        32.042
R12        38.000    21433385.643 5 114493485.38305      2966.697 5        32.581                                                                    21433391.186 6  89050344.61306      2307.420 6        38.811
C37        42.000                                                                                                                                    25518061.588 5                     -3767.828 5        32.671                                                                    25518072.715 5 107975299.21505     -3061.763 5        35.462
R01        44.000    19368173.668 7 103533960.36407     -1065.931 7        42.724                                                                    19368173.243 5                      -828.872 5        30.392
C09        47.000                                                                                                                                    40235843.202 3                     -1609.941 3        22.362    40235822.487 4                     -1245.213 4        28.275
C19        48.000                                                                                                                                    22134188.934 6 115258691.71906     -1656.904 6        40.672                                                                    22134185.637 7  93656977.25707     -1346.407 7        43.041
C34        49.000                                                                                                                                    27060795.280 5                     -1759.065 5        31.117
C22        51.000                                                                                                                                    23044030.758 7 119996302.58107      1337.733 7        45.559                                                                    23044025.486 7  97506826.85607      1086.923 7        45.202
C12        54.000                                                                                                                                    27138663.230 4                     -2648.319 4        28.948    27138662.507 5 109276146.25105     -2047.342 5        35.310    27138667.001 4                     -2151.416 4        25.338
> 2025 01 02 06 45  5.0000000  0 34
G13         1.000    22401305.218 5 117719630.68005      1986.823 5        34.433
G20         4.000    20952313.284 7 110105197.74107     -1730.120 7        42.692                                    20952308.473 5  85796208.16205     -1348.139 5        33.323
G07         5.000    21766079.065 6 114381427.21516     -2642.610 6        39.129                                    21766053.881 4  89128341.99314     -2059.166 4        26.754    21766055.804 6  89128336.98806     -2058.952 6        40.703
G09         6.000    23655159.459 4 124308664.28104     -3969.603 4        26.862                                    23655155.816 1  96863909.17511     -3093.096 1         8.571    23655172.003 4                     -3092.775 4        26.132
G30         7.000    20589914.051 8 108200739.39508      -639.065 8        52.856                                    20589910.516 7  84312184.61707      -497.973 7        47.432    20589911.705 6  84312232.61006      -498.026 6        40.007
G14         8.000                                                                                                                                                                    23011050.235 6  94226427.85506      1888.464 6        37.875
E21        10.000    26263004.593 6 138013010.62006     -2082.865 6        37.951                                                                                                                                    26262998.209 5 105750218.82305     -1596.139 5        33.796
E06        11.000    23768708.419 7 124905403.17907       100.565 7        45.354                                                                    23768707.755 5  93273562.18005        74.956 5        33.611    23768713.514 6  95706776.97406        77.099 6        36.681
E31        13.000    27097815.050 5 142399984.38505      2323.020 5        33.521                                                                    27097818.550 5 106337704.94505      1734.543 5        34.686    27097813.662 5 109111676.42905      1779.704 5        31.494
G05        14.000    21616919.224 7 113597757.07807       801.751 7        42.172                                    21616912.405 4  88517729.08104       624.729 4        25.729    21616914.320 6  88517677.04106       624.985 6        36.272
E11        16.000                                                                                                                                    27199780.595 3                     -2796.554 3        23.638
E04        17.000    23506874.972 7 123529443.08307     -1123.474 7        46.568                                                                    23506873.514 8  92246075.76008      -838.947 8        48.779    23506873.749 7  94652425.38507      -860.876 7        47.065
R08        18.000    22452028.161 4                     -4215.005 4        27.677
E19        20.000    26376211.528 4                     -3130.283 4        28.445
E09        21.000    25258240.677 6 132732979.15606       996.677 6        38.018                                                                    25258239.363 6  99118761.13406       744.359 6        37.418    25258240.606 7 101704477.52707       763.746 7        42.734
E36        22.000    26464919.484 5 139074055.85005     -1940.940 5        34.486                                                                    26464922.704 7 103854057.07307     -1449.343 7        43.606    26464922.340 7 106563244.41407     -1487.168 7        43.208
S36        23.000    38388280.772 6 201731821.56106      -852.520 6        39.652
S23        24.000    38323035.922 6 201388877.35106      -849.729 6        41.704
G11        25.000    24779646.690 4 130217940.37414     -4026.354 4        26.371                                                                                                    24779651.997 3                     -3136.021 3        21.476
E34        26.000    28009001.335 5 147188485.33605       557.124 5        30.408                                                                    28008995.411 5 109913467.77005       416.062 5        31.381    28008994.683 5 112780616.97105       426.784 5        34.657
R18        28.000    23263340.405 5 124181572.01905     -1252.412 5        30.008                                                                    23263341.489 5  96585533.82705      -973.685 5        33.048
R11        30.000    19577793.766 7 104617754.59807     -1305.470 7        45.448                                                                    19577789.954 7  81369378.83107     -1015.302 7        42.660
C20        31.000                                                                                                                                    24975233.430 4 130052608.77404     -3765.103 4        28.815                                                                    24975233.062 6 105678392.57006     -3059.444 6        36.057
C36        34.000                                                                                                                                    23218663.046 6 120905833.10806      1763.416 6        41.931                                                                    23218671.121 5  98245800.03605      1433.008 5        34.205
R02        35.000    21173962.517 8 112988258.87208      2167.415 8        52.821                                                                    21173959.122 7  87879958.29607      1685.671 7        45.284
C05        36.000                                                                                                                                    39456929.682 5 205462556.96205      -907.957 5        31.909
R12        38.000    21430612.152 6 114478658.24116      2964.295 6        36.336                                                                    21430611.950 6  89038812.37316      2305.493 6        38.129
C37        42.000                                                                                                                                    25521684.725 5                     -3769.343 5        33.257                                                                    25521691.559 5 107990610.35805     -3062.501 5        33.713
R01        44.000    19369171.394 6 103539297.77006     -1069.195 6        41.070                                                                    19369172.981 5                      -831.451 5        31.109
C09        47.000                                                                                                                                    40237398.218 3                     -1610.905 3        23.924    40237368.913 4                     -1245.450 4        28.891
C19        48.000                                                                                                                                    22135785.191 6 115266981.30306     -1658.923 6        38.075                                                                    22135777.564 6  93663713.23206     -1348.031 6        41.838
C34        49.000                                                                                                                                    27062481.502 4                     -1761.097 4        25.985
C22        51.000                                                                                                                                    23042746.362 7 119989617.13707      1336.366 7        44.858                                                                    23042741.556 7  97501394.39507      1085.837 7        44.712
C12        54.000                                                                                                                                    27141208.876 5                     -2650.084 5        32.653    27141208.700 6 109286388.13506     -2049.178 6        37.157    27141205.448 4                     -2153.213 4        26.790
> 2025 01 02 06 45 10.0000000  0 35
G13         1.000    22399416.462 6 117709700.66806      1985.431 6        37.274
G20         4.000    20953960.168 7 110113856.67007     -1733.575 7        44.041                                    20953956.266 5  85802955.36905     -1350.846 5        33.790
G07         5.000                                                                                                                                                                    21768570.981 6  89138634.57906     -2060.062 6        39.544
G09         6.000    23658930.758 5 124328514.38305     -3970.629 5        30.785                                    23658932.924 1  96879376.83501     -3094.030 1         8.952
G30         7.000    20590523.073 8 108203940.54608      -641.423 8        53.073                                    20590519.587 7  84314679.01907      -499.811 7        47.650    20590520.914 6  84314727.00506      -499.815 6        40.310
G14         8.000    23008743.604 5                      2422.189 5        33.216                                                                                                    23008745.828 6  94216988.16806      1887.631 6        38.006
E21        10.000    26264986.446 6 138023430.90006     -2085.197 6        37.403                                                                    26264988.834 5 103069491.36015     -1557.060 5        32.994    26264984.012 5 105758203.12005     -1597.906 5        34.243
E06        11.000    23768612.449 7 124904902.78207        99.480 7        42.997                                                                    23768611.611 5  93273188.44305        74.242 5        34.419    23768618.155 6  95706393.57206        76.196 6        36.170
E31        13.000    27095604.583 5 142388371.16905      2322.478 5        35.486                                                                    27095608.445 5 106329032.75105      1734.385 5        34.410    27095606.910 5 109102778.02205      1779.608 5        32.982
G05        14.000    21616158.678 6 113593755.19306       798.740 6        40.577                                    21616151.384 4  88514610.70804       622.383 4        25.880    21616153.206 5  88514558.73405       622.543 5        35.462
E11        16.000    27203353.849 3                     -3746.728 3        20.762
E04        17.000    23507944.778 7 123535063.23207     -1124.602 7        45.413                                                                    23507942.928 8  92250272.60508      -839.811 8        48.680    23507943.072 7  94656731.73807      -861.752 7        46.931
R08        18.000    22455968.228 4                     -4217.148 4        27.078                                                                    22455953.365 4                     -3279.268 4        24.271
E19        20.000    26379185.295 4                     -3131.279 4        28.464
E09        21.000    25257292.887 5 132727996.92405       996.156 5        35.057                                                                    25257291.054 6  99115040.65206       743.731 6        37.013    25257293.180 7 101700660.00507       763.297 7        42.766
E36        22.000    26466768.631 5 139083765.85905     -1943.270 5        32.641                                                                    26466770.453 7 103861308.07407     -1451.051 7        43.037    26466770.765 7 106570684.58307     -1488.961 7        43.918
S36        23.000    38389088.441 6 201736083.20306      -852.315 6        36.170
S23        24.000    38323842.290 6 201393126.72706      -849.782 6        40.296
G11        25.000    24783473.648 4 130238070.32204     -4026.533 4        28.360                                                                                                    24783480.721 3                     -3136.276 3        21.429
E34        26.000    28008470.444 5 147185705.51505       554.833 5        33.808                                                                    28008471.138 5 109911391.85205       414.471 5        30.309    28008465.681 5 112778487.06005       424.962 5        35.667
R17        27.000    23719067.721 4                     -3885.841 4        25.323
R18        28.000    23264517.409 4 124187843.85304     -1256.910 4        28.114                                                                    23264513.300 5  96590411.89905      -977.620 5        30.400
R11        30.000    19579018.209 7 104624292.87807     -1309.880 7        45.147                                                                    19579013.265 6  81374464.18006     -1018.785 6        41.766
C20        31.000                                                                                                                                                                                                                                                                    24978850.782 6 105693692.69606     -3060.484 6        37.452
R10        32.000    22649022.651 5                     -4751.871 5        31.592
C36        34.000                                                                                                                                    23216969.760 6 120897019.77606      1761.721 6        41.430                                                                    23216975.785 5  98238638.53405      1431.435 5        33.090
R02        35.000    21171932.467 8 112977425.11308      2166.077 8        52.090                                                                    21171928.898 7  87871532.02307      1684.744 7        45.956
C05        36.000                                                                                                                                    39457801.903 5 205467097.02205      -907.895 5        32.563
R12        38.000    21427841.287 6 114463843.17306      2961.621 6        37.127                                                                    21427837.429 6  89027289.44306      2303.687 6        36.340
C37        42.000                                                                                                                                    25525305.587 5 132916943.30015     -3769.804 5        34.143                                                                    25525310.152 6 108005925.97806     -3063.460 6        36.544
R01        44.000    19370172.827 6 103544650.97206     -1072.185 6        39.844                                                                    19370173.221 5                      -833.883 5        31.857
C19        48.000                                                                                                                                    22137377.772 5 115275282.32705     -1661.317 5        32.569                                                                    22137372.801 6  93670458.51706     -1349.913 6        41.743
C34        49.000                                                                                                                                    27064179.333 4                     -1763.126 4        25.940
C22        51.000                                                                                                                                    23041464.454 7 119982939.06907      1334.913 7        44.357                                                                    23041458.493 7  97495967.88907      1084.740 7        44.792
C12        54.000                                                                                                                                    27143760.625 5                     -2651.737 5        31.660    27143761.318 6 109296637.39406     -2050.794 6        37.701    27143740.764 4                     -2154.570 4        25.158
> 2025 01 02 06 45 15.0000000  0 36
G13         1.000    22397528.528 6 117699774.97306      1984.604 6        39.432                                    22397521.385 1  91714105.48011      1546.414 1        11.630
G20         4.000    20955610.951 7 110122531.66507     -1736.584 7        45.407                                    20955606.867 5  85809715.10505     -1353.170 5        33.545
G07         5.000    21771085.044 7 114407864.75507     -2645.230 7        43.181                                    21771086.594 5  89148942.67005     -2061.208 5        32.988    21771086.634 6  89148937.62306     -2061.173 6        40.129
G09         6.000    23662710.578 4 124348368.08104     -3971.387 4        28.844                                    23662711.074 1  96894847.22501     -3094.554 1         8.095    23662707.801 4                     -3094.472 4        26.192
G30         7.000    20591134.365 8 108207153.12708      -643.665 8        53.115                                    20591130.939 8  84317182.31508      -501.558 8        48.043    20591132.507 6  84317230.33806      -501.753 6        40.665
G14         8.000    23006443.942 5 120899655.70215      2420.925 5        31.736                                                                                                    23006441.658 6  94207552.93406      1886.728 6        39.619
E21        10.000    26266972.861 6 138033861.94906     -2087.378 6        38.078                                                                    26266971.971 5 103077280.74705     -1558.547 5        33.377    26266969.546 5 105766195.64205     -1599.405 5        35.190
E06        11.000    23768517.197 6 124904407.03506        98.587 6        40.687                                                                    23768517.607 5  93272818.20505        73.726 5        34.633    23768522.455 5  95706013.66705        75.630 5        35.524
E31        13.000    27093393.639 5 142376759.49805      2321.917 5        34.867                                                                    27093398.691 5 106320361.67105      1733.941 5        35.300    27093398.051 5 109093880.74605      1779.331 5        33.641
G05        14.000    21615399.824 6 113589768.18506       795.953 6        40.515                                    21615392.992 4  88511503.93304       620.210 4        24.692    21615393.356 5  88511451.98505       619.978 5        34.929
E11        16.000                                                                                                                                    27206916.478 3                     -2796.923 3        22.133
E04        17.000    23509014.989 7 123540688.75607     -1125.605 7        46.032                                                                    23509013.307 8  92254473.46608      -840.524 8        48.378    23509013.422 7  94661042.18307      -862.478 7        46.759
R08        18.000                                                                                                                                    22459883.269 4                     -3281.008 4        27.581
E19        20.000    26382164.205 4                     -3131.411 4        27.641
E09        21.000    25256345.739 5 132723017.43405       995.632 5        35.867                                                                    25256345.177 6  99111322.18706       743.501 6        37.149    25256346.269 7 101696844.57607       762.867 7        43.746
E36        22.000    26468618.756 5 139093487.23405     -1945.349 5        32.946                                                                    26468620.472 7 103868567.53507     -1452.699 7        42.144    26468620.328 7 106578133.39407     -1490.678 7        43.850
S36        23.000    38389882.927 5 201740344.29605      -852.137 5        35.510
S23        24.000    38324661.437 6 201397375.53406      -849.742 6        41.242
G11        25.000    24787308.544 3                     -4026.239 3        22.819
E34        26.000    28007939.186 5 147182936.47805       552.874 5        34.081                                                                    28007945.095 5 109909324.05305       412.583 5        31.872    28007937.883 5 112776365.28205       423.558 5        35.624
R17        27.000    23722690.258 5                     -3887.493 5        35.376
R18        28.000    23265702.885 5 124194136.74905     -1260.556 5        34.152                                                                    23265695.638 5  96595306.17505      -980.379 5        35.386
R11        30.000    19580245.695 7 104630852.64007     -1314.188 7        44.388                                                                    19580240.173 7  81379566.19207     -1021.833 7        42.555
C20        31.000                                                                                                                                    24982468.652 5                     -3767.192 5        33.006                                                                    24982468.082 6 105708996.86106     -3061.433 6        38.354
R10        32.000    22653484.655 5                     -4753.770 5        30.362
C36        34.000                                                                                                                                    23215279.039 7 120888214.55307      1760.308 7        42.237                                                                    23215286.470 5  98231483.57505      1430.318 5        35.595
R02        35.000    21169902.987 8 112966597.27008      2164.928 8        51.037                                                                    21169900.045 7  87863110.34407      1683.831 7        45.565
C05        36.000                                                                                                                                    39458670.846 5 205471636.74415      -907.808 5        30.823
R12        38.000    21425074.618 4 114449039.15404      2960.007 4        29.867                                                                    21425065.684 6  89015775.11306      2302.181 6        37.811
C37        42.000                                                                                                                                    25528931.414 6 132935796.01306     -3771.002 6        36.605                                                                    25528929.718 5 108021245.35505     -3064.323 5        35.043
R01        44.000    19371177.541 7 103550019.37207     -1075.036 7        42.385                                                                    19371180.418 5                      -836.143 5        32.078
C09        47.000                                                                                                                                    40240472.968 3                     -1610.743 3        20.071
C19        48.000                                                                                                                                    22138971.663 4 115283593.90504     -1662.924 4        28.645                                                                    22138968.869 7  93677212.39107     -1351.706 7        43.009
C34        49.000                                                                                                                                    27065878.428 3                     -1763.234 3        21.500
C22        51.000                                                                                                                                    23040183.260 7 119976267.54007      1333.626 7        43.619                                                                    23040177.211 7  97490546.72107      1083.608 7        45.324
C12        54.000                                                                                                                                    27146312.611 5                     -2653.718 5        31.562    27146307.615 6 109306893.49806     -2051.945 6        38.438
> 2025 01 02 06 45 20.0000000  0 34
G13         1.000    22395637.518 6 117689854.35706      1984.107 6        36.291                                    22395632.415 1  91706375.14401      1546.089 1         8.857
G20         4.000    20957264.997 7 110131223.33307     -1739.783 7        45.949                                    20957260.558 5  85816487.83105     -1355.662 5        33.539
G07         5.000    21773604.973 7 114421094.62107     -2646.501 7        44.152                                    21773604.717 5  89159251.63105     -2062.201 5        34.310    21773603.964 6  89159246.60106     -2062.158 6        38.601
G09         6.000    23666490.381 5 124368225.93605     -3971.568 5        31.585                                    23666490.176 1  96910320.83101     -3094.708 1         9.238    23666487.068 4                     -3095.093 4        26.527
G30         7.000    20591747.863 8 108210377.82508      -645.905 8        53.132                                    20591744.611 7  84319695.05807      -503.299 7        47.860    20591746.264 6  84319743.05706      -503.198 6        41.192
G14         8.000    23004141.382 5 120887553.55005      2420.361 5        32.437                                                                                                    23004138.329 6  94198122.69306      1885.825 6        38.435
E21        10.000    26268958.876 6 138044304.36306     -2089.331 6        39.793                                                                    26268958.355 5 103085078.61005     -1560.202 5        30.853    26268956.600 5 105774196.92905     -1600.835 5        34.348
E06        11.000    23768424.226 6 124903916.67306        97.699 6        40.958                                                                    23768423.732 5  93272451.98505        72.817 5        35.262    23768427.947 5  95705637.81605        74.985 5        34.219
E31        13.000    27091185.184 5 142365149.93805      2321.844 5        34.695                                                                    27091189.745 5 106311692.20905      1733.802 5        34.833    27091187.374 5 109084985.11105      1779.150 5        32.449
G05        14.000    21614644.154 6 113585796.73306       792.958 6        39.051                                    21614637.306 4  88508409.29604       617.866 4        24.105    21614637.189 5  88508357.32005       617.900 5        34.486
E04        17.000    23510086.510 7 123546320.33707     -1126.702 7        46.077                                                                    23510085.162 8  92258678.85608      -841.328 8        48.173    23510084.884 7  94665357.27507      -863.332 7        46.998
R08        18.000                                                                                                                                    22463819.365 5                     -3282.665 5        30.808
E19        20.000    26385147.851 4                     -3131.905 4        28.114
E09        21.000    25255398.164 6 132718041.40206       995.111 6        39.979                                                                    25255399.549 6  99107606.30506       743.141 6        37.913    25255399.260 7 101693031.74007       762.470 7        44.957
E36        22.000                                                                                                                                    26470472.672 7 103875835.97307     -1454.374 7        42.207    26470471.868 7 106585591.41207     -1492.376 7        42.811
S36        23.000    38390713.178 5 201744605.59005      -851.843 5        35.719
S23        24.000    38325465.091 6 201401624.57806      -849.528 6        41.323
G11        25.000    24791144.351 3                     -4027.916 3        23.790                                                                                                    24791147.859 4                     -3138.260 4        26.084
E34        26.000    28007418.805 5 147180178.77905       550.956 5        33.389                                                                    28007419.048 5 109907264.71605       411.222 5        30.551    28007414.331 5 112774252.25905       421.750 5        35.257
R18        28.000    23266884.492 5 124200450.84105     -1264.558 5        34.905                                                                    23266880.709 6  96600217.29006      -983.827 6        36.979
R11        30.000    19581477.338 7 104637434.57007     -1318.384 7        45.603                                                                    19581472.283 7  81384685.46507     -1025.327 7        43.484
C20        31.000                                                                                                                                    24986085.403 6                     -3768.307 6        39.402                                                                    24986085.708 6 105724305.46306     -3062.027 6        37.913
R10        32.000    22657940.238 5                     -4755.546 5        32.138
C36        34.000                                                                                                                                    23213590.251 7 120879418.08107      1758.601 7        42.662                                                                    23213595.632 4  98224335.69704      1429.438 4        29.867
R02        35.000    21167875.126 8 112955776.25808      2163.818 8        49.915                                                                    21167872.755 7  87854694.01307      1682.983 7        44.465
C05        36.000                                                                                                                                    39459538.569 4 205476176.82804      -907.951 4        29.118
R12        38.000    21422307.589 5 114434245.94505      2957.624 5        32.796                                                                    21422294.959 5  89004269.85905      2300.301 5        35.790
C37        42.000                                                                                                                                    25532555.823 6 132954654.04206     -3772.023 6        37.176                                                                    25532551.680 5 108036568.93605     -3065.090 5        32.204
R01        44.000    19372185.333 6 103555403.57806     -1078.125 6        41.769                                                                    19372189.037 5  80543132.30415      -838.393 5        33.395
C09        47.000                                                                                                                                    40242011.447 4                     -1610.683 4        26.323    40242005.860 4                     -1245.562 4        29.336
C19        48.000                                                                                                                                    22140571.550 5 115291916.75105     -1665.203 5        34.714                                                                    22140566.509 6  93683975.40606     -1353.258 6        41.478
C34        49.000                                                                                                                                                                                                                                                                    27067562.296 4                     -1436.917 4        29.991
C22        51.000                                                                                                                                    23038903.158 7 119969603.19007      1332.289 7        44.348                                                                    23038897.312 7  97485131.37107      1082.624 7        44.668
C12        54.000                                                                                                                                    27148857.349 5                     -2655.488 5        31.826    27148855.192 6 109317156.93506     -2053.130 6        37.720
> 2025 01 02 06 45 25.0000000  0 33
G13         1.000    22393751.318 5 117679938.67505      1982.824 5        33.425                                    22393745.819 1  91698648.56901      1545.007 1        10.000
G20         4.000    20958921.674 7 110139931.46107     -1743.306 7        46.507                                    20958917.366 5  85823273.37505     -1358.416 5        33.647
G07         5.000    21776127.125 7 114434331.84907     -2648.208 7        44.766                                    21776123.779 5  89169566.33305     -2063.524 5        34.871    21776122.533 6  89169561.29506     -2063.320 6        37.089
G09         6.000    23670271.212 5 124388087.95205     -3972.398 5        31.026                                    23670270.504 1  96925797.75901     -3095.372 1        10.000    23670270.312 4                     -3095.925 4        29.536
G30         7.000    20592364.038 8 108213614.34308      -648.536 8        52.544                                    20592360.559 7  84322217.01107      -505.351 7        47.967    20592361.961 6  84322265.01006      -505.344 6        41.764
G14         8.000    23001839.798 5 120875457.62305      2418.472 5        35.076                                                                                                    23001836.379 5  94188697.32005      1884.568 5        34.324
E21        10.000    26270947.506 6 138054757.83006     -2091.844 6        39.538                                                                    26270948.758 4 103092884.67904     -1561.762 4        29.374    26270945.742 5 105782206.75005     -1602.733 5        32.994
E06        11.000    23768331.571 7 124903431.34207        96.532 7        42.402                                                                    23768331.085 5  93272089.55805        72.244 5        34.467    23768335.394 5  95705265.96505        74.071 5        32.473
E31        13.000    27088975.928 5 142353542.25505      2321.391 5        33.240                                                                    27088979.800 5 106303024.11605      1733.531 5        35.033    27088979.797 5 109076090.93305      1778.740 5        33.162
G05        14.000    21613891.405 6 113581840.56506       789.635 6        41.101                                    21613883.833 3  88505326.59403       615.283 3        22.590    21613881.675 5  88505274.63305       615.415 5        32.138
E04        17.000    23511159.427 7 123551957.70307     -1128.059 7        45.843                                                                    23511157.714 8  92262888.57808      -842.434 8        48.031    23511157.589 7  94669676.81707      -864.382 7        47.192
R08        18.000                                                                                                                                    22467767.079 5                     -3283.646 5        30.958
E19        20.000    26388128.442 4                     -3132.510 4        27.090
E09        21.000    25254451.269 6 132713068.48406       994.314 6        41.004                                                                    25254452.366 6  99103892.73906       742.475 6        38.300    25254452.607 7 101689221.28907       761.768 7        45.157
E36        22.000    26472319.634 4 139112965.82904     -1950.803 4        27.725                                                                    26472327.084 7 103883113.18407     -1456.322 7        42.461    26472325.891 6 106593058.47706     -1494.342 6        41.907
S36        23.000    38391518.808 5 201748867.27505      -852.672 5        34.390
S23        24.000    38326259.908 6 201405873.76306      -849.708 6        39.204
G11        25.000                                                                                                                                                                    24794978.193 4                     -3139.186 4        24.617
E34        26.000    28006892.824 5 147177432.26005       548.196 5        32.904                                                                    28006898.231 4 109905213.75504       409.249 4        29.488    28006891.797 5 112772147.75805       419.869 5        35.843
R18        28.000                                                                                                                                    23268069.564 5  96605144.98005      -987.276 5        34.219
R11        30.000    19582711.052 7 104644038.32907     -1322.886 7        42.114                                                                    19582708.606 7  81389821.70107     -1029.037 7        44.545
C20        31.000                                                                                                                                    24989706.128 6 130127948.20116     -3769.490 6        40.415                                                                    24989704.467 6 105739618.40006     -3063.131 6        37.486
C36        34.000                                                                                                                                    23211903.668 7 120870630.10607      1756.765 7        42.580                                                                    23211911.425 5  98217194.78505      1427.523 5        31.562
R02        35.000    21165848.138 8 112944961.66208      2162.234 8        48.942                                                                    21165846.195 7  87846282.66407      1681.806 7        44.203
C05        36.000                                                                                                                                    39460413.813 5 205480716.87905      -907.988 5        32.210
R12        38.000    21419538.385 5 114419465.03105      2955.258 5        31.547                                                                    21419524.885 5  88992773.54305      2298.286 5        31.351
C37        42.000                                                                                                                                    25536180.825 6 132973516.99706     -3773.036 6        36.609                                                                    25536175.270 5 108051896.66105     -3066.071 5        34.395
R01        44.000    19373196.645 7 103560803.18307     -1081.448 7        43.244                                                                    19373196.013 5  80547331.92005      -841.120 5        32.587
C09        47.000                                                                                                                                    40243556.219 4                     -1609.459 4        25.188    40243555.720 5                     -1245.254 5        30.460
C19        48.000                                                                                                                                    22142171.057 5 115300250.61905     -1667.692 5        35.790                                                                    22142167.741 6  93690747.39006     -1355.281 6        41.395
C34        49.000                                                                                                                                    27069269.533 5                     -1770.799 5        30.883                                                                    27069262.554 5                     -1439.006 5        30.340
C22        51.000                                                                                                                                    23037624.903 7 119962945.78807      1330.830 7        45.288                                                                    23037619.450 7  97479721.70407      1081.313 7        44.683
C12        54.000                                                                                                                                    27151409.867 5                     -2657.340 5        33.240    27151408.591 6 109327427.41306     -2054.877 6        37.645    27151416.702 4                     -2159.310 4        29.611
> 2025 01 02 06 45 30.0000000  0 36
G13         1.000    22391865.073 6 117670027.82106      1981.592 6        38.231                                    22391860.149 1  91690925.83801      1544.173 1        11.630
G20         4.000    20960582.095 7 110148655.95007     -1746.597 7        46.326                                    20960577.205 5  85830071.67305     -1360.977 5        33.473
G07         5.000    21778646.690 7 114447576.36707     -2649.811 7        45.019                                    21778643.891 5  89179886.72305     -2064.794 5        35.043    21778643.600 5  89179881.69905     -2064.670 5        35.838
G09         6.000    23674051.614 5 124407953.94705     -3973.892 5        30.008                                    23674051.574 1  96941277.73501     -3096.513 1         9.238    23674058.733 5                     -3096.271 5        31.094
G30         7.000    20592982.091 8 108216862.60208      -650.972 8        52.669                                    20592978.877 8  84324748.11108      -507.246 8        48.276    20592979.458 7  84324796.11207      -507.253 7        42.044
G14         8.000    22999537.466 5 120863367.76605      2416.947 5        35.105                                    22999533.804 2  94179245.64612      1883.350 2        13.818    22999536.552 6  94179276.62706      1883.538 6        37.629
E21        10.000    26272940.265 6 138065222.33906     -2094.055 6        37.890                                                                    26272941.155 4 103100699.10904     -1564.426 4        29.005    26272936.697 5 105790224.99305     -1604.422 5        33.054
E06        11.000    23768240.367 7 124902951.07807        95.499 7        42.762                                                                    23768239.456 5  93271730.89905        71.526 5        34.586    23768244.266 5  95704898.02705        73.334 5        31.668
E31        13.000    27086767.339 5 142341936.40905      2320.718 5        34.219                                                                    27086771.771 6 106294357.42406      1733.082 6        36.764    27086771.351 5 109067198.13905      1778.398 5        34.186
G05        14.000    21613142.922 6 113577899.67306       786.572 6        40.741                                    21613132.654 3  88502255.77603       612.896 3        20.452    21613132.606 4  88502203.79204       612.468 4        25.759
E11        16.000    27217608.331 4                     -3747.771 4        24.857                                                                    27217629.117 3                     -2799.643 3        20.095
E04        17.000    23512233.461 7 123557600.80307     -1129.383 7        46.228                                                                    23512231.511 8  92267102.56808      -843.333 8        48.184    23512231.605 7  94674000.72707      -865.368 7        46.783
R08        18.000    22471688.025 4                     -4223.478 4        29.251                                                                    22471710.849 5                     -3284.788 5        33.138
E19        20.000    26391109.655 4                     -3132.708 4        25.865                                                                                                                                    26391114.430 5 106266081.92615     -2400.762 5        33.431
E09        21.000    25253505.491 6 132708098.56406       993.525 6        39.168                                                                    25253506.255 6  99100181.45606       741.713 6        38.123    25253507.312 7 101685413.18107       761.299 7        45.309
E36        22.000    26474176.643 4                     -1953.223 4        27.545                                                                    26474183.921 6 103890399.12106     -1458.168 6        40.203    26474182.483 6 106600534.42606     -1496.104 6        41.423
S36        23.000    38392334.830 6 201753129.81906      -852.582 6        36.318
S23        24.000    38327070.372 6 201410122.88006      -849.969 6        38.009
G11        25.000    24798834.079 4                     -4028.608 4        25.895                                                                                                    24798802.763 3                     -3139.339 3        22.609
E34        26.000    28006373.981 5 147174696.73105       545.954 5        31.562                                                                    28006382.130 5 109903170.96205       407.503 5        30.362    28006369.870 5 112770051.74905       417.819 5        34.533
R17        27.000                                                                                                                                    23733651.107 3                     -3034.194 3        21.571
R18        28.000                                                                                                                                    23269257.991 6  96610089.19406      -990.574 6        37.274
R11        30.000    19583948.811 6 104650663.90406     -1327.526 6        39.036                                                                    19583948.424 7  81394974.89807     -1032.502 7        43.606
C20        31.000                                                                                                                                    24993326.858 6 130146798.18506     -3770.651 6        40.460                                                                    24993324.596 6 105754935.55306     -3064.048 6        36.370
R10        32.000    22666854.042 5                     -4758.879 5        33.186
C36        34.000                                                                                                                                    23210218.886 7 120861850.54107      1754.985 7        42.013                                                                    23210224.381 5  98210060.67705      1426.078 5        33.365
R02        35.000    21163821.660 7 112934153.50007      2160.844 7        47.846                                                                    21163821.192 7  87837876.30707      1680.647 7        45.494
C05        36.000                                                                                                                                    39461289.004 5 205485256.94505      -908.105 5        34.052
R12        38.000                                                                                                                                    21416759.553 4                      2296.385 4        26.287
C37        42.000                                                                                                                                    25539804.273 5 132992384.96805     -3774.284 5        32.850                                                                    25539800.117 5 108067228.37405     -3066.908 5        35.890
