     3.04           OBSERVATION DATA    M                   RINEX VERSION / TYPE
ssrcrin-15.6.1x                         20250102 110000 UTC PGM / RUN BY / DATE 
(00000000023479385599111004) Septentrio proprietary         COMMENT             
ract                                                        MARKER NAME         
01                                                          MARKER NUMBER       
geodetic                                                    MARKER TYPE         
NFB                 CLIMERS@TUW                             OBSERVER / AGENCY   
3296359             SEPT ASTERX SB3 PROB4.14.4              REC # / TYPE / VERS 
Unknown             Unknown                                 ANT # / TYPE        
  4127447.3419  1206915.3763  4695543.4074                  APPROX POSITION XYZ 
        0.0000        0.0000        0.0000                  ANTENNA: DELTA H/E/N
G   23 X1  C1C L1C D1C S1C C1W S1W C2W L2W D2W S2W C2L L2L  SYS / # / OBS TYPES 
       D2L S2L C5Q L5Q D5Q S5Q C1L L1L D1L S1L              SYS / # / OBS TYPES 
E   21 X1  C1C L1C D1C S1C C6C L6C D6C S6C C5Q L5Q D5Q S5Q  SYS / # / OBS TYPES 
       C7Q L7Q D7Q S7Q C8Q L8Q D8Q S8Q                      SYS / # / OBS TYPES 
S    9 X1  C1C L1C D1C S1C C5I L5I D5I S5I                  SYS / # / OBS TYPES 
R   17 X1  C1C L1C D1C S1C C2P L2P D2P S2P C2C L2C D2C S2C  SYS / # / OBS TYPES 
       C3Q L3Q D3Q S3Q                                      SYS / # / OBS TYPES 
C   25 X1  C1P L1P D1P S1P C5P L5P D5P S5P C2I L2I D2I S2I  SYS / # / OBS TYPES 
       C7I L7I D7I S7I C6I L6I D6I S6I C7D L7D D7D S7D      SYS / # / OBS TYPES 
J   17 X1  C1C L1C D1C S1C C2L L2L D2L S2L C5Q L5Q D5Q S5Q  SYS / # / OBS TYPES 
       C1L L1L D1L S1L                                      SYS / # / OBS TYPES 
I    5 X1  C5A L5A D5A S5A                                  SYS / # / OBS TYPES 
SEPTENTRIO RECEIVERS OUTPUT ALIGNED CARRIER PHASES.         COMMENT             
NO FURTHER PHASE SHIFT APPLIED IN THE RINEX ENCODER.        COMMENT             
G L1C                                                       SYS / PHASE SHIFT   
G L2W                                                       SYS / PHASE SHIFT   
G L2L  0.00000                                              SYS / PHASE SHIFT   
G L5Q  0.00000                                              SYS / PHASE SHIFT   
G L1L  0.00000                                              SYS / PHASE SHIFT   
E L1C  0.00000                                              SYS / PHASE SHIFT   
E L6C  0.00000                                              SYS / PHASE SHIFT   
E L5Q  0.00000                                              SYS / PHASE SHIFT   
E L7Q  0.00000                                              SYS / PHASE SHIFT   
E L8Q  0.00000                                              SYS / PHASE SHIFT   
S L1C                                                       SYS / PHASE SHIFT   
S L5I                                                       SYS / PHASE SHIFT   
R L1C                                                       SYS / PHASE SHIFT   
R L2P  0.00000                                              SYS / PHASE SHIFT   
R L2C                                                       SYS / PHASE SHIFT   
R L3Q  0.00000                                              SYS / PHASE SHIFT   
C L1P  0.00000                                              SYS / PHASE SHIFT   
C L5P  0.00000                                              SYS / PHASE SHIFT   
C L2I                                                       SYS / PHASE SHIFT   
C L7I                                                       SYS / PHASE SHIFT   
C L6I                                                       SYS / PHASE SHIFT   
C L7D                                                       SYS / PHASE SHIFT   
J L1C                                                       SYS / PHASE SHIFT   
J L2L  0.00000                                              SYS / PHASE SHIFT   
J L5Q  0.00000                                              SYS / PHASE SHIFT   
J L1L  0.00000                                              SYS / PHASE SHIFT   
I L5A                                                       SYS / PHASE SHIFT   
  2025     1     2    11     0    0.0000000     GPS         TIME OF FIRST OBS   
 C1C    0.000 C2C    0.000 C2P    0.000                     GLONASS COD/PHS/BIS 
DBHZ                                                        SIGNAL STRENGTH UNIT
    18                                                      LEAP SECONDS        
 24 R01  1 R02 -4 R03  5 R04  6 R05  1 R06 -4 R07  5 R08  6 GLONASS SLOT / FRQ #
    R09 -2 R10 -7 R11  0 R12 -1 R13 -2 R14 -7 R15  0 R16 -1 GLONASS SLOT / FRQ #
    R17  4 R18 -3 R19  3 R20  2 R21  4 R22 -3 R23  3 R24  2 GLONASS SLOT / FRQ #
                                                            END OF HEADER       
> 2025 01 02 11 00  0.0000000  0 41
G13         1.000    22721448.736 6 119401971.21006     -4450.887 6        39.721                                    22721446.954 3  93040466.28003     -3468.228 3        18.448
G17         2.000    22230688.771 7 116822959.90007     -2178.352 7        44.039                                    22230689.309 6  91030907.83106     -1697.416 6        36.696    22230689.419 6  91030979.83106     -1697.350 6        38.544
G19         4.000    21398433.104 6 112449486.66006       383.140 6        41.240                                    21398428.486 3  87622983.77303       298.551 3        21.976
E25         6.000                                                                                                                                    26702846.612 4                      1310.603 4        28.692    26702843.111 6 107521289.99406      1344.544 6        37.093
G10         7.000                                                                                                                                                                    24315181.026 5  99566593.20505      -495.807 5        34.905
G14         8.000    23886157.653 4                     -4118.805 4        26.084                                                                                                    23886184.463 4                     -3209.453 4        27.234
G15         9.000    21447628.078 7 112708255.10707     -3713.869 7        42.148                                    21447628.316 6  87824490.42506     -2893.920 6        36.163    21447628.228 6  87824476.40006     -2893.996 6        38.021
G23        10.000    23779585.015 6 124962771.59306     -2939.246 6        36.132
E06        11.000    26840967.879 5                     -3947.687 5        32.245                                                                    26840973.564 4 105329781.13504     -2947.894 4        29.782    26840973.391 6 108077430.33806     -3025.085 6        36.355
G24        12.000    20248600.206 6 106407714.02106       287.290 6        41.776                                    20248601.516 4  82914666.34104       223.863 4        29.090    20248600.774 5  82914641.40705       223.801 5        32.383
E31        13.000    24351191.257 7 127966325.49707     -2616.393 7        42.076                                                                    24351197.217 7  95559320.17807     -1953.744 7        44.102    24351196.131 7  98052156.89207     -2004.732 7        46.411
G12        15.000                                                                                                                                                                    22195300.904 5  90886069.87505      1649.814 5        33.575
E24        16.000    23715397.224 7 124625229.71807       -34.017 7        46.894                                                                    23715399.406 7  93064362.74207       -25.357 7        44.498    23715398.596 7  95492154.29107       -26.020 7        46.453
E05        18.000    22200979.980 7 116666946.11407      -758.056 7        47.224                                                                    22200984.594 8  87121416.86708      -566.111 8        50.637    22200983.532 8  89394152.53108      -580.872 8        49.166
E09        21.000    25214119.323 6 132501145.25106     -3421.112 6        36.624                                                                    25214126.150 6  98945654.49306     -2554.815 6        38.492    25214133.885 5 101526809.48105     -2621.542 5        34.862
R14        23.000    20237576.857 8 107877577.28408       995.267 8        49.107                                                                    20237576.989 7  83904894.57407       774.069 7        42.463
S23        24.000    38111255.951 5 200276009.68705      -860.183 5        35.948
R23        25.000    22305252.364 5 119318033.97505      2149.049 5        33.455
E03        26.000    26539792.228 7 139467677.24307      1627.291 7        43.365                                                                    26539800.212 7 104147891.47507      1215.092 7        43.264    26539798.376 6 106864805.21606      1246.880 6        41.852
R13        27.000    20005153.770 7 106826386.25707     -2745.219 7        42.931
R21        28.000    24566460.096 4                     -4109.594 4        24.256
R04        29.000    20006275.392 7 107132719.46107      -546.874 7        47.531                                                                    20006274.108 6  83325469.89406      -425.237 6        40.403
R15        30.000    24228644.881 4 129470343.24904      2533.670 4        28.180
S36        31.000    38176746.378 5 200620264.14905      -856.969 5        34.624
C07        32.000                                                                                                                                                                                                    39162053.680 5 157689292.31405     -1171.069 5        33.060
C10        33.000                                                                                                                                    38543416.374 6 200705673.72006     -1162.904 6        41.268    38543418.967 7 155198378.18607      -899.282 7        44.191    38543415.786 6 163089792.95306      -944.906 6        38.390
C36        34.000                                                                                                                                    23955662.426 5 124743358.67805     -3280.641 5        34.395                                                                    23955674.783 6 101364287.10306     -2665.726 6        41.306
R03        36.000                                                                                                                                    20846722.852 6                     -3382.174 6        37.395
C45        37.000                                                                                                                                    21602049.397 7 112487529.97707     -1184.574 7        46.655                                                                    21602043.721 7  91405348.37407      -962.539 7        47.111
C40        40.000                                                                                                                                    39366006.852 5                     -1763.864 5        31.691                                                                    39366035.432 4                     -1433.393 4        26.479
R22        41.000                                                                                                                                    22297317.637 4                      -737.405 4        27.281
C30        43.000                                                                                                                                                                                                                                                                    24487553.446 5                      -852.550 5        30.332
R05        44.000    22768880.254 5 121712688.06405      2761.569 5        33.455                                                                    22768876.112 6  94665430.50106      2147.565 6        38.261
C42        45.000                                                                                                                                    24071204.331 5 125344968.83005      -244.432 5        30.581                                                                    24071207.001 6 101853139.52906      -198.622 6        36.023
C29        46.000                                                                                                                                    24262197.186 6 126339653.72406      1652.053 6        38.808                                                                    24262193.297 5 102661284.52205      1342.599 5        35.710
C26        48.000                                                                                                                                    23717638.331 6 123503855.66006      1424.065 6        38.396                                                                    23717617.918 6 100357018.87506      1157.194 6        38.700
C22        51.000                                                                                                                                    26078007.841 3                     -4358.911 3        22.133
C14        53.000                                                                                                                                                                                                    25466263.099 6 102542101.41706       856.422 6        36.208    25466259.640 6 107756101.58906       899.868 6        38.426
C21        55.000                                                                                                                                    23760763.968 7 123728395.87807     -3077.418 7        43.645                                                                    23760760.182 7 100539508.99807     -2500.618 7        44.512
I06        58.000    38247407.749 6 150091059.76006      -748.970 6        39.625
I02        59.000    36878046.029 6 144717355.20306      -567.408 6        40.350
> 2025 01 02 11 00  5.0000000  0 41
G13         1.000    22725683.857 6 119424227.84706     -4451.930 6        39.892                                    22725682.207 3  93057809.07503     -3469.020 3        19.015
G17         2.000    22232762.585 7 116833858.08307     -2181.150 7        44.417                                    22232762.733 6  91039399.91206     -1699.599 6        36.677    22232763.240 6  91039471.93006     -1699.632 6        38.186
G19         4.000    21398067.366 6 112447577.70006       380.202 6        40.338                                    21398064.934 3  87621496.25403       296.281 3        21.452
E25         6.000                                                                                                                                    26701174.740 4                      1309.928 4        28.171    26701174.011 6 107514568.22606      1343.885 6        38.024
G10         7.000                                                                                                                                                                    24315786.254 5  99569076.79405      -497.814 5        32.671
G14         8.000    23890077.795 4                     -4119.702 4        24.090                                                                                                    23890103.639 4                     -3209.356 4        28.256
G15         9.000    21451163.240 7 112726829.40207     -3715.995 7        42.127                                    21451162.548 6  87838963.86806     -2895.570 6        36.102    21451163.008 6  87838949.85806     -2895.847 6        36.699
G23        10.000    23782381.975 6 124977471.66506     -2941.170 6        36.809                                                                                                    23782404.702 4  97384885.45614     -2291.654 4        29.374
E06        11.000    26844728.451 5                     -3948.256 5        32.844                                                                    26844730.493 5 105344522.31205     -2948.317 5        30.038    26844729.863 6 108092556.09406     -3025.454 6        36.253
G24        12.000    20248327.865 7 106406282.30507       285.152 7        42.085                                    20248328.438 4  82913550.73504       222.180 4        28.398    20248328.414 5  82913525.78705       222.392 5        32.042
E31        13.000    24353680.869 7 127979408.63707     -2617.312 7        42.878                                                                    24353686.790 7  95569090.06307     -1954.319 7        44.193    24353685.810 7  98062181.64207     -2005.372 7        46.469
G12        15.000    22193281.839 6 116626988.84916      2115.916 6        39.069                                    22193279.836 4  90877871.25714      1648.760 4        24.165    22193288.810 5  90877822.19905      1648.911 5        34.248
E24        16.000    23715430.387 7 124625402.89907       -35.490 7        46.846                                                                    23715432.353 7  93064492.06307       -26.507 7        44.208    23715431.688 7  95492286.98207       -27.205 7        46.457
E05        18.000    22201702.535 7 116670741.27707      -760.241 7        47.719                                                                    22201706.793 8  87124250.91408      -567.657 8        50.620    22201705.690 8  89397060.51508      -582.506 8        48.953
E09        21.000    25217375.661 6 132518253.46806     -3422.234 6        37.955                                                                    25217382.066 6  98958430.07106     -2555.827 6        39.069    25217389.294 5 101539918.40105     -2622.173 5        34.386
R14        23.000    20236644.081 8 107872604.69708       993.470 8        48.648                                                                    20236643.921 6  83901027.00206       772.755 6        41.924
S23        24.000    38112072.662 6 200280307.56406      -859.688 6        36.102
R23        25.000    22303245.370 5 119307295.93205      2145.941 5        30.860
E03        26.000    26538244.095 7 139459542.35807      1626.346 7        43.103                                                                    26538252.198 7 104141816.73407      1214.562 7        43.238    26538250.518 7 106858571.99507      1246.264 7        42.091
R13        27.000    20007725.258 7 106840115.58307     -2746.764 7        42.398
R21        28.000    24570297.468 4                     -4111.807 4        24.045
R04        29.000    20006789.979 8 107135464.38608      -551.423 8        48.252                                                                    20006786.467 6  83327604.82206      -428.875 6        40.293
R15        30.000    24226270.738 5 129457674.84305      2533.618 5        31.343
S36        31.000    38177559.606 5 200624548.69605      -857.131 5        33.868
C07        32.000                                                                                                                                                                                                    39163508.612 5 157695146.00605     -1170.898 5        32.347
C10        33.000                                                                                                                                    38544533.722 6 200711488.59006     -1163.192 6        41.244    38544535.663 7 155202874.60307      -899.488 7        44.331    38544532.286 6 163094517.96606      -944.782 6        38.682
C36        34.000                                                                                                                                    23958814.228 5 124759762.52005     -3281.220 5        32.383                                                                    23958824.913 6 101377616.53306     -2665.946 6        41.712
R03        36.000                                                                                                                                    20850785.289 5  86812351.21715     -3384.424 5        34.843
C45        37.000                                                                                                                                    21603187.926 7 112493455.98907     -1186.018 7        47.651                                                                    21603181.511 7  91410163.72607      -963.484 7        47.087
C40        40.000                                                                                                                                    39367701.566 5                     -1764.251 5        32.245                                                                    39367727.123 4                     -1433.891 4        26.934
R22        41.000    22298235.912 5                      -952.445 5        35.129                                                                    22298207.177 4                      -740.560 4        28.701
C30        43.000                                                                                                                                    24488536.061 4                     -1052.280 4        24.165                                                                    24488566.948 5                      -855.084 5        30.506
R05        44.000    22766297.494 4 121698886.25504      2759.287 4        24.842                                                                    22766294.500 6  94654695.96906      2145.899 6        36.715
C42        45.000                                                                                                                                    24071440.112 5 125346197.44805      -247.444 5        33.000                                                                    24071441.131 5 101854137.94005      -200.451 5        35.895
C29        46.000                                                                                                                                    24260611.288 6 126331396.11706      1650.733 6        39.589                                                                    24260607.403 5 102654574.53905      1341.755 5        35.567
C26        48.000                                                                                                                                                                                                                                                                    23716250.924 6 100351234.24006      1156.666 6        39.357
C22        51.000                                                                                                                                    26082191.352 3                     -4357.830 3        22.495
C14        53.000                                                                                                                                                                                                    25465201.506 6 102537823.47506       854.728 6        36.616    25465197.640 6 107751606.07106       898.384 6        39.126
C21        55.000                                                                                                                                    23763720.155 7 123743787.43107     -3079.361 7        44.644                                                                    23763716.163 7 100552015.88907     -2502.053 7        45.159
I06        58.000    38248361.602 6 150094803.99106      -748.856 6        39.495
I02        59.000    36878769.578 6 144720192.37106      -567.515 6        40.141
> 2025 01 02 11 00 10.0000000  0 40
G13         1.000    22729919.210 6 119446490.58906     -4453.081 6        39.799                                    22729918.698 3  93075156.61003     -3469.931 3        19.284
G17         2.000    22234839.356 7 116844770.82607     -2184.105 7        46.214                                    22234838.885 6  91047903.34706     -1701.898 6        36.696    22234840.040 6  91047975.34506     -1701.760 6        37.732
G19         4.000    21397705.896 6 112445684.46106       376.855 6        39.598                                    21397704.221 3  87620020.99303       293.642 3        20.310
E25         6.000                                                                                                                                    26699501.208 4                      1309.427 4        29.772    26699505.679 6 107507849.20906      1343.479 6        38.135
G10         7.000    24316423.000 6 127783811.31616      -642.373 6        36.491                                                                                                    24316394.018 5  99571572.62405      -500.389 5        30.113
G14         8.000    23893994.699 4                     -4119.909 4        25.774                                                                                                    23894025.078 4                     -3209.713 4        27.269
G15         9.000    21454700.316 7 112745415.43107     -3718.495 7        43.117                                    21454698.882 5  87853446.45305     -2897.517 5        35.538    21454700.368 5  87853432.41505     -2897.614 5        35.224
G23        10.000    23785184.068 6 124992182.84506     -2943.492 6        38.114                                                                                                    23785205.355 4  97396348.83804     -2293.635 4        27.497
E06        11.000    26848487.802 5                     -3948.986 5        33.467                                                                    26848488.092 5 105359265.72205     -2949.220 5        30.521    26848486.949 5 108107684.09605     -3026.101 5        35.605
G24        12.000    20248058.788 7 106404862.58607       282.531 7        42.317                                    20248057.610 4  82912444.48204       220.137 4        28.057    20248058.757 5  82912419.51305       220.569 5        32.263
E31        13.000    24356170.914 7 127992497.07207     -2618.386 7        43.649                                                                    24356177.474 7  95578863.90407     -1955.250 7        44.546    24356176.458 7  98072210.43607     -2006.207 7        46.163
G12        15.000    22191272.721 6 116616412.49006      2114.391 6        39.679                                    22191268.531 4  90869629.98004      1647.583 4        26.383    22191277.269 5  90869580.88805      1647.518 5        34.276
E24        16.000    23715465.022 7 124625584.21307       -37.180 7        46.705                                                                    23715466.965 7  93064627.46707       -27.797 7        44.193    23715466.256 7  95492425.91107       -28.532 7        46.301
E05        18.000    22202426.919 7 116674547.72207      -762.596 7        47.664                                                                    22202431.137 8  87127093.38108      -569.465 8        50.827    22202430.017 8  89399977.13508      -584.333 8        48.587
E09        21.000    25220633.176 6 132535368.52206     -3423.807 6        38.453                                                                    25220639.245 6  98971210.75506     -2556.792 6        40.117    25220645.259 5 101553032.56705     -2623.377 5        34.895
R14        23.000    20235711.413 7 107867641.95807       991.510 7        47.694                                                                    20235712.930 6  83897167.10306       771.084 6        41.795
S23        24.000    38112889.006 5 200284605.42005      -859.750 5        35.805
R23        25.000    22301244.273 3                      2142.070 3        21.714
E03        26.000    26536697.475 7 139451412.97507      1625.125 7        42.842                                                                    26536705.424 7 104135746.09907      1213.581 7        43.249    26536703.626 7 106852342.99907      1245.264 7        42.229
R13        27.000    20010296.803 7 106853853.58807     -2748.530 7        42.347
R04        29.000    20007308.048 7 107138232.88607      -556.110 7        46.466                                                                    20007304.339 6  83329758.07706      -432.558 6        40.717
R15        30.000    24223891.620 5 129445008.52305      2532.819 5        33.826
S36        31.000    38178369.662 5 200628833.15005      -857.075 5        34.367
C07        32.000                                                                                                                                                                                                    39164963.381 5 157701001.34305     -1171.223 5        32.539
C10        33.000                                                                                                                                    38545650.580 6 200717305.93806     -1163.913 6        41.323    38545652.691 7 155207372.93107      -899.905 7        44.546    38545649.776 6 163099245.02706      -945.634 6        38.664
C36        34.000                                                                                                                                    23961965.343 5 124776169.44005     -3281.693 5        31.238                                                                    23961975.576 7 101390948.48307     -2666.780 7        42.017
R03        36.000                                                                                                                                    20854851.282 5  86829278.72005     -3386.828 5        32.928
C45        37.000                                                                                                                                    21604326.827 8 112499389.48708     -1187.570 8        48.335                                                                    21604320.843 7  91414985.18307      -964.970 7        46.916
C40        40.000                                                                                                                                    39369396.266 5                     -1764.747 5        32.251                                                                    39369418.563 4                     -1433.596 4        26.251
R22        41.000    22299132.794 5 119034267.72415      -956.899 5        34.205                                                                    22299103.049 5                      -743.955 5        30.528
C30        43.000                                                                                                                                    24489543.808 3                     -1054.818 3        21.500                                                                    24489579.779 5                      -856.995 5        30.045
R05        44.000    22763716.992 4                      2757.017 4        25.459                                                                    22763715.571 5  94643970.96805      2143.989 5        35.710
C42        45.000                                                                                                                                    24071672.793 5 125347440.45205      -250.072 5        35.476                                                                    24071674.138 6 101855148.03606      -203.239 6        36.102
C29        46.000                                                                                                                                    24259026.323 6 126323146.34206      1649.119 6        39.973                                                                    24259022.893 5 102647870.92405      1339.896 5        35.267
C26        48.000                                                                                                                                                                                                                                                                    23714884.490 6 100345453.09306      1155.733 6        39.931
C22        51.000                                                                                                                                    26086376.353 3                     -4356.332 3        22.743
C14        53.000                                                                                                                                    25464145.305 5                      1102.814 5        34.505    25464141.687 6 102533554.35506       852.916 6        38.063    25464137.875 6 107747119.88006       896.144 6        39.952
C21        55.000                                                                                                                                    23766677.861 7 123759189.61607     -3081.633 7        43.488                                                                    23766674.056 7 100564531.40907     -2504.063 7        45.600
I06        58.000    38249315.946 6 150098548.24306      -749.019 6        39.946
I02        59.000    36879492.668 6 144723030.71406      -567.834 6        40.217
> 2025 01 02 11 00 15.0000000  0 39
G13         1.000    22734155.785 6 119468759.47006     -4454.263 6        37.766                                    22734156.768 3  93092508.95203     -3470.845 3        19.552
G17         2.000    22236919.023 7 116855698.15907     -2186.989 7        47.042                                    22236917.823 6  91056418.15406     -1704.143 6        37.051    22236919.483 6  91056490.13506     -1703.897 6        37.062
G19         4.000    21397349.573 6 112443806.95206       373.998 6        39.465                                    21397346.662 3  87618557.98903       291.424 3        19.731
E25         6.000                                                                                                                                    26697831.688 4                      1308.665 4        29.706    26697837.848 6 107501133.00006      1342.974 6        38.090
G10         7.000    24317036.760 5 127787029.84905      -645.167 5        34.843                                                                                                    24317006.723 4  99574080.62004      -502.535 4        28.265
G14         8.000    23897916.236 4                     -4120.284 4        26.491                                                                                                    23897942.367 4                     -3210.147 4        27.042
G15         9.000    21458239.743 7 112764013.20507     -3720.737 7        43.810                                    21458237.254 5  87867938.19005     -2899.268 5        34.910    21458239.539 5  87867924.16605     -2899.355 5        34.233
G23        10.000    23787992.233 6 125006905.23106     -2945.613 6        37.282                                                                                                    23788006.241 3                     -2295.279 3        23.429
E06        11.000    26852244.139 5 141109502.44915     -3949.377 5        34.024                                                                    26852245.467 5 105374011.29605     -2949.263 5        31.034    26852244.604 5 108122814.32605     -3026.268 5        34.886
G24        12.000    20247792.909 7 106403454.86307       280.467 7        42.328                                    20247789.134 4  82911347.59804       218.547 4        28.190    20247791.812 5  82911322.67405       218.182 5        33.078
E31        13.000    24358661.599 7 128005590.78307     -2619.265 7        44.053                                                                    24358669.322 7  95588641.67807     -1956.020 7        45.103    24358667.947 7  98082243.28907     -2007.072 7        46.043
G12        15.000    22189264.995 6 116605844.35406      2112.821 6        40.467                                    22189258.881 4  90861395.09804      1646.355 4        28.910    22189267.678 5  90861346.02405      1646.398 5        35.571
E24        16.000    23715501.231 7 124625773.73307       -38.733 7        46.883                                                                    23715503.164 7  93064768.99307       -28.911 7        44.215    23715502.361 7  95492571.12907       -29.674 7        46.137
E05        18.000    22203153.615 7 116678365.45507      -764.633 7        47.782                                                                    22203157.624 8  87129944.28008      -571.026 8        50.981    22203156.555 8  89402902.40608      -585.925 8        48.387
E09        21.000    25223891.064 6 132552490.40806     -3425.120 6        38.369                                                                    25223897.607 6  98983996.55606     -2557.680 6        40.734    25223901.429 6 101566151.94906     -2624.326 6        36.484
R14        23.000    20234780.370 7 107862688.79807       989.595 7        45.813                                                                    20234783.406 6  83893314.64406       769.611 6        40.367
S23        24.000    38113704.858 5 200288903.30405      -859.659 5        35.729
E03        26.000    26535151.791 7 139443289.11307      1624.148 7        42.728                                                                    26535159.573 7 104129679.58307      1212.964 7        43.251    26535157.831 7 106846118.22707      1244.491 7        42.224
R13        27.000    20012871.897 7 106867600.03007     -2750.156 7        42.078
R04        29.000    20007825.818 7 107141024.83907      -560.815 7        45.797                                                                    20007825.805 6  83331929.59406      -436.191 6        41.080
R15        30.000    24221513.433 5 129432344.47405      2532.588 5        34.429
S36        31.000    38179190.281 5 200633117.07905      -856.454 5        34.295
C07        32.000                                                                                                                                                                                                    39166418.284 5 157706858.27405     -1171.561 5        32.066
C10        33.000                                                                                                                                    38546767.375 6 200723125.69006     -1164.118 6        40.851    38546770.370 7 155211873.13507      -900.192 7        44.539    38546767.235 6 163103974.08206      -945.945 6        38.691
C36        34.000                                                                                                                                    23965116.929 5 124792579.45405     -3282.345 5        31.962                                                                    23965127.152 7 101404282.97307     -2667.190 7        42.006
R03        36.000    20858927.179 6 111659598.78916     -4357.268 6        39.084                                                                    20858920.238 5  86846217.51605     -3388.644 5        33.168
C45        37.000                                                                                                                                    21605467.540 8 112505330.51008     -1188.993 8        48.592                                                                    21605461.602 7  91419812.77507      -966.197 7        46.568
C40        40.000                                                                                                                                    39371091.011 5                     -1765.434 5        32.874                                                                    39371108.403 4                     -1434.740 4        26.431
R22        41.000    22300032.619 5 119039062.31815      -961.306 5        35.524                                                                    22300005.861 5                      -747.532 5        32.353
C30        43.000                                                                                                                                                                                                                                                                    24490594.467 5                      -859.653 5        30.211
R05        44.000    22761153.710 4                      2754.456 4        26.036                                                                    22761137.647 5                      2142.128 5        33.635
C42        45.000                                                                                                                                                                                                                                                                    24071913.375 6 101856169.87506      -205.860 6        36.253
C29        46.000                                                                                                                                    24257442.595 6 126314904.39306      1647.626 6        39.628                                                                    24257440.149 5 102641173.70205      1338.532 5        34.467
C26        48.000                                                                                                                                    23713566.497 5 123482511.58705      1421.904 5        32.449                                                                    23713519.053 6 100339675.46306      1155.169 6        40.317
C22        51.000                                                                                                                                    26090562.824 3                     -4360.439 3        21.595
C14        53.000                                                                                                                                    25463085.898 6 132592978.84016      1100.837 6        36.238    25463083.545 6 102529294.13606       851.147 6        37.493    25463079.989 6 107742643.05206       894.515 6        40.174
C21        55.000                                                                                                                                    23769637.438 6 123774602.45606     -3083.566 6        41.716                                                                    23769634.080 7 100577055.57407     -2505.754 7        45.988
I06        58.000    38250270.150 6 150102292.54906      -748.869 6        39.880
I02        59.000    36880216.249 6 144725870.17606      -568.227 6        40.246
> 2025 01 02 11 00 20.0000000  0 40
G13         1.000    22738394.020 5 119491035.20505     -4455.429 5        35.524                                    22738395.884 3  93109866.63003     -3471.764 3        18.418
G17         2.000    22239001.104 7 116866640.75207     -2189.830 7        47.634                                    22238999.770 6  91064944.84606     -1706.357 6        37.304    22239002.216 6  91065016.83306     -1706.308 6        37.641
G19         4.000    21396995.425 6 112441945.91806       370.703 6        40.622                                    21396992.053 3  87617107.83003       288.861 3        18.448
E25         6.000                                                                                                                                    26696165.494 5                      1308.308 5        30.860    26696171.130 6 107494420.16706      1342.282 6        37.637
G10         7.000    24317652.185 5 127790264.74205      -648.389 5        32.048                                                                                                    24317624.112 4  99576601.39304      -505.132 4        27.629
G14         8.000    23901838.050 4                     -4120.033 4        28.009                                                                                                    23901857.371 4                     -3210.575 4        25.955
G15         9.000    21461780.969 7 112782623.45207     -3723.090 7        43.873                                    21461777.979 5  87882439.64905     -2901.107 5        33.892    21461780.965 5  87882425.64805     -2901.179 5        33.964
G23        10.000    23790798.391 5 125021639.42505     -2947.963 5        35.071                                                                                                    23790807.252 3                     -2296.646 3        18.239
E06        11.000    26855998.090 5 141129252.37505     -3950.107 5        33.186                                                                    26856004.160 5 105388759.56905     -2949.825 5        31.668    26856002.857 5 108137947.37005     -3026.998 5        34.229
G24        12.000    20247527.882 6 106402059.91906       277.999 6        41.368                                    20247523.322 4  82910260.66004       216.616 4        27.772    20247524.624 5  82910235.70805       216.858 5        31.313
E31        13.000    24361154.346 7 128018690.51407     -2620.371 7        43.977                                                                    24361162.223 7  95598423.93007     -1956.699 7        45.552    24361160.597 7  98092280.71507     -2007.737 7        45.579
G12        15.000    22187256.034 6 116595285.16806      2111.287 6        40.989                                    22187250.948 5  90853167.18305      1645.157 5        30.672    22187256.411 6  90853118.12206      1645.073 6        36.817
E24        16.000    23715538.883 7 124625972.15307       -40.423 7        46.935                                                                    23715540.971 7  93064917.16807       -30.166 7        44.108    23715540.049 7  95492723.15607       -30.914 7        45.886
E05        18.000    22203882.473 7 116682195.21107      -767.009 7        47.513                                                                    22203886.385 8  87132804.15908      -572.769 8        50.955    22203885.434 8  89405836.89108      -587.743 8        48.004
E09        21.000    25227150.094 6 132569619.87506     -3426.410 6        38.096                                                                    25227157.040 6  98996788.00606     -2558.665 6        40.939    25227160.464 6 101579277.12206     -2625.386 6        37.924
R14        23.000    20233851.931 7 107857746.01307       987.704 7        44.981                                                                    20233855.183 6  83889470.25706       768.222 6        39.105
S23        24.000    38114516.413 5 200293201.89505      -859.551 5        35.462
E03        26.000    26533607.045 7 139435171.50907      1622.995 7        42.445                                                                    26533614.885 7 104123617.74607      1212.089 7        43.160    26533613.070 7 106839898.25307      1243.757 7        42.203
R13        27.000    20015447.285 6 106881355.81706     -2751.939 6        41.819
R21        28.000    24581864.522 3                     -4122.378 3        20.214
R04        29.000    20008347.953 7 107143841.08007      -565.528 7        43.528                                                                    20008352.229 7  83334120.02007      -439.732 7        42.590
R15        30.000    24219140.116 5 129419683.38605      2531.914 5        31.751
S36        31.000    38179997.606 5 200637401.44805      -856.624 5        33.653
C07        32.000                                                                                                                                                                                                    39167872.950 5 157712717.38205     -1171.539 5        31.924
C10        33.000                                                                                                                                    38547886.302 6 200728948.65906     -1164.781 6        40.660    38547888.574 7 155216375.82607      -900.614 7        44.837    38547885.377 6 163108705.71506      -946.307 6        38.589
C36        34.000                                                                                                                                    23968272.795 5 124808993.31505     -3283.009 5        33.832                                                                    23968279.066 7 101417620.53607     -2667.624 7        42.165
R03        36.000    20862991.229 6 111681392.45506     -4359.954 6        41.271                                                                    20862991.299 5  86863168.15405     -3391.200 5        33.653
C45        37.000                                                                                                                                    21606610.162 8 112511279.74908     -1190.508 8        48.832                                                                    21606603.946 7  91424647.00707      -967.372 7        46.299
C40        40.000                                                                                                                                    39372786.766 5                     -1765.800 5        33.066
R22        41.000    22300938.203 5 119043879.63605      -965.326 5        33.257                                                                    22300913.537 5                      -750.979 5        32.994
C30        43.000                                                                                                                                                                                                                                                                    24491609.351 5                      -861.881 5        30.158
R05        44.000    22758588.345 5                      2751.706 5        30.709                                                                    22758560.575 4  94622549.71114      2140.049 4        29.488
C42        45.000                                                                                                                                    24072145.629 6 125349970.47006      -255.772 6        40.315                                                                    24072158.234 6 101857203.91106      -207.875 6        36.457
C29        46.000                                                                                                                                    24255861.339 6 126306671.01806      1646.054 6        39.270                                                                    24255859.037 5 102634483.41105      1337.574 5        34.109
C26        48.000                                                                                                                                                                                                                                                                    23712154.472 6 100333901.88306      1154.365 6        40.157
C22        51.000                                                                                                                                    26094746.430 3                     -4359.202 3        23.638
C14        53.000                                                                                                                                    25462031.283 6 132587481.59106      1098.416 6        37.077    25462027.817 6 102525043.33706       849.373 6        36.405    25462024.015 6 107738176.10606       892.592 6        40.110
C21        55.000                                                                                                                                    23772599.104 6 123790026.59606     -3085.691 6        40.467                                                                    23772596.244 7 100589588.91007     -2507.409 7        46.022
I06        58.000    38251224.504 6 150106037.41406      -748.721 6        39.730
I02        59.000    36880940.025 6 144728711.38206      -568.279 6        40.040
> 2025 01 02 11 00 25.0000000  0 40
G13         1.000    22742633.526 5 119513317.15705     -4456.895 5        34.386                                    22742636.243 2  93127229.14502     -3472.893 2        17.849
G17         2.000    22241085.614 7 116877598.03207     -2192.893 7        47.712                                    22241084.597 6  91073482.97106     -1708.742 6        37.656    22241087.266 6  91073554.94906     -1708.714 6        38.411
G19         4.000    21396644.426 6 112440100.65406       367.653 6        40.136                                    21396640.481 2  87615669.97502       286.495 2        17.245
E25         6.000                                                                                                                                    26694499.528 5                      1307.342 5        31.638    26694504.545 6 107487710.19506      1341.753 6        36.998
G10         7.000                                                                                                                                                                    24318243.628 4  99579134.46604      -507.722 4        26.072
G14         8.000    23905760.437 4                     -4121.420 4        28.550                                                                                                    23905782.333 4                     -3211.797 4        24.917
G15         9.000    21465324.048 7 112801245.53607     -3725.469 7        44.451                                    21465320.997 5  87896950.33305     -2902.952 5        33.168    21465324.387 5  87896936.33505     -2903.245 5        33.581
G23        10.000    23793603.108 4 125036384.69604     -2950.181 4        28.692                                                                                                    23793598.855 3                     -2299.122 3        19.522
E06        11.000    26859754.142 5 141149005.35005     -3950.828 5        32.545                                                                    26859763.154 5 105403510.13605     -2949.998 5        31.940    26859761.539 5 108153082.71605     -3027.233 5        33.850
G24        12.000    20247264.674 6 106400677.14706       275.442 6        41.454                                    20247260.118 4  82909183.20704       214.620 4        27.760    20247259.890 5  82909158.21205       214.736 5        31.072
E31        13.000    24363648.250 7 128031795.64607     -2621.534 7        44.003                                                                    24363656.004 7  95608210.23507     -1957.652 7        46.080    24363654.150 7  98102322.30407     -2008.699 7        45.397
G12        15.000    22185248.548 7 116584734.32907      2109.373 7        42.610                                    22185244.504 5  90844945.77905      1643.661 5        32.425    22185248.160 6  90844896.72306      1643.823 6        38.832
E24        16.000    23715578.342 7 124626178.85607       -42.187 7        46.970                                                                    23715580.353 7  93065071.52207       -31.483 7        44.030    23715579.303 7  95492881.54507       -32.239 7        45.731
E05        18.000    22204613.310 7 116686036.39207      -769.339 7        47.892                                                                    22204617.261 8  87135672.57008      -574.493 8        50.982    22204616.403 8  89408780.13308      -589.484 8        48.120
E09        21.000    25230410.182 6 132586756.32006     -3428.047 6        37.728                                                                    25230417.955 6  99009584.67106     -2559.860 6        40.844    25230421.942 6 101592407.62706     -2626.689 6        39.321
R14        23.000    20232926.833 7 107852813.05807       985.680 7        44.488                                                                    20232929.601 6  83885633.53806       766.460 6        39.159
S23        24.000    38115349.927 6 200297500.48706      -859.846 6        36.646
R23        25.000    22295233.107 5                      2134.207 5        30.491
E03        26.000    26532063.465 7 139427059.54907      1621.853 7        42.595                                                                    26532071.317 7 104117560.14107      1211.157 7        43.109    26532069.498 7 106833682.62407      1242.693 7        42.516
R13        27.000    20018024.748 7 106895120.20907     -2753.741 7        42.197
R04        29.000    20008877.715 6 107146680.97606      -570.441 6        41.778                                                                    20008884.155 7  83336328.83507      -443.553 7        43.907
S36        31.000    38180818.882 5 200641686.47005      -857.031 5        33.916
C07        32.000                                                                                                                                                                                                    39169328.103 5 157718578.28605     -1172.274 5        31.313
C10        33.000                                                                                                                                    38549004.707 6 200734774.14006     -1165.314 6        40.679    38549007.157 7 155220880.47007      -901.115 7        45.153    38549004.136 6 163113439.41406      -947.123 6        38.447
C36        34.000                                                                                                                                    23971427.641 5 124825410.38705     -3283.621 5        34.790                                                                    23971431.718 7 101430960.71407     -2668.320 7        42.398
R03        36.000    20867068.215 7 111703200.75607     -4363.092 7        42.557                                                                    20867065.663 5  86880130.15505     -3393.706 5        33.898
C45        37.000                                                                                                                                    21607754.064 8 112517236.62208     -1192.149 8        49.060                                                                    21607747.857 7  91429487.45207      -968.814 7        46.090
R12        38.000                                                                                                                                    23356496.083 3                     -3334.446 3        19.463
C40        40.000                                                                                                                                    39374483.331 5                     -1766.345 5        33.713                                                                    39374481.142 4                     -1435.517 4        28.493
R22        41.000                                                                                                                                    22301822.359 5  92593384.15415      -754.675 5        33.611
C30        43.000                                                                                                                                                                                                                                                                    24492626.479 5                      -864.547 5        30.589
R05        44.000    22756015.691 5                      2749.066 5        32.748                                                                    22755989.231 4  94611853.63814      2138.487 4        26.539
