     3.04           OBSERVATION DATA    M                   RINEX VERSION / TYPE
ssrcrin-15.6.1x                         20250102 000000 UTC PGM / RUN BY / DATE 
(00000000023479385599111004) Septentrio proprietary         COMMENT             
ract                                                        MARKER NAME         
01                                                          MARKER NUMBER       
geodetic                                                    MARKER TYPE         
NFB                 CLIMERS@TUW                             OBSERVER / AGENCY   
3296359             SEPT ASTERX SB3 PROB4.14.4              REC # / TYPE / VERS 
Unknown             Unknown                                 ANT # / TYPE        
  4127445.6549  1206914.8947  4695540.8274                  APPROX POSITION XYZ 
        0.0000        0.0000        0.0000                  ANTENNA: DELTA H/E/N
G   23 X1  C1C L1C D1C S1C C1W S1W C2W L2W D2W S2W C2L L2L  SYS / # / OBS TYPES 
       D2L S2L C5Q L5Q D5Q S5Q C1L L1L D1L S1L              SYS / # / OBS TYPES 
E   21 X1  C1C L1C D1C S1C C6C L6C D6C S6C C5Q L5Q D5Q S5Q  SYS / # / OBS TYPES 
       C7Q L7Q D7Q S7Q C8Q L8Q D8Q S8Q                      SYS / # / OBS TYPES 
S    9 X1  C1C L1C D1C S1C C5I L5I D5I S5I                  SYS / # / OBS TYPES 
R   17 X1  C1C L1C D1C S1C C2P L2P D2P S2P C2C L2C D2C S2C  SYS / # / OBS TYPES 
       C3Q L3Q D3Q S3Q                                      SYS / # / OBS TYPES 
C   25 X1  C1P L1P D1P S1P C5P L5P D5P S5P C2I L2I D2I S2I  SYS / # / OBS TYPES 
       C7I L7I D7I S7I C6I L6I D6I S6I C7D L7D D7D S7D      SYS / # / OBS TYPES 
J   17 X1  C1C L1C D1C S1C C2L L2L D2L S2L C5Q L5Q D5Q S5Q  SYS / # / OBS TYPES 
       C1L L1L D1L S1L                                      SYS / # / OBS TYPES 
I    5 X1  C5A L5A D5A S5A                                  SYS / # / OBS TYPES 
SEPTENTRIO RECEIVERS OUTPUT ALIGNED CARRIER PHASES.         COMMENT             
NO FURTHER PHASE SHIFT APPLIED IN THE RINEX ENCODER.        COMMENT             
G L1C                                                       SYS / PHASE SHIFT   
G L2W                                                       SYS / PHASE SHIFT   
G L2L  0.00000                                              SYS / PHASE SHIFT   
G L5Q  0.00000                                              SYS / PHASE SHIFT   
G L1L  0.00000                                              SYS / PHASE SHIFT   
E L1C  0.00000                                              SYS / PHASE SHIFT   
E L6C  0.00000                                              SYS / PHASE SHIFT   
E L5Q  0.00000                                              SYS / PHASE SHIFT   
E L7Q  0.00000                                              SYS / PHASE SHIFT   
E L8Q  0.00000                                              SYS / PHASE SHIFT   
S L1C                                                       SYS / PHASE SHIFT   
S L5I                                                       SYS / PHASE SHIFT   
R L1C                                                       SYS / PHASE SHIFT   
R L2P  0.00000                                              SYS / PHASE SHIFT   
R L2C                                                       SYS / PHASE SHIFT   
R L3Q  0.00000                                              SYS / PHASE SHIFT   
C L1P  0.00000                                              SYS / PHASE SHIFT   
C L5P  0.00000                                              SYS / PHASE SHIFT   
C L2I                                                       SYS / PHASE SHIFT   
C L7I                                                       SYS / PHASE SHIFT   
C L6I                                                       SYS / PHASE SHIFT   
C L7D                                                       SYS / PHASE SHIFT   
J L1C                                                       SYS / PHASE SHIFT   
J L2L  0.00000                                              SYS / PHASE SHIFT   
J L5Q  0.00000                                              SYS / PHASE SHIFT   
J L1L  0.00000                                              SYS / PHASE SHIFT   
I L5A                                                       SYS / PHASE SHIFT   
  2025     1     2     0     0    0.0000000     GPS         TIME OF FIRST OBS   
 C1C    0.000 C2C    0.000 C2P    0.000                     GLONASS COD/PHS/BIS 
DBHZ                                                        SIGNAL STRENGTH UNIT
    18                                                      LEAP SECONDS        
 24 R01  1 R02 -4 R03  5 R04  6 R05  1 R06 -4 R07  5 R08  6 GLONASS SLOT / FRQ #
    R09 -2 R10 -7 R11  0 R12 -1 R13 -2 R14 -7 R15  0 R16 -1 GLONASS SLOT / FRQ #
    R17  4 R18 -3 R19  3 R20  2 R21  4 R22 -3 R23  3 R24  2 GLONASS SLOT / FRQ #
                                                            END OF HEADER       
> 2025 01 02 00 00  0.0000000  0 32
G03         1.000    21111042.909 7 110939434.68607      1221.754 7        43.632                                    21111039.745 7  86446156.11607       952.024 7        43.335    21111040.066 7  86446291.08307       952.043 7        44.522
G32         3.000    22932499.677 6 120511446.62506     -3170.040 6        40.973                                    22932495.083 4  93904790.25404     -2470.168 4        28.502    22932496.075 6  93904778.24006     -2470.161 6        38.535
G14         4.000    24878827.408 4                     -2939.751 4        29.621
E07         5.000    24781342.358 7 130226878.86307     -1858.175 7        42.455                                                                    24781339.956 6  97247447.27406     -1387.686 6        40.796    24781340.538 7  99784197.16407     -1423.707 7        42.527
G08         6.000    23872225.830 6 125449355.89506     -4494.942 6        36.964                                    23872222.222 3  97752783.26303     -3502.549 3        22.133    23872223.908 4  97752766.24304     -3502.781 4        29.867
G21         8.000    21202448.892 6 111419617.15006     -2179.690 6        38.805                                    21202442.496 3  86820456.11303     -1698.469 3        22.000
G02         9.000    20820010.861 8 109410120.33908      -716.280 8        51.485                                    20820003.584 6  85254472.00606      -558.140 6        39.622
G19        10.000    25359437.988 5 133264841.69305      2812.889 5        34.948
G17        11.000    23273151.332 6 122301219.85606      1380.841 6        40.358                                    23273144.215 5  95299722.26805      1075.985 5        30.626    23273146.699 6  95299640.25406      1076.149 6        37.769
E12        13.000                                                                                                                                    27393633.616 3                      1255.406 3        22.019    27393605.829 4 110302675.76704      1288.651 4        27.796
E29        14.000    24472214.790 7 128602404.92207      1104.822 7        42.430                                                                    24472213.142 7  96034228.69007       825.005 7        46.378    24472210.093 6  98539436.79406       846.416 6        41.318
E24        15.000    28089603.030 6 147611857.37106     -1819.798 6        38.045                                                                    28089602.798 5 110229615.23105     -1358.837 5        31.208    28089609.725 5 113105206.76805     -1394.483 5        34.186
E26        19.000    24563127.573 5 129080084.61705     -2466.260 5        32.569                                                                    24563127.626 6  96390980.90506     -1841.691 6        40.825    24563128.068 7  98905546.14907     -1889.729 7        42.381
R06        21.000    19656247.123 5 104889496.17905       763.183 5        33.461
S36        23.000    38348625.846 6 201523307.74206      -854.562 6        37.297
S23        24.000    38300519.433 6 201270525.78306      -851.897 6        39.195
R20        26.000    21249946.337 4                     -4043.983 4        26.216                                                                    21249944.384 5                     -3144.935 5        32.245
R05        27.000    20927102.463 7 111867334.22507     -4037.146 7        45.961                                                                    20927100.564 6  87007930.43206     -3139.848 6        38.931
E33        28.000    23527590.156 8 123638305.85808      -103.466 8        49.494                                                                    23527587.934 8  92327353.22308       -77.301 8        48.861    23527586.052 7  94735847.36407       -79.268 7        44.438
R21        30.000    19319656.387 7 103383635.95907      -356.725 7        46.367                                                                    19319655.362 6  80409327.63906      -277.320 6        39.345
R07        34.000    22836819.754 6 122247302.52806      3172.783 6        38.808                                                                    22836822.726 5  95081223.59805      2467.350 5        33.186
R22        35.000    22247718.090 5 118759916.81705      2874.726 5        32.389                                                                    22247728.109 5  92368823.95405      2236.001 5        35.748
C32        36.000                                                                                                                                    22667823.307 7 118037254.72907       938.624 7        46.255                                                                    22667822.487 6  95914986.74406       762.641 6        40.789
C33        37.000                                                                                                                                    26293905.789 4                     -3997.301 4        24.827
C30        38.000                                                                                                                                    22228253.443 7 115748359.49407        82.612 7        46.942                                                                    22228255.763 7  94055038.99007        67.195 7        45.287
C28        40.000                                                                                                                                    25745321.259 3                     -4213.498 3        22.476
C39        46.000                                                                                                                                    39318499.687 6 204741747.43106       -72.459 6        39.994                                                                    39318492.133 5 166369415.02405       -59.170 5        33.982
C41        49.000                                                                                                                                    22558804.108 7 117469693.62907     -2303.947 7        45.642                                                                    22558808.728 7  95453742.01907     -1872.126 7        47.814
C06        50.000                                                                                                                                                                                                    39285762.449 3                       349.387 3        20.524
C27        52.000                                                                                                                                    22410344.736 7 116696502.31407     -2889.749 7        43.494                                                                    22410340.221 7  94825488.21507     -2348.106 7        43.056
C29        54.000                                                                                                                                    25959991.615 6 135180487.12006      2294.551 6        41.361                                                                    25959988.673 6 109845250.54206      1864.464 6        38.111
I09        60.000    37271466.612 6 146261237.43606      -571.804 6        40.265
> 2025 01 02 00 00  5.0000000  0 34
G03         1.000    21109880.427 7 110933330.64207      1220.144 7        43.323                                    21109878.148 7  86441399.69107       950.761 7        44.053    21109878.242 7  86441534.68407       950.831 7        45.269
G32         3.000    22935516.399 7 120527302.25607     -3172.076 7        42.559                                    22935511.828 4  93917145.27304     -2471.743 4        29.820    22935513.201 6  93917133.21606     -2471.543 6        38.195
G14         4.000    24881628.330 4                     -2941.351 4        26.575
E07         5.000    24783110.846 7 130236175.01907     -1860.191 7        42.387                                                                    24783110.523 7  97254389.19907     -1388.946 7        43.901    24783109.646 6  99791320.21206     -1425.289 6        41.421
G08         6.000    23876503.380 6 125471832.14706     -4495.332 6        38.309                                    23876499.847 3  97770297.22003     -3502.845 3        23.181    23876502.187 5  97770280.22905     -3502.921 5        34.562
G21         8.000    21204523.644 6 111430520.49206     -2181.296 6        37.592                                    21204517.579 3  86828952.24703     -1699.693 3        22.705
G02         9.000    20820693.100 8 109413707.09508      -718.209 8        51.439                                    20820685.770 6  85257266.87106      -559.636 6        39.559
G19        10.000    25356756.344 5 133250778.82205      2812.231 5        34.243
G17        11.000    23271836.563 6 122294320.50706      1379.003 6        39.480                                    23271831.463 4  95294346.15504      1074.552 4        29.355    23271833.790 6  95294264.16506      1074.560 6        36.227
E12        13.000                                                                                                                                                                                                    27392007.638 4 110296229.45604      1289.354 4        28.322
E29        14.000    24471164.229 7 128596885.51107      1103.176 7        42.485                                                                    24471162.350 7  96030107.04807       823.757 7        46.114    24471160.907 7  98535207.62607       845.270 7        42.576
E24        15.000    28091334.229 5 147620961.65305     -1821.920 5        35.100                                                                    28091338.784 5 110236413.86805     -1360.147 5        31.026    28091339.500 5 113112182.81105     -1395.900 5        34.252
E31        17.000    28155518.484 4                     -3425.066 4        27.126
E26        19.000    24565476.662 6 129092419.59406     -2467.336 6        36.639                                                                    24565474.388 6  96400192.19006     -1842.591 6        41.285    24565475.455 7  98914997.68707     -1890.552 7        42.845
R06        21.000    19655531.830 5 104885690.10805       759.686 5        32.419
S36        23.000    38349438.796 5 201527580.68105      -854.375 5        35.319
S23        24.000    38301321.284 6 201274784.95806      -851.408 6        38.931
R20        26.000    21253730.573 4                     -4046.668 4        26.371                                                                    21253724.988 5                     -3147.022 5        31.230
R05        27.000    20930879.373 7 111887525.29807     -4039.127 7        45.254                                                                    20930876.765 6  87023634.66006     -3141.544 6        37.811
E33        28.000    23527689.486 8 123638826.58908      -104.514 8        49.524                                                                    23527686.904 8  92327742.07508       -78.089 8        48.239    23527685.284 7  94736246.34907       -80.141 7        45.237
R21        30.000    19319991.949 7 103385428.76007      -360.118 7        46.136                                                                    19319990.245 6  80410722.04506      -280.083 6        39.937
R13        31.000    24092895.526 5 128654719.49815     -2124.059 5        33.599
R07        34.000    22833854.177 6 122231442.69406      3171.640 6        36.250                                                                    22833860.536 5  95068888.19105      2466.519 5        33.683
R22        35.000    22245036.742 5 118745545.81405      2874.291 5        33.946                                                                    22245037.637 5  92357646.55905      2235.309 5        35.195
C32        36.000                                                                                                                                    22666922.355 7 118032566.54607       936.810 7        46.509                                                                    22666922.928 6  95911177.24206       761.299 6        40.489
C33        37.000                                                                                                                                    26297739.351 5                     -3997.319 5        30.423
C30        38.000                                                                                                                                    22228174.373 7 115747952.30107        80.393 7        45.473                                                                    22228177.850 7  94054708.12507        65.286 7        46.464
C16        45.000                                                                                                                                    39596517.319 5 206189569.90615       325.001 5        33.299
C39        46.000                                                                                                                                    39318569.959 6 204742112.88106       -73.516 6        38.006                                                                    39318561.868 5 166369711.95405       -59.799 5        32.689
C09        47.000                                                                                                                                    40233451.077 4                       755.450 4        27.066
C41        49.000                                                                                                                                    22561017.063 7 117481217.92807     -2305.588 7        46.661                                                                    22561021.910 7  95463106.47307     -1873.534 7        47.384
C27        52.000                                                                                                                                    22413120.586 6 116710956.50806     -2891.574 6        41.905                                                                    22413116.259 7  94837233.42807     -2349.738 7        44.650
C29        54.000                                                                                                                                    25957789.064 6 135169016.39706      2294.047 6        40.925                                                                    25957785.140 6 109835929.67106      1864.015 6        38.342
I09        60.000    37272195.794 6 146264097.38406      -571.908 6        41.302
> 2025 01 02 00 00 10.0000000  0 36
G03         1.000    21108719.591 7 110927236.38007      1217.843 7        42.827                                    21108718.423 7  86436650.92907       948.968 7        43.046    21108718.853 7  86436785.92707       949.036 7        45.293
G32         3.000    22938533.302 7 120543169.27007     -3174.567 7        43.456                                    22938530.531 4  93929509.19804     -2473.690 4        29.659    22938530.428 5  93929497.16405     -2473.465 5        34.643
G14         4.000    24884435.199 4                     -2942.848 4        25.489                                                                                                    24884438.336 4                     -2293.607 4        29.915
E07         5.000    24784881.729 7 130245482.68107     -1862.596 7        42.169                                                                    24784882.177 7  97261339.69507     -1390.852 7        44.345    24784882.650 7  99798452.07907     -1427.125 7        43.048
G08         6.000    23880780.132 5 125494311.67405     -4496.254 5        35.671                                    23880778.792 4  97787813.72104     -3503.564 4        24.677    23880786.115 5  97787796.72905     -3503.538 5        35.367
G21         8.000    21206599.602 6 111441433.39806     -2183.464 6        37.331                                    21206594.540 3  86837455.80403     -1701.393 3        23.010
G02         9.000    20821377.803 8 109417304.92608      -720.532 8        50.882                                    20821370.058 6  85260070.35106      -561.453 6        39.736
G19        10.000    25354080.050 5 133236721.25905      2811.019 5        34.605
G17        11.000    23270525.570 6 122287432.69206      1376.616 6        41.092                                    23270520.826 4  95288979.05104      1072.696 4        29.763    23270523.547 5  95288897.04305      1072.744 5        35.271
E12        13.000    27390409.395 4                      1682.366 4        24.947                                                                                                                                    27390404.714 4 110289784.20204      1288.446 4        24.511
E29        14.000    24470116.871 7 128591375.94107      1100.901 7        42.919                                                                    24470114.475 7  96025992.74207       822.268 7        46.678    24470112.012 6  98530985.97506       843.584 6        40.203
E24        15.000    28093069.299 5 147630077.36705     -1824.017 5        35.014                                                                    28093068.890 5 110243221.08305     -1362.230 5        31.645    28093072.637 5 113119167.60505     -1398.152 5        33.132
E31        17.000    28158784.566 5                     -3425.965 5        32.814
E26        19.000    24567825.284 6 129104761.26306     -2468.755 6        36.817                                                                    24567823.206 6  96409408.36706     -1843.503 6        40.169    24567825.389 7  98924454.32607     -1891.830 7        42.381
R06        21.000    19654822.932 5 104881902.73505       755.844 5        34.986
S36        23.000    38350257.362 5 201531853.91805      -854.783 5        35.057
S23        24.000    38302130.349 6 201279044.78906      -851.867 6        36.552
R20        26.000    21257517.014 5                     -4048.579 5        30.000                                                                    21257512.600 5                     -3149.188 5        32.000
R05        27.000    20934657.902 7 111907727.79207     -4041.639 7        42.988                                                                    20934658.176 6  87039347.70306     -3143.441 6        40.410
E33        28.000    23527789.647 8 123639354.23408      -106.156 8        50.120                                                                    23527787.059 8  92328136.09608       -79.274 8        48.135    23527786.134 7  94736650.64307       -81.331 7        45.236
R21        30.000    19320331.481 7 103387240.41807      -364.138 7        47.291                                                                    19320329.047 6  80412131.12906      -283.206 6        41.671
R13        31.000    24094882.792 5 128665352.36205     -2128.377 5        35.671
R07        34.000    22830894.483 6 122215590.14606      3169.673 6        38.492                                                                    22830899.275 4  95056558.48004      2464.870 4        25.353
R22        35.000    22242353.227 6 118731180.37206      2872.843 6        37.482                                                                    22242347.764 6  92346473.40206      2234.111 6        38.066
C32        36.000                                                                                                                                    22666022.608 7 118027888.93307       934.522 7        44.457                                                                    22666023.538 7  95907376.27307       759.476 7        42.404
C33        37.000                                                                                                                                    26301573.674 4                     -3997.763 4        29.147
C30        38.000                                                                                                                                    22228099.323 7 115747557.84507        77.678 7        45.579                                                                    22228101.877 7  94054387.59407        63.167 7        45.183
C28        40.000                                                                                                                                    25753422.904 3                     -4213.794 3        23.333
C16        45.000                                                                                                                                    39596210.045 5 206187949.06105       323.869 5        30.770
C39        46.000                                                                                                                                    39318638.163 6 204742483.83406       -74.670 6        38.916                                                                    39318633.952 6 166370013.33606       -60.689 6        36.329
C09        47.000                                                                                                                                    40232714.972 4                       754.823 4        27.497
C41        49.000                                                                                                                                    22563233.183 7 117492752.14207     -2307.746 7        47.712                                                                    22563236.590 7  95472478.94807     -1875.213 7        46.305
C06        50.000                                                                                                                                                                                                    39284917.299 4                       341.508 4        29.915
C27        52.000                                                                                                                                    22415898.205 6 116725421.78006     -2894.117 6        41.604                                                                    22415894.215 7  94848987.57907     -2351.533 7        43.446
C29        54.000                                                                                                                                    25955586.142 6 135157549.35206      2293.155 6        38.474                                                                    25955584.216 6 109826611.71406      1863.347 6        38.510
I09        60.000    37272924.717 6 146266958.78406      -572.234 6        39.985
> 2025 01 02 00 00 15.0000000  0 35
G03         1.000    21107562.268 7 110921151.29907      1216.103 7        42.802                                    21107560.421 7  86431909.32107       947.604 7        43.101    21107560.457 7  86432044.32307       947.645 7        45.401
G32         3.000    22941557.879 6 120559047.31506     -3176.737 6        41.578                                    22941550.870 4  93941881.71104     -2475.378 4        28.237    22941550.697 6  93941869.67906     -2475.216 6        38.973
G14         4.000                                                                                                                                                                    24887243.345 4                     -2294.758 4        26.611
E07         5.000    24786655.543 7 130254801.22407     -1864.733 7        42.574                                                                    24786654.819 7  97268298.37007     -1392.460 7        44.176    24786655.590 7  99805592.23707     -1428.757 7        42.472
G08         6.000    23885057.716 6 125516793.87706     -4496.599 6        38.565                                    23885058.037 4  97805332.30904     -3503.838 4        24.812    23885062.413 5  97805315.32705     -3503.712 5        35.200
G21         8.000    21208678.975 6 111452355.29406     -2185.166 6        37.399                                    21208673.112 4  86845966.37104     -1702.738 4        24.256
G02         9.000    20822064.353 8 109420913.26808      -722.659 8        50.766                                    20822056.322 6  85262882.04206      -563.110 6        39.898
G19        10.000    25351408.265 5 133222668.20505      2810.062 5        32.120
G17        11.000    23269216.312 6 122280555.87606      1374.241 6        41.538                                    23269212.286 4  95283620.50304      1070.845 4        29.242    23269215.011 6  95283538.44706      1071.036 6        36.922
E12        13.000    27388811.197 3                      1682.199 3        20.833                                                                    27388782.522 5 107479465.70915      1256.080 5        33.467
E29        14.000    24469069.205 6 128585875.61006      1099.103 6        40.026                                                                    24469067.985 7  96021885.37707       820.889 7        47.491    24469063.282 6  98526771.49506       842.161 6        37.781
E24        15.000    28094806.857 5 147639203.94805     -1826.359 5        35.124                                                                    28094803.734 5 110250036.36905     -1364.067 5        30.347    28094808.597 5 113126160.67605     -1399.530 5        30.113
E31        17.000    28162044.428 4                     -3426.613 4        29.630
E26        19.000    24570174.753 6 129117109.05306     -2470.150 6        38.510                                                                    24570172.043 6  96418629.10306     -1844.467 6        39.796    24570173.306 6  98933915.57306     -1892.616 6        41.523
R06        21.000    19654119.122 5 104878133.53005       752.251 5        32.790
S36        23.000    38351070.294 6 201536127.88206      -854.992 6        36.926
S23        24.000    38302943.222 6 201283304.84806      -851.856 6        37.667
R20        26.000    21261306.664 5                     -4050.981 5        30.498                                                                    21261300.315 5  88428453.89815     -3150.677 5        35.210
R05        27.000    20938439.744 7 111927941.52407     -4043.810 7        46.141                                                                    20938439.267 6  87055069.50506     -3145.080 6        39.111
E33        28.000    23527890.891 8 123639888.25308      -107.383 8        49.951                                                                    23527889.140 8  92328534.87208       -80.143 8        48.643    23527887.385 7  94737059.82107       -82.209 7        45.266
R21        30.000    19320672.885 7 103389070.38907      -367.702 7        47.313                                                                    19320671.590 7  80413554.45807      -285.958 7        42.256
R13        31.000    24096874.157 5 128676004.16305     -2132.000 5        33.844
R07        34.000    22827936.122 6 122199744.72906      3168.435 6        38.862                                                                    22827927.023 4                      2463.714 4        27.305
R22        35.000    22239664.530 6 118716819.88306      2871.864 6        40.153                                                                    22239655.394 6  92335304.16406      2233.500 6        36.427
C32        36.000                                                                                                                                    22665126.487 6 118023221.29906       932.623 6        41.928                                                                    22665127.153 7  95903583.43007       757.810 7        42.847
C33        37.000                                                                                                                                    26305415.607 4                     -3997.694 4        27.210
C30        38.000                                                                                                                                    22228025.523 7 115747175.61807        75.363 7        45.232                                                                    22228028.268 7  94054076.99207        61.222 7        45.199
C16        45.000                                                                                                                                    39595900.394 5 206186332.45905       322.902 5        33.856
C39        46.000                                                                                                                                    39318712.725 6 204742859.63506       -75.725 6        36.208                                                                    39318707.642 5 166370318.74305       -61.539 5        35.600
C09        47.000                                                                                                                                    40231981.058 3                       752.975 3        22.629    40231918.543 5 161997311.62515       583.036 5        33.114
C41        49.000                                                                                                                                    22565449.359 7 117504295.75007     -2309.629 7        47.174                                                                    22565453.414 7  95481859.07607     -1876.745 7        46.802
C06        50.000                                                                                                                                    39284499.218 3                       437.261 3        19.194
C27        52.000                                                                                                                                    22418675.025 5 116739897.49305     -2896.011 5        35.981                                                                    22418674.379 7  94860750.25107     -2353.401 7        45.105
C29        54.000                                                                                                                                    25953382.767 6 135146085.39706      2292.622 6        40.148                                                                    25953381.493 6 109817296.28906      1862.787 6        38.859
I09        60.000    37273654.164 6 146269821.30706      -572.619 6        39.865
> 2025 01 02 00 00 20.0000000  0 36
G03         1.000    21106406.274 7 110915075.63607      1214.242 7        43.534                                    21106404.354 7  86427175.03507       946.162 7        43.244    21106404.437 7  86427310.04607       946.120 7        45.115
G32         3.000    22944582.529 6 120574936.41906     -3178.903 6        38.450                                    22944573.933 4  93954262.85904     -2477.061 4        26.970    22944576.566 6  93954250.83106     -2477.109 6        38.751
G14         4.000                                                                                                                                                                    24890051.872 4                     -2296.035 4        28.796
E07         5.000    24788429.063 6 130264130.84606     -1867.070 6        40.257                                                                    24788429.395 7  97275265.28907     -1394.266 7        43.086    24788427.714 6  99812740.83606     -1430.587 6        40.155
G08         6.000    23889337.234 6 125539278.94406     -4497.157 6        36.518                                    23889337.742 4  97822853.14704     -3504.276 4        25.098    23889336.172 5  97822836.17305     -3504.208 5        35.633
G21         8.000    21210758.444 6 111463286.42906     -2187.023 6        38.054                                    21210753.217 4  86854484.15004     -1704.172 4        24.180
G02         9.000    20822752.998 8 109424532.29308      -724.841 8        49.655                                    20822744.751 6  85265702.05506      -564.806 6        39.048
G19        10.000    25348732.842 5 133208620.03805      2809.289 5        30.996
G17        11.000    23267909.330 6 122273690.18306      1372.205 6        39.883                                    23267905.857 4  95278270.60904      1069.265 4        28.227    23267908.187 6  95278188.56906      1069.258 6        39.357
E12        13.000    27387198.346 4                      1683.402 4        24.812                                                                    27387182.326 5 107473185.55805      1255.803 5        34.086    27387210.796 3 110276895.53603      1288.456 3        22.324
E29        14.000    24468023.681 6 128580384.78506      1097.357 6        39.390                                                                    24468022.997 7  96017785.08007       819.406 7        47.990    24468018.704 6  98522564.24006       840.762 6        37.887
E24        15.000    28096546.179 6 147648341.50506     -1828.501 6        36.280                                                                    28096544.700 5 110256859.89105     -1365.823 5        32.228    28096546.728 4 113133162.15704     -1400.730 4        29.043
E31        17.000    28165302.108 5                     -3427.016 5        30.430
E26        19.000    24572525.940 6 129129463.04706     -2471.440 6        37.890                                                                    24572522.703 6  96427854.49906     -1845.574 6        38.489    24572523.196 6  98943381.60306     -1893.703 6        41.261
R06        21.000    19653414.366 5 104874382.66305       748.428 5        32.281
S36        23.000    38351872.790 6 201540401.42306      -854.580 6        36.318
S23        24.000    38303751.996 6 201287564.94806      -851.879 6        37.206
R20        26.000    21265092.112 5                     -4053.284 5        31.230                                                                    21265089.680 5                     -3152.311 5        35.614
R05        27.000    20942224.534 7 111948166.41007     -4046.091 7        44.670                                                                    20942222.819 6  87070799.91506     -3146.905 6        38.808
E33        28.000    23527993.845 8 123640428.82208      -108.760 8        50.075                                                                    23527992.256 8  92328938.54508       -81.200 8        48.888    23527990.263 7  94737474.01807       -83.392 7        45.096
R21        30.000    19321017.124 7 103390918.77807      -371.511 7        46.400                                                                    19321016.647 7  80414992.10107      -288.976 7        42.519
R13        31.000    24098862.974 5 128686675.24805     -2135.876 5        32.222
R07        34.000    22824982.777 6 122183906.26906      3167.037 6        37.202                                                                    22824970.727 4                      2463.161 4        28.938
R22        35.000    22236972.699 6 118702464.65906      2870.621 6        37.036                                                                    22236966.647 6  92324139.01406      2232.779 6        38.586
C32        36.000                                                                                                                                    22664233.988 6 118018563.83706       930.562 6        41.819                                                                    22664232.904 7  95899798.84007       756.047 7        43.627
C33        37.000                                                                                                                                    26309260.250 3                     -3999.164 3        20.429
C30        38.000                                                                                                                                    22227954.469 7 115746805.76807        72.828 7        46.081                                                                    22227957.409 7  94053776.48207        59.105 7        45.679
C28        40.000                                                                                                                                    25761522.475 3                     -4214.197 3        22.971
C16        45.000                                                                                                                                    39595590.845 5 206184720.27705       322.339 5        33.132
C39        46.000                                                                                                                                    39318783.028 6 204743240.53306       -76.728 6        38.351                                                                    39318778.532 5 166370628.30505       -62.194 5        33.832
C09        47.000                                                                                                                                                                                                    40231190.354 5 161994397.27505       582.743 5        33.575
C41        49.000                                                                                                                                    22567668.407 7 117515848.87607     -2311.536 7        47.036                                                                    22567672.105 7  95491246.95607     -1878.393 7        46.802
C06        50.000                                                                                                                                    39284078.599 4                       439.762 4        29.554    39284107.300 5                       340.103 5        32.323
C27        52.000                                                                                                                                    22421457.766 5 116754383.81605     -2898.439 5        34.557                                                                    22421456.882 7  94872521.55207     -2355.182 7        45.087
C29        54.000                                                                                                                                    25951183.654 6 135134624.74506      2291.772 6        38.868                                                                    25951180.247 6 109807983.57706      1862.306 6        38.586
I09        60.000    37274383.687 6 146272684.98206      -572.840 6        40.017
> 2025 01 02 00 00 25.0000000  0 36
G03         1.000    21105251.587 7 110909009.11207      1212.322 7        44.278                                    21105249.906 7  86422447.87107       944.668 7        43.300    21105249.885 7  86422582.85507       944.747 7        44.901
G32         3.000    22947603.961 5 120590836.16505     -3181.074 5        32.820                                    22947598.798 3  93966652.41003     -2478.764 3        23.467    22947601.790 6  93966640.39406     -2478.850 6        36.231
G14         4.000    24892851.512 3                     -2948.869 3        19.194                                                                                                    24892864.957 4                     -2297.146 4        26.419
E07         5.000    24790205.773 6 130273471.17606     -1869.159 6        37.671                                                                    24790206.162 7  97282240.24507     -1395.894 7        42.093    24790206.400 7  99819897.74707     -1432.249 7        42.019
G08         6.000    23893615.463 5 125561766.62005     -4497.988 5        35.195                                    23893617.921 4  97840375.99504     -3504.927 4        25.684    23893617.837 6  97840359.02206     -3504.745 6        36.730
G21         8.000    21212840.887 6 111474226.45906     -2188.930 6        39.156                                    21212835.003 4  86863008.87104     -1705.657 4        24.857
G02         9.000    20823443.808 8 109428161.73208      -726.997 8        49.903                                    20823435.286 6  85268530.17406      -566.493 6        39.012
G19        10.000    25346062.185 5 133194576.44805      2808.322 5        33.299
G17        11.000    23266605.953 6 122266835.39406      1369.769 6        40.417                                    23266601.614 4  95272929.20404      1067.340 4        27.725    23266603.478 6  95272847.18306      1067.372 6        40.122
E12        13.000    27385593.149 4                      1682.023 4        26.707                                                                    27385582.219 5 107466905.86805      1256.022 5        34.471    27385618.453 4                      1288.613 4        28.095
E29        14.000    24466979.937 6 128574903.14906      1095.302 6        38.943                                                                    24466979.776 8  96013691.66608       818.003 8        48.037    24466976.559 6  98518364.05006       839.243 6        38.646
E24        15.000    28098286.874 5 147657489.85405     -1830.781 5        33.862                                                                    28098285.302 5 110263691.43105     -1366.992 5        32.257    28098290.067 5 113140172.00105     -1402.730 5        30.506
E31        17.000    28168570.511 5                     -3427.988 5        30.309
E26        19.000    24574877.982 6 129141822.98606     -2472.549 6        38.138                                                                    24574874.808 6  96437084.33906     -1846.254 6        38.769    24574875.880 6  98952852.19906     -1894.665 6        41.340
R06        21.000    19652715.213 5 104870650.06105       744.775 5        32.096
S36        23.000    38352691.848 5 201544674.48605      -854.583 5        34.962
S23        24.000    38304545.333 6 201291825.17006      -852.129 6        36.783
R20        26.000    21268880.632 5                     -4055.771 5        32.575                                                                    21268880.644 6  88459980.16716     -3154.496 6        36.284
R05        27.000    20946009.609 7 111968402.14607     -4048.226 7        42.463                                                                    20946007.388 6  87086538.83406     -3148.852 6        38.354
E33        28.000    23528098.278 8 123640975.68708      -110.028 8        50.097                                                                    23528096.155 8  92329346.91308       -82.134 8        48.745    23528094.435 7  94737893.05207       -84.349 7        44.542
R21        30.000    19321365.145 7 103392785.39107      -375.184 7        45.368                                                                    19321365.041 6  80416443.94506      -291.841 6        41.890
R13        31.000    24100861.842 4 128697365.23704     -2140.357 4        26.982
R07        34.000    22822030.137 6 122168074.80406      3165.600 6        39.210                                                                    22822017.667 5                      2462.079 5        30.355
R22        35.000                                                                                                                                    22234278.675 6  92312977.64906      2231.875 6        39.108
C32        36.000                                                                                                                                    22663338.765 6 118013916.28306       928.383 6        39.787                                                                    22663339.595 7  95896022.28607       754.423 7        43.543
C33        37.000                                                                                                                                    26313087.887 4                     -3998.367 4        27.317
C30        38.000                                                                                                                                    22227885.729 7 115746448.05707        70.364 7        46.586                                                                    22227888.758 7  94053485.81907        57.130 7        45.335
C28        40.000                                                                                                                                    25765573.984 4                     -4215.358 4        25.519
C16        45.000                                                                                                                                    39595281.978 5 206183112.34605       321.393 5        31.841
C39        46.000                                                                                                                                    39318858.566 6 204743626.30206       -77.786 6        38.372                                                                    39318850.562 5 166370941.74805       -63.408 5        31.940
C09        47.000                                                                                                                                                                                                    40230466.687 5 161991485.20005       582.467 5        31.404
C41        49.000                                                                                                                                    22569890.026 8 117527411.27908     -2313.473 8        48.048                                                                    22569892.244 7  95500642.32607     -1879.884 7        46.285
C06        50.000                                                                                                                                    39283658.025 4                       439.843 4        24.406
C27        52.000                                                                                                                                    22424245.246 6 116768880.47606     -2900.277 6        37.830                                                                    22424240.574 7  94884301.22607     -2356.804 7        45.068
C29        54.000                                                                                                                                    25948983.629 6 135123167.14406      2291.090 6        40.324                                                                    25948980.643 6 109798673.31306      1861.603 6        39.441
I09        60.000    37275113.434 6 146275549.68706      -572.996 6        40.050
> 2025 01 02 00 00 30.0000000  0 34
G03         1.000    21104098.872 7 110902952.21507      1210.385 7        43.905                                    21104097.176 7  86417728.21107       943.158 7        43.192    21104097.338 7  86417863.21407       943.088 7        44.936
G32         3.000    22950625.229 4                     -3183.332 4        29.602                                    22950617.626 3                     -2480.598 3        18.000    22950628.069 5  93979038.77405     -2480.225 5        33.389
G14         4.000                                                                                                                                                                    24895671.732 4                     -2299.341 4        27.617
E07         5.000    24791986.198 6 130282822.91206     -1871.299 6        37.977                                                                    24791984.899 6  97289223.64806     -1397.691 6        40.796    24791987.029 7  99827063.36407     -1434.062 7        44.111
G08         6.000    23897896.049 6 125584257.38406     -4498.448 6        36.389                                    23897898.703 4  97857901.26404     -3505.289 4        25.594    23897899.959 6  97857884.28406     -3505.359 6        36.752
G21         8.000    21214923.934 6 111485175.94806     -2190.865 6        39.471                                    21214918.922 4  86871540.93904     -1707.172 4        25.774
G02         9.000    20824137.123 8 109431802.13808      -729.223 8        49.860                                    20824128.061 6  85271366.85706      -568.225 6        38.952
G19        10.000    25343396.271 5 133180538.01505      2807.104 5        33.527
G17        11.000    23265303.298 6 122259992.03706      1367.499 6        40.474                                    23265299.549 4  95267596.71104      1065.575 4        27.713    23265300.280 6  95267514.71606      1065.625 6        39.856
E12        13.000    27383993.619 5                      1681.348 5        30.400                                                                    27383982.731 5 107460627.11905      1255.735 5        34.662    27384018.408 4                      1288.175 4        27.772
E29        14.000    24465937.668 6 128569431.27406      1093.407 6        38.219                                                                    24465938.433 8  96009605.52108       816.549 8        48.071    24465936.532 6  98514171.32506       837.812 6        38.667
E24        15.000    28100029.822 5 147666649.45805     -1833.208 5        33.952                                                                    28100028.751 5 110270531.39405     -1368.943 5        33.353    28100031.390 5 113147190.35205     -1404.713 5        30.800
E26        19.000    24577232.050 6 129154189.41806     -2473.946 6        38.562                                                                    24577227.674 6  96446319.04106     -1847.458 6        38.790    24577228.308 6  98962327.79606     -1895.603 6        41.456
R06        21.000    19652019.312 5 104866935.92005       740.998 5        32.802
S36        23.000    38353502.455 5 201548947.46405      -854.812 5        35.767
S23        24.000    38305375.539 6 201296085.63806      -852.248 6        40.431
R20        26.000    21272676.838 5                     -4058.340 5        33.563                                                                    21272675.265 6  88475757.48806     -3156.376 6        38.072
R05        27.000    20949796.124 6 111988649.38906     -4050.660 6        40.374                                                                    20949795.608 6  87102286.70806     -3150.564 6        37.448
E33        28.000    23528203.620 8 123641529.35708      -111.437 8        50.081                                                                    23528201.640 8  92329760.37008       -83.251 8        49.006    23528199.459 7  94738317.29507       -85.449 7        44.473
R21        30.000    19321717.647 7 103394670.84507      -378.956 7        44.328                                                                    19321716.729 7  80417910.40107      -294.827 7        42.413
R07        34.000    22819077.974 5                      3163.625 5        35.571                                                                    22819067.755 5                      2460.818 5        30.951
R22        35.000                                                                                                                                    22231592.066 6  92301820.54406      2230.881 6        39.027
C32        36.000                                                                                                                                    22662447.870 6 118009279.10306       926.437 6        39.730                                                                    22662448.559 7  95892254.21907       752.800 7        42.976
C33        37.000                                                                                                                                    26316928.944 4                     -3998.798 4        29.820
C30        38.000                                                                                                                                    22227819.556 7 115746103.01607        67.773 7        46.532                                                                    22227822.142 7  94053205.45907        55.177 7        44.603
C28        40.000                                                                                                                                    25769619.864 3                     -4219.613 3        20.952
C16        45.000                                                                                                                                    39594976.155 5 206181509.07205       320.131 5        30.815    39594976.650 5 159432573.94415       247.657 5        33.808
C39        46.000                                                                                                                                    39318935.213 6 204744017.40306       -78.628 6        38.748                                                                    39318924.590 5 166371259.55705       -63.805 5        30.958
C09        47.000                                                                                                                                    40229749.772 3                       752.737 3        21.214    40229742.825 4 161988575.73004       581.663 4        29.659
C41        49.000                                                                                                                                    22572112.906 8 117538983.43208     -2315.404 8        49.282                                                                    22572114.828 7  95510045.66607     -1881.387 7        46.209
C06        50.000                                                                                                                                    39283239.267 4                       437.651 4        25.113    39283231.806 4                       338.897 4        24.932
C27        52.000                                                                                                                                    22427031.359 6 116783387.97206     -2902.662 6        39.727                                                                    22427026.231 7  94896089.76607     -2358.568 7        44.470
C29        54.000                                                                                                                                    25946784.197 6 135111713.06406      2290.442 6        39.868                                                                    25946781.282 6 109789365.96106      1861.411 6        39.973
I09        60.000    37275843.940 6 146278415.79206      -573.382 6        40.520
> 2025 01 02 00 00 35.0000000  0 35
G03         1.000    21102947.594 7 110896904.68707      1208.749 7        44.227                                    21102946.296 7  86413015.84907       941.877 7        42.736    21102945.921 7  86413150.86007       941.957 7        44.530
G32         3.000    22953659.328 6 120622669.74316     -3185.370 6        38.270                                    22953649.891 3  93991349.76713     -2482.112 3        19.552    22953657.385 5  93991445.74205     -2481.981 5        30.023
