     3.04           OBSERVATION DATA    M                   RINEX VERSION / TYPE
ssrcrin-15.6.1x                         20250102 224500 UTC PGM / RUN BY / DATE 
(00000000023479385599111004) Septentrio proprietary         COMMENT             
ract                                                        MARKER NAME         
01                                                          MARKER NUMBER       
geodetic                                                    MARKER TYPE         
NFB                 CLIMERS@TUW                             OBSERVER / AGENCY   
3296359             SEPT ASTERX SB3 PROB4.14.4              REC # / TYPE / VERS 
Unknown             Unknown                                 ANT # / TYPE        
  4127446.3478  1206915.2061  4695541.8540                  APPROX POSITION XYZ 
        0.0000        0.0000        0.0000                  ANTENNA: DELTA H/E/N
G   23 X1  C1C L1C D1C S1C C1W S1W C2W L2W D2W S2W C2L L2L  SYS / # / OBS TYPES 
       D2L S2L C5Q L5Q D5Q S5Q C1L L1L D1L S1L              SYS / # / OBS TYPES 
E   21 X1  C1C L1C D1C S1C C6C L6C D6C S6C C5Q L5Q D5Q S5Q  SYS / # / OBS TYPES 
       C7Q L7Q D7Q S7Q C8Q L8Q D8Q S8Q                      SYS / # / OBS TYPES 
S    9 X1  C1C L1C D1C S1C C5I L5I D5I S5I                  SYS / # / OBS TYPES 
R   17 X1  C1C L1C D1C S1C C2P L2P D2P S2P C2C L2C D2C S2C  SYS / # / OBS TYPES 
       C3Q L3Q D3Q S3Q                                      SYS / # / OBS TYPES 
C   25 X1  C1P L1P D1P S1P C5P L5P D5P S5P C2I L2I D2I S2I  SYS / # / OBS TYPES 
       C7I L7I D7I S7I C6I L6I D6I S6I C7D L7D D7D S7D      SYS / # / OBS TYPES 
J   17 X1  C1C L1C D1C S1C C2L L2L D2L S2L C5Q L5Q D5Q S5Q  SYS / # / OBS TYPES 
       C1L L1L D1L S1L                                      SYS / # / OBS TYPES 
I    5 X1  C5A L5A D5A S5A                                  SYS / # / OBS TYPES 
SEPTENTRIO RECEIVERS OUTPUT ALIGNED CARRIER PHASES.         COMMENT             
NO FURTHER PHASE SHIFT APPLIED IN THE RINEX ENCODER.        COMMENT             
G L1C                                                       SYS / PHASE SHIFT   
G L2W                                                       SYS / PHASE SHIFT   
G L2L  0.00000                                              SYS / PHASE SHIFT   
G L5Q  0.00000                                              SYS / PHASE SHIFT   
G L1L  0.00000                                              SYS / PHASE SHIFT   
E L1C  0.00000                                              SYS / PHASE SHIFT   
E L6C  0.00000                                              SYS / PHASE SHIFT   
E L5Q  0.00000                                              SYS / PHASE SHIFT   
E L7Q  0.00000                                              SYS / PHASE SHIFT   
E L8Q  0.00000                                              SYS / PHASE SHIFT   
S L1C                                                       SYS / PHASE SHIFT   
S L5I                                                       SYS / PHASE SHIFT   
R L1C                                                       SYS / PHASE SHIFT   
R L2P  0.00000                                              SYS / PHASE SHIFT   
R L2C                                                       SYS / PHASE SHIFT   
R L3Q  0.00000                                              SYS / PHASE SHIFT   
C L1P  0.00000                                              SYS / PHASE SHIFT   
C L5P  0.00000                                              SYS / PHASE SHIFT   
C L2I                                                       SYS / PHASE SHIFT   
C L7I                                                       SYS / PHASE SHIFT   
C L6I                                                       SYS / PHASE SHIFT   
C L7D                                                       SYS / PHASE SHIFT   
J L1C                                                       SYS / PHASE SHIFT   
J L2L  0.00000                                              SYS / PHASE SHIFT   
J L5Q  0.00000                                              SYS / PHASE SHIFT   
J L1L  0.00000                                              SYS / PHASE SHIFT   
I L5A                                                       SYS / PHASE SHIFT   
  2025     1     2    22    45    0.0000000     GPS         TIME OF FIRST OBS   
 C1C    0.000 C2C    0.000 C2P    0.000                     GLONASS COD/PHS/BIS 
DBHZ                                                        SIGNAL STRENGTH UNIT
    18                                                      LEAP SECONDS        
 24 R01  1 R02 -4 R03  5 R04  6 R05  1 R06 -4 R07  5 R08  6 GLONASS SLOT / FRQ #
    R09 -2 R10 -7 R11  0 R12 -1 R13 -2 R14 -7 R15  0 R16 -1 GLONASS SLOT / FRQ #
    R17  4 R18 -3 R19  3 R20  2 R21  4 R22 -3 R23  3 R24  2 GLONASS SLOT / FRQ #
                                                            END OF HEADER       
> 2025 01 02 22 45  0.0000000  0 33
G10         1.000    22782205.747 7 119721269.32707     -3619.699 7        42.294                                    22782199.831 5  93289278.84005     -2820.545 5        30.785    22782202.115 5  93289314.85305     -2820.790 5        32.766
G32         3.000    21843356.178 6 114787650.28106      -747.198 6        41.342                                    21843353.671 5  89444884.92005      -582.251 5        31.796    21843355.177 6  89444878.96906      -582.041 6        37.195
G21         4.000    20618621.598 6 108351632.97106      -656.067 6        39.054                                    20618614.582 3  84429811.05703      -511.224 3        23.638
G08         5.000    21204886.918 8 111432580.93008     -3199.633 8        49.094                                    21204885.313 7  86830487.48507     -2493.221 7        46.827    21204886.038 7  86830469.48807     -2493.194 7        44.691
G02         6.000    21435460.421 5 112644224.43205       744.113 5        35.829                                    21435462.270 1  87774642.09901       579.876 1        11.111
G14         7.000                                                                                                                                                                    23862201.547 5                      -586.855 5        33.174
E03         9.000    24926548.889 6 130989900.70206      1220.843 6        37.735                                                                    24926551.449 6  97817150.36606       911.516 6        36.571    24926547.896 7 100368904.25207       935.465 7        42.902
G17        10.000    25497164.225 4                      2485.036 4        29.318
E05        11.000    23844098.023 7 125301592.65707     -1510.759 7        42.787                                                                    23844098.359 7  93569391.38007     -1128.109 7        47.845    23844097.239 7  96010397.91607     -1157.479 7        46.781
E13        12.000                                                                                                                                    25985461.990 6 101972541.56906       997.722 6        38.453    25985461.354 6 104632723.29206      1023.527 6        40.703
G27        13.000    23461946.704 7 123293344.02807     -4566.923 7        42.396                                    23461941.659 5  96072715.98905     -3558.637 5        31.449    23461942.948 6  96072751.96506     -3558.569 6        37.297
E27        14.000    26869484.227 3                     -3383.483 3        23.771                                                                                                                                    26869493.101 5 108192299.60005     -2591.887 5        33.389
E21        15.000    26776078.323 5 140709243.54105     -1229.561 5        32.689                                                                    26776080.443 4 105075093.98104      -918.645 4        29.801    26776083.555 5 107816160.38805      -942.240 5        30.943
E15        16.000    23369369.257 6 122806975.36106      -570.167 6        40.956                                                                    23369370.527 7  91706433.59707      -425.684 7        45.532    23369370.619 7  94098790.99707      -436.779 7        46.779
S23        17.000    38170225.590 6 200585879.03106      -858.822 6        40.126
S36        23.000    38213887.233 6 200815286.20606      -860.475 6        38.955
S48        24.000    77199174.888 5 405684575.08505      -880.818 5        35.490
R06        25.000    19341579.608 5 103210398.57305      -148.471 5        33.563
R07        27.000    21512246.033 6 115156779.85506      3070.796 6        39.598                                                                    21512251.128 5  89566352.09005      2388.390 5        33.048
R05        28.000    22105714.627 6 118167669.96006     -4635.288 6        36.730                                                                    22105770.998 4                     -3604.974 4        24.150
C41        29.000                                                                                                                                    25033623.111 4 130356669.20804      2408.099 4        24.466                                                                    25033633.447 5 105925484.88405      1957.219 5        31.374
R12        30.000    23864497.747 4                     -4002.300 4        26.671                                                                    23864460.112 3                     -3111.197 3        21.238
E34        32.000    25187957.152 5 132363569.00905     -2713.231 5        35.362                                                                    25187951.185 6  98842918.10706     -2026.027 6        38.195    25187951.578 7 101421505.98707     -2078.912 7        42.552
R22        35.000    20727009.217 8 110642168.78208      1956.895 8        48.765                                                                    20727007.164 7  86055046.62307      1521.923 7        47.533
C33        37.000                                                                                                                                    22125134.155 8 115211402.48308       325.716 8        52.381                                                                    22125144.716 8  93618708.73008       264.762 8        48.409
C11        38.000                                                                                                                                                                                                    25192820.767 4                     -2997.642 4        27.701    25192808.698 5                     -3149.957 5        32.497
R21        39.000    19449859.678 7 104080095.67507     -1653.729 7        42.940                                                                    19449859.438 6  80951201.43906     -1286.448 6        36.181
C27        41.000                                                                                                                                    24277519.533 6 126419611.27406      1959.495 6        40.818                                                                    24277515.456 7 102726142.28307      1592.297 7        43.873
C14        42.000                                                                                                                                    22059947.593 7 114871958.34107     -1417.494 7        44.822    22059942.393 7  88826222.61507     -1096.037 7        42.567    22059940.412 7  93342847.75407     -1151.727 7        44.491
C43        48.000                                                                                                                                    23431152.500 6 122012188.05006     -3443.948 6        38.153                                                                    23431158.826 5  99144931.00905     -2798.409 5        32.150
C42        50.000                                                                                                                                    23343621.007 6 121556370.16806     -2955.265 6        38.252                                                                    23343628.547 8  98774618.29508     -2401.320 8        48.218
I01        53.000   415804794.752 6 328566561.14706     -2538.513 6        41.197
C28        55.000                                                                                                                                    21629910.795 7 112632609.92207       -39.074 7        43.750                                                                    21629910.255 7  91523209.76107       -31.836 7        45.229
> 2025 01 02 22 45  5.0000000  0 36
G10         1.000    22785649.394 7 119739370.52607     -3620.562 7        43.697                                    22785643.687 5  93303383.65805     -2821.231 5        30.392    22785646.297 5  93303419.68605     -2820.993 5        30.868
G03         2.000    23216165.218 3                      2503.238 3        22.609                                                                                                    23216168.713 5                      1951.644 5        32.934
G32         3.000    21844068.242 7 114791393.44707      -749.990 7        42.609                                    21844065.835 5  89447801.67905      -584.422 5        31.479    21844064.591 5  89447795.74405      -584.478 5        35.667
G21         4.000    20619245.758 6 108354917.46806      -657.702 6        40.553                                    20619239.214 3  84432370.42203      -512.501 3        23.562
G08         5.000    21207931.890 8 111448584.71108     -3201.778 8        49.680                                    21207930.599 7  86842957.95607     -2494.891 7        46.887    21207931.593 7  86842939.95907     -2494.937 7        44.414
G02         6.000    21434758.062 6 112640507.32206       742.881 6        40.136                                    21434754.984 2  87771745.60702       578.877 2        14.095
G14         7.000    23862943.784 6                      -756.250 6        37.656                                                                                                    23862920.977 5  97714673.42915      -589.447 5        34.795
E03         9.000    24925386.689 6 130983801.06406      1219.166 6        37.758                                                                    24925391.969 6  97812595.42406       910.328 6        38.420    24925387.184 7 100364230.50707       934.096 7        42.353
G17        10.000    25494801.500 5                      2485.173 5        34.286
E05        11.000    23845536.497 7 125309151.56607     -1512.836 7        42.967                                                                    23845536.644 7  93575036.01707     -1129.757 7        47.810    23845535.798 7  96016189.81207     -1159.134 7        47.166
E13        12.000                                                                                                                                    25984190.665 6 101967554.53906       997.424 6        37.599    25984190.434 6 104627606.15506      1023.365 6        40.362
G27        13.000    23466291.297 6 123316180.12906     -4567.428 6        41.840                                    23466287.436 5  96090510.34605     -3559.033 5        31.728    23466288.066 6  96090546.33406     -3558.802 6        37.592
E27        14.000    26872702.905 4                     -3384.476 4        24.737                                                                    26872763.891 3                     -2526.580 3        23.295    26872713.470 5 108205261.35105     -2592.415 5        30.528
E21        15.000    26777250.262 5 140715397.43505     -1232.020 5        32.988                                                                    26777256.030 4 105079689.44604      -919.686 4        29.754    26777257.813 5 107820875.75705      -944.012 5        34.210
E15        16.000    23369912.894 6 122809828.47606      -570.992 6        40.555                                                                    23369913.821 7  91708564.17307      -426.434 7        44.873    23369913.312 7  94100977.15707      -437.550 7        47.074
S23        17.000    38171052.348 6 200590172.46906      -858.691 6        38.736
R20        20.000    22768473.207 3                     -4297.430 3        19.701                                                                    22768482.517 3                     -3343.454 3        22.248
S36        23.000    38214706.774 6 200819588.62506      -860.214 6        38.363
S48        24.000    77199984.704 5 405688978.77705      -880.545 5        33.048
R06        25.000    19341719.660 5 103211153.60805      -153.263 5        33.473
R13        26.000    23323731.685 5 124547271.34815     -1788.762 5        31.691
R07        27.000    21509381.068 6 115141429.85806      3069.091 6        40.420                                                                    21509380.427 5  89554413.22405      2386.688 5        31.638
R05        28.000    22110049.983 5 118190850.75015     -4637.026 5        34.995
C41        29.000                                                                                                                                    25031314.919 5                      2407.924 5        31.170                                                                    25031318.746 5 105915699.77405      1957.081 5        30.498
E34        32.000    25190536.924 5 132377136.63205     -2714.146 5        33.407                                                                    25190533.025 6  98853049.76506     -2026.398 6        38.856    25190534.399 7 101431901.94107     -2079.368 7        42.646
R22        35.000    20725177.468 8 110632387.99408      1955.581 8        49.456                                                                    20725175.165 7  86047439.34707      1520.944 7        47.326
C33        37.000                                                                                                                                    22124822.630 8 115209779.90408       323.381 8        52.773                                                                    22124833.246 8  93617390.25508       262.737 8        48.520
C11        38.000                                                                                                                                    25196532.730 3                     -3880.545 3        20.667    25196541.801 4                     -2998.066 4        25.023    25196532.365 5                     -3150.601 5        32.539
R21        39.000    19451406.225 7 104088372.22407     -1656.640 7        42.918                                                                    19451405.384 5  80957638.75305     -1288.617 5        35.981
C27        41.000                                                                                                                                    24275638.187 6 126409815.47406      1958.826 6        39.033                                                                    24275634.913 7 102718182.33907      1591.666 7        44.113
C14        42.000                                                                                                                                    22061310.470 7 114879051.69607     -1419.786 7        45.371    22061303.039 7  88831707.65007     -1097.843 7        42.404    22061302.845 7  93348611.70307     -1153.739 7        44.149
C13        43.000                                                                                                                                    40251854.388 4                     -1737.383 4        24.060
C43        48.000                                                                                                                                    23434458.452 6 122029411.18006     -3445.181 6        37.675                                                                    23434466.543 5  99158926.18705     -2799.527 5        32.766
C42        50.000                                                                                                                                    23346458.167 6 121571150.91006     -2956.949 6        36.563                                                                    23346467.187 8  98786628.87608     -2402.837 8        48.010
I01        53.000   415808028.552 6 328579254.26206     -2538.762 6        41.251
C28        55.000                                                                                                                                    21629948.691 7 112632810.53607       -41.075 7        44.096                                                                    21629948.621 7  91523372.74307       -33.375 7        44.649
> 2025 01 02 22 45 10.0000000  0 36
G10         1.000    22789096.074 7 119757476.62307     -3621.717 7        42.373                                    22789088.916 5  93317492.30305     -2822.119 5        30.634    22789091.782 4  93317528.31304     -2822.391 4        28.569
G03         2.000    23213792.315 3                      2503.198 3        23.543                                                                                                    23213791.688 5                      1950.758 5        33.665
G32         3.000    21844783.322 6 114795152.74606      -753.385 6        41.609                                    21844781.048 5  89450730.98905      -587.054 5        30.234    21844779.408 6  89450725.05706      -587.233 6        36.473
G21         4.000    20619872.993 6 108358210.70906      -659.555 6        41.435                                    20619865.375 4  84434936.58804      -513.940 4        24.075
G08         5.000    21210979.148 8 111464600.74208     -3204.536 8        50.050                                    21210978.086 7  86855437.98407     -2497.045 7        46.660    21210978.836 7  86855419.98907     -2497.032 7        44.227
G02         6.000    21434055.682 6 112636796.96206       741.403 6        41.013                                    21434048.888 2  87768854.41502       577.710 2        17.736
G14         7.000    23863657.349 5 125404411.80615      -759.363 5        33.886                                                                                                    23863639.325 5  97717625.77105      -591.529 5        32.742
E03         9.000    24924228.369 6 130977710.63806      1217.178 6        37.059                                                                    24924232.207 6  97808047.33606       908.854 6        37.440    24924228.159 7 100359563.81007       932.661 7        42.053
G17        10.000    25492440.148 5 133963662.85415      2484.165 5        32.198
E05        11.000    23846978.346 7 125316722.55007     -1515.511 7        43.822                                                                    23846977.281 7  93580689.66607     -1131.657 7        47.602    23846976.403 7  96021990.95007     -1161.190 7        47.136
E13        12.000    25982916.910 4 136541291.46214      1334.960 4        26.838                                                                    25982920.084 6 101962568.84406       997.062 6        38.351    25982919.033 6 104622490.35206      1022.985 6        40.465
G27        13.000    23470637.173 6 123339020.71206     -4568.586 6        41.216                                    23470633.943 5  96108308.18405     -3559.936 5        32.162    23470633.945 6  96108344.19306     -3559.977 6        37.958
E27        14.000    26875921.637 5                     -3384.933 5        31.147                                                                                                                                    26875930.502 5 108218227.39405     -2593.520 5        32.443
E21        15.000    26778422.887 5 140721563.56505     -1234.355 5        30.438                                                                    26778433.940 4 105084294.03604      -921.797 4        27.186    26778431.424 6 107825600.42106      -946.137 6        36.442
E15        16.000    23370457.543 7 122812687.13207      -572.389 7        42.453                                                                    23370457.625 7  91710698.88307      -427.428 7        44.662    23370457.612 7  94103167.55807      -438.524 7        47.317
S23        17.000    38171872.287 7 200594466.11907      -858.901 7        42.362
R20        20.000    22772495.660 3                     -4295.955 3        20.571                                                                    22772508.909 4                     -3344.166 4        25.263
S36        23.000    38215531.234 6 200823891.60106      -860.745 6        36.877
S48        24.000    77200810.675 5 405693382.58905      -880.695 5        32.449
R06        25.000    19341867.158 5 103211930.59605      -157.460 5        34.890
R07        27.000    21506514.428 6 115126090.40306      3066.899 6        38.060                                                                    21506516.439 5  89542482.62805      2385.224 5        33.689
R05        28.000    22114385.638 5 118214041.39515     -4639.031 5        31.109                                                                    22114434.583 3                     -3610.803 3        19.134
C41        29.000                                                                                                                                                                                                                                                                    25029009.240 4 105905918.70304      1955.872 4        29.403
R12        30.000    23871980.963 4                     -4006.092 4        26.060                                                                    23871966.938 4                     -3115.527 4        26.826
E34        32.000    25193120.863 5 132390708.22605     -2714.784 5        32.257                                                                    25193115.691 6  98863184.40406     -2027.248 6        39.895    25193116.604 7 101442300.97407     -2080.213 7        43.007
R22        35.000    20723345.708 8 110622614.72408      1953.850 8        49.883                                                                    20723344.423 7  86039837.90407      1519.675 7        47.814
C33        37.000                                                                                                                                    22124513.718 8 115208170.20008       320.588 8        52.724                                                                    22124524.215 8  93616082.25308       260.509 8        48.700
C11        38.000                                                                                                                                                                                                    25200269.104 4                     -2998.872 4        28.815    25200256.950 5                     -3151.370 5        32.042
R21        39.000    19452956.390 7 104096663.89307     -1659.936 7        44.834                                                                    19452955.866 6  80964087.81906     -1291.077 6        37.837
C27        41.000                                                                                                                                    24273756.220 6 126400023.62206      1957.765 6        38.456                                                                    24273754.927 7 102710225.63907      1590.893 7        43.903
C14        42.000                                                                                                                                    22062675.771 7 114886158.21807     -1422.696 7        45.484    22062666.496 6  88837202.85406     -1100.067 6        41.955    22062667.475 7  93354386.34307     -1156.068 7        45.433
C13        43.000                                                                                                                                    40253526.654 3                     -1740.501 3        20.857
C43        48.000                                                                                                                                    23437767.086 5 122046641.65005     -3446.854 5        31.049                                                                    23437777.403 5  99172927.22805     -2800.973 5        30.777
C42        50.000                                                                                                                                    23349298.166 6 121585941.06206     -2958.923 6        37.921                                                                    23349307.372 7  98798647.10907     -2404.540 7        47.843
I01        53.000   415811263.432 7 328591948.80107     -2539.083 7        42.028
C28        55.000                                                                                                                                    21629989.232 7 112633021.63107       -43.255 7        44.370                                                                    21629989.028 7  91523544.29807       -35.228 7        44.513
> 2025 01 02 22 45 15.0000000  0 35
G10         1.000    22792542.031 6 119775587.57306     -3622.933 6        41.836                                    22792535.397 5  93331604.73105     -2823.069 5        30.475    22792539.330 5  93331640.76505     -2822.961 5        32.186
G03         2.000    23211414.441 4                      2501.861 4        29.621                                                                                                    23211408.691 5  95046847.08515      1949.753 5        33.066
G32         3.000    21845501.206 6 114798928.16606      -756.924 6        41.671                                    21845499.392 4  89453672.85404      -589.822 4        28.464    21845496.982 6  89453666.93706      -589.901 6        36.068
G21         4.000    20620501.194 6 108361512.77406      -661.492 6        40.503                                    20620493.128 4  84437509.62504      -515.456 4        24.256
G08         5.000    21214029.509 8 111480629.00408     -3207.091 8        49.261                                    21214027.827 7  86867927.55007     -2499.031 7        46.308    21214029.426 7  86867909.54107     -2499.004 7        43.407
G02         6.000    21433348.383 6 112633093.43006       739.840 6        40.029                                    21433343.950 3  87765968.55203       576.509 3        18.239
G14         7.000                                                                                                                                                                    23864363.912 5  97720590.45105      -594.297 5        34.314
E03         9.000    24923071.822 6 130971629.45506      1215.072 6        38.039                                                                    24923072.908 6  97803506.21106       907.500 6        36.836    24923071.004 7 100354904.20507       931.039 7        42.053
G17        10.000    25490076.358 5 133951243.04005      2483.604 5        33.257
E05        11.000    23848422.032 7 125324305.64407     -1518.087 7        44.621                                                                    23848420.203 7  93586352.35907     -1133.571 7        47.356    23848419.041 7  96027801.35707     -1163.119 7        47.322
E13        12.000    25981648.509 4 136534616.55104      1334.869 4        26.707                                                                    25981651.175 6 101957584.45206       996.535 6        38.733    25981649.225 6 104617375.97206      1022.693 6        39.751
G27        13.000    23474984.176 6 123361865.80606     -4569.809 6        41.385                                    23474981.357 5  96126109.53905     -3560.886 5        32.090    23474980.561 6  96126145.54406     -3561.014 6        36.726
E27        14.000    26879146.294 4                     -3385.800 4        25.774                                                                    26879194.487 3                     -2528.264 3        22.629    26879145.090 5 108231197.61005     -2594.257 5        33.898
E21        15.000    26779599.423 5 140727741.95405     -1237.021 5        32.431                                                                                                                                    26779607.931 5 107830334.45405      -947.712 5        35.043
E15        16.000    23371003.340 7 122815551.35307      -573.673 7        42.385                                                                    23371002.572 7  91712837.75707      -428.372 7        44.403    23371002.820 7  94105362.23107      -439.557 7        47.675
S23        17.000    38172686.463 7 200598759.92407      -859.046 7        42.330
S36        23.000    38216345.409 6 200828194.97906      -861.096 6        36.801
S48        24.000    77201638.086 5 405697786.62705      -881.152 5        32.922
R06        25.000    19342017.089 5 103212729.54905      -162.096 5        34.814
R07        27.000    21503650.879 6 115110761.59806      3064.380 6        38.444                                                                    21503654.001 6  89530560.19406      2383.407 6        36.321
R05        28.000    22118727.034 5 118237241.95405     -4641.312 5        33.725
C41        29.000                                                                                                                                                                                                                                                                    25026699.571 4 105896141.45804      1955.384 4        28.607
R12        30.000    23875731.845 3                     -4006.471 3        19.940                                                                    23875719.506 3                     -3119.150 3        21.810
E34        32.000    25195702.149 4 132404283.93104     -2715.885 4        29.488                                                                    25195699.857 6  98873322.05106     -2027.982 6        40.145    25195699.586 7 101452703.08907     -2080.955 7        43.323
R22        35.000    20721516.451 8 110612849.02108      1952.164 8        50.011                                                                    20721514.964 8  86032242.37408      1518.359 8        48.057
C33        37.000                                                                                                                                    22124206.990 8 115206573.39408       317.830 8        52.872                                                                    22124217.530 8  93614784.71108       258.547 8        48.479
C11        38.000                                                                                                                                    25204004.646 3                     -3877.702 3        23.257    25203998.889 4                     -2999.325 4        27.665    25203979.115 5                     -3152.195 5        30.815
R21        39.000    19454510.395 7 104104970.70807     -1663.149 7        44.707                                                                    19454507.926 6  80970548.63706     -1293.617 6        37.157
C27        41.000                                                                                                                                    24271876.367 6 126390235.75806      1956.805 6        38.417                                                                    24271874.655 7 102702272.20907      1590.539 7        44.492
C14        42.000                                                                                                                                    22064043.251 7 114893277.87507     -1425.464 7        46.042    22064034.269 7  88842708.25307     -1102.167 7        42.364    22064034.910 7  93360171.66807     -1158.033 7        45.874
C13        43.000                                                                                                                                    40255188.399 3                     -1741.010 3        21.786    40255185.946 3                     -1342.203 3        22.152
C43        48.000                                                                                                                                    23441070.043 4                     -3448.014 4        27.234                                                                    23441087.344 5  99186934.07805     -2801.459 5        31.457
C42        50.000                                                                                                                                    23352141.577 6 121600740.68406     -2961.098 6        40.553                                                                    23352149.129 7  98810673.02307     -2405.859 7        47.413
I01        53.000   415814498.870 6 328604644.77206     -2539.531 6        41.630
C28        55.000                                                                                                                                    21630031.765 7 112633243.29507       -45.565 7        43.964                                                                    21630031.042 7  91523724.41907       -36.721 7        43.858
> 2025 01 02 22 45 20.0000000  0 34
G10         1.000    22795989.450 6 119793703.49506     -3623.857 6        41.092                                    22795983.380 5  93345721.03205     -2823.771 5        30.309    22795987.851 5  93345757.02505     -2823.821 5        35.443
G03         2.000    23209037.406 4                      2501.216 4        26.120                                                                                                    23209028.486 5  95037100.40205      1948.837 5        35.395
G32         3.000    21846223.700 6 114802719.81506      -760.061 6        39.934                                    21846220.423 4  89456627.39504      -592.249 4        26.551    21846217.311 4  89456621.36104      -591.728 4        28.445
G21         4.000    20621130.671 6 108364823.67906      -663.227 6        39.826                                    20621122.836 4  84440089.54904      -516.799 4        24.361
G08         5.000    21217081.990 8 111496669.58008     -3209.551 8        49.484                                    21217079.875 7  86880426.70407     -2500.950 7        46.098    21217081.768 7  86880408.68707     -2500.954 7        43.937
G02         6.000    21432643.024 6 112629396.69706       738.466 6        38.688                                    21432640.023 3  87763087.98803       575.434 3        18.746
G14         7.000    23865088.159 6 125412036.71606      -765.810 6        36.836                                    23865086.513 1  97723538.29611      -596.730 1        10.815    23865090.739 6  97723567.30406      -596.890 6        36.405
E03         9.000    24921915.866 6 130965557.56006      1213.287 6        38.679                                                                    24921917.854 6  97798972.05006       906.021 6        36.911    24921915.957 7 100350251.74307       929.568 7        42.866
G17        10.000    25487713.674 5 133938825.68605      2483.037 5        34.267
E05        11.000    23849867.058 7 125331900.88307     -1520.533 7        44.665                                                                    23849865.503 7  93592024.12607     -1135.494 7        47.426    23849864.280 7  96033621.07707     -1165.036 7        46.970
E13        12.000    25980381.417 5 136527943.67405      1334.238 5        31.879                                                                    25980382.138 6 101952601.43606       996.328 6        38.889    25980379.263 6 104612262.99206      1022.298 6        39.090
G27        13.000    23479332.313 6 123384715.37406     -4570.571 6        41.435                                    23479329.670 5  96143914.38205     -3561.483 5        31.736    23479328.860 6  96143950.38606     -3561.660 6        36.764
E27        14.000                                                                                                                                                                                                    26882364.680 5 108244172.11805     -2595.621 5        35.443
E21        15.000    26780776.290 4 140733932.53504     -1239.417 4        29.384                                                                    26780781.539 4 105093530.68704      -926.222 4        27.174    26780783.088 5 107835077.88505      -949.839 5        35.348
E15        16.000    23371549.412 7 122818421.21207      -574.747 7        42.766                                                                    23371548.738 7  91714980.84507      -429.311 7        44.757    23371548.643 7  94107561.20807      -440.363 7        47.370
S23        17.000    38173502.842 7 200603054.00707      -859.068 7        42.593
R20        20.000    22780528.746 3                     -4304.133 3        19.701                                                                    22780570.377 4                     -3345.787 4        24.316
S36        23.000    38217167.937 6 200832498.70506      -860.796 6        38.207
S48        24.000    77202462.175 5 405702190.75705      -880.607 5        31.638
R06        25.000    19342169.190 6 103213550.50206      -166.379 6        36.204
R07        27.000    21500789.645 6 115095443.47406      3062.353 6        38.985                                                                    21500791.971 6  89518646.09806      2381.782 6        37.784
R05        28.000                                                                                                                                    22123083.171 3                     -3611.914 3        20.429
C41        29.000                                                                                                                                                                                                                                                                    25024387.045 5 105886368.23005      1954.261 5        30.045
E34        32.000    25198282.156 4 132417863.43204     -2715.531 4        25.038                                                                    25198284.561 6  98883462.75706     -2028.575 6        41.199    25198283.379 7 101463108.32607     -2081.562 7        43.685
R22        35.000    20719688.650 8 110603090.98608      1950.658 8        49.840                                                                    20719686.992 8  86024652.79008      1517.150 8        48.354
C33        37.000                                                                                                                                    22123902.672 8 115204989.55808       315.255 8        52.633                                                                    22123913.434 8  93613497.70908       256.331 8        48.278
C11        38.000                                                                                                                                    25207698.694 3                     -3882.074 3        18.866                                                                    25207702.635 4                     -3152.873 4        29.270
R21        39.000    19456066.332 7 104113292.69107     -1666.120 7        46.512                                                                    19456062.995 6  80977021.27906     -1295.837 6        40.184
C27        41.000                                                                                                                                    24269995.142 6 126380451.92206      1956.173 6        36.949                                                                    24269996.107 7 102694322.06907      1589.720 7        44.203
C14        42.000                                                                                                                                    22065412.550 7 114900410.78107     -1428.159 7        45.764    22065406.449 7  88848223.83407     -1104.319 7        42.713    22065404.692 7  93365967.70307     -1160.236 7        46.292
C13        43.000                                                                                                                                    40256851.440 3                     -1737.185 3        23.219    40256855.395 3                     -1341.803 3        18.746
C42        50.000                                                                                                                                    23354986.888 7 121615549.78407     -2962.869 7        42.986                                                                    23354993.026 7  98822706.64307     -2407.512 7        47.103
I01        53.000   415817734.617 6 328617342.27306     -2539.791 6        41.306
C28        55.000                                                                                                                                    21630076.250 7 112633475.58307       -47.820 7        42.451                                                                    21630075.292 7  91523913.15307       -38.587 7        44.023
> 2025 01 02 22 45 25.0000000  0 37
G10         1.000    22799437.020 6 119811824.14406     -3624.381 6        40.453                                    22799432.485 5  93359841.01905     -2824.185 5        30.370    22799436.788 6  93359877.01706     -2824.110 6        37.335
G03         2.000    23206657.229 5                      2500.152 5        32.958                                                                                                    23206650.321 6  95027358.09906      1948.099 6        36.076
G32         3.000    21846947.875 5 114806527.51305      -763.098 5        35.867                                    21846943.972 4  89459594.45404      -594.610 4        26.419    21846941.249 5  89459588.40305      -594.489 5        32.982
G21         4.000    20621762.516 6 108368143.22906      -664.697 6        39.027                                    20621754.421 4  84442676.23404      -517.943 4        24.271
G08         5.000    21220136.864 8 111512722.27708     -3211.609 8        49.151                                    21220134.458 7  86892935.29907     -2502.551 7        46.281    21220136.221 7  86892917.29007     -2502.587 7        44.256
G02         6.000    21431943.717 6 112625706.65606       737.445 6        41.638                                    21431937.263 3  87760212.58803       574.649 3        19.791
G14         7.000    23865821.434 6 125415872.47606      -768.540 6        38.544                                    23865816.773 2  97726527.18302      -598.880 2        12.606    23865822.790 6  97726556.14506      -598.878 6        36.711
E03         9.000    24920761.757 6 130959494.78906      1211.804 6        37.917                                                                    24920764.442 5  97794444.62905       904.741 5        35.786    24920762.057 7 100345606.24407       928.471 7        42.347
G17        10.000    25485350.365 5 133926410.58905      2482.999 5        35.338
E05        11.000    23851313.704 7 125339508.08407     -1522.515 7        44.229                                                                    23851312.922 7  93597704.83007     -1136.925 7        47.270    23851311.802 7  96039449.95907     -1166.544 7        47.119
E13        12.000    25979112.189 5 136521272.47705      1334.417 5        32.329                                                                    25979112.785 6 101947619.70606       996.318 6        40.007    25979109.772 6 104607151.26306      1022.467 6        39.336
G27        13.000    23483681.680 6 123407569.27406     -4571.113 6        40.229                                    23483678.851 5  96161722.60805     -3561.898 5        31.675    23483679.182 6  96161758.61506     -3561.831 6        36.420
E27        14.000                                                                                                                                    26885625.266 3                     -2527.408 3        21.857    26885585.769 6 108257150.71106     -2596.182 6        36.586
E21        15.000    26781957.664 4 140740135.20504     -1241.704 4        27.521                                                                    26781962.005 4 105098162.56604      -926.647 4        28.445    26781961.035 5 107839830.58705      -951.499 5        34.381
E15        16.000    23372095.624 6 122821296.51806      -575.521 6        41.845                                                                    23372096.194 7  91717127.99107      -429.748 7        44.271    23372095.732 7  94109764.37807      -440.939 7        47.655
S23        17.000    38174318.931 7 200607348.31507      -858.735 7        42.432
R20        20.000    22784559.480 3                     -4302.410 3        18.806
S36        23.000    38217980.672 6 200836801.77406      -860.231 6        37.244
S48        24.000    77203277.902 5 405706594.88305      -880.953 5        31.215
R06        25.000    19342328.848 6 103214393.40906      -170.446 6        36.374
R13        26.000    23330420.614 4 124583208.05204     -1804.799 4        24.301
R07        27.000    21497931.651 6 115080135.90306      3060.549 6        36.805                                                                    21497933.675 6  89506740.19406      2380.602 6        37.013
R05        28.000                                                                                                                                    22127430.594 4                     -3612.635 4        28.730
C41        29.000                                                                                                                                    25022108.635 5 130296546.70015      2404.078 5        32.120                                                                    25022075.118 5 105876598.94205      1953.638 5        30.423
R12        30.000    23883253.633 4                     -4011.943 4        26.263
E34        32.000    25200865.797 4                     -2716.856 4        29.327                                                                    25200869.481 6  98893606.36606     -2028.923 6        41.189    25200868.231 7 101473516.56807     -2081.758 7        43.801
R22        35.000    20717861.566 8 110593340.42008      1949.546 8        50.011                                                                    20717859.849 8  86017069.00808      1516.186 8        48.736
C33        37.000                                                                                                                                    22123600.648 8 115203418.51408       313.078 8        52.430                                                                    22123611.733 8  93612221.12508       254.319 8        48.266
C11        38.000                                                                                                                                                                                                                                                                    25211428.310 4                     -3153.371 4        28.815
R21        39.000    19457624.489 7 104121629.74407     -1668.757 7        44.739                                                                    19457620.718 6  80983505.69006     -1297.939 6        41.168
C27        41.000                                                                                                                                    24268117.320 6 126370672.06806      1955.666 6        38.387                                                                    24268118.243 7 102686375.12907      1589.155 7        44.545
C14        42.000                                                                                                                                    22066783.730 7 114907556.71007     -1430.365 7        44.099    22066777.673 6  88853749.56306     -1106.006 6        40.970    22066777.069 7  93371774.39307     -1162.275 7        46.323
C13        43.000                                                                                                                                                                                                    40258525.398 3                     -1344.322 3        21.452
C43        48.000                                                                                                                                    23447707.398 4 122098318.23214     -3450.739 4        28.929                                                                    23447694.848 5  99214965.55205     -2804.253 5        33.575
C42        50.000                                                                                                                                    23357832.814 7 121630368.21807     -2964.494 7        44.599                                                                    23357838.597 7  98834747.86307     -2408.947 7        46.718
I01        53.000   415820970.855 6 328630041.12906     -2539.806 6        41.526
C28        55.000                                                                                                                                    21630123.216 6 112633718.32306       -49.544 6        39.916                                                                    21630121.891 7  91524110.39507       -40.317 7        43.122
> 2025 01 02 22 45 30.0000000  0 36
G10         1.000    22802884.709 6 119829949.22006     -3625.605 6        39.015                                    22802882.664 5  93373964.44205     -2825.152 5        30.241    22802884.207 6  93374000.47906     -2825.154 6        37.108
G03         2.000    23204284.890 5                      2499.086 5        35.114                                                                                                    23204271.993 6  95017619.82306      1947.177 6        36.457
G32         3.000    21847674.028 6 114810350.82406      -766.315 6        36.355                                    21847670.669 4  89462573.64304      -597.130 4        24.602    21847670.647 5  89462567.72505      -597.447 5        30.626
G21         4.000    20622396.409 6 108371471.10406      -666.473 6        39.532                                    20622387.938 4  84445269.38404      -519.326 4        24.496
G08         5.000    21223193.892 8 111528786.76108     -3214.174 8        49.082                                    21223191.514 7  86905453.07507     -2504.547 7        46.834    21223193.603 7  86905435.06707     -2504.601 7        44.804
G02         6.000    21431245.121 7 112622022.92907       736.046 7        42.476                                    21431235.656 3  87757342.13703       573.538 3        20.190
G14         7.000    23866556.932 6 125419723.37506      -771.836 6        38.625                                    23866549.583 2  97729527.86102      -601.405 2        13.515    23866557.824 6  97729556.86106      -601.355 6        36.677
E03         9.000    24919609.659 6 130953440.84106      1209.810 6        38.940                                                                    24919611.242 5  97789923.84205       903.375 5        35.933    24919610.630 6 100340967.49806       927.132 6        41.924
G17        10.000    25482988.600 5 133913997.42005      2482.254 5        34.024                                    25482987.811 1 104348574.23411      1934.195 1         5.286
E05        11.000    23852763.079 7 125347126.93407     -1524.965 7        42.918                                                                    23852762.949 7  93603394.23507     -1138.843 7        47.181    23852761.323 7  96045287.78707     -1168.523 7        46.928
E13        12.000    25977841.554 5 136514602.61805      1334.030 5        30.581                                                                    25977843.486 6 101942638.98506       995.822 6        39.991    25977840.502 6 104602040.63206      1021.878 6        38.640
G27        13.000    23488030.647 6 123430427.17906     -4571.890 6        39.093                                    23488028.613 5  96179533.96705     -3562.506 5        30.868    23488027.765 6  96179569.97506     -3562.668 6        36.015
E27        14.000    26888801.247 4                     -3389.563 4        26.707                                                                    26888850.706 3                     -2532.666 3        19.791    26888810.691 6 108270133.20406     -2597.019 6        36.669
E21        15.000    26783140.173 4 140746349.52504     -1244.113 4        28.521                                                                    26783147.104 5 105102803.24205      -929.293 5        30.158    26783142.041 5 107844592.27905      -953.415 5        34.524
E15        16.000    23372643.948 6 122824176.97006      -576.632 6        41.595                                                                    23372644.309 7  91719278.96707      -430.552 7        43.958    23372643.905 7  94111971.47807      -441.883 7        47.629
S23        17.000    38175132.963 6 200611642.43806      -858.864 6        41.502
R20        20.000                                                                                                                                    22788635.235 3                     -3348.811 3        21.714
S36        23.000    38218799.681 5 200841104.15805      -860.868 5        35.457
S48        24.000    77204099.607 5 405710998.42605      -880.442 5        31.645
R06        25.000    19342490.602 5 103215257.71905      -174.912 5        34.824
R13        26.000    23332105.489 4                     -1808.056 4        24.692
R07        27.000    21495077.497 6 115064838.54306      3058.280 6        40.088                                                                    21495075.072 5  89494842.27305      2378.619 5        34.838
R05        28.000    22131789.126 6 118306902.52216     -4646.824 6        36.699                                                                    22131777.432 5                     -3614.164 5        32.737
C41        29.000                                                                                                                                    25019801.164 5 130284528.62905      2402.861 5        31.819                                                                    25019771.780 5 105866833.26405      1952.462 5        31.238
R12        30.000    23887000.186 5                     -4013.832 5        32.563                                                                    23886960.955 3                     -3121.390 3        22.876
E34        32.000    25203452.362 4                     -2717.394 4        27.605                                                                    25203454.778 6  98903752.66306     -2029.674 6        41.492    25203454.019 7 101483927.56907     -2082.639 7        43.225
R22        35.000    20716036.880 8 110583597.04008      1947.895 8        51.122                                                                    20716034.798 8  86009490.83308      1515.006 8        48.842
C33        37.000                                                                                                                                    22123301.356 8 115201859.95008       310.415 8        52.041                                                                    22123312.332 8  93610954.66208       252.195 8        48.258
