     3.04           OBSERVATION DATA    M                   RINEX VERSION / TYPE
ssrcrin-15.6.1x                         20250102 121500 UTC PGM / RUN BY / DATE 
(00000000023479385599111004) Septentrio proprietary         COMMENT             
ract                                                        MARKER NAME         
01                                                          MARKER NUMBER       
geodetic                                                    MARKER TYPE         
NFB                 CLIMERS@TUW                             OBSERVER / AGENCY   
3296359             SEPT ASTERX SB3 PROB4.14.4              REC # / TYPE / VERS 
Unknown             Unknown                                 ANT # / TYPE        
  4127445.5974  1206914.8501  4695543.6319                  APPROX POSITION XYZ 
        0.0000        0.0000        0.0000                  ANTENNA: DELTA H/E/N
G   23 X1  C1C L1C D1C S1C C1W S1W C2W L2W D2W S2W C2L L2L  SYS / # / OBS TYPES 
       D2L S2L C5Q L5Q D5Q S5Q C1L L1L D1L S1L              SYS / # / OBS TYPES 
E   21 X1  C1C L1C D1C S1C C6C L6C D6C S6C C5Q L5Q D5Q S5Q  SYS / # / OBS TYPES 
       C7Q L7Q D7Q S7Q C8Q L8Q D8Q S8Q                      SYS / # / OBS TYPES 
S    9 X1  C1C L1C D1C S1C C5I L5I D5I S5I                  SYS / # / OBS TYPES 
R   17 X1  C1C L1C D1C S1C C2P L2P D2P S2P C2C L2C D2C S2C  SYS / # / OBS TYPES 
       C3Q L3Q D3Q S3Q                                      SYS / # / OBS TYPES 
C   25 X1  C1P L1P D1P S1P C5P L5P D5P S5P C2I L2I D2I S2I  SYS / # / OBS TYPES 
       C7I L7I D7I S7I C6I L6I D6I S6I C7D L7D D7D S7D      SYS / # / OBS TYPES 
J   17 X1  C1C L1C D1C S1C C2L L2L D2L S2L C5Q L5Q D5Q S5Q  SYS / # / OBS TYPES 
       C1L L1L D1L S1L                                      SYS / # / OBS TYPES 
I    5 X1  C5A L5A D5A S5A                                  SYS / # / OBS TYPES 
SEPTENTRIO RECEIVERS OUTPUT ALIGNED CARRIER PHASES.         COMMENT             
NO FURTHER PHASE SHIFT APPLIED IN THE RINEX ENCODER.        COMMENT             
G L1C                                                       SYS / PHASE SHIFT   
G L2W                                                       SYS / PHASE SHIFT   
G L2L  0.00000                                              SYS / PHASE SHIFT   
G L5Q  0.00000                                              SYS / PHASE SHIFT   
G L1L  0.00000                                              SYS / PHASE SHIFT   
E L1C  0.00000                                              SYS / PHASE SHIFT   
E L6C  0.00000                                              SYS / PHASE SHIFT   
E L5Q  0.00000                                              SYS / PHASE SHIFT   
E L7Q  0.00000                                              SYS / PHASE SHIFT   
E L8Q  0.00000                                              SYS / PHASE SHIFT   
S L1C                                                       SYS / PHASE SHIFT   
S L5I                                                       SYS / PHASE SHIFT   
R L1C                                                       SYS / PHASE SHIFT   
R L2P  0.00000                                              SYS / PHASE SHIFT   
R L2C                                                       SYS / PHASE SHIFT   
R L3Q  0.00000                                              SYS / PHASE SHIFT   
C L1P  0.00000                                              SYS / PHASE SHIFT   
C L5P  0.00000                                              SYS / PHASE SHIFT   
C L2I                                                       SYS / PHASE SHIFT   
C L7I                                                       SYS / PHASE SHIFT   
C L6I                                                       SYS / PHASE SHIFT   
C L7D                                                       SYS / PHASE SHIFT   
J L1C                                                       SYS / PHASE SHIFT   
J L2L  0.00000                                              SYS / PHASE SHIFT   
J L5Q  0.00000                                              SYS / PHASE SHIFT   
J L1L  0.00000                                              SYS / PHASE SHIFT   
I L5A                                                       SYS / PHASE SHIFT   
  2025     1     2    12    15    0.0000000     GPS         TIME OF FIRST OBS   
 C1C    0.000 C2C    0.000 C2P    0.000                     GLONASS COD/PHS/BIS 
DBHZ                                                        SIGNAL STRENGTH UNIT
    18                                                      LEAP SECONDS        
 24 R01  1 R02 -4 R03  5 R04  6 R05  1 R06 -4 R07  5 R08  6 GLONASS SLOT / FRQ #
    R09 -2 R10 -7 R11  0 R12 -1 R13 -2 R14 -7 R15  0 R16 -1 GLONASS SLOT / FRQ #
    R17  4 R18 -3 R19  3 R20  2 R21  4 R22 -3 R23  3 R24  2 GLONASS SLOT / FRQ #
                                                            END OF HEADER       
> 2025 01 02 12 15  0.0000000  0 39
G17         2.000    24415485.617 4 128304122.09104     -4045.274 4        29.877                                    24415489.196 1  99977324.97701     -3152.178 1         2.600
G25         3.000    22608781.266 6 118809960.82106      2207.388 6        36.159                                    22608782.887 3  92579183.32303      1720.040 3        22.800    22608783.209 5  92579198.29905      1720.262 5        33.419
G19         4.000    21742276.070 7 114256436.79407     -2548.209 7        46.801                                    21742271.494 4  89030973.56404     -1985.606 4        29.934
E25         6.000    24926112.023 7 130987594.08307       957.890 7        44.990                                                                    24926116.362 7  97815533.45107       715.313 7        46.066    24926116.237 7 100367139.10407       733.934 7        44.859
G10         7.000    25364500.825 3                     -3000.086 3        20.786
G15         9.000    24625995.457 4                     -4743.417 4        28.834                                                                                                    24625966.939 3                     -3698.136 3        21.452
G24        12.000    20417900.417 7 107297394.59307     -2136.646 7        46.901                                    20417899.993 6  83607923.12606     -1664.918 6        36.892    20417903.753 6  83607897.16306     -1664.917 6        36.503
E31        13.000    26289282.888 6 138151101.42406     -3198.059 6        36.480                                                                    26289292.565 5                     -2387.768 5        30.536
E33        14.000    27049353.600 4                       -71.703 4        28.872                                                                    27049354.858 4                       -53.018 4        24.331    27049353.743 5 108916609.32705       -55.037 5        30.626
G12        15.000    20525191.713 8 107860705.85708       285.241 8        49.475                                    20525189.758 8  84047625.09508       222.263 8        48.798    20525190.904 7  84047231.09907       222.261 7        46.037
E24        16.000    23734538.095 7 124725811.79907     -1349.853 7        47.656                                                                    23734540.063 8  93139472.26608     -1008.012 8        48.177    23734539.981 8  95569223.32608     -1034.309 8        49.883
G32        17.000    23963054.985 7 125926537.66407      1583.825 7        46.938                                    23963059.688 6  98124637.99606      1234.142 6        40.660    23963059.558 6  98124723.02106      1234.215 6        40.546
E05        18.000    23127443.802 7 121535565.81007     -2758.408 7        43.460                                                                    23127447.473 7  90757048.28307     -2059.894 7        44.178    23127447.345 7  93124609.74907     -2113.607 7        43.098
E08        20.000                                                                                                                                    28774513.061 5 112917359.00705      1434.416 5        31.494
E09        21.000                                                                                                                                    27924665.909 4                     -3077.174 4        24.932
R14        23.000    19551468.235 8 104220263.79408      -812.210 8        49.651                                                                    19551472.076 7  81060193.17307      -631.743 7        46.826
S23        24.000    38249104.194 5 201000394.09105      -862.888 5        34.743
R23        25.000    21352314.382 4 114220471.22004     -1587.552 4        27.844
E03        26.000    25140102.849 5 132112056.87205        60.352 5        33.545                                                                    25140084.606 5  98655145.18605        44.864 5        31.947    25140086.515 6 101228769.05806        45.893 6        40.701
R13        27.000    22239036.302 3                     -3846.833 3        19.672
R04        29.000    21547893.002 7 115388174.92607     -4250.246 7        46.324                                                                    21547897.194 6  89746206.60406     -3305.675 6        39.706
R15        30.000    21723312.549 7 116082973.81207      1916.463 7        46.215                                                                    21723308.733 5  90286743.91205      1490.425 5        32.449
S36        31.000    38311507.426 6 201328358.32206      -858.780 6        36.250
C07        32.000                                                                                                                                    39995138.586 4                     -1757.696 4        24.752
C10        33.000                                                                                                                                    39104837.712 4 203629183.22504     -1484.031 4        27.796    39104841.819 6 157458975.84506     -1147.581 6        39.498    39104837.050 5 165465337.33305     -1205.964 5        30.166
C45        37.000                                                                                                                                    22581117.131 5 117585717.96505     -2436.591 5        35.814                                                                    22581118.506 5  95548047.39505     -1979.678 5        33.192
R24        38.000    21608001.178 6 115547681.56806      2501.617 6        41.778                                                                    21608012.386 6  89870497.90006      1945.499 6        36.215
C33        39.000                                                                                                                                    25831082.182 6 134509223.29706        27.761 6        39.619                                                                    25831098.539 4 109299872.17404        22.700 4        27.725
R22        41.000    24036573.131 3                     -4295.510 3        23.581                                                                    24036604.674 4                     -3341.400 4        25.113
C35        42.000                                                                                                                                    24456110.168 5 127349408.15705      2311.929 5        33.838                                                                    24456112.528 6 103481857.17806      1878.632 6        36.291
R05        44.000                                                                                                                                    21146363.086 6  87919591.88506      -534.391 6        36.779
C42        45.000                                                                                                                                    24783862.409 6 129056018.29006     -2685.958 6        39.562                                                                    24783871.824 6 104868700.02406     -2182.423 6        39.138
C29        46.000                                                                                                                                    23065128.100 6 120106444.86406      -470.089 6        38.616                                                                    23065121.147 6  97596082.59606      -381.684 6        39.544
C30        47.000                                                                                                                                    25823059.941 5                     -3276.564 5        31.072
C26        48.000                                                                                                                                    22273695.165 6 115985014.26206       460.963 6        41.530                                                                    22273699.941 7  94247354.21007       374.564 7        45.970
C24        51.000                                                                                                                                    25619481.160 4                      1957.067 4        28.313                                                                    25619416.712 5 108404226.75305      1589.605 5        32.090
C14        53.000                                                                                                                                                                                                    24936127.111 5 100407576.37805     -1042.558 5        33.425    24936128.282 6 105512999.90206     -1095.583 6        39.682
C21        55.000                                                                                                                                                                                                                                                                    26391819.797 4                     -3321.503 4        25.414
I06        58.000    38508948.559 6 151117380.37006      -751.235 6        41.051
> 2025 01 02 12 15  5.0000000  0 37
G17         2.000    24419332.332 4 128324349.13704     -4045.630 4        27.245                                    24419338.690 1  99993086.34701     -3152.496 1         1.556
G25         3.000    22606681.979 6 118798923.96806      2207.108 6        36.038                                    22606682.562 3  92570583.20503      1719.819 3        22.248    22606683.271 5  92570598.16705      1719.824 5        32.521
G19         4.000    21744701.542 7 114269183.00407     -2550.491 7        46.544                                    21744697.121 4  89040905.66604     -1987.388 4        29.687
E25         6.000    24925200.088 7 130982805.03707       957.490 7        45.550                                                                    24925205.046 7  97811957.22007       715.082 7        46.049    24925204.687 7 100363469.58007       733.591 7        45.130
G15         9.000    24630504.417 5                     -4742.763 5        30.317                                                                                                    24630478.686 3                     -3696.328 3        22.057
G24        12.000    20419934.654 7 107308082.97107     -2138.860 7        47.659                                    20419934.653 6  83616251.73206     -1666.647 6        38.471    20419936.917 6  83616225.76506     -1666.560 6        38.333
E31        13.000    26292324.870 6 138167090.96406     -3197.979 6        36.306                                                                    26292335.061 5                     -2388.042 5        32.527
E33        14.000    27049420.075 4                       -74.434 4        25.714                                                                    27049422.438 4                       -55.850 4        24.030    27049424.266 5 108916889.17305       -56.364 5        31.328
G12        15.000    20524920.861 8 107859283.44708       283.515 8        50.269                                    20524919.198 8  84046516.72608       220.919 8        48.541    20524920.197 7  84046122.72107       220.944 7        45.992
E24        16.000    23735822.427 8 124732562.16408     -1350.516 8        48.113                                                                    23735824.565 8  93144513.12108     -1008.515 8        48.415    23735824.490 8  95574395.68308     -1034.819 8        50.005
G32        17.000    23961548.359 7 125918622.16507      1582.096 7        45.917                                    23961553.024 6  98118470.07506      1232.805 6        40.072    23961553.782 6  98118555.10306      1232.727 6        39.559
E05        18.000    23130068.832 7 121549360.99607     -2759.902 7        43.507                                                                    23130072.556 7  90767349.85607     -2060.905 7        44.524    23130073.155 7  93135180.07307     -2114.693 7        42.609
E08        20.000                                                                                                                                    28772682.884 5 112910188.53205      1434.013 5        32.311
E09        21.000    27928583.531 3                     -4124.707 3        21.190                                                                    27928587.634 4                     -3076.933 4        25.925
R14        23.000    19552230.239 8 104224328.14608      -813.768 8        49.192                                                                    19552235.120 7  81063354.35007      -632.903 7        46.930
S23        24.000    38249923.681 5 201004706.66805      -862.276 5        34.957
R23        25.000    21353799.380 4 114228418.14404     -1591.378 4        26.395
E03        26.000    25140052.195 5 132111760.07805        58.453 5        34.033                                                                    25140028.306 5  98654923.62005        43.639 5        32.539    25140030.483 6 101228541.70906        44.810 6        41.244
R04        29.000    21551862.901 7 115409431.03107     -4252.454 7        46.631                                                                    21551867.087 6  89762739.10006     -3307.389 6        41.080
R15        30.000    21721517.897 7 116073391.49507      1916.161 7        46.030                                                                    21721517.424 5  90279291.00105      1489.881 5        32.862
S36        31.000    38312313.762 5 201332650.84905      -858.158 5        35.243
C07        32.000                                                                                                                                    39996820.247 4                     -1759.181 4        25.188    39996813.542 4                     -1359.790 4        25.459
C10        33.000                                                                                                                                    39106259.085 4 203636602.27104     -1483.649 4        27.305    39106266.570 6 157464712.73706     -1147.483 6        40.136    39106262.302 5 165471365.93205     -1205.660 5        30.309
C45        37.000                                                                                                                                    22583453.540 6 117597901.90106     -2437.422 6        38.117
R24        38.000    21605664.425 7 115535178.31607      2499.357 7        44.555                                                                    21605671.929 5  89860773.13905      1944.089 5        35.657
C33        39.000                                                                                                                                    25831056.798 6 134509089.66106        25.446 6        39.285                                                                    25831071.208 4 109299763.55104        20.902 4        25.789
R22        41.000    24040597.090 4                     -4299.098 4        27.557                                                                    24040628.307 4                     -3343.629 4        27.090
C35        42.000                                                                                                                                    24453892.979 5 127337848.72805      2311.367 5        30.287                                                                    24453892.197 6 103472464.30206      1878.556 6        37.274
R05        44.000    21146987.948 5 113042869.70615      -691.322 5        33.569                                                                    21147009.128 6  87922271.64206      -537.515 6        38.066
C42        45.000                                                                                                                                    24786441.357 6 129069451.44206     -2687.625 6        39.541                                                                    24786451.646 6 104879615.56406     -2183.811 6        39.417
C29        46.000                                                                                                                                    23065583.794 6 120108799.44306      -472.417 6        37.365                                                                    23065573.618 6  97597995.92606      -383.756 6        39.823
C30        47.000                                                                                                                                    25826205.688 5 134483832.39115     -3277.776 5        31.464
C26        48.000                                                                                                                                    22273252.714 7 115982711.31107       460.043 7        42.220                                                                    22273257.583 7  94245482.82807       373.903 7        45.862
C24        51.000                                                                                                                                                                                                                                                                    25617539.672 5 108396277.55805      1590.084 5        32.611
C14        53.000                                                                                                                                    24937468.245 5                     -1350.511 5        32.359                                                                    24937423.848 6 105518481.73306     -1097.505 6        40.076
C21        55.000                                                                                                                                    26395735.135 3 137449577.49213     -4088.208 3        23.562                                                                    26395746.843 4                     -3320.748 4        26.898
I06        58.000    38509904.827 6 151121134.67506      -750.759 6        40.758
> 2025 01 02 12 15 10.0000000  0 39
G17         2.000                                                                                                                                                                    24423174.734 3                     -3153.205 3        22.667
G25         3.000    22604584.927 5 118787892.77205      2205.780 5        35.229                                    22604583.336 3  92561987.50603      1718.787 3        22.514    22604584.820 5  92562002.47405      1718.728 5        32.509
G19         4.000    21747129.810 7 114281943.56407     -2553.545 7        45.204                                    21747125.749 4  89050848.94804     -1989.775 4        29.384
E25         6.000    24924289.757 7 130978020.76407       956.422 7        45.434                                                                    24924294.393 7  97808384.54807       714.234 7        45.992    24924294.129 7 100359803.70007       732.805 7        45.585
G10         7.000    25370231.290 3                     -3001.304 3        22.343
G15         9.000                                                                                                                                                                    24634991.251 3                     -3698.033 3        18.925
G24        12.000    20421971.558 7 107318784.92107     -2141.803 7        47.818                                    20421971.924 6  83624590.92006     -1668.941 6        39.775    20421973.111 6  83624564.95706     -1669.019 6        40.019
E31        13.000    26295369.077 5 138183081.95105     -3198.374 5        34.962                                                                    26295378.711 5                     -2388.412 5        33.665
E33        14.000    27049487.168 3                       -76.062 3        21.071                                                                    27049495.223 3                       -56.927 3        23.905    27049497.579 5 108917178.18805       -58.812 5        31.902
G12        15.000    20524652.261 8 107857872.33908       281.078 8        50.017                                    20524650.820 8  84045417.16608       219.022 8        48.469    20524651.139 7  84045023.15907       219.056 7        46.103
E24        16.000    23737108.132 8 124739318.60708     -1351.869 8        48.304                                                                    23737110.291 8  93149558.50208     -1009.515 8        48.806    23737110.277 8  95579572.68908     -1035.867 8        50.218
G32        17.000    23960043.545 7 125910717.97207      1579.685 7        44.506                                    23960048.484 6  98112310.96506      1230.918 6        39.562    23960049.516 6  98112395.98806      1230.924 6        39.360
E05        18.000    23132695.856 7 121563165.76607     -2761.867 7        42.936                                                                    23132699.609 7  90777658.59607     -2062.452 7        44.811    23132700.847 7  93145757.73207     -2116.124 7        42.516
E08        20.000                                                                                                                                    28770857.738 5 112903021.10905      1433.380 5        32.024
E09        21.000    27932508.100 3                     -4123.723 3        22.171                                                                    27932509.421 4                     -3077.956 4        25.368
R14        23.000    19552994.778 8 104228402.69808      -815.965 8        49.273                                                                    19552999.716 7  81066523.44107      -634.603 7        47.417
S23        24.000    38250746.598 5 201009019.07305      -862.507 5        35.181
R23        25.000    21355293.825 4 114236388.37804     -1596.553 4        26.814
E03        26.000    25139994.599 5 132111474.62005        55.872 5        33.377                                                                    25139973.879 5  98654710.50605        41.843 5        32.623    25139975.616 7 101228323.02707        42.794 7        42.569
R13        27.000    22246252.790 3                     -3851.365 3        23.657
R04        29.000    21555834.212 7 115430701.05507     -4255.395 7        45.771                                                                    21555839.932 6  89779282.43106     -3309.589 6        41.499
R15        30.000    21719723.958 7 116063813.83207      1914.960 7        44.205                                                                    21719723.718 5  90271841.74805      1489.429 5        31.917
S36        31.000    38313129.132 5 201336942.46005      -858.213 5        35.076
C07        32.000                                                                                                                                    39998501.698 3                     -1756.675 3        20.310    39998506.789 4                     -1359.465 4        26.395
C10        33.000                                                                                                                                    39107683.371 4 203644022.35204     -1483.754 4        26.970    39107692.153 6 157470450.35606     -1147.487 6        40.396    39107686.627 5 165477395.31205     -1206.026 5        30.241
C45        37.000                                                                                                                                    22585793.606 6 117610092.01406     -2438.742 6        40.574                                                                    22585782.241 6  95567853.40106     -1981.667 6        37.569
R24        38.000    21603328.095 7 115522688.67407      2496.573 7        45.914                                                                    21603334.821 6  89851058.98706      1941.808 6        36.560
C33        39.000                                                                                                                                    25831033.746 6 134508969.76306        22.579 6        39.390                                                                    25831042.511 3                        17.469 3        20.905
R22        41.000    24044627.954 4                     -4302.013 4        28.919                                                                    24044657.789 4                     -3345.615 4        26.084
C35        42.000                                                                                                                                                                                                                                                                    24451673.188 6 103463075.42406      1877.373 6        37.546
R05        44.000                                                                                                                                    21147660.043 6  87924969.46306      -541.352 6        39.141
C42        45.000                                                                                                                                    24789022.107 6 129082895.35806     -2689.881 6        39.495                                                                    24789033.417 6 104890539.88106     -2185.622 6        39.919
C29        46.000                                                                                                                                    23066036.971 5 120111168.27005      -475.063 5        34.852                                                                    23066028.480 6  97599920.84706      -386.027 6        39.955
C30        47.000                                                                                                                                    25829347.927 5 134500226.39605     -3279.227 5        30.845
C26        48.000                                                                                                                                    22272813.403 7 115980414.80307       458.702 7        44.527                                                                    22272816.483 7  94243616.74107       372.697 7        45.610
C24        51.000                                                                                                                                    25615700.564 4                      1957.572 4        25.248                                                                    25615662.057 5 108388329.06305      1589.540 5        31.306
C14        53.000                                                                                                                                    24938768.682 5                     -1353.468 5        33.072                                                                    24938722.397 6 105523974.85306     -1099.671 6        40.889
C21        55.000                                                                                                                                    26399657.369 4                     -4086.612 4        24.541                                                                    26399671.313 4                     -3321.350 4        28.502
I06        58.000    38510861.118 6 151124888.88106      -750.888 6        40.627
> 2025 01 02 12 15 15.0000000  0 38
G17         2.000    24427047.218 4 128364819.67404     -4048.400 4        26.683                                    24427039.772 1 100024621.87501     -3154.696 1         2.000    24427021.890 3                     -3155.063 3        22.381
G25         3.000    22602486.733 5 118776867.47505      2204.590 5        33.234                                    22602485.515 3  92553396.39703      1717.868 3        22.019    22602488.157 5  92553411.39805      1717.998 5        33.251
G19         4.000    21749560.275 7 114294718.72507     -2556.480 7        43.782                                    21749557.278 4  89060803.61304     -1992.058 4        28.929
E25         6.000    24923380.423 7 130973241.53507       955.214 7        44.537                                                                    24923384.850 7  97804815.65307       713.409 7        45.952    24923384.333 7 100356141.68907       731.970 7        46.029
G10         7.000    25373085.285 4                     -3003.211 4        29.355
G15         9.000    24639508.812 4                     -4743.134 4        29.024                                                                                                    24639499.912 3                     -3693.418 3        19.642
G24        12.000    20424010.626 7 107329500.75307     -2144.623 7        47.576                                    20424011.811 6  83632940.91506     -1671.133 6        40.582    20424011.851 6  83632914.93306     -1671.017 6        40.074
E31        13.000    26298413.913 5 138199074.64205     -3198.885 5        35.271                                                                    26298422.008 5 103200656.13815     -2388.799 5        34.519
E33        14.000    27049557.846 3                       -82.567 3        19.701                                                                    27049570.923 4                       -59.360 4        24.511    27049572.074 5 108917476.48905       -60.628 5        31.223
G12        15.000    20524385.511 8 107856472.78308       278.708 8        50.269                                    20524384.589 8  84044326.60808       217.174 8        48.440    20524384.898 7  84043932.60907       217.149 7        46.368
E24        16.000    23738395.405 8 124746081.39908     -1353.242 8        48.177                                                                    23738397.175 8  93154608.63708     -1010.557 8        48.902    23738397.189 8  95584754.56508     -1036.838 8        50.355
G32        17.000    23958542.132 7 125902825.37807      1577.373 7        42.942                                    23958546.073 6  98106160.89306      1229.114 6        38.535    23958548.232 6  98106245.93106      1229.300 6        39.495
E05        18.000    23135325.218 7 121576980.40607     -2763.911 7        42.391                                                                    23135328.463 7  90787974.69907     -2063.996 7        45.082    23135329.955 7  93156342.97507     -2117.869 7        43.355
E08        20.000                                                                                                                                    28769032.754 5 112895857.46905      1432.223 5        31.389
E09        21.000    27936429.538 3                     -4120.641 3        20.500                                                                    27936430.851 4                     -3077.716 4        25.910
R14        23.000    19553761.970 8 104232487.89108      -818.151 8        49.865                                                                    19553766.315 8  81069700.82008      -636.330 8        48.018
S23        24.000    38251568.299 6 201013331.76106      -862.511 6        36.132
E03        26.000                                                                                                                                    25139922.021 5  98654506.03905        40.004 5        33.263    25139923.388 7 101228113.21607        41.044 7        42.677
R13        27.000    22249854.011 4                     -3852.865 4        28.815
R04        29.000    21559807.769 7 115451984.94807     -4258.208 7        44.311                                                                    21559813.250 6  89795836.56206     -3311.937 6        41.654
R15        30.000    21717930.602 7 116054241.18107      1913.991 7        42.578                                                                    21717931.620 5  90264396.42005      1488.527 5        30.830
S36        31.000    38313944.152 5 201341234.27405      -858.146 5        34.619
C07        32.000                                                                                                                                    40000193.827 3                     -1758.407 3        21.690    40000204.597 4                     -1359.932 4        28.085
C10        33.000                                                                                                                                    39109111.443 4 203651443.75704     -1484.455 4        27.186    39109117.906 6 157476189.04706     -1147.874 6        40.377    39109112.041 5 165483425.79705     -1206.520 5        30.332
C45        37.000                                                                                                                                    22588136.164 7 117622288.70107     -2439.964 7        43.702                                                                    22588127.139 6  95577764.20506     -1982.791 6        39.024
R24        38.000    21600993.566 7 115510212.84207      2493.704 7        46.998                                                                    21601006.084 6  89841355.57406      1939.584 6        37.890
C33        39.000                                                                                                                                    25831012.583 6 134508863.87606        19.703 6        39.802                                                                    25831019.666 3                        17.242 3        19.881
R22        41.000    24048665.588 5                     -4304.244 5        30.717                                                                    24048686.649 4                     -3348.286 4        26.683
C35        42.000                                                                                                                                    24449475.649 5 127314744.74905      2309.575 5        30.958                                                                    24449455.582 6 103453690.75206      1876.292 6        37.864
R05        44.000    21148318.637 6 113049830.56506      -700.931 6        40.005                                                                    21148312.754 6  87927685.69206      -545.216 6        39.465
C42        45.000                                                                                                                                    24791604.518 6 129096350.33006     -2692.096 6        38.766                                                                    24791617.161 6 104901473.16006     -2187.729 6        39.724
C29        46.000                                                                                                                                    23066485.929 4 120113551.77604      -478.597 4        26.850                                                                    23066486.168 6  97601857.54306      -388.655 6        40.021
C30        47.000                                                                                                                                    25832496.872 5 134516629.82305     -3281.380 5        30.475
C26        48.000                                                                                                                                    22272375.485 7 115978125.05407       457.289 7        46.208                                                                    22272376.750 7  94241756.15407       371.394 7        45.290
C24        51.000                                                                                                                                    25613815.762 3                      1954.223 3        20.500                                                                    25613782.906 4 108380381.43904      1589.018 4        28.891
C14        53.000                                                                                                                                    24940061.522 5                     -1356.377 5        31.796    24940069.400 6 100423258.59306     -1048.656 6        36.454    24940023.226 6 105529479.48706     -1102.237 6        41.092
C21        55.000                                                                                                                                    26403586.539 4                     -4086.959 4        25.865                                                                    26403596.374 4                     -3321.104 4        29.431
I06        58.000    38511818.209 6 151128643.17606      -750.902 6        40.782
> 2025 01 02 12 15 20.0000000  0 38
G17         2.000    24430905.486 4 128385063.68904     -4049.390 4        24.286                                    24430891.999 1 100040396.20801     -3155.383 1         5.714    24430879.443 3                     -3155.110 3        23.657
G25         3.000    22600389.566 5 118765848.40305      2203.056 5        35.195                                    22600389.289 3  92544810.13903      1716.645 3        21.548    22600392.704 5  92544825.14605      1716.431 5        32.449
G19         4.000    21751994.063 7 114307508.71607     -2559.497 7        42.061                                    21751991.697 4  89070769.83804     -1994.407 4        28.540
E25         6.000    24922471.580 7 130968467.53907       954.229 7        43.954                                                                    24922476.371 7  97801250.65907       712.595 7        46.032    24922475.754 7 100352483.70107       731.117 7        46.055
G10         7.000    25375943.394 5                     -3004.856 5        31.426
G15         9.000    24644024.820 4                     -4742.568 4        28.882
G24        12.000    20426052.573 7 107340230.58707     -2147.464 7        47.246                                    20426054.189 6  83641301.82206     -1673.348 6        41.483    20426053.503 6  83641275.85206     -1673.342 6        40.646
E31        13.000    26301458.141 5 138215069.22205     -3199.278 5        35.081                                                                    26301463.362 5 103212600.12105     -2388.907 5        35.705
E33        14.000                                                                                                                                    27049647.191 4                       -61.249 4        24.015    27049646.496 5 108917784.25505       -62.492 5        31.351
G12        15.000    20524121.285 8 107855084.97708       276.333 8        50.708                                    20524120.526 8  84043245.20608       215.322 8        48.683    20524120.542 7  84042851.21207       215.382 7        46.279
E24        16.000    23739683.359 8 124752850.72308     -1354.570 8        48.498                                                                    23739685.415 8  93159663.64108     -1011.523 8        49.038    23739685.266 8  95589941.45008     -1037.978 8        50.665
G32        17.000    23957042.246 7 125894944.62307      1574.908 7        42.201                                    23957046.076 6  98100020.05006      1227.202 6        37.905    23957048.185 6  98100105.07806      1227.123 6        39.150
E05        18.000    23137956.793 7 121590805.09807     -2766.007 7        43.319                                                                    23137959.096 7  90798298.29307     -2065.590 7        45.236    23137961.324 7  93166935.89207     -2119.452 7        43.585
E08        20.000                                                                                                                                    28767207.112 5 112888697.28805      1431.860 5        30.347
E09        21.000    27940346.796 3                     -4120.354 3        22.019                                                                    27940352.070 4                     -3077.121 4        25.474
R14        23.000    19554530.323 8 104236583.70808      -820.272 8        49.984                                                                    19554534.151 7  81072886.46707      -638.026 7        47.517
S23        24.000    38252381.339 5 201017644.74605      -862.810 5        34.890
R23        25.000    21358283.547 4                     -1605.649 4        29.469
E03        26.000                                                                                                                                    25139872.227 5  98654310.37005        38.140 5        34.795    25139873.259 7 101227912.44307        39.254 7        42.396
R13        27.000    22253459.583 4                     -3853.379 4        29.289
R04        29.000    21563784.352 7 115473283.22307     -4261.101 7        44.489                                                                    21563790.506 6  89812401.86706     -3314.279 6        41.988
R15        30.000    21716138.924 6 116044673.76906      1912.969 6        41.864                                                                    21716143.806 5  90256955.04305      1488.144 5        31.909
S36        31.000    38314757.679 5 201345526.18505      -858.555 5        33.844
C10        33.000                                                                                                                                    39110536.722 4 203658866.45304     -1484.454 4        25.338    39110543.043 6 157481928.80006     -1148.152 6        40.207    39110537.881 5 165489457.40105     -1206.409 5        30.038
C45        37.000                                                                                                                                    22590478.802 7 117634492.16207     -2441.415 7        44.745                                                                    22590472.137 6  95587680.48206     -1983.704 6        40.520
R24        38.000    21598663.068 7 115497751.12207      2490.875 7        47.482                                                                    21598677.017 6  89831663.14406      1937.378 6        37.633
C33        39.000                                                                                                                                    25830994.495 6 134508772.09006        16.969 6        39.435                                                                    25830998.153 3                        16.459 3        19.075
R22        41.000    24052706.446 5                     -4306.766 5        32.024                                                                    24052717.486 4                     -3349.625 4        27.329
C35        42.000                                                                                                                                    24447256.738 5 127303200.75905      2308.144 5        33.251                                                                    24447238.652 6 103444310.40706      1875.489 6        38.655
R05        44.000    21148972.535 6 113053346.51806      -705.665 6        39.084                                                                    21148969.866 6  87930420.31906      -548.729 6        39.078
C42        45.000                                                                                                                                    24794186.138 6 129109816.53606     -2694.367 6        37.667                                                                    24794202.840 6 104912415.51706     -2189.443 6        39.583
C29        46.000                                                                                                                                                                                                                                                                    23066947.040 6  97603806.13806      -390.843 6        39.919
C30        47.000                                                                                                                                    25835657.321 5 134533042.67705     -3283.277 5        30.302
C26        48.000                                                                                                                                    22271937.590 7 115975842.26407       455.782 7        46.611                                                                    22271938.186 7  94239901.17807       370.478 7        44.870
C24        51.000                                                                                                                                                                                                                                                                    25611903.073 4 108372434.79604      1589.596 4        27.988
C14        53.000                                                                                                                                                                                                    24941374.971 5 100428507.99105     -1051.014 5        34.957    24941327.371 6 105534995.77906     -1104.413 6        41.302
C21        55.000                                                                                                                                    26407517.650 4                     -4087.379 4        27.748                                                                    26407521.515 5                     -3321.659 5        30.038
I06        58.000    38512775.156 6 151132397.73006      -750.996 6        40.651
> 2025 01 02 12 15 25.0000000  0 38
G17         2.000    24434757.272 4 128405312.81504     -4049.757 4        25.248                                    24434745.241 1 100056174.84601     -3155.660 1         5.429
G25         3.000    22598292.860 5 118754834.79205      2202.059 5        33.245                                    22598293.981 3  92536228.12803      1715.877 3        20.905    22598298.444 5  92536243.16105      1715.919 5        33.689
G19         4.000    21754430.099 6 114320312.86806     -2562.246 6        39.667                                    21754429.066 4  89080747.10404     -1996.556 4        27.593
E25         6.000    24921563.876 7 130963698.18207       953.224 7        43.208                                                                    24921568.661 7  97797689.12807       711.875 7        46.005    24921568.304 7 100348829.25407       730.465 7        45.922
G10         7.000    25378796.817 5                     -3006.488 5        31.691
G15         9.000    24648540.286 5                     -4742.841 5        30.445
G24        12.000    20428097.045 7 107350973.86207     -2150.104 7        47.473                                    20428098.937 6  83649673.20106     -1675.400 6        41.971    20428098.189 6  83649647.21406     -1675.377 6        41.254
E31        13.000    26304501.381 5 138231065.10405     -3199.403 5        34.386                                                                    26304507.208 6 103224545.08606     -2389.328 6        36.287
E33        14.000    27049735.302 3                       -84.036 3        20.357                                                                    27049724.264 3                       -63.714 3        22.019    27049724.949 5 108918101.04105       -64.358 5        31.502
G12        15.000    20523859.343 8 107853708.34308       274.123 8        50.593                                    20523858.467 8  84042172.50908       213.597 8        48.484    20523858.212 7  84041778.52507       213.471 7        45.994
E24        16.000    23740972.260 8 124759625.96708     -1355.768 8        48.446                                                                    23740974.680 8  93164723.06408     -1012.386 8        49.236    23740974.437 8  95595132.85608     -1038.803 8        50.568
G32        17.000    23955543.434 6 125887075.05206      1572.755 6        40.131                                    23955548.297 6  98093887.92406      1225.523 6        37.051    23955550.236 6  98093972.94906      1225.571 6        39.862
E05        18.000    23140591.560 7 121604639.20807     -2767.866 7        43.568                                                                    23140591.579 7  90808628.92807     -2066.881 7        45.386    23140593.913 7  93177536.03607     -2120.836 7        43.716
E08        20.000                                                                                                                                    28765382.573 5 112881540.12805      1431.177 5        30.340
E09        21.000    27944270.694 3                     -4120.937 3        21.881                                                                    27944273.866 4                     -3078.069 4        24.977
R14        23.000    19555300.397 8 104240689.56208      -822.291 8        49.874                                                                    19555303.955 7  81076079.92007      -639.638 7        46.452
S23        24.000    38253214.295 6 201021957.51506      -862.511 6        36.178
R23        25.000    21359788.395 5                     -1610.403 5        33.754
E03        26.000    25139815.384 5 132110687.67605        49.099 5        35.252                                                                    25139824.481 5  98654123.00905        36.512 5        35.457    25139825.493 7 101227720.22007        37.506 7        42.554
R13        27.000    22257066.908 5                     -3854.274 5        32.395
R04        29.000    21567764.958 7 115494595.02807     -4263.815 7        43.009                                                                    21567769.944 6  89828977.68206     -3316.302 6        41.824
R15        30.000    21714351.021 7 116035110.73407      1911.994 7        42.345                                                                    21714356.448 5  90249517.13505      1487.308 5        34.457
S36        31.000    38315583.954 5 201349818.12105      -858.592 5        34.010
C10        33.000                                                                                                                                    39111960.339 4 203666290.14404     -1484.516 4        25.308    39111968.474 6 157487669.26206     -1148.284 6        40.167    39111963.413 5 165495489.73605     -1206.451 5        30.279
C45        37.000                                                                                                                                    22592821.978 7 117646701.79507     -2442.693 7        46.137                                                                    22592816.398 6  95597601.79806     -1984.820 6        41.085
R24        38.000    21596333.476 7 115485302.83307      2488.229 7        46.663                                                                    21596346.507 6  89821981.19506      1935.347 6        37.021
C33        39.000                                                                                                                                    25830980.991 6 134508693.93606        14.255 6        40.391
R22        41.000    24056745.224 5 128416539.66015     -4309.705 5        34.781                                                                    24056752.714 4                     -3351.468 4        27.713
C35        42.000                                                                                                                                    24445032.880 5 127291661.61205      2307.271 5        33.437                                                                    24445022.502 6 103434933.97706      1874.957 6        38.772
R05        44.000    21149631.996 6 113056885.77606      -710.431 6        41.752                                                                    21149631.773 6  87933173.08506      -552.527 6        40.210
C42        45.000                                                                                                                                    24796772.534 6 129123293.37106     -2696.879 6        36.620                                                                    24796790.988 6 104923366.51606     -2191.059 6        39.276
C29        46.000                                                                                                                                    23067396.080 5                      -484.007 5        30.287                                                                    23067410.527 6  97605766.23406      -393.121 6        39.033
C30        47.000                                                                                                                                    25838818.902 4 134549464.49904     -3285.370 4        28.085
C26        48.000                                                                                                                                    22271499.617 7 115973565.83707       454.513 7        46.782                                                                    22271500.679 7  94238051.38207       369.530 7        44.242
C24        51.000                                                                                                                                    25610014.150 3                      1956.479 3        23.657                                                                    25610023.138 4 108364488.69304      1588.665 4        25.128
C14        53.000                                                                                                                                    24942653.918 3                     -1361.797 3        21.405    24942687.082 5 100433768.06605     -1053.162 5        35.276    24942634.031 6 105540523.26406     -1106.612 6        41.452
C21        55.000                                                                                                                                    26411450.022 4                     -4087.676 4        27.653                                                                    26411446.406 5                     -3321.822 5        30.234
I06        58.000    38513731.627 6 151136152.06606      -750.920 6        40.572
> 2025 01 02 12 15 30.0000000  0 38
G17         2.000    24438606.917 4 128425568.56904     -4051.823 4        27.162                                    24438599.681 1 100071958.47001     -3157.199 1         3.200
G25         3.000    22596196.001 5 118743828.19905      2200.323 5        32.371                                    22596200.242 3  92527651.61403      1714.521 3        20.548    22596203.869 5  92527666.62505      1714.554 5        35.133
G19         4.000    21756868.821 6 114333132.68806     -2565.810 6        36.643                                    21756869.544 4  89090736.55704     -1999.340 4        26.946
E25         6.000    24920658.075 7 130958934.88707       951.760 7        43.128                                                                    24920662.204 7  97794132.13407       710.747 7        46.035    24920661.890 7 100345179.46507       729.230 7        46.213
G10         7.000    25381659.854 5                     -3008.561 5        31.313
G15         9.000    24653055.078 5                     -4743.356 5        30.808
