     3.04           OBSERVATION DATA    M                   RINEX VERSION / TYPE
ssrcrin-15.6.1x                         20250102 090000 UTC PGM / RUN BY / DATE 
(00000000023479385599111004) Septentrio proprietary         COMMENT             
ract                                                        MARKER NAME         
01                                                          MARKER NUMBER       
geodetic                                                    MARKER TYPE         
NFB                 CLIMERS@TUW                             OBSERVER / AGENCY   
3296359             SEPT ASTERX SB3 PROB4.14.4              REC # / TYPE / VERS 
Unknown             Unknown                                 ANT # / TYPE        
  4127445.5208  1206915.7047  4695541.8225                  APPROX POSITION XYZ 
        0.0000        0.0000        0.0000                  ANTENNA: DELTA H/E/N
G   23 X1  C1C L1C D1C S1C C1W S1W C2W L2W D2W S2W C2L L2L  SYS / # / OBS TYPES 
       D2L S2L C5Q L5Q D5Q S5Q C1L L1L D1L S1L              SYS / # / OBS TYPES 
E   21 X1  C1C L1C D1C S1C C6C L6C D6C S6C C5Q L5Q D5Q S5Q  SYS / # / OBS TYPES 
       C7Q L7Q D7Q S7Q C8Q L8Q D8Q S8Q                      SYS / # / OBS TYPES 
S    9 X1  C1C L1C D1C S1C C5I L5I D5I S5I                  SYS / # / OBS TYPES 
R   17 X1  C1C L1C D1C S1C C2P L2P D2P S2P C2C L2C D2C S2C  SYS / # / OBS TYPES 
       C3Q L3Q D3Q S3Q                                      SYS / # / OBS TYPES 
C   25 X1  C1P L1P D1P S1P C5P L5P D5P S5P C2I L2I D2I S2I  SYS / # / OBS TYPES 
       C7I L7I D7I S7I C6I L6I D6I S6I C7D L7D D7D S7D      SYS / # / OBS TYPES 
J   17 X1  C1C L1C D1C S1C C2L L2L D2L S2L C5Q L5Q D5Q S5Q  SYS / # / OBS TYPES 
       C1L L1L D1L S1L                                      SYS / # / OBS TYPES 
I    5 X1  C5A L5A D5A S5A                                  SYS / # / OBS TYPES 
SEPTENTRIO RECEIVERS OUTPUT ALIGNED CARRIER PHASES.         COMMENT             
NO FURTHER PHASE SHIFT APPLIED IN THE RINEX ENCODER.        COMMENT             
G L1C                                                       SYS / PHASE SHIFT   
G L2W                                                       SYS / PHASE SHIFT   
G L2L  0.00000                                              SYS / PHASE SHIFT   
G L5Q  0.00000                                              SYS / PHASE SHIFT   
G L1L  0.00000                                              SYS / PHASE SHIFT   
E L1C  0.00000                                              SYS / PHASE SHIFT   
E L6C  0.00000                                              SYS / PHASE SHIFT   
E L5Q  0.00000                                              SYS / PHASE SHIFT   
E L7Q  0.00000                                              SYS / PHASE SHIFT   
E L8Q  0.00000                                              SYS / PHASE SHIFT   
S L1C                                                       SYS / PHASE SHIFT   
S L5I                                                       SYS / PHASE SHIFT   
R L1C                                                       SYS / PHASE SHIFT   
R L2P  0.00000                                              SYS / PHASE SHIFT   
R L2C                                                       SYS / PHASE SHIFT   
R L3Q  0.00000                                              SYS / PHASE SHIFT   
C L1P  0.00000                                              SYS / PHASE SHIFT   
C L5P  0.00000                                              SYS / PHASE SHIFT   
C L2I                                                       SYS / PHASE SHIFT   
C L7I                                                       SYS / PHASE SHIFT   
C L6I                                                       SYS / PHASE SHIFT   
C L7D                                                       SYS / PHASE SHIFT   
J L1C                                                       SYS / PHASE SHIFT   
J L2L  0.00000                                              SYS / PHASE SHIFT   
J L5Q  0.00000                                              SYS / PHASE SHIFT   
J L1L  0.00000                                              SYS / PHASE SHIFT   
I L5A                                                       SYS / PHASE SHIFT   
  2025     1     2     9     0    0.0000000     GPS         TIME OF FIRST OBS   
 C1C    0.000 C2C    0.000 C2P    0.000                     GLONASS COD/PHS/BIS 
DBHZ                                                        SIGNAL STRENGTH UNIT
    18                                                      LEAP SECONDS        
 24 R01  1 R02 -4 R03  5 R04  6 R05  1 R06 -4 R07  5 R08  6 GLONASS SLOT / FRQ #
    R09 -2 R10 -7 R11  0 R12 -1 R13 -2 R14 -7 R15  0 R16 -1 GLONASS SLOT / FRQ #
    R17  4 R18 -3 R19  3 R20  2 R21  4 R22 -3 R23  3 R24  2 GLONASS SLOT / FRQ #
                                                            END OF HEADER       
> 2025 01 02 09 00  0.0000000  0 36
G13         1.000    19837048.653 8 104244562.39608     -1125.608 8        49.295                                    19837045.505 6  81229398.69506      -877.098 6        38.577
G17         2.000    23395039.353 5 122941875.28305      1767.959 5        32.449                                    23395036.883 1  95798763.72401      1377.594 1         6.500
G30         6.000    22490088.223 7 118186176.56707     -3376.068 7        42.292                                    22490090.729 5  92093098.46005     -2630.700 5        30.679    22490089.129 5  92093117.42905     -2630.496 5        34.362
G14         8.000    20634132.018 6 108432719.79706     -1761.835 6        36.299                                    20634127.057 3  84493278.68103     -1372.857 3        19.075    20634127.910 6  84493324.71006     -1372.702 6        39.465
G15         9.000    20623085.607 6 108375214.03806       891.591 6        38.087                                    20623080.008 3  84448170.75103       694.749 3        23.086    20623084.708 5  84448178.71705       694.842 5        32.952
G23        10.000    23886793.366 7 125525943.20007      1436.969 7        42.925                                    23886796.784 3  97812407.35603      1119.705 3        19.075    23886793.643 6  97812413.38206      1119.815 6        37.705
E06        11.000    23696107.489 6 124523849.18106     -2137.425 6        37.440                                                                    23696108.381 7  92988618.39807     -1596.189 7        46.149    23696108.697 8  95414346.17908     -1637.783 8        48.266
G24        12.000    23633625.397 5 124195572.47705      2485.794 5        33.210                                    23633653.713 2  96775831.49702      1936.997 2        13.515    23633681.240 5                      1936.984 5        33.820
E31        13.000    23493404.186 7 123458650.24807      -100.826 7        42.667                                                                    23493407.358 7  92193206.82707       -75.336 7        43.300    23493407.213 7  94598220.92907       -77.218 7        44.757
G05        14.000    22976945.142 4 120744598.83204     -4075.277 4        26.946                                    22976956.905 1  94086788.14301     -3175.758 1         2.600    22976935.638 3                     -3176.233 3        23.943
E24        16.000    26413273.531 6 138802736.99306      2048.138 6        38.733                                                                    26413276.065 6 103651399.23506      1529.472 6        39.159    26413275.294 6 106355332.55506      1569.450 6        41.533
E04        17.000    25284346.837 5 132870176.96705     -3142.751 5        32.222                                                                    25284353.303 7  99221256.07707     -2347.078 7        42.895    25284351.815 6 101809582.71006     -2408.177 6        41.688
E05        18.000    24165330.123 6 126989757.19506      1482.983 6        41.266                                                                    24165334.110 7  94830102.47507      1107.432 7        42.980    24165332.944 6  97303917.21406      1136.326 6        39.883
E15        19.000                                                                                                                                    28413860.633 5                      -833.551 5        31.525    28413860.741 4                      -855.322 4        29.934
E09        21.000    23413589.260 7 123039356.55507      -869.039 7        46.017                                                                    23413592.007 8  91879921.08908      -648.993 8        50.412    23413591.272 8  94276849.42708      -665.931 8        49.283
E34        22.000    28600897.329 4 150298689.35004     -3022.697 4        25.203                                                                    28600889.549 4 112236058.37504     -2257.553 4        29.630    28600896.941 5 115163938.19705     -2316.350 5        33.407
S23        24.000    38135327.161 6 200402430.44906      -855.063 6        38.336
S36        25.000    38202700.668 5 200756542.22405      -854.727 5        33.599
R13        27.000    19789774.340 7 105676294.06707       999.144 7        46.355
R11        28.000    23722008.910 3                     -4858.577 3        18.746
R04        29.000    23907789.566 6 128025012.61606      3434.010 6        36.389                                                                    23907802.057 5  99575198.91105      2670.706 5        33.168
R20        31.000                                                                                                                                    23715032.070 4                     -1185.437 4        28.711
C07        32.000                                                                                                                                    38834072.822 5 202219214.17705      -603.924 5        30.113    38834080.562 6 156368700.11006      -466.590 6        39.760    38834081.889 6 164319670.21706      -490.228 6        37.584
C10        33.000                                                                                                                                    38738360.642 6 201720860.27006      -227.846 6        38.691    38738365.612 7 155983417.38607      -176.234 7        42.578    38738360.686 6 163914689.56606      -185.028 6        39.444
C36        34.000                                                                                                                                    21572924.575 7 112335867.96407     -1603.504 7        43.192                                                                    21572930.107 7  91282198.19307     -1302.835 7        45.532
R02        35.000    19574420.218 7 104452766.24607     -2832.494 7        47.113                                                                    19574422.948 7  81241230.82807     -2203.146 7        42.980
R03        36.000    20051309.580 8 107336309.04008      1475.250 8        52.415                                                                    20051310.549 7  83483720.27607      1147.381 7        46.669
C45        37.000                                                                                                                                    22754404.366 8 118488120.18308      1141.744 8        48.424                                                                    22754395.187 6  96281326.64706       927.953 6        36.363
R12        38.000    19492608.611 7 104125907.82507     -2525.235 7        44.560                                                                    19492612.143 6  80987222.90406     -1963.998 6        39.162
C40        40.000                                                                                                                                    38832099.533 5 202208894.49805      -622.731 5        34.148                                                                    38832095.878 5 164311310.03005      -506.048 5        32.078
R01        44.000    23118559.224 4                     -5256.808 4        26.371
C42        45.000                                                                                                                                    27181738.224 4                      2407.954 4        25.835
C19        48.000                                                                                                                                                                                                                                                                    25652127.880 5                     -3523.427 5        30.528
C22        51.000                                                                                                                                    22117591.686 7 115172083.06007     -2432.593 7        46.928                                                                    22117588.193 7  93586705.88507     -1976.537 7        45.877
C21        55.000                                                                                                                                    23354906.938 6 121615185.24706       811.571 6        39.889                                                                    23354897.795 5  98822189.71505       659.293 5        33.665
I02        59.000    37354387.075 4 146586659.57404      -210.654 4        27.042
> 2025 01 02 09 00  5.0000000  0 36
G13         1.000    19838121.448 8 104250198.40408     -1128.665 8        49.850                                    19838118.046 6  81233790.38606      -879.479 6        38.562
G17         2.000    23393365.723 5 122933040.34605      1766.213 5        34.505                                    23393359.001 1  95791879.38501      1376.111 1         4.429
G30         6.000    22493301.794 6 118203060.92806     -3377.487 6        41.502                                    22493302.977 5  92106255.07105     -2631.805 5        30.332    22493302.095 5  92106274.05805     -2631.669 5        32.820
G14         8.000    20635809.441 6 108441536.61706     -1764.943 6        36.847                                    20635805.275 3  84500148.94203     -1375.267 3        18.985    20635806.388 6  84500194.97906     -1375.246 6        40.818
G15         9.000    20622239.384 6 108370764.55606       888.539 6        39.009                                    20622234.254 4  84444703.62704       692.358 4        24.120    20622238.515 5  84444711.61505       692.169 5        31.562
G23        10.000    23885427.385 7 125518765.83407      1433.954 7        43.742                                    23885430.891 3  97806814.60003      1117.362 3        19.522    23885428.113 6  97806820.64406      1117.593 6        37.255
E06        11.000    23698142.797 6 124534541.78806     -2139.418 6        40.179                                                                    23698143.354 7  92996603.13607     -1597.649 7        46.549    23698143.388 8  95422539.22508     -1639.366 8        48.248
G24        12.000    23631261.766 5 124183145.98705      2484.675 5        33.036                                    23631289.633 2  96766148.48202      1936.108 2        13.758    23631318.435 5  96766308.50715      1936.322 5        34.248
E31        13.000    23493501.494 7 123459161.11907      -103.398 7        42.222                                                                    23493504.678 7  92193588.30907       -77.155 7        43.488    23493504.144 7  94598612.34707       -79.116 7        44.476
G05        14.000    22980819.141 4 120764977.56304     -4076.640 4        28.910                                                                                                    22980814.404 4                     -3176.438 4        24.301
E24        16.000    26411324.210 6 138792499.64606      2047.006 6        39.429                                                                    26411328.463 6 103643754.49006      1528.502 6        40.000    26411326.907 6 106347488.37406      1568.486 6        41.056
E04        17.000    25287336.794 5 132885896.14705     -3144.504 5        32.581                                                                    25287344.664 7  99232994.41507     -2348.180 7        43.401    25287343.056 6 101821627.26406     -2409.339 6        41.816
E05        18.000    24163919.857 6 126982345.76306      1481.777 6        41.719                                                                    24163923.576 7  94824567.97607      1106.477 7        42.696    24163922.667 6  97298238.33906      1135.295 6        39.952
E15        19.000                                                                                                                                    28414921.431 5                      -835.336 5        31.472    28414923.507 4                      -857.073 4        29.469
E09        21.000    23414417.628 7 123043707.64507      -871.172 7        46.398                                                                    23414419.980 8  91883170.26908      -650.552 8        50.479    23414419.110 8  94280183.36908      -667.538 8        49.270
E34        22.000    28603769.520 4 150313809.95104     -3024.634 4        25.308                                                                    28603767.021 4 112247349.72504     -2258.896 4        29.327    28603774.582 5 115175524.07005     -2317.757 5        33.353
S23        24.000    38136132.862 6 200406706.25506      -855.504 6        37.981
S36        25.000    38203518.810 5 200760817.63505      -855.108 5        34.133
R13        27.000    19788840.640 7 105671307.26507       995.711 7        46.644
R11        28.000    23726546.284 3                     -4849.132 3        18.687
R04        29.000    23904584.183 6 128007845.38406      3433.275 6        36.960                                                                    23904589.822 5  99561846.62005      2670.354 5        32.521
R20        31.000                                                                                                                                    23716449.928 3                     -1188.339 3        21.643
C07        32.000                                                                                                                                    38834652.749 5 202222234.50505      -604.591 5        30.309    38834659.533 6 156371035.66006      -467.485 6        39.249    38834662.092 6 164322124.53406      -491.132 6        37.051
C10        33.000                                                                                                                                    38738580.514 6 201722002.85106      -229.119 6        39.213    38738584.798 7 155984300.90507      -177.043 7        42.459    38738580.157 6 163915618.00806      -185.976 6        39.249
C36        34.000                                                                                                                                    21574466.036 7 112343891.49607     -1605.689 7        43.829                                                                    21574471.033 7  91288717.94807     -1304.714 7        45.526
R02        35.000    19577076.092 7 104466940.06107     -2836.853 7        47.058                                                                    19577078.894 7  81252254.88607     -2206.336 7        43.031
R03        36.000    20049932.411 8 107328942.30608      1471.609 8        51.957                                                                    20049933.836 7  83477990.58307      1144.628 7        46.487
C45        37.000                                                                                                                                    22753308.625 7 118482416.89107      1139.762 7        47.615                                                                    22753299.933 6  96276692.24906       926.233 6        36.718
R12        38.000    19494974.296 7 104138542.32907     -2528.420 7        43.769                                                                    19494977.276 6  80997049.71906     -1966.558 6        41.006
C40        40.000                                                                                                                                    38832698.974 5 202212011.18505      -624.170 5        34.619                                                                    38832693.682 5 164313842.58605      -507.149 5        31.736
R01        44.000    23123483.040 3                     -5258.853 3        23.924
C42        45.000                                                                                                                                    27179424.119 3                      2406.473 3        23.010
C19        48.000                                                                                                                                    25656340.974 4                     -4337.101 4        24.707                                                                    25656291.556 5                     -3524.064 5        31.592
C22        51.000                                                                                                                                    22119928.861 7 115184253.31507     -2435.470 7        47.406                                                                    22119925.205 7  93596595.20407     -1978.850 7        45.627
C21        55.000                                                                                                                                    23354131.289 6 121611135.39406       808.537 6        37.845                                                                    23354119.991 5  98818898.85705       657.073 5        33.551
I02        59.000    37354656.298 4 146587714.43404      -210.937 4        26.467
> 2025 01 02 09 00 10.0000000  0 34
G13         1.000    19839196.603 8 104255847.94208     -1131.403 8        50.587                                    19839193.042 6  81238192.62106      -881.613 6        38.580
G17         2.000    23391693.184 5 122924212.77805      1764.785 5        34.490                                    23391681.418 1  95785000.84201      1375.228 1         5.571
G30         6.000    22496515.962 6 118219949.89306     -3378.357 6        41.418                                    22496516.164 5  92119415.26805     -2632.479 5        30.392    22496517.763 5  92119434.26305     -2632.332 5        31.162
G14         8.000    20637487.893 6 108450367.47806     -1767.782 6        38.456                                    20637486.444 3  84507030.16403     -1377.515 3        19.134    20637487.507 6  84507076.18506     -1377.365 6        41.959
G15         9.000    20621396.445 6 108366329.21506       885.602 6        39.279                                    20621390.888 4  84441247.51704       690.076 4        24.842    20621393.607 4  84441255.50704       689.725 4        29.981
G23        10.000    23884064.587 7 125511601.25607      1431.526 7        44.570                                    23884067.345 3  97801231.83903      1115.475 3        19.552    23884063.783 6  97801237.88806      1115.513 6        36.181
E06        11.000    23700179.885 6 124545242.29406     -2141.081 6        41.135                                                                    23700179.706 7  93004593.77107     -1598.860 7        46.795    23700179.504 7  95430738.30607     -1640.493 7        47.908
G24        12.000    23628898.580 5 124170722.73505      2484.376 5        31.057                                    23628925.755 2  96756468.04702      1935.874 2        15.857    23628943.740 5  96756628.03205      1935.754 5        35.310
E31        13.000    23493600.455 7 123459682.59407      -105.555 7        42.070                                                                    23493603.801 7  92193977.70307       -78.828 7        43.435    23493603.135 7  94599011.89107       -80.810 7        44.123
G05        14.000    22984697.424 4 120785363.76204     -4078.052 4        28.919                                                                                                    22984689.575 3                     -3177.526 3        21.429
E24        16.000    26409376.183 6 138782266.66806      2045.949 6        39.234                                                                    26409381.600 6 103636112.97706      1527.887 6        40.591    26409379.112 6 106339647.53006      1567.603 6        40.169
E04        17.000    25290331.023 5 132901620.91205     -3145.884 5        32.886                                                                    25290337.257 7  99244736.88607     -2349.110 7        43.951    25290335.242 6 101833676.05106     -2410.253 6        41.695
E05        18.000    24162510.014 6 126974937.62006      1481.096 6        41.237                                                                    24162513.638 7  94819035.91907      1106.139 7        42.595    24162513.296 6  97292561.96406      1134.910 6        40.040
E15        19.000                                                                                                                                    28415984.846 5                      -837.263 5        31.155    28415987.986 4                      -858.881 4        29.441
E09        21.000    23415247.322 7 123048067.19807      -872.911 7        46.695                                                                    23415249.573 8  91886425.77308      -651.852 8        50.303    23415248.708 8  94283523.79808      -668.860 8        48.943
E34        22.000    28606649.514 3                     -3026.698 3        21.595                                                                    28606648.033 4 112258645.86004     -2259.524 4        29.318    28606653.781 5 115187114.89105     -2318.690 5        32.862
S23        24.000    38136949.599 6 200410981.84006      -855.258 6        38.084
S36        25.000    38204329.649 5 200765093.11305      -855.225 5        34.314
R13        27.000    19787909.215 7 105666335.33507       992.699 7        46.739
R04        29.000    23901381.028 6 127990679.67906      3433.313 6        37.293
C07        32.000                                                                                                                                    38835233.520 5 202225258.59905      -605.175 5        30.362    38835238.882 6 156373374.04306      -467.984 6        39.135    38835242.812 6 164324581.86306      -492.110 6        37.153
C10        33.000                                                                                                                                    38738801.332 6 201723148.83706      -229.819 6        40.100    38738804.805 7 155985187.08507      -177.584 7        42.563    38738800.326 6 163916549.25706      -186.726 6        39.520
C36        34.000                                                                                                                                    21576009.064 7 112351923.89507     -1607.434 7        44.430                                                                    21576013.561 7  91295244.92807     -1306.316 7        45.670
R02        35.000    19579735.704 7 104481132.94207     -2840.579 7        46.846                                                                    19579739.783 7  81263293.76107     -2209.315 7        43.939
R03        36.000    20048558.806 8 107321591.92008      1468.266 8        51.864                                                                    20048560.733 7  83472273.63407      1142.002 7        46.695
C45        37.000                                                                                                                                    22752214.314 7 118476721.18507      1138.195 7        46.533                                                                    22752206.339 6  96272064.05506       924.699 6        36.836
R12        38.000    19497343.587 7 104151190.62207     -2531.146 7        43.477                                                                    19497345.332 6  81006887.26306     -1968.544 6        41.549
C40        40.000                                                                                                                                    38833298.983 5 202215132.60905      -624.723 5        35.371                                                                    38833293.741 5 164316378.98905      -507.568 5        31.230
R01        44.000    23128393.726 3                     -5259.682 3        22.305
C42        45.000                                                                                                                                    27177117.499 4                      2406.344 4        24.541
C19        48.000                                                                                                                                                                                                                                                                    25660456.738 5                     -3524.354 5        31.366
C22        51.000                                                                                                                                    22122268.890 8 115196436.08208     -2437.974 8        48.040                                                                    22122264.749 7  93606494.72507     -1981.089 7        45.571
C21        55.000                                                                                                                                    23353357.151 5 121607097.06405       806.299 5        34.238                                                                    23353344.828 5  98815617.40705       655.193 5        33.808
I02        59.000    37354925.365 4 146588770.34704      -211.251 4        25.684
> 2025 01 02 09 00 15.0000000  0 33
G13         1.000    19840274.241 8 104261511.50908     -1134.208 8        50.948                                    19840270.614 6  81242605.79006      -883.801 6        38.372
G17         2.000    23390016.869 5 122915393.05205      1763.123 5        33.126                                    23390002.950 1  95778128.16701      1373.943 1         1.556
G30         6.000    22499731.582 6 118236843.91106     -3379.424 6        40.720                                    22499730.657 5  92132579.41005     -2633.312 5        30.423    22499733.537 5  92132598.40105     -2633.245 5        32.006
G14         8.000    20639173.424 6 108459212.88006     -1770.679 6        39.622                                    20639170.055 3  84513922.70003     -1379.747 3        19.373    20639170.422 6  84513968.70506     -1379.691 6        41.952
G15         9.000    20620555.302 6 108361908.53306       882.613 6        40.005                                    20620550.151 4  84437802.84304       687.761 4        25.113
G23        10.000    23882703.870 7 125504449.96307      1428.852 7        45.077                                    23882705.727 3  97795659.39703      1113.418 3        18.776    23882701.049 5  97795665.43705      1113.438 5        33.689
E06        11.000    23702217.489 6 124555951.19406     -2142.727 6        40.896                                                                    23702217.652 7  93012590.65407     -1600.126 7        47.266    23702217.351 7  95438943.81107     -1641.804 7        47.650
G24        12.000    23626535.572 5 124158303.27105      2483.573 5        30.845                                    23626562.189 2  96746790.49402      1935.233 2        15.429
E31        13.000    23493702.140 7 123460215.15407      -107.665 7        42.610                                                                    23493704.991 7  92194375.36507       -80.411 7        43.539    23493704.115 7  94599419.92707       -82.568 7        43.710
G05        14.000    22988580.514 5 120805757.97505     -4079.818 5        32.102                                                                                                    22988570.134 3                     -3182.691 3        19.881
E24        16.000    26407430.707 6 138772038.50706      2045.073 6        39.297                                                                    26407435.426 6 103628475.06806      1527.316 6        41.044    26407432.212 6 106331810.38506      1566.844 6        39.489
E04        17.000    25293326.397 5 132917351.60805     -3146.960 5        34.633                                                                    25293330.919 7  99256483.80707     -2349.900 7        44.114    25293328.694 6 101845729.41006     -2411.190 6        41.478
E05        18.000    24161100.810 6 126967533.25306      1480.405 6        40.548                                                                    24161104.655 7  94813506.70407      1105.499 7        42.550    24161104.291 6  97286888.50506      1134.300 6        40.112
E15        19.000                                                                                                                                    28417051.515 5                      -839.053 5        32.257    28417055.443 4                      -861.068 4        29.953
E09        21.000    23416078.574 7 123052435.70407      -874.691 7        47.070                                                                    23416080.852 8  91889687.95708      -653.167 8        50.229    23416080.056 8  94286871.08408      -670.181 8        48.926
E34        22.000    28609531.752 3                     -3027.944 3        21.667                                                                    28609530.343 5 112269947.21205     -2260.998 5        30.045    28609535.108 5 115198711.07805     -2320.146 5        32.748
S23        24.000    38137764.816 6 200415257.55106      -855.245 6        37.890
S36        25.000    38205146.141 5 200769368.52405      -855.448 5        34.648
R13        27.000    19786981.258 7 105661378.90107       989.750 7        46.843
R04        29.000    23898177.575 6 127973516.14506      3432.405 6        36.922
C07        32.000                                                                                                                                    38835816.162 5 202228286.87705      -606.069 5        30.370    38835818.267 6 156375715.70606      -468.770 6        38.979    38835824.824 6 164327042.57906      -492.517 6        37.006
C10        33.000                                                                                                                                    38739023.523 6 201724298.75706      -230.509 6        40.694    38739025.857 7 155986076.28607      -178.246 7        42.303    38739021.144 6 163917483.67006      -187.240 6        39.450
C36        34.000                                                                                                                                    21577554.156 7 112359965.64907     -1609.452 7        44.719                                                                    21577557.917 7  91301779.50207     -1307.787 7        45.905
R02        35.000    19582399.319 7 104495345.28807     -2844.530 7        47.371                                                                    19582403.240 7  81274347.78207     -2212.355 7        44.835
R03        36.000    20047190.056 8 107314258.28808      1464.945 8        52.568                                                                    20047190.980 7  83466569.68007      1139.367 7        46.691
C45        37.000                                                                                                                                    22751121.718 7 118471033.55707      1136.669 7        46.014                                                                    22751114.349 6  96267442.40806       923.642 6        37.939
R12        38.000    19499714.484 7 104163853.06507     -2534.036 7        44.889                                                                    19499714.910 6  81016735.82406     -1970.994 6        41.723
C40        40.000                                                                                                                                    38833899.197 5 202218259.22005      -625.660 5        34.467                                                                    38833893.960 5 164318919.62705      -508.800 5        30.800
C42        45.000                                                                                                                                    27174808.380 4                      2407.215 4        25.429
C19        48.000                                                                                                                                    25664644.759 4                     -4338.234 4        26.683                                                                    25664623.427 5                     -3525.061 5        31.811
C22        51.000                                                                                                                                    22124610.423 7 115208631.86707     -2440.577 7        47.790                                                                    22124606.939 7  93616404.81007     -1983.278 7        45.529
C21        55.000                                                                                                                                    23352588.764 4 121603070.69304       804.205 4        28.190                                                                    23352572.286 5  98812345.76605       653.397 5        34.129
I02        59.000    37355194.800 4 146589827.62004      -211.544 4        25.774
> 2025 01 02 09 00 20.0000000  0 34
G13         1.000    19841354.460 8 104267189.06808     -1136.745 8        50.984                                    19841350.814 6  81247029.85906      -885.777 6        38.069
G17         2.000    23388337.474 5 122906581.06505      1761.888 5        32.994                                    23388326.476 1  95771261.97001      1372.961 1         2.000
G20         4.000    25035753.885 3                     -4440.205 3        20.095
G30         6.000    22502947.303 6 118253742.95506     -3380.164 6        40.651                                    22502946.317 5  92145747.48205     -2633.888 5        30.234    22502950.776 5  92145766.51005     -2633.912 5        32.491
G14         8.000    20640859.525 6 108468072.65806     -1773.251 6        37.784                                    20640856.402 3  84520826.46803     -1381.742 3        20.167    20640855.938 7  84520872.48607     -1381.822 7        42.045
G15         9.000    20619717.329 6 108357502.46306       879.920 6        39.060                                    20619711.919 4  84434369.53804       685.656 4        24.602    20619711.651 4  84434377.51904       686.088 4        25.564
G23        10.000    23881345.049 7 125497311.90307      1426.399 7        44.841                                    23881346.283 2  97790097.29002      1111.488 2        17.774    23881342.417 5  97790103.33305      1111.440 5        31.781
E06        11.000    23704256.249 6 124566668.39506     -2144.140 6        40.653                                                                    23704257.153 7  93020593.75307     -1601.186 7        47.536    23704256.806 7  95447155.69207     -1642.913 7        47.559
G24        12.000    23624177.215 4 124145887.43204      2483.010 4        29.687                                    23624199.174 2  96737115.84202      1934.823 2        12.848    23624191.371 5  96737275.89105      1934.921 5        34.019
E31        13.000    23493806.228 7 123460758.70207      -109.655 7        43.026                                                                    23493808.096 7  92194781.25907       -81.950 7        43.264    23493807.584 7  94599836.39307       -84.018 7        43.520
G05        14.000    22992462.468 5 120826159.89605     -4081.016 5        31.955
E24        16.000    26405485.052 6 138761815.15806      2044.354 6        39.048                                                                    26405490.120 6 103620840.76006      1526.629 6        41.054    26405486.282 6 106323976.91606      1566.450 6        38.652
E04        17.000    25296324.750 5 132933088.21105     -3147.866 5        35.810                                                                    25296325.700 7  99268235.15607     -2350.537 7        44.444    25296323.142 6 101857787.32406     -2412.035 6        40.961
E05        18.000    24159692.567 6 126960132.60606      1479.896 6        40.510                                                                    24159696.471 7  94807980.26607      1105.151 7        42.601    24159695.863 6  97281217.90306      1133.948 6        39.937
E15        19.000                                                                                                                                    28418120.086 5                      -841.062 5        31.834    28418124.268 4                      -862.639 4        28.133
E09        21.000    23416911.509 7 123056813.10407      -876.228 7        47.374                                                                    23416913.711 8  91892956.79308      -654.328 8        50.050    23416913.223 8  94290225.19508      -671.421 8        49.047
E34        22.000    28612418.452 3                     -3027.240 3        19.851                                                                    28612416.677 4 112281253.69804     -2261.354 4        29.488    28612417.708 5 115210312.52605     -2320.652 5        33.407
S23        24.000    38138576.818 6 200419533.46606      -855.043 6        38.372
S36        25.000    38205953.036 5 200773644.08305      -855.183 5        34.414
R13        27.000    19786056.121 7 105656437.76607       986.790 7        46.789
R04        29.000    23894971.147 5 127956354.56205      3432.255 5        35.505                                                                    23894939.269 4  99521798.19604      2669.431 4        29.081
C07        32.000                                                                                                                                    38836397.859 5 202231319.27705      -606.529 5        31.487    38836399.882 6 156378060.52506      -469.154 6        38.195    38836408.266 6 164329506.61406      -493.157 6        36.420
C10        33.000                                                                                                                                    38739245.486 6 201725452.53206      -231.027 6        41.292    38739247.721 7 155986968.49207      -178.743 7        42.199    38739242.582 6 163918421.18306      -187.596 6        39.474
C36        34.000                                                                                                                                    21579099.987 7 112368016.67807     -1611.018 7        44.618                                                                    21579104.131 7  91308321.55707     -1309.083 7        46.270
R02        35.000    19585066.845 7 104509576.91207     -2848.135 7        47.511                                                                    19585069.789 7  81285416.80107     -2215.233 7        44.605
R03        36.000    20045823.931 8 107306941.26408      1461.890 8        52.669                                                                    20045824.453 7  83460878.65907      1136.995 7        46.426
C45        37.000                                                                                                                                    22750031.175 7 118465353.94907      1135.203 7        46.172                                                                    22750023.763 6  96262827.23206       922.483 6        38.309
R12        38.000    19502087.155 7 104176529.70407     -2536.714 7        44.789                                                                    19502088.153 6  81026595.43606     -1973.045 6        41.902
C40        40.000                                                                                                                                    38834502.062 5 202221391.03705      -626.771 5        35.333                                                                    38834496.346 5 164321464.42505      -508.978 5        30.928
C42        45.000                                                                                                                                    27172498.514 3                      2405.365 3        22.419
C19        48.000                                                                                                                                    25668809.861 4                     -4338.748 4        26.228                                                                    25668788.475 5                     -3525.486 5        32.024
C22        51.000                                                                                                                                    22126953.628 7 115220840.58807     -2442.942 7        46.683                                                                    22126951.530 7  93626325.34907     -1985.108 7        45.055
C21        55.000                                                                                                                                                                                                                                                                    23351801.330 5  98809083.80605       651.776 5        34.590
I02        59.000    37355465.466 4 146590886.57504      -211.623 4        24.647
> 2025 01 02 09 00 25.0000000  0 35
G13         1.000    19842437.215 8 104272880.05508     -1139.493 8        50.607                                    19842433.533 6  81251464.39006      -887.917 6        37.429
G17         2.000    23386661.910 5 122897776.30005      1760.413 5        31.894                                    23386650.981 1  95764400.75801      1371.630 1         1.333
G20         4.000    25039982.752 3                     -4437.539 3        21.833
G30         6.000    22506163.895 6 118270646.46306     -3381.290 6        40.763                                    22506163.001 5  92158919.02505     -2634.762 5        30.309    22506167.477 5  92158938.05305     -2634.427 5        33.689
G14         8.000    20642544.688 6 108476946.35706     -1776.314 6        36.045                                    20642545.459 3  84527741.05303     -1384.156 3        20.000    20642544.417 6  84527787.08606     -1383.955 6        41.998
G15         9.000    20618880.736 6 108353110.40606       877.118 6        39.417                                    20618875.949 4  84430947.16004       683.460 4        24.060
G23        10.000    23879988.541 7 125490186.51207      1423.784 7        44.307                                    23879989.172 2  97784545.04002      1109.452 2        16.491    23879987.731 5  97784551.10205      1109.431 5        30.219
E06        11.000    23706296.423 6 124577393.36406     -2145.782 6        40.770                                                                    23706298.165 8  93028602.63308     -1602.317 8        48.008    23706297.758 7  95455373.50507     -1644.122 7        47.512
G24        12.000                                                                                                                                                                    23621828.771 5  96727603.70605      1934.047 5        31.849
E31        13.000    23493911.845 7 123461312.72407      -111.856 7        43.082                                                                    23493913.139 7  92195194.95507       -83.386 7        43.291    23493913.028 7  94600260.88407       -85.686 7        43.877
G05        14.000    22996346.178 5 120846569.25805     -4082.456 5        31.457
E24        16.000    26403539.667 6 138751596.02906      2043.417 6        37.887                                                                    26403545.439 6 103613209.59206      1525.993 6        41.473    26403541.111 6 106316146.67206      1565.860 6        38.456
E04        17.000    25299325.670 6 132948830.16806     -3149.013 6        36.650                                                                    25299321.278 7  99279990.50907     -2351.448 7        44.772    25299318.487 6 101869849.31306     -2412.678 6        40.472
E05        18.000    24158284.999 6 126952735.14806      1479.180 6        39.532                                                                    24158288.875 7  94802456.21107      1104.570 7        42.741    24158288.361 6  97275549.74806      1133.469 6        40.288
E15        19.000                                                                                                                                    28419191.477 5                      -842.655 5        31.592    28419193.929 4                      -864.889 4        26.036
E09        21.000    23417746.154 7 123061198.85807      -877.984 7        47.841                                                                    23417748.287 8  91896231.85708      -655.607 8        50.056    23417747.908 8  94293585.69508      -672.705 8        49.345
E34        22.000                                                                                                                                    28615307.800 4 112292565.01004     -2262.475 4        28.910    28615301.573 5 115221918.83805     -2321.490 5        32.988
S23        24.000    38139391.275 6 200423808.93106      -855.049 6        37.962
S36        25.000    38206763.214 5 200777919.35605      -854.887 5        33.742
R13        27.000    19785133.664 7 105651511.36107       983.797 7        46.868
R11        28.000    23744733.799 3                     -4851.848 3        22.381
R04        29.000    23891766.885 5 127939194.37605      3431.951 5        34.843                                                                    23891745.262 5  99508451.41105      2668.960 5        30.823
R20        31.000                                                                                                                                    23722246.282 5                     -1201.668 5        30.657
C07        32.000                                                                                                                                    38836981.531 5 202234355.27105      -607.418 5        31.185    38836982.303 6 156380408.10806      -469.697 6        37.282    38836991.772 5 164331973.58905      -493.778 5        35.967
C10        33.000                                                                                                                                    38739468.429 6 201726609.66806      -231.839 6        41.504    38739469.482 7 155987863.28407      -179.227 7        42.072    38739465.019 6 163919361.48606      -188.522 6        39.498
C36        34.000                                                                                                                                    21580646.686 7 112376076.41507     -1612.752 7        45.061                                                                    21580651.846 7  91314870.76807     -1310.720 7        46.527
R02        35.000    19587737.533 8 104523827.32608     -2851.922 8        48.826                                                                    19587740.298 7  81296500.44107     -2218.147 7        44.406
R03        36.000    20044459.962 8 107299640.26008      1458.587 8        52.630                                                                    20044459.944 7  83455200.08107      1134.428 7        45.952
C45        37.000                                                                                                                                    22748941.629 7 118459681.80107      1133.655 7        46.540                                                                    22748935.220 6  96258218.17706       921.030 6        39.009
R12        38.000    19504461.829 7 104189219.89107     -2539.387 7        44.838                                                                    19504464.147 6  81036465.59006     -1975.180 6        41.881
C40        40.000                                                                                                                                    38835107.976 6 202224527.40906      -627.855 6        36.000                                                                    38835097.919 5 164324013.01705      -510.579 5        30.415
C42        45.000                                                                                                                                    27170192.575 3                      2406.006 3        21.500
C19        48.000                                                                                                                                    25672975.871 3                     -4340.116 3        22.419                                                                    25672954.051 5                     -3525.743 5        31.509
C22        51.000                                                                                                                                    22129299.779 7 115233061.68807     -2445.467 7        45.892                                                                    22129298.473 7  93636255.98307     -1987.337 7        44.652
C21        55.000                                                                                                                                    23351051.649 5                       799.343 5        32.371                                                                    23351032.429 5  98805831.20305       649.371 5        34.533
> 2025 01 02 09 00 30.0000000  0 34
G13         1.000    19843522.587 8 104278584.97408     -1142.294 8        49.656                                    19843518.863 6  81255909.78306      -890.098 6        37.206
G17         2.000    23384992.637 5 122888979.24605      1758.863 5        30.536                                    23384977.034 1  95757546.12401      1370.641 1         2.200
G30         6.000    22509381.733 6 118287554.89406     -3382.177 6        40.968                                    22509380.915 5  92172094.41005     -2635.465 5        31.147    22509384.969 5  92172113.46105     -2635.180 5        35.038
G14         8.000    20644236.750 6 108485834.47806     -1779.104 6        39.168                                    20644236.797 3  84534666.87403     -1386.318 3        20.405    20644235.475 6  84534712.87606     -1386.284 6        41.004
G15         9.000    20618048.774 7 108348732.90407       874.091 7        42.758                                    20618042.765 4  84427536.15004       681.110 4        24.135    20618043.270 4  84427544.20204       680.788 4        24.286
G23        10.000    23878634.587 7 125483074.30307      1421.204 7        43.615                                    23878634.709 2  97779003.07202      1107.421 2        15.714    23878633.671 4  97779009.09304      1107.358 4        28.720
E06        11.000    23708338.689 6 124588126.56506     -2147.400 6        40.684                                                                    23708340.691 8  93036617.67508     -1603.551 8        48.109    23708340.279 7  95463597.63507     -1645.337 7        47.472
G24        12.000    23619475.470 4 124121065.57504      2481.297 4        26.156                                    23619475.486 1  96717774.28701      1933.526 1         6.125    23619473.466 5  96717934.36805      1933.859 5        30.181
E31        13.000    23494019.145 7 123461877.67107      -114.007 7        42.982                                                                    23494020.323 7  92195616.83107       -85.082 7        42.732    23494020.849 7  94600693.75507       -87.424 7        43.926
G05        14.000    23000231.026 5 120866986.33505     -4084.161 5        31.479
E24        16.000    26401595.982 6 138741381.64706      2042.692 6        36.049                                                                    26401602.009 6 103605581.98306      1525.281 6        41.621    26401597.658 6 106308320.10306      1565.103 6        37.743
E04        17.000    25302323.643 6 132964578.00506     -3150.174 6        37.161                                                                    25302318.117 7  99291750.21007     -2352.292 7        44.802    25302314.835 6 101881915.79206     -2413.633 6        39.916
E05        18.000    24156878.278 6 126945341.38406      1478.344 6        38.622                                                                    24156882.021 7  94796934.88007      1104.064 7        42.567    24156881.604 6  97269884.38806      1132.886 6        40.648
E15        19.000                                                                                                                                    28420265.910 5                      -844.605 5        31.774    28420268.402 4                      -866.641 4        27.222
E09        21.000    23418582.513 8 123065593.42908      -879.752 8        48.151                                                                    23418584.607 8  91899513.51308      -656.944 8        49.665    23418584.284 8  94296952.96008      -674.058 8        49.465
E34        22.000                                                                                                                                    28618201.051 4 112303881.35504     -2264.160 4        27.844    28618185.519 5 115233530.35005     -2323.136 5        32.114
S23        24.000    38140201.654 6 200428084.70706      -855.050 6        38.219
S36        25.000    38207578.748 5 200782194.58505      -854.819 5        33.587
R13        27.000    19784214.010 7 105646600.23007       980.773 7        46.789
R11        28.000    23749282.611 3                     -4850.032 3        21.881
R04        29.000    23888562.855 5 127922036.21405      3431.301 5        34.433                                                                    23888547.459 5  99495106.08905      2668.928 5        32.341
R20        31.000                                                                                                                                    23723692.432 4                     -1205.279 4        29.374
C07        32.000                                                                                                                                    38837562.893 5 202237395.28305      -608.378 5        31.774    38837564.873 6 156382758.80306      -470.315 6        37.183    38837576.256 5 164334443.86005      -494.332 5        35.895
C10        33.000                                                                                                                                    38739691.776 7 201727770.55707      -232.522 7        42.057    38739692.358 7 155988760.97207      -179.727 7        42.009    38739687.700 6 163920304.81506      -188.820 6        39.664
C36        34.000                                                                                                                                    21582195.770 7 112384145.34607     -1614.581 7        45.112                                                                    21582201.271 7  91321427.43407     -1311.941 7        46.622
R02        35.000    19590411.818 8 104538097.03008     -2855.797 8        49.718                                                                    19590414.640 7  81307599.08307     -2221.216 7        44.156
