     3.04           OBSERVATION DATA    M                   RINEX VERSION / TYPE
ssrcrin-15.6.1x                         20250102 041500 UTC PGM / RUN BY / DATE 
(00000000023479385599111004) Septentrio proprietary         COMMENT             
ract                                                        MARKER NAME         
01                                                          MARKER NUMBER       
geodetic                                                    MARKER TYPE         
NFB                 CLIMERS@TUW                             OBSERVER / AGENCY   
3296359             SEPT ASTERX SB3 PROB4.14.4              REC # / TYPE / VERS 
Unknown             Unknown                                 ANT # / TYPE        
  4127447.0478  1206914.8205  4695543.5849                  APPROX POSITION XYZ 
        0.0000        0.0000        0.0000                  ANTENNA: DELTA H/E/N
G   23 X1  C1C L1C D1C S1C C1W S1W C2W L2W D2W S2W C2L L2L  SYS / # / OBS TYPES 
       D2L S2L C5Q L5Q D5Q S5Q C1L L1L D1L S1L              SYS / # / OBS TYPES 
E   21 X1  C1C L1C D1C S1C C6C L6C D6C S6C C5Q L5Q D5Q S5Q  SYS / # / OBS TYPES 
       C7Q L7Q D7Q S7Q C8Q L8Q D8Q S8Q                      SYS / # / OBS TYPES 
S    9 X1  C1C L1C D1C S1C C5I L5I D5I S5I                  SYS / # / OBS TYPES 
R   17 X1  C1C L1C D1C S1C C2P L2P D2P S2P C2C L2C D2C S2C  SYS / # / OBS TYPES 
       C3Q L3Q D3Q S3Q                                      SYS / # / OBS TYPES 
C   25 X1  C1P L1P D1P S1P C5P L5P D5P S5P C2I L2I D2I S2I  SYS / # / OBS TYPES 
       C7I L7I D7I S7I C6I L6I D6I S6I C7D L7D D7D S7D      SYS / # / OBS TYPES 
J   17 X1  C1C L1C D1C S1C C2L L2L D2L S2L C5Q L5Q D5Q S5Q  SYS / # / OBS TYPES 
       C1L L1L D1L S1L                                      SYS / # / OBS TYPES 
I    5 X1  C5A L5A D5A S5A                                  SYS / # / OBS TYPES 
SEPTENTRIO RECEIVERS OUTPUT ALIGNED CARRIER PHASES.         COMMENT             
NO FURTHER PHASE SHIFT APPLIED IN THE RINEX ENCODER.        COMMENT             
G L1C                                                       SYS / PHASE SHIFT   
G L2W                                                       SYS / PHASE SHIFT   
G L2L  0.00000                                              SYS / PHASE SHIFT   
G L5Q  0.00000                                              SYS / PHASE SHIFT   
G L1L  0.00000                                              SYS / PHASE SHIFT   
E L1C  0.00000                                              SYS / PHASE SHIFT   
E L6C  0.00000                                              SYS / PHASE SHIFT   
E L5Q  0.00000                                              SYS / PHASE SHIFT   
E L7Q  0.00000                                              SYS / PHASE SHIFT   
E L8Q  0.00000                                              SYS / PHASE SHIFT   
S L1C                                                       SYS / PHASE SHIFT   
S L5I                                                       SYS / PHASE SHIFT   
R L1C                                                       SYS / PHASE SHIFT   
R L2P  0.00000                                              SYS / PHASE SHIFT   
R L2C                                                       SYS / PHASE SHIFT   
R L3Q  0.00000                                              SYS / PHASE SHIFT   
C L1P  0.00000                                              SYS / PHASE SHIFT   
C L5P  0.00000                                              SYS / PHASE SHIFT   
C L2I                                                       SYS / PHASE SHIFT   
C L7I                                                       SYS / PHASE SHIFT   
C L6I                                                       SYS / PHASE SHIFT   
C L7D                                                       SYS / PHASE SHIFT   
J L1C                                                       SYS / PHASE SHIFT   
J L2L  0.00000                                              SYS / PHASE SHIFT   
J L5Q  0.00000                                              SYS / PHASE SHIFT   
J L1L  0.00000                                              SYS / PHASE SHIFT   
I L5A                                                       SYS / PHASE SHIFT   
  2025     1     2     4    15    0.0000000     GPS         TIME OF FIRST OBS   
 C1C    0.000 C2C    0.000 C2P    0.000                     GLONASS COD/PHS/BIS 
DBHZ                                                        SIGNAL STRENGTH UNIT
    18                                                      LEAP SECONDS        
 24 R01  1 R02 -4 R03  5 R04  6 R05  1 R06 -4 R07  5 R08  6 GLONASS SLOT / FRQ #
    R09 -2 R10 -7 R11  0 R12 -1 R13 -2 R14 -7 R15  0 R16 -1 GLONASS SLOT / FRQ #
    R17  4 R18 -3 R19  3 R20  2 R21  4 R22 -3 R23  3 R24  2 GLONASS SLOT / FRQ #
                                                            END OF HEADER       
> 2025 01 02 04 15  0.0000000  0 38
G03         1.000    23414349.155 5                     -4206.289 5        31.366                                                                                                    23414347.763 3                     -3277.001 3        20.333
G20         4.000    23558263.485 7 123799521.30807      2472.150 7        43.486                                    23558254.667 3  96467147.29803      1926.345 3        21.595
G07         5.000    21662143.676 8 113835354.02708      1355.853 8        48.090                                    21662136.626 5  88702881.35405      1056.501 5        32.263    21662136.648 4  88702829.42704      1055.804 4        26.946
G09         6.000    19949964.667 8 104837768.90608     -1369.163 8        49.095                                    19949961.363 8  81691782.09908     -1066.880 8        49.161    19949961.869 7  81691769.10907     -1066.824 7        45.345
G30         7.000    24058696.276 6 126429323.71906      2736.216 6        36.605                                    24058690.916 3  98516342.51503      2132.121 3        20.857    24058692.286 4  98516336.52104      2132.200 4        28.588
E06        11.000    26435362.296 6 138918653.11206      1508.157 6        37.705                                                                    26435345.927 4 103737985.44904      1126.346 4        28.341    26435348.969 6 106444314.59406      1155.610 6        36.083
G04        12.000    21133390.346 7 111056991.03507     -2957.017 7        44.045                                    21133387.013 4  86537722.33704     -2304.172 4        27.605    21133384.798 7  86537679.34607     -2304.154 7        42.770
E12        13.000                                                                                                                                    24902678.744 7  97723501.35407     -2257.142 7        42.590    24902677.895 6 100272797.49806     -2316.115 6        39.562
E29        14.000                                                                                                                                    26571338.635 4 104271735.19304     -2444.156 4        28.038    26571343.446 4 106991815.09604     -2509.218 4        24.797
G06        15.000                                                                                                                                                                    21298252.261 4  87212757.72204     -1577.933 4        27.437
E11        16.000    24604960.436 6 129299897.79806      -127.107 6        36.102                                                                    24604945.643 6  96555105.98406       -94.870 6        38.547    24604946.975 6  99073943.17206       -97.383 6        41.962
E04        17.000    24445880.504 7 128463971.69907       796.467 7        47.531                                                                    24445877.635 7  95930943.38807       594.753 7        46.949    24445877.599 7  98433433.58907       610.252 7        45.807
R08        18.000    19472103.373 5 104272399.84805      -665.102 5        34.386                                                                    19472101.206 6  81100609.80206      -517.076 6        40.010
E19        20.000    23155126.686 6 121681020.64306     -1860.562 6        38.369                                                                    23155123.723 6  90865708.91706     -1389.393 6        39.420    23155125.569 6  93236105.75606     -1425.714 6        40.188
E36        22.000    27999465.448 4                      1893.227 4        28.512                                                                    27999470.275 4 109875931.52104      1413.931 4        27.126    27999473.845 6 112742264.00206      1450.723 6        36.571
S36        23.000    38130653.644 5 200378031.96805      -846.797 5        35.581
S23        24.000    38071535.074 6 200067211.68506      -842.464 6        40.443
G11        25.000    22341955.621 5                       611.419 5        34.033                                                                                                    22341935.067 5                       477.134 5        32.066
R16        26.000                                                                                                                                    23891451.977 4                     -3445.960 4        26.683
R17        27.000    24038845.369 5                      2771.343 5        33.551                                                                    24038847.295 5 100050747.97905      2155.923 5        32.407
E10        29.000    24203332.520 7 127189458.21207     -1764.759 7        47.564                                                                    24203330.021 7  94979124.11207     -1317.734 7        42.093    24203330.537 7  97456927.63507     -1352.121 7        46.344
C20        31.000                                                                                                                                    21812974.254 8 113586038.79208     -1158.073 8        51.430                                                                    21812968.395 8  92297839.06808      -941.033 8        49.276
R23        33.000    21555632.080 5 115308034.39005     -4441.117 5        30.543
R07        34.000    21174409.566 7 113348215.09607     -3404.463 7        45.345                                                                    21174412.586 6  88159759.43006     -2647.823 6        39.652
C32        36.000                                                                                                                                    24838917.316 5                     -3380.936 5        32.808                                                                    24838930.363 5 105101595.67005     -2747.323 5        31.653
R09        37.000    20927676.741 8 111752637.97408     -1276.663 8        48.807                                                                    20927675.034 7  86918756.34907      -992.961 7        45.079
C23        40.000                                                                                                                                    24930401.992 5 129819228.12505     -2504.007 5        35.067                                                                    24930385.426 5                     -2034.802 5        31.291
C35        41.000                                                                                                                                    24614095.084 6 128172020.78306     -1654.335 6        39.456                                                                    24614094.830 6 104150298.34806     -1344.077 6        37.913
C37        42.000                                                                                                                                    23285676.676 7 121254799.99707       355.268 7        43.084                                                                    23285674.930 6  98529303.46906       288.870 6        38.856
R24        43.000    21224084.969 7 113494582.34307      -330.255 7        46.318                                                                    21224083.404 6  88273646.59706      -256.916 6        41.402
R01        44.000    22133979.923 5 118318781.60305      2155.663 5        31.743                                                                    22133974.668 4                      1676.447 4        29.545
C16        45.000                                                                                                                                    39656170.208 3                     -1822.535 3        23.029    39656150.892 4 159678894.39804     -1408.283 4        25.699
C09        47.000                                                                                                                                    38688921.326 6 201463415.57806     -1414.142 6        36.215    38688933.951 5 155784221.65605     -1093.269 5        34.471    38688915.579 4                     -1148.852 4        28.133
C19        48.000                                                                                                                                    23317561.748 7 121420643.31007      1202.339 7        43.611                                                                    23317556.054 6  98664223.61906       976.928 6        37.338
C06        50.000                                                                                                                                    39082824.612 4                     -1805.937 4        24.722    39082850.357 4                     -1396.160 4        29.735    39082843.381 4                     -1467.265 4        27.796
C44        52.000                                                                                                                                    25979586.713 5 135282486.52205       588.814 5        34.381                                                                    25979561.388 5                       478.504 5        30.400
C29        54.000                                                                                                                                    25347286.088 4                     -3807.440 4        25.083                                                                    25347300.824 5                     -3093.380 5        30.264
I06        59.000    37904123.267 6 148743924.51906      -596.626 6        36.163
> 2025 01 02 04 15  5.0000000  0 39
G03         1.000    23418351.843 5                     -4207.215 5        31.102                                                                                                    23418352.808 3                     -3275.414 3        19.970
G26         2.000    24276002.341 5                     -2035.397 5        32.521
G20         4.000    23555911.040 7 123787163.55507      2471.091 7        42.859                                    23555903.067 3  96457517.88803      1925.523 3        21.167
G07         5.000    21660854.547 8 113828580.96808      1353.433 8        48.203                                    21660845.490 5  88697603.64405      1054.625 5        30.951    21660840.575 3                      1056.788 3        20.643
G09         6.000    19951268.438 8 104844620.66508     -1371.534 8        48.621                                    19951265.328 8  81697121.13608     -1068.728 8        49.369    19951265.430 7  81697108.14307     -1068.722 7        45.219
G30         7.000    24056093.700 6 126415645.10506      2735.387 6        37.671                                    24056086.697 3  98505683.83803      2131.473 3        20.762    24056089.356 4  98505677.79104      2131.958 4        27.665
E06        11.000    26433928.221 5 138911115.44905      1507.237 5        35.438                                                                    26433910.447 4 103732356.71204      1125.370 4        26.790    26433914.374 5 106438539.00005      1154.724 5        35.686
G04        12.000    21136204.338 7 111071780.71907     -2958.724 7        44.608                                    21136201.462 4  86549246.77204     -2305.494 4        28.237    21136199.786 7  86549203.77207     -2305.528 7        42.629
E12        13.000    24905558.935 6 130879603.83416     -3024.905 6        37.784                                                                    24905555.491 6  97734791.50306     -2258.845 6        41.716    24905554.583 6 100284382.17706     -2317.805 6        39.895
E29        14.000                                                                                                                                    26574454.564 4 104283959.30404     -2445.017 4        26.778    26574454.022 3 107004358.02203     -2509.205 3        23.314
G06        15.000    21300277.230 5                     -2028.764 5        31.653                                                                                                    21300176.317 4  87220655.24404     -1580.992 4        26.419
E11        16.000    24605085.958 5 129300540.28505      -129.742 5        34.900                                                                    24605068.013 6  96555585.78706       -97.030 6        39.162    24605069.193 7  99074435.48507       -99.349 7        42.119
E04        17.000    24445123.229 7 128459993.51407       795.003 7        47.162                                                                    24445120.484 7  95927972.67007       593.669 7        46.715    24445120.560 7  98430385.37907       609.199 7        46.304
R08        18.000    19472726.127 6 104275730.52206      -667.071 6        38.042                                                                    19472723.353 6  81103200.29606      -518.919 6        40.472
E19        20.000    23156896.890 6 121690327.78406     -1861.990 6        36.870                                                                    23156894.577 6  90872659.05506     -1390.509 6        39.372    23156896.939 6  93243237.21306     -1426.924 6        40.133
E36        22.000    27997667.713 5                      1892.194 5        30.815                                                                    27997668.332 4 109868865.09704      1413.036 4        27.904    27997673.311 6 112735013.22306      1449.784 6        36.200
S36        23.000    38131464.501 5 200382266.57005      -847.010 5        35.990
S23        24.000    38072337.703 6 200071425.07206      -842.763 6        40.229
G11        25.000    22341366.218 5 117404714.97215       608.788 5        34.976                                                                                                    22341357.392 5  91484122.92515       474.264 5        34.081
R16        26.000                                                                                                                                    23895595.570 4                     -3448.073 4        26.335
R17        27.000    24036255.287 5 128622871.65815      2769.138 5        34.195                                                                    24036257.916 5 100039975.10205      2153.886 5        32.132
E10        29.000    24205013.168 7 127198289.23907     -1767.508 7        47.843                                                                    24205010.826 7  94985718.71507     -1319.864 7        42.354    24205011.198 7  97463694.27607     -1354.309 7        46.568
C20        31.000                                                                                                                                    21814087.032 8 113591833.95008     -1159.917 8        51.240                                                                    21814081.293 8  92302548.10108      -942.299 8        48.988
R23        33.000    21559784.550 5 115330248.30705     -4444.011 5        32.449
R07        34.000    21177590.611 7 113365241.24207     -3405.873 7        44.576                                                                    21177590.504 6  88173001.95406     -2648.966 6        36.450
C32        36.000                                                                                                                                    24842167.698 5                     -3381.724 5        35.686                                                                    24842180.228 5 105115333.41105     -2747.755 5        30.385
R09        37.000    20928875.170 8 111759033.61808     -1281.517 8        48.208                                                                    20928872.202 7  86923730.73507      -996.759 7        44.542
C23        40.000                                                                                                                                    24932811.222 5 129831755.13505     -2506.730 5        34.267                                                                    24932790.841 4                     -2036.519 4        28.645
C35        41.000                                                                                                                                    24615686.707 6 128180300.08006     -1657.222 6        38.279                                                                    24615684.590 6 104157025.98106     -1346.612 6        37.198
C37        42.000                                                                                                                                    23285337.124 7 121253031.09607       352.367 7        44.048                                                                    23285335.119 6  98527866.11306       286.470 6        37.732
R24        43.000    21224395.471 7 113496246.34607      -335.219 7        45.461                                                                    21224393.820 6  88274940.84806      -260.766 6        40.305
R01        44.000    22131961.312 4 118308005.22214      2154.571 4        28.521                                                                    22131959.339 5                      1676.044 5        30.853
C16        45.000                                                                                                                                    39657913.264 3                     -1821.701 3        22.857    39657904.733 4 159685939.57704     -1408.904 4        26.251
C09        47.000                                                                                                                                    38690280.292 6 201470487.09606     -1414.604 6        36.473    38690292.135 5 155789689.83805     -1094.110 5        34.362    38690274.215 4                     -1149.615 4        28.521
C19        48.000                                                                                                                                    23316408.404 7 121414635.06107      1201.075 7        44.393                                                                    23316401.648 6  98659341.40506       976.170 6        36.397
C06        50.000                                                                                                                                    39084556.798 4                     -1805.465 4        24.932    39084582.104 4                     -1396.514 4        29.678    39084578.478 4                     -1467.385 4        27.904
C44        52.000                                                                                                                                    25979026.610 6 135279549.18506       586.182 6        36.110                                                                    25978995.648 5                       476.190 5        30.325
C29        54.000                                                                                                                                    25350939.623 3                     -3808.105 3        22.571                                                                    25350955.557 5                     -3093.727 5        30.475
I06        59.000    37904884.683 6 148746909.32306      -597.099 6        36.333
> 2025 01 02 04 15 10.0000000  0 39
G03         1.000    23422355.676 4                     -4208.304 4        29.820
G26         2.000    24277936.014 5 127581439.38415     -2037.713 5        30.664
G20         4.000    23553559.093 6 123774808.46506      2470.734 6        41.685                                    23553552.179 3  96447890.54603      1925.250 3        20.786
G07         5.000    21659567.472 8 113821817.89208      1351.570 8        48.081                                    21659556.437 4  88692333.71304      1053.170 4        29.431
G09         6.000    19952573.921 8 104851482.25408     -1373.288 8        48.814                                    19952571.172 8  81702467.83208     -1070.095 8        49.477    19952571.434 7  81702454.84407     -1070.164 7        45.229
G30         7.000    24053491.132 6 126401969.03406      2734.888 6        38.895                                    24053483.251 3  98495027.16103      2131.074 3        20.524
E06        11.000    26432492.891 5 138903580.41305      1506.850 5        32.174                                                                    26432476.293 4 103726729.85304      1125.368 4        26.084    26432480.260 5 106432765.36905      1154.434 5        34.952
G04        12.000    21139019.827 7 111086576.82007     -2959.899 7        45.255                                    21139016.992 4  86560776.20504     -2306.411 4        28.607    21139015.027 7  86560733.19507     -2306.372 7        42.500
E12        13.000    24908437.000 6 130894731.60706     -3026.450 6        38.024                                                                    24908433.913 6  97746088.20106     -2260.102 6        40.770    24908432.959 6 100295973.55706     -2318.874 6        40.324
E29        14.000                                                                                                                                    26577571.465 4 104296183.83004     -2444.833 4        26.898
G06        15.000    21302177.195 5                     -2032.053 5        35.286                                                                                                    21302109.679 4  87228564.91504     -1583.180 4        28.929
E11        16.000    24605213.737 5 129301194.32605      -131.879 5        33.742                                                                    24605192.647 6  96556074.21706       -98.704 6        39.799    24605193.630 7  99074936.64707      -101.220 7        42.290
E04        17.000    24444367.258 7 128456020.00007       794.272 7        47.154                                                                    24444364.290 7  95925005.42907       593.116 7        46.488    24444364.369 7  98427340.74207       608.593 7        46.876
R08        18.000    19473348.984 6 104279070.37006      -668.807 6        39.165                                                                    19473346.690 6  81105797.93806      -520.185 6        41.168
E19        20.000    23158669.163 6 121699639.85906     -1862.921 6        36.004                                                                    23158666.446 6  90879612.88306     -1391.307 6        39.060    23158669.193 6  93250372.43206     -1427.343 6        40.031
E36        22.000    27995869.718 5                      1891.349 5        32.521                                                                    27995868.531 4 109861802.17404      1412.153 4        26.886    27995873.175 6 112727766.01006      1449.067 6        36.045
S36        23.000    38132265.034 5 200386500.52105      -847.115 5        35.376
S23        24.000    38073136.648 6 200075637.94906      -842.597 6        40.381
G11        25.000    22340777.573 5 117401677.21605       606.037 5        35.924                                                                                                    22340777.968 5  91481755.72105       472.279 5        35.310
R17        27.000    24033672.949 5 128609031.38605      2766.911 5        34.819                                                                    24033671.851 5 100029210.41905      2152.071 5        31.449
E10        29.000    24206695.912 7 127207131.95407     -1769.749 7        47.702                                                                    24206693.574 7  94992322.04407     -1321.597 7        42.402    24206693.996 7  97470469.86507     -1356.026 7        46.716
C20        31.000                                                                                                                                    21815201.428 8 113597636.06508     -1161.151 8        51.092                                                                    21815195.599 8  92307262.80608      -943.565 8        49.128
R10        32.000    21111519.622 4                      2095.270 4        29.384
R23        33.000    21563937.433 5 115352474.69205     -4446.639 5        35.114
R07        34.000    21180770.739 7 113382272.71207     -3406.817 7        43.274                                                                    21180770.213 5  88186248.63805     -2649.550 5        32.928
C32        36.000                                                                                                                                    24845413.753 6 129376575.07216     -3382.152 6        36.469                                                                    24845431.090 5 105129073.40305     -2748.644 5        30.460
R09        37.000    20930077.045 7 111765451.18107     -1285.720 7        47.800                                                                    20930074.159 7  86928722.16007     -1000.075 7        44.074
C23        40.000                                                                                                                                    24935220.637 5 129844293.59405     -2508.550 5        30.604                                                                    24935199.999 4                     -2038.507 4        26.671
C35        41.000                                                                                                                                    24617279.667 6 128188591.92406     -1659.618 6        37.819                                                                    24617276.710 6 104163763.77006     -1348.634 6        36.870
C37        42.000                                                                                                                                    23285000.733 7 121251274.88207       349.892 7        44.304                                                                    23284997.483 6  98526439.04406       284.271 6        37.297
R24        43.000    21224710.776 7 113497932.73107      -339.629 7        45.392                                                                    21224708.763 6  88276252.48606      -264.155 6        40.179
R01        44.000    22129946.408 4 118297231.47004      2154.185 4        24.165                                                                    22129949.040 5                      1675.578 5        32.000
C16        45.000                                                                                                                                                                                                    39659654.013 4 159692985.05404     -1408.743 4        25.308
C09        47.000                                                                                                                                    38691638.042 6 201477560.08806     -1414.731 6        37.043    38691649.959 5 155795159.08705     -1094.008 5        35.062    38691632.081 4                     -1149.550 4        28.986
C19        48.000                                                                                                                                    23315255.405 7 121408630.63207      1200.497 7        44.555                                                                    23315248.059 5  98654462.33105       975.338 5        35.771
C06        50.000                                                                                                                                    39086293.003 4                     -1804.862 4        26.228    39086314.371 4                     -1396.319 4        29.024    39086313.467 4                     -1467.215 4        28.171
C44        52.000                                                                                                                                    25978465.881 5 135276623.40105       583.957 5        35.805                                                                    25978433.301 5                       474.561 5        30.257
C29        54.000                                                                                                                                    25354595.720 3                     -3808.833 3        23.657                                                                    25354612.696 5                     -3094.199 5        30.370
I06        59.000    37905645.500 6 148749893.90206      -597.035 6        36.189
> 2025 01 02 04 15 15.0000000  0 39
G03         1.000    23426356.674 4                     -4209.138 4        28.057
G26         2.000    24279870.684 4 127591637.76004     -2041.515 4        26.539
G20         4.000    23551208.811 6 123762456.45606      2469.808 6        40.639                                    23551201.572 3  96438265.61303      1924.511 3        20.071
G07         5.000    21658282.447 7 113815065.18307      1349.209 7        47.976                                    21658269.795 4  88687071.86304      1051.327 4        28.313
G09         6.000    19953881.480 8 104858354.11508     -1375.790 8        49.729                                    19953878.925 8  81707822.53108     -1072.045 8        49.745    19953879.220 7  81707809.54007     -1072.024 7        45.764
G30         7.000    24050889.471 6 126388295.90706      2734.131 6        39.898                                    24050880.588 3  98484372.77303      2130.488 3        21.214    24050881.102 3                      2129.648 3        22.419
E06        11.000                                                                                                                                                                                                    26431047.133 5 106426994.02405      1153.879 5        34.571
G04        12.000    21141836.593 7 111101379.69907     -2961.553 7        45.684                                    21141833.756 4  86572310.92304     -2307.699 4        28.607    21141832.038 7  86572267.92207     -2307.825 7        42.402
E12        13.000    24911317.682 6 130909868.53906     -3028.511 6        38.162                                                                    24911313.964 6  97757391.74006     -2261.534 6        39.973    24911313.188 6 100307571.99706     -2320.690 6        39.955
E29        14.000                                                                                                                                    26580687.502 4 104308409.04104     -2444.644 4        26.503
E11        16.000    24605341.646 5 129301860.36405      -134.947 5        30.883                                                                    24605319.402 6  96556571.57306      -100.647 6        40.336    24605320.255 7  99075446.97407      -103.210 7        42.110
E04        17.000    24443612.267 7 128452051.58707       792.841 7        46.944                                                                    24443608.944 7  95922042.00907       592.028 7        46.296    24443609.077 7  98424300.01507       607.473 7        47.046
R08        18.000    19473972.936 6 104282419.91706      -671.150 6        38.838                                                                    19473972.728 7  81108403.17007      -522.055 7        42.933
E19        20.000    23160442.296 5 121708957.17805     -1864.344 5        35.576                                                                    23160439.188 6  90886570.63606     -1392.211 6        38.841    23160442.274 6  93257511.69306     -1428.450 6        39.772
E36        22.000    27994072.475 5 147109845.53115      1889.557 5        33.940                                                                    27994070.121 4 109854743.00004      1410.977 4        27.341    27994073.871 5 112720522.68105      1447.680 5        35.210
S36        23.000    38133064.560 5 200390734.21005      -846.942 5        35.167
S23        24.000    38073942.506 6 200079850.58806      -842.725 6        40.236
G11        25.000    22340199.545 6 117398654.80906       602.671 6        38.483                                    22340188.429 1  91479336.54411       469.633 1        10.074    22340203.264 5  91479400.55305       469.706 5        35.319
R16        26.000                                                                                                                                    23903907.051 4                     -3452.571 4        24.662
R17        27.000    24031094.884 5 128595202.17905      2764.440 5        35.719                                                                    24031088.846 5 100018454.42805      2149.797 5        31.713
E10        29.000    24208380.839 7 127215986.76007     -1772.394 7        47.443                                                                    24208378.416 7  94998934.39107     -1323.517 7        42.736    24208378.966 7  97477254.71807     -1358.160 7        46.717
C20        31.000                                                                                                                                    21816317.167 8 113603445.53308     -1162.935 8        50.946                                                                    21816311.259 8  92311983.47508      -944.847 8        49.120
R10        32.000    21109552.833 4                      2091.781 4        29.924
R23        33.000    21568093.767 6 115374713.83506     -4449.344 6        36.783
R07        34.000    21183953.544 7 113399309.75407     -3408.334 7        43.568                                                                    21183953.742 5  88199499.64705     -2651.075 5        33.275
C32        36.000                                                                                                                                    24848663.865 6 129393487.18406     -3383.070 6        36.095                                                                    24848681.269 4 105142815.86804     -2748.771 4        29.308
R09        37.000    20931282.788 7 111771891.03807     -1290.513 7        47.096                                                                    20931280.792 7  86933730.94907     -1003.772 7        43.664
C23        40.000                                                                                                                                                                                                                                                                    24937612.274 4                     -2039.696 4        25.098
C35        41.000                                                                                                                                    24618875.732 6 128196896.61806     -1662.540 6        37.743                                                                    24618871.172 6 104170512.00706     -1350.788 6        36.359
C37        42.000                                                                                                                                    23284664.359 7 121249531.72907       346.931 7        43.790                                                                    23284663.283 6  98525022.57206       281.859 6        36.692
R24        43.000    21225031.358 7 113499641.76707      -344.355 7        45.505                                                                    21225029.228 6  88277581.77406      -267.882 6        40.956
R01        44.000    22127931.357 4 118286461.29304      2153.911 4        29.763                                                                    22127937.418 5                      1674.909 5        31.600
C16        45.000                                                                                                                                                                                                    39661403.782 4 159700031.28004     -1408.498 4        25.368
C09        47.000                                                                                                                                    38692996.492 6 201484634.87306     -1415.492 6        37.592    38693007.498 5 155800629.78405     -1094.610 5        35.271    38692990.233 4                     -1150.103 4        28.294
C19        48.000                                                                                                                                    23314102.907 7 121402630.42607      1199.367 7        43.585                                                                    23314096.010 5  98649586.67605       974.574 5        35.405
C06        50.000                                                                                                                                    39088027.188 4                     -1806.052 4        25.053    39088047.379 4                     -1396.676 4        29.109    39088046.458 4                     -1467.707 4        28.038
C44        52.000                                                                                                                                    25977903.778 5 135273709.55805       581.541 5        33.790                                                                    25977871.987 4                       472.536 4        29.573
C29        54.000                                                                                                                                    25358253.740 4                     -3809.245 4        24.211                                                                    25358269.544 4                     -3094.570 4        28.730
I06        59.000    37906405.455 6 148752878.55606      -597.085 6        36.423
> 2025 01 02 04 15 20.0000000  0 39
G03         1.000    23430363.816 4                     -4210.469 4        27.808
G26         2.000    24281806.064 4 127601852.04904     -2044.745 4        26.503
G20         4.000    23548858.948 6 123750108.20406      2469.474 6        39.462                                    23548851.489 3  96428643.59503      1924.263 3        18.925
G07         5.000    21656999.064 7 113808323.49807      1347.340 7        47.352                                    21656985.934 4  88681818.61204      1049.875 4        27.748    21657027.448 3                      1049.828 3        22.229
G09         6.000    19955191.524 8 104865236.88608     -1377.534 8        50.264                                    19955188.748 8  81713185.74108     -1073.408 8        50.040    19955188.877 7  81713172.74807     -1073.408 7        46.322
G30         7.000    24048287.647 6 126374626.41106      2733.676 6        40.324                                    24048278.783 3  98473721.20903      2130.131 3        21.190
E06        11.000                                                                                                                                    26429608.704 3 103715483.34303      1124.023 3        23.981    26429614.378 5 106421225.46805      1153.464 5        34.452
G04        12.000    21144654.785 7 111116190.05307     -2962.757 7        45.109                                    21144651.733 4  86583851.45404     -2308.643 4        28.436    21144650.817 7  86583808.45007     -2308.678 7        42.284
E12        13.000    24914200.563 6 130925015.25006     -3030.336 6        38.541                                                                    24914195.348 6  97768702.58706     -2262.844 6        38.489    24914195.573 6 100319177.92006     -2321.902 6        40.193
E29        14.000                                                                                                                                    26583802.785 4 104320635.56704     -2446.531 4        24.000
E11        16.000    24605471.741 4 129302539.01604      -136.651 4        26.862                                                                    24605448.778 6  96557078.38406      -102.343 6        40.560    24605449.385 7  99075967.00907      -104.963 7        42.165
E04        17.000    24442857.789 7 128448088.93707       792.079 7        46.589                                                                    24442854.729 7  95919082.89007       591.414 7        46.169    24442854.979 7  98421263.70207       606.875 7        47.421
R08        18.000    19474600.225 6 104285779.86906      -673.017 6        37.153                                                                    19474601.496 7  81111016.47107      -523.480 7        43.386
E19        20.000    23162216.967 5 121718280.34105     -1864.890 5        35.290                                                                    23162213.480 6  90893532.74806     -1392.817 6        38.646    23162216.493 6  93264655.43006     -1429.136 6        39.727
E36        22.000    27992271.331 5 147100398.05405      1888.950 5        34.800                                                                    27992272.427 4 109847688.11104      1410.473 4        27.437    27992276.370 5 112713283.69705      1447.367 5        34.805
S36        23.000    38133875.654 5 200394968.94105      -846.696 5        35.086
S23        24.000    38074742.582 6 200084063.82206      -842.640 6        40.062
G11        25.000    22339628.596 6 117395648.33106       599.776 6        40.970                                    22339618.338 1  91476993.86901       467.379 1        11.481    22339630.329 5  91477057.86605       467.303 5        35.657
R16        26.000                                                                                                                                    23908062.213 4                     -3452.537 4        24.226
R17        27.000    24028520.127 6 128581384.66406      2762.520 6        36.159                                                                    24028507.330 5 100007707.44705      2149.048 5        30.106
E10        29.000    24210068.222 7 127224854.31407     -1774.730 7        46.866                                                                    24210065.783 7  95005556.27307     -1325.382 7        42.728    24210066.386 7  97484049.33507     -1359.836 7        46.705
C20        31.000                                                                                                                                    21817434.365 8 113609263.03308     -1164.193 8        51.040                                                                    21817428.496 8  92316710.66408      -945.928 8        48.847
R10        32.000    21107596.578 5                      2088.450 5        32.359
R23        33.000    21572252.720 6 115396966.36306     -4451.771 6        36.242
R07        34.000    21187138.464 7 113416353.18007     -3409.258 7        45.362                                                                    21187136.901 5  88212755.64105     -2651.567 5        35.476
C32        36.000                                                                                                                                    24851912.331 5 129410403.05205     -3383.577 5        35.881                                                                    24851931.185 4 105156561.36504     -2749.088 4        27.653
R09        37.000    20932492.538 7 111778353.88207     -1294.781 7        46.487                                                                    20932491.439 7  86938757.62107     -1007.100 7        44.379
C23        40.000                                                                                                                                    24940030.509 4 129869406.82604     -2513.893 4        26.072                                                                    24940028.131 4                     -2043.444 4        24.707
C35        41.000                                                                                                                                    24620473.966 6 128205214.87706     -1665.051 6        38.330                                                                    24620468.220 5 104177271.28005     -1352.679 5        35.905
C37        42.000                                                                                                                                    23284328.875 7 121247802.31307       344.598 7        43.221                                                                    23284330.960 6  98523617.24506       280.092 6        36.363
R24        43.000    21225354.725 7 113501374.23007      -348.640 7        44.995                                                                    21225353.569 6  88278929.28506      -271.283 6        40.372
R01        44.000    22125915.395 5                      2153.151 5        32.515                                                                    22125922.358 5                      1674.248 5        30.913
C16        45.000                                                                                                                                                                                                    39663150.218 4 159707078.63604     -1409.631 4        24.737
C09        47.000                                                                                                                                    38694356.436 6 201491712.20106     -1415.703 6        38.438    38694368.068 5 155806102.43105     -1094.768 5        35.490    38694349.580 4                     -1150.376 4        28.616
C19        48.000                                                                                                                                    23312950.913 7 121396635.10307      1198.696 7        42.982                                                                    23312944.794 5  98644714.94405       974.191 5        34.043
C06        50.000                                                                                                                                    39089761.493 4                     -1806.855 4        27.018    39089779.722 4                     -1397.205 4        28.844    39089781.322 4                     -1467.586 4        27.222
C44        52.000                                                                                                                                    25977341.109 5 135270808.30405       578.914 5        31.721                                                                    25977313.785 4                       470.334 4        29.100
C29        54.000                                                                                                                                    25361918.060 4                     -3809.462 4        24.887                                                                    25361927.269 4                     -3095.678 4        27.030
I06        59.000    37907166.036 6 148755863.77106      -596.811 6        36.435
> 2025 01 02 04 15 25.0000000  0 39
G03         1.000    23434369.218 4                     -4211.172 4        28.180
G26         2.000    24283754.565 3 127612082.17403     -2047.854 3        23.771
G20         4.000    23546509.595 6 123737763.73406      2468.330 6        37.482                                    23546502.143 3  96419024.54203      1923.354 3        18.388
G07         5.000    21655718.277 7 113801592.78807      1345.020 7        47.181                                    21655704.832 4  88676573.90404      1048.065 4        26.994    21655736.732 4                      1048.219 4        26.754
G09         6.000    19956503.346 8 104872130.59708     -1379.904 8        49.929                                    19956500.601 8  81718557.47008     -1075.258 8        49.876    19956500.476 7  81718544.47407     -1075.275 7        46.458
G30         7.000    24045686.853 6 126360960.60806      2732.673 6        40.944                                    24045677.868 3  98463072.53403      2129.355 3        20.095
E06        11.000    26428225.085 5 138880994.54905      1504.697 5        33.018                                                                    26428179.324 3 103709864.22903      1122.108 3        23.562    26428182.126 5 106415459.71905      1152.996 5        34.086
G04        12.000    21147474.472 7 111131007.88407     -2964.297 7        44.378                                    21147471.100 4  86595397.82204     -2309.847 4        27.665    21147470.401 6  86595354.80506     -2309.833 6        41.511
E12        13.000    24917085.129 6 130940171.80506     -3032.310 6        39.024                                                                    24917078.584 6  97780020.79506     -2264.396 6        37.361    24917079.553 6 100330791.39306     -2323.512 6        40.000
G06        15.000                                                                                                                                                                    21307942.535 5  87252370.29705     -1590.866 5        35.881
E11        16.000    24605595.443 3                      -140.856 3        18.358                                                                    24605580.180 6  96557594.62806      -104.242 6        40.896    24605580.933 6  99076496.71906      -106.930 6        41.900
E04        17.000    24442104.868 7 128444132.06807       790.716 7        46.732                                                                    24442101.668 7  95916128.08107       590.527 7        46.088    24442102.042 7  98418231.81707       605.886 7        47.402
R08        18.000    19475230.624 6 104289150.18206      -675.134 6        36.824                                                                    19475230.072 7  81113637.84207      -525.111 7        43.266
E19        20.000    23163992.552 6 121727609.54506     -1866.613 6        36.261                                                                    23163989.009 6  90900499.34706     -1393.917 6        38.580    23163991.555 6  93271803.75906     -1430.057 6        39.348
E36        22.000    27990474.956 5 147090956.37705      1887.701 5        35.252                                                                    27990474.618 4 109840637.47704      1410.173 4        27.569    27990479.977 5 112706049.16305      1446.344 5        34.190
S36        23.000    38134686.610 5 200399204.22305      -847.186 5        35.200
S23        24.000    38075542.716 6 200088277.67706      -842.826 6        39.877
G11        25.000    22339060.858 7 117392657.86107       596.440 7        42.480                                    22339051.108 2  91474663.64702       464.783 2        12.788    22339063.211 6  91474727.66006       464.674 6        36.480
R16        26.000                                                                                                                                    23912225.861 3                     -3454.774 3        23.829
R17        27.000    24025949.082 6 128567578.95806      2759.888 6        36.560                                                                    24025922.838 4  99996969.65304      2146.930 4        29.118
E10        29.000    24211758.087 7 127233734.64007     -1777.444 7        46.262                                                                    24211755.761 7  95012187.68207     -1327.329 7        43.039    24211756.206 7  97490853.73607     -1361.812 7        46.597
C20        31.000                                                                                                                                    21818553.188 8 113615088.57908     -1165.945 8        51.475                                                                    21818547.309 8  92321444.40308      -947.369 8        48.899
R10        32.000    21105641.080 5                      2084.449 5        33.395
R23        33.000    21576411.592 5 115419232.40705     -4454.603 5        33.551
R07        34.000    21190325.249 7 113433402.92007     -3410.593 7        47.052                                                                    21190320.847 6  88226016.52206     -2652.631 6        37.172
C32        36.000                                                                                                                                    24855158.992 6 129427322.69606     -3384.594 6        36.019
R09        37.000    20933706.857 7 111784839.77707     -1299.534 7        46.704                                                                    20933706.046 7  86943802.19507     -1010.738 7        46.093
C23        40.000                                                                                                                                    24942445.735 5 129881982.02205     -2516.270 5        32.018                                                                    24942448.187 4                     -2044.774 4        24.917
C35        41.000                                                                                                                                    24622075.508 6 128213546.70306     -1667.802 6        38.444                                                                    24622067.868 5 104184041.59205     -1355.214 5        34.938
C37        42.000                                                                                                                                    23283997.922 7 121246086.63107       341.832 7        42.914                                                                    23284001.893 6  98522223.10506       277.904 6        36.340
R24        43.000    21225681.101 7 113503130.14507      -353.538 7        44.330                                                                    21225679.418 6  88280295.02506      -274.899 6        38.429
R01        44.000    22123901.869 5 118264933.14115      2152.054 5        33.641                                                                    22123909.841 5                      1673.891 5        31.441
C16        45.000                                                                                                                                                                                                    39664903.834 3                     -1412.196 3        23.010
C09        47.000                                                                                                                                    38695716.423 6 201498792.01206     -1416.107 6        38.718    38695728.093 5 155811576.99705     -1095.276 5        35.843    38695707.701 4                     -1150.659 4        28.427
C19        48.000                                                                                                                                    23311800.428 7 121390644.65607      1197.632 7        43.043                                                                    23311794.366 5  98639847.24105       973.258 5        33.180
C06        50.000                                                                                                                                    39091497.069 4                     -1806.907 4        28.275    39091515.293 4                     -1397.238 4        29.943    39091516.992 4                     -1468.520 4        26.994
