     3.04           OBSERVATION DATA    M                   RINEX VERSION / TYPE
ssrcrin-15.6.1x                         20250102 054500 UTC PGM / RUN BY / DATE 
(00000000023479385599111004) Septentrio proprietary         COMMENT             
ract                                                        MARKER NAME         
01                                                          MARKER NUMBER       
geodetic                                                    MARKER TYPE         
NFB                 CLIMERS@TUW                             OBSERVER / AGENCY   
3296359             SEPT ASTERX SB3 PROB4.14.4              REC # / TYPE / VERS 
Unknown             Unknown                                 ANT # / TYPE        
  4127445.5931  1206914.8203  4695542.7182                  APPROX POSITION XYZ 
        0.0000        0.0000        0.0000                  ANTENNA: DELTA H/E/N
G   23 X1  C1C L1C D1C S1C C1W S1W C2W L2W D2W S2W C2L L2L  SYS / # / OBS TYPES 
       D2L S2L C5Q L5Q D5Q S5Q C1L L1L D1L S1L              SYS / # / OBS TYPES 
E   21 X1  C1C L1C D1C S1C C6C L6C D6C S6C C5Q L5Q D5Q S5Q  SYS / # / OBS TYPES 
       C7Q L7Q D7Q S7Q C8Q L8Q D8Q S8Q                      SYS / # / OBS TYPES 
S    9 X1  C1C L1C D1C S1C C5I L5I D5I S5I                  SYS / # / OBS TYPES 
R   17 X1  C1C L1C D1C S1C C2P L2P D2P S2P C2C L2C D2C S2C  SYS / # / OBS TYPES 
       C3Q L3Q D3Q S3Q                                      SYS / # / OBS TYPES 
C   25 X1  C1P L1P D1P S1P C5P L5P D5P S5P C2I L2I D2I S2I  SYS / # / OBS TYPES 
       C7I L7I D7I S7I C6I L6I D6I S6I C7D L7D D7D S7D      SYS / # / OBS TYPES 
J   17 X1  C1C L1C D1C S1C C2L L2L D2L S2L C5Q L5Q D5Q S5Q  SYS / # / OBS TYPES 
       C1L L1L D1L S1L                                      SYS / # / OBS TYPES 
I    5 X1  C5A L5A D5A S5A                                  SYS / # / OBS TYPES 
SEPTENTRIO RECEIVERS OUTPUT ALIGNED CARRIER PHASES.         COMMENT             
NO FURTHER PHASE SHIFT APPLIED IN THE RINEX ENCODER.        COMMENT             
G L1C                                                       SYS / PHASE SHIFT   
G L2W                                                       SYS / PHASE SHIFT   
G L2L  0.00000                                              SYS / PHASE SHIFT   
G L5Q  0.00000                                              SYS / PHASE SHIFT   
G L1L  0.00000                                              SYS / PHASE SHIFT   
E L1C  0.00000                                              SYS / PHASE SHIFT   
E L6C  0.00000                                              SYS / PHASE SHIFT   
E L5Q  0.00000                                              SYS / PHASE SHIFT   
E L7Q  0.00000                                              SYS / PHASE SHIFT   
E L8Q  0.00000                                              SYS / PHASE SHIFT   
S L1C                                                       SYS / PHASE SHIFT   
S L5I                                                       SYS / PHASE SHIFT   
R L1C                                                       SYS / PHASE SHIFT   
R L2P  0.00000                                              SYS / PHASE SHIFT   
R L2C                                                       SYS / PHASE SHIFT   
R L3Q  0.00000                                              SYS / PHASE SHIFT   
C L1P  0.00000                                              SYS / PHASE SHIFT   
C L5P  0.00000                                              SYS / PHASE SHIFT   
C L2I                                                       SYS / PHASE SHIFT   
C L7I                                                       SYS / PHASE SHIFT   
C L6I                                                       SYS / PHASE SHIFT   
C L7D                                                       SYS / PHASE SHIFT   
J L1C                                                       SYS / PHASE SHIFT   
J L2L  0.00000                                              SYS / PHASE SHIFT   
J L5Q  0.00000                                              SYS / PHASE SHIFT   
J L1L  0.00000                                              SYS / PHASE SHIFT   
I L5A                                                       SYS / PHASE SHIFT   
  2025     1     2     5    45    0.0000000     GPS         TIME OF FIRST OBS   
 C1C    0.000 C2C    0.000 C2P    0.000                     GLONASS COD/PHS/BIS 
DBHZ                                                        SIGNAL STRENGTH UNIT
    18                                                      LEAP SECONDS        
 24 R01  1 R02 -4 R03  5 R04  6 R05  1 R06 -4 R07  5 R08  6 GLONASS SLOT / FRQ #
    R09 -2 R10 -7 R11  0 R12 -1 R13 -2 R14 -7 R15  0 R16 -1 GLONASS SLOT / FRQ #
    R17  4 R18 -3 R19  3 R20  2 R21  4 R22 -3 R23  3 R24  2 GLONASS SLOT / FRQ #
                                                            END OF HEADER       
> 2025 01 02 05 45  0.0000000  0 42
G13         1.000    24248365.884 5                      2453.417 5        32.593
G16         2.000    24256955.100 4                     -3238.830 4        24.391
G20         4.000    20878058.952 6 109715425.69506       584.717 6        39.649                                    20878048.932 3  85492168.54203       455.625 3        21.452
G07         5.000    20692789.782 7 108741376.08107     -1257.391 7        43.968                                    20692787.400 6  84733548.49006      -979.785 6        39.492    20692786.104 7  84733494.50107      -979.875 7        42.561
G09         6.000    21473233.849 6 112842580.41606     -3205.472 6        37.822                                    21473232.829 3  87929296.81403     -2497.782 3        19.642    21473266.018 5  87929280.86805     -2497.760 5        33.880
G30         7.000    21045179.716 7 110593188.42307      1078.704 7        44.504                                    21045179.118 6  86176433.15006       840.552 6        39.667    21045177.368 6  86176481.14506       840.552 6        40.996
E21        10.000    25722906.761 7 135174834.74407      -339.427 7        45.601                                                                    25722905.275 6 100942222.71606      -253.493 6        40.713    25722905.774 6 103575513.34606      -260.180 6        38.405
E06        11.000    24366182.960 7 128045155.60407       740.325 7        42.265                                                                    24366182.373 7  95618172.81507       552.961 7        44.113    24366184.173 7  98112537.55407       567.310 7        46.159
G04        12.000    23845633.850 3                     -3905.873 3        21.119
E12        13.000    27834815.462 4                     -4101.626 4        25.549                                                                    27834816.917 4 109229769.44304     -3062.649 4        25.233    27834814.459 4 112079248.79504     -3142.800 4        24.316
G05        14.000    23090349.745 7 121340868.31007      2416.060 7        42.497                                    23090346.520 5  94551301.71605      1882.645 5        32.138    23090344.728 5  94551112.72705      1882.703 5        34.090
G06        15.000    23892752.271 5 125557253.62805     -4295.703 5        35.271                                                                                                    23892750.546 5                     -3347.199 5        33.287
E11        16.000    25219522.034 5 132529472.12505     -2744.312 5        30.528                                                                    25219513.044 5  98966815.26805     -2049.403 5        35.443    25219513.444 5 101548527.18905     -2102.941 5        30.687
E04        17.000    23310528.816 6 122497694.46506      -335.700 6        39.931                                                                    23310526.843 7  91475584.99907      -250.775 7        46.054    23310526.038 7  93861834.38007      -257.259 7        46.060
R08        18.000    20346502.216 5                     -2872.170 5        35.714                                                                    20346492.064 6  84742456.42906     -2233.995 6        38.991
E19        20.000    24660073.063 5 129589559.11205     -2734.364 5        34.267                                                                    24660067.537 5  96771424.67605     -2041.740 5        34.600    24660077.355 5  99295883.99705     -2095.262 5        32.898
E09        21.000    26373720.006 6 138594854.80706      1356.511 6        36.208                                                                    26373722.045 6 103496156.96706      1013.006 6        40.191    26373719.323 6 106196067.12406      1039.565 6        37.059
E36        22.000    26050696.313 6 136897365.05506      -122.765 6        39.477                                                                    26050696.051 7 102228526.91607       -91.675 7        46.186    26050696.027 7 104895350.70607       -94.060 7        46.905
S36        23.000    38103622.762 5 200235984.95805      -851.308 5        34.109
S23        24.000    38040506.029 6 199904230.12906      -848.133 6        38.246
G11        25.000    22638375.270 6 118965745.60406     -2848.809 6        40.424                                    22638379.563 2  92700380.89102     -2219.832 2        14.762    22638370.582 5  92700294.63005     -2219.649 5        33.162
R17        27.000    22185070.971 6 118716784.66206     -1299.690 6        41.790                                                                    22185067.496 6  92335237.17606     -1010.700 6        38.075
R18        28.000    23741041.921 4                      1662.866 4        29.772                                                                    23741011.530 4  98568596.87104      1293.491 4        29.431
E10        29.000    26283128.354 6 138118760.18506     -3764.285 6        39.523                                                                    26283125.733 6 103140625.87506     -2811.165 6        36.272    26283125.942 5                     -2884.371 5        32.898
R11        30.000    20068157.026 7 107238138.04407      1786.024 7        47.688                                                                    20068153.761 7  83407432.49507      1389.027 7        45.992
C20        31.000                                                                                                                                    22976628.880 6 119645306.88306     -2822.027 6        40.136                                                                    22976623.807 7  97221623.21707     -2293.054 7        43.917
R10        32.000    20365943.086 5 108561929.04205     -2572.894 5        32.958
C36        34.000                                                                                                                                    25072485.568 5 130559020.98905      2586.841 5        34.386                                                                    25072484.061 4 106089907.34204      2102.284 4        29.972
R02        35.000    23131800.369 5 123435807.01805      2593.547 5        30.958
R09        37.000    23405646.265 5                     -4840.947 5        32.245                                                                    23405625.193 3                     -3765.303 3        22.724
C05        38.000                                                                                                                                                                                                    39129594.937 5 157558630.78505      -698.494 5        35.176
C35        41.000                                                                                                                                    26572404.145 4                     -3469.622 4        25.248                                                                    26572407.666 3                     -2823.702 3        21.786
C37        42.000                                                                                                                                    23571916.198 7 122745137.31107     -2574.010 7        47.768                                                                    23571919.413 6  99740581.27906     -2091.411 6        41.564
R24        43.000    22927861.962 5                     -4321.150 5        35.076                                                                    22927848.865 4                     -3360.648 4        29.791
R01        44.000    19622780.648 7 104895015.14607       798.630 7        43.101                                                                    19622779.080 5  81584994.45205       621.096 5        34.562
C09        47.000                                                                                                                                    39406632.240 5 205200611.00605     -1639.400 5        33.725    39406613.078 5 158674044.56005     -1267.754 5        31.615    39406598.834 4                     -1332.090 4        29.706
C19        48.000                                                                                                                                    21811166.422 7 113576629.20307      -197.241 7        46.051                                                                    21811160.130 6  92290167.00306      -160.238 6        41.147
C22        51.000                                                                                                                                    24525103.915 5 127708694.28405      1963.561 5        34.395                                                                    24525094.741 5 103773716.77705      1595.933 5        34.643
C44        52.000                                                                                                                                                                                                                                                                    25921239.577 5                     -1760.898 5        30.083
C12        54.000                                                                                                                                    26162609.943 5                      -936.016 5        31.140    26162606.606 6 105346019.33006      -723.860 6        38.330    26162599.444 5 110702518.22505      -760.273 5        32.449
I09        57.000    38342606.463 6 150464604.55006     -1138.197 6        36.609
I06        59.000    37855359.251 4 148552557.71904      -639.986 4        28.872
> 2025 01 02 05 45  5.0000000  0 41
G13         1.000    24246036.088 5                      2453.268 5        32.401
G20         4.000    20877504.392 6 109712509.17706       581.889 6        39.426                                    20877493.923 3  85489895.92903       453.439 3        21.619
G07         5.000    20693987.765 7 108747669.02307     -1259.761 7        43.947                                    20693984.834 6  84738452.08806      -981.629 6        38.727    20693982.934 6  84738398.08106      -981.671 6        41.700
G09         6.000    21476284.618 6 112858611.35106     -3206.791 6        37.308                                    21476285.243 3  87941788.47403     -2498.787 3        19.164
G30         7.000    21044155.017 7 110587801.03407      1076.364 7        43.845                                    21044153.422 6  86172235.18006       838.726 6        38.649    21044151.868 6  86172283.19706       838.659 6        40.853
E21        10.000    25723230.658 7 135176537.83607      -341.887 7        45.672                                                                    25723228.920 6 100943494.50806      -255.313 6        40.522    25723229.824 6 103576818.32406      -262.053 6        39.261
E06        11.000    24365479.298 6 128041455.61006       739.603 6        41.914                                                                    24365478.048 7  95615409.83307       552.345 7        43.731    24365479.911 7  98109702.48707       566.748 7        46.071
G04        12.000    23849350.873 3                     -3904.564 3        20.595                                                                                                    23849367.841 3                     -3044.776 3        23.448
E12        13.000    27838717.668 4                     -4101.578 4        25.594                                                                    27838718.999 4 109245082.55104     -3061.645 4        24.030
G05        14.000    23088051.895 7 121328791.53007      2414.697 7        43.336                                    23088047.207 5  94541891.24505      1881.584 5        32.174    23088046.330 5  94541702.25705      1881.473 5        34.310
G06        15.000    23896839.415 5 125578733.65405     -4296.320 5        35.290                                                                                                    23896837.130 5                     -3347.868 5        33.317
E11        16.000    25222133.081 5 132543198.73805     -2746.360 5        32.653                                                                    25222124.733 5  98977065.60205     -2050.676 5        34.752    25222125.442 5 101559044.96805     -2104.368 5        32.210
E04        17.000    23310848.347 6 122499376.38306      -336.857 6        38.925                                                                    23310846.746 7  91476840.98207      -251.544 7        45.995    23310846.151 7  93863123.11707      -258.092 7        46.026
R08        18.000    20349183.447 6 108968967.82516     -2874.577 6        36.234                                                                    20349175.920 6  84753630.51406     -2235.624 6        40.281
E19        20.000    24662673.883 5 129603231.30505     -2734.759 5        34.790                                                                    24662668.624 5  96781634.42705     -2042.022 5        34.343    24662687.981 5  99306360.17805     -2095.431 5        32.832
E09        21.000    26372430.928 5 138588073.29605      1355.991 5        34.067                                                                    26372430.821 6 103491092.86206      1012.549 6        39.586    26372429.265 6 106190870.92606      1039.006 6        36.820
E36        22.000    26050813.802 6 136897985.34106      -125.278 6        39.529                                                                    26050814.170 7 102228990.13107       -93.625 7        46.453    26050813.898 7 104895825.99607       -96.027 7        46.629
S36        23.000    38104425.449 5 200240241.51605      -851.012 5        33.665
S23        24.000    38041321.559 6 199908470.22006      -847.991 6        38.802
G11        25.000    22641089.358 6 118979996.01606     -2851.290 6        39.934                                    22641092.300 2  92711485.09902     -2221.700 2        12.424    22641077.382 4  92711398.64104     -2221.583 4        28.275
R17        27.000    22186287.352 7 118723293.99207     -1304.174 7        43.270                                                                    22186283.781 6  92340299.99206     -1014.316 6        37.282
R18        28.000    23739490.062 4                      1659.429 4        29.763                                                                    23739453.522 4  98562136.89004      1290.088 4        28.190
E10        29.000    26286710.441 6 138137584.43006     -3765.317 6        39.066                                                                    26286708.307 6 103154682.94706     -2811.978 6        36.340    26286706.790 5 105845674.15815     -2884.886 5        34.095
R11        30.000    20066487.822 7 107229217.16807      1782.310 7        47.450                                                                    20066484.667 7  83400494.03507      1386.237 7        46.218
C20        31.000                                                                                                                                    22979340.995 6 119659421.20106     -2823.637 6        41.137                                                                    22979334.025 7  97233092.27807     -2294.526 7        43.583
R10        32.000    20368358.957 5 108574803.70905     -2576.655 5        32.982
C36        34.000                                                                                                                                    25070004.202 6 130546088.41206      2586.174 6        36.590                                                                    25070002.711 5 106079398.61105      2101.150 5        31.623
R02        35.000    23129369.950 5 123422839.17105      2593.364 5        32.784                                                                    23129365.878 6  95995652.64816      2016.931 6        36.533
R09        37.000    23410188.249 5                     -4842.596 5        32.120                                                                    23410165.419 3                     -3766.627 3        23.829
C05        38.000                                                                                                                                                                                                    39130463.053 5 157562122.56105      -698.435 5        35.210
C35        41.000                                                                                                                                    26575743.347 4                     -3470.711 4        25.820                                                                    26575743.550 3                     -2819.297 3        22.819
C37        42.000                                                                                                                                    23574388.482 7 122758012.77707     -2576.232 7        46.611                                                                    23574391.988 6  99751043.66506     -2093.511 6        41.495
R24        43.000    22931913.216 6 122627186.97116     -4323.387 6        36.582                                                                    22931893.412 4                     -3362.646 4        29.668
R01        44.000    19622033.189 6 104891027.10606       796.639 6        41.838                                                                    19622032.460 5  81581892.67705       619.376 5        35.333
C09        47.000                                                                                                                                    39408204.165 5 205208808.32305     -1639.391 5        33.892    39408189.517 5 158680383.23905     -1267.541 5        30.777    39408173.064 4                     -1332.130 4        29.564
C19        48.000                                                                                                                                    21811357.089 7 113577620.05507      -198.982 7        45.552                                                                    21811350.435 6  92290972.15906      -161.781 6        41.452
C22        51.000                                                                                                                                    24523219.309 5 127698876.36305      1963.317 5        35.295                                                                    24523209.482 5 103765738.95205      1595.334 5        33.766
C44        52.000                                                                                                                                                                                                                                                                    25923325.580 4                     -1762.564 4        29.915
C12        54.000                                                                                                                                    26163508.944 5                      -938.728 5        30.725    26163509.174 6 105349643.77206      -726.055 6        38.480    26163499.531 5 110706326.92905      -762.710 5        31.245
I09        57.000    38344056.459 6 150470295.36306     -1138.127 6        37.055
I06        59.000    37856175.143 4 148555758.69904      -640.498 4        29.336
> 2025 01 02 05 45 10.0000000  0 41
G13         1.000    24243708.975 5                      2452.811 5        32.365
G20         4.000    20876951.739 6 109709606.98906       579.099 6        41.454                                    20876941.704 3  85487634.47003       451.248 3        22.609
G07         5.000    20695187.498 7 108753973.67007     -1262.161 7        44.427                                    20695184.306 6  84743364.80106      -983.497 6        38.156    20695181.865 6  84743310.78506      -983.553 6        40.539
G09         6.000    21479334.802 6 112874648.91606     -3208.258 6        37.168                                    21479338.722 3  87954285.29503     -2499.942 3        19.493
G30         7.000    21043131.446 7 110582424.99307      1073.988 7        42.889                                    21043129.925 6  86168046.04706       836.872 6        37.811    21043128.832 6  86168094.06206       836.844 6        40.687
E21        10.000    25723557.146 7 135178253.20807      -344.393 7        45.851                                                                    25723555.249 6 100944775.48306      -257.225 6        40.374    25723556.771 6 103578132.70406      -263.798 6        39.859
E06        11.000    24364776.208 6 128037759.67206       738.705 6        41.759                                                                    24364774.716 7  95612649.88207       551.578 7        43.598    24364776.271 7  98106870.53507       565.982 7        45.615
G04        12.000    23853077.067 3                     -3907.415 3        22.019                                                                                                    23853084.086 4                     -3044.571 4        24.226
E12        13.000    27842619.682 4                     -4101.069 4        25.353                                                                    27842621.598 3                     -3063.765 3        23.562    27842619.493 3                     -3143.372 3        23.695
G05        14.000    23085755.177 7 121316721.73107      2413.114 7        44.602                                    23085749.222 5  94532486.20705      1880.345 5        32.186    23085749.665 5  94532297.20805      1880.274 5        33.353
G06        15.000    23900927.680 5 125600217.08705     -4297.072 5        35.414                                                                                                    23900923.844 5                     -3348.317 5        33.072
E11        16.000    25224748.239 5 132556935.44505     -2748.445 5        32.683                                                                    25224739.039 5  98987323.54905     -2052.349 5        34.738    25224739.275 5 101569570.45905     -2105.667 5        32.713
E04        17.000    23311168.761 6 122501063.62906      -338.116 6        37.070                                                                    23311167.839 7  91478100.93707      -252.436 7        45.660    23311167.351 7  93864415.95707      -259.100 7        46.452
R08        18.000    20351864.250 6 108983344.90006     -2876.593 6        36.979                                                                    20351860.073 6  84764812.63006     -2237.299 6        39.513
E19        20.000    24665276.131 5 129616906.65005     -2735.405 5        34.062                                                                    24665271.280 5  96791846.54905     -2042.664 5        34.152    24665293.777 5  99316838.76105     -2096.049 5        32.958
E09        21.000    26371141.760 5 138581293.95905      1355.748 5        33.245                                                                    26371140.168 6 103486030.36706      1012.358 6        38.399    26371139.708 6 106185676.37206      1038.540 6        37.270
E36        22.000    26050934.352 6 136898618.22606      -127.759 6        38.631                                                                    26050934.649 7 102229462.73507       -95.488 7        46.625    26050934.089 7 104896310.93407       -98.005 7        46.500
S36        23.000    38105236.624 5 200244498.18305      -851.837 5        33.102
S23        24.000    38042124.139 6 199912710.28506      -848.035 6        38.820
G11        25.000    22643801.013 6 118994259.57506     -2854.148 6        38.547                                    22643807.939 1  92722599.66501     -2224.021 1         8.857    22643780.304 4  92722513.01604     -2223.938 4        27.760
R17        27.000    22187509.364 7 118729825.44407     -1308.519 7        43.390                                                                    22187504.228 6  92345379.97406     -1017.755 6        37.153
R18        28.000    23737947.625 4                      1655.960 4        28.218                                                                    23737892.408 4                      1288.668 4        27.940
E10        29.000    26290293.163 6 138156413.69606     -3766.369 6        37.176                                                                    26290291.540 6 103168743.75106     -2812.520 6        36.544    26290287.104 5 105860101.81405     -2885.937 5        34.929
R11        30.000    20064821.209 7 107220314.80107      1778.624 7        47.255                                                                    20064818.920 7  83393569.98007      1383.410 7        46.267
C20        31.000                                                                                                                                    22982054.255 7 119673543.08607     -2825.139 7        42.768                                                                    22982045.823 7  97244567.46207     -2295.647 7        43.003
R10        32.000    20370776.482 5 108587699.26205     -2581.291 5        30.045
C36        34.000                                                                                                                                    25067521.297 6 130533158.61306      2585.717 6        37.909                                                                    25067521.575 5 106068892.11605      2100.639 5        33.180
R02        35.000    23126944.832 5 123409871.59605      2593.362 5        34.590                                                                    23126939.042 6  95985566.71406      2016.998 6        36.854
R09        37.000    23414721.110 5                     -4844.114 5        31.947                                                                    23414702.569 4                     -3766.859 4        24.857
C05        38.000                                                                                                                                                                                                    39131331.407 5 157565614.45905      -698.409 5        35.267
C35        41.000                                                                                                                                    26579077.264 4                     -3471.229 4        25.865                                                                    26579079.139 3                     -2820.337 3        23.295
C37        42.000                                                                                                                                    23576863.008 7 122770899.76107     -2578.525 7        46.270                                                                    23576866.858 6  99761515.37206     -2095.288 6        41.602
R24        43.000    22935958.423 5 122648808.06215     -4325.296 5        35.833                                                                    22935937.346 5                     -3364.131 5        30.075
R01        44.000    19621289.210 7 104887049.36407       794.502 7        43.128                                                                    19621289.136 5  81578798.82205       618.055 5        35.633
C09        47.000                                                                                                                                    39409779.245 5 205217005.98905     -1639.671 5        35.024    39409763.302 5 158686722.17905     -1267.622 5        31.079    39409747.151 4                     -1332.112 4        29.839
C19        48.000                                                                                                                                    21811548.854 7 113578619.85607      -200.868 7        45.688                                                                    21811542.439 6  92291784.57206      -163.250 6        41.299
C22        51.000                                                                                                                                    24521336.975 6 127689060.64206      1962.780 6        36.359                                                                    24521323.893 5 103757762.89105      1594.801 5        32.533
C44        52.000                                                                                                                                    25925436.431 3 135000442.51613     -2171.875 3        23.924                                                                    25925412.446 4                     -1764.598 4        28.322
C12        54.000                                                                                                                                    26164411.765 5                      -941.412 5        30.468    26164412.173 6 105353278.80506      -728.091 6        37.153    26164402.102 5 110710146.78605      -764.822 5        31.049
I09        57.000    38345507.306 6 150475986.83206     -1138.375 6        37.115
I06        59.000    37856989.985 4 148558959.93804      -640.538 4        29.299
> 2025 01 02 05 45 15.0000000  0 41
G13         1.000    24241376.501 5                      2452.473 5        32.647
G20         4.000    20876402.425 7 109706718.88207       576.162 7        43.977                                    20876392.388 3  85485384.00803       448.960 3        23.295
G07         5.000    20696389.031 7 108760289.77507     -1264.406 7        44.822                                    20696385.697 6  84748286.44406      -985.253 6        37.312    20696383.609 6  84748232.43206      -985.236 6        38.000
G09         6.000    21482386.162 5 112890692.88505     -3209.231 5        35.162                                    21482393.100 3  87966787.08303     -2500.703 3        18.776    21482389.517 5  87966771.12305     -2500.926 5        31.192
G30         7.000    21042109.945 6 110577060.07906      1071.721 6        41.874                                    21042108.589 6  86163865.60206       835.103 6        37.255    21042108.185 6  86163913.60806       835.161 6        41.004
E21        10.000    25723885.912 7 135179980.64807      -346.862 7        45.655                                                                    25723883.781 6 100946065.45506      -258.907 6        40.379    25723885.903 6 103579456.33206      -265.684 6        40.682
E06        11.000    24364073.836 6 128034067.56006       737.968 6        41.695                                                                    24364071.959 7  95609892.77607       551.101 7        43.520    24364072.907 7  98104041.50907       565.395 7        45.216
G04        12.000    23856800.332 3                     -3909.567 3        23.333                                                                                                    23856802.513 4                     -3045.581 4        26.204
E12        13.000    27846521.785 4                     -4099.918 4        24.917                                                                    27846524.488 3                     -3062.307 3        21.810    27846522.915 3                     -3143.200 3        23.562
G05        14.000    23083459.282 7 121304658.77907      2411.841 7        44.981                                    23083452.480 5  94523086.50805      1879.351 5        32.162    23083453.569 5  94522897.53305      1879.097 5        32.946
G06        15.000    23905016.839 6 125621703.61706     -4297.764 6        36.113                                    23905041.449 1  97887148.08811     -3348.899 1         7.750    23905012.951 5                     -3348.771 5        32.910
E11        16.000    25227365.964 5 132570682.01805     -2750.579 5        32.347                                                                    25227355.034 5  98997588.84105     -2053.798 5        34.314    25227355.169 5 101580103.59305     -2107.299 5        34.067
E04        17.000    23311490.776 6 122502756.03006      -339.165 6        38.003                                                                    23311489.801 7  91479364.72507      -253.166 7        45.676    23311489.472 7  93865712.70907      -259.725 7        46.548
R08        18.000    20354547.235 6 108997732.09206     -2878.511 6        39.970                                                                    20354545.716 6  84776002.61906     -2238.732 6        38.520
E19        20.000    24667879.869 5 129630584.91205     -2735.857 5        34.152                                                                    24667874.379 5  96802060.80905     -2043.271 5        34.214    24667894.768 5  99327319.45505     -2096.143 5        32.844
E09        21.000    26369852.571 5 138574516.59205      1355.273 5        33.856                                                                    26369850.680 6 103480969.31806      1012.122 6        37.974    26369850.466 6 106180483.30406      1038.457 6        37.089
E36        22.000    26051057.417 6 136899263.48006      -130.227 6        38.135                                                                    26051057.365 7 102229944.59207       -97.398 7        46.778    26051056.573 7 104896805.35307       -99.893 7        46.353
S36        23.000    38106039.137 5 200248755.44605      -851.525 5        32.335
S23        24.000    38042928.476 6 199916950.41206      -848.175 6        39.009
G11        25.000    22646509.137 6 119008535.87106     -2856.589 6        40.844                                    22646526.555 1  92733724.13201     -2225.863 1         8.952
R17        27.000    22188735.560 7 118736378.89507     -1312.907 7        44.053                                                                    22188729.301 6  92350477.11006     -1021.155 6        39.288
R18        28.000    23736396.996 4                      1652.826 4        29.839                                                                    23736336.996 4  98549255.92714      1286.215 4        26.443
E10        29.000    26293876.947 5 138175247.76805     -3767.633 5        35.205                                                                    26293875.764 6 103182808.14806     -2813.355 6        36.064    26293870.563 5 105874533.11905     -2886.788 5        35.133
R11        30.000    20063158.344 7 107211430.83207      1774.926 7        47.058                                                                    20063155.848 7  83386660.24207      1380.518 7        45.920
C20        31.000                                                                                                                                    22984767.847 7 119687672.27507     -2826.597 7        44.588                                                                    22984759.130 7  97256048.58607     -2296.800 7        43.031
R10        32.000    20373195.209 4 108600615.71704     -2585.365 4        29.924
C36        34.000                                                                                                                                    25065038.906 6 130520231.44606      2585.012 6        38.342                                                                    25065040.102 5 106058387.70805      2100.758 5        34.733
R02        35.000    23124516.969 5 123396904.42805      2593.430 5        33.216                                                                    23124511.926 6  95975481.12106      2017.208 6        36.567
R09        37.000                                                                                                                                    23419234.657 4                     -3768.223 4        24.707
C05        38.000                                                                                                                                                                                                    39132196.983 5 157569106.29605      -698.541 5        34.933
C35        41.000                                                                                                                                    26582410.975 4                     -3471.247 4        24.481                                                                    26582415.891 4                     -2821.374 4        24.060
C37        42.000                                                                                                                                    23579340.604 7 122783798.03107     -2580.862 7        45.452                                                                    23579343.813 6  99771996.24106     -2097.179 6        41.657
R24        43.000    22939998.409 5 122670438.62705     -4327.072 5        33.695                                                                    22939981.048 4                     -3365.555 4        29.886
R01        44.000    19620546.643 6 104883081.47406       792.613 6        41.414                                                                    19620546.140 6  81575712.69106       616.456 6        36.650
C09        47.000                                                                                                                                    39411352.732 5 205225203.68205     -1639.636 5        34.310    39411338.548 5 158693061.16605     -1267.815 5        30.777    39411321.440 4                     -1332.119 4        29.545
C19        48.000                                                                                                                                    21811742.435 7 113579628.39207      -202.658 7        45.905                                                                    21811736.072 6  92292604.08706      -164.590 6        41.359
C22        51.000                                                                                                                                    24519451.828 6 127679246.93906      1962.484 6        37.040                                                                    24519438.974 5 103749788.42305      1595.034 5        32.778
C44        52.000                                                                                                                                                                                                                                                                    25927497.429 4                     -1766.245 4        24.992
C12        54.000                                                                                                                                    26165314.849 4                      -944.209 4        29.706    26165314.551 6 105356924.27406      -730.161 6        36.287    26165306.982 5 110713977.56305      -767.416 5        31.374
I09        57.000    38346957.242 6 150481678.79706     -1138.644 6        36.760
I06        59.000    37857805.824 5 148562161.35805      -640.554 5        30.174
> 2025 01 02 05 45 20.0000000  0 41
G13         1.000    24239035.092 5 127377011.63415      2452.014 5        35.700
G16         2.000    24269298.446 3                     -3250.445 3        22.762
G20         4.000    20875855.784 7 109703845.05807       573.421 7        45.174                                    20875845.745 4  85483144.66804       446.819 4        24.226
G07         5.000    20697592.921 7 108766617.49607     -1266.690 7        44.354                                    20697589.020 6  84753217.13106      -987.026 6        36.367    20697587.770 5  84753163.11005      -987.110 5        35.605
G09         6.000    21485439.734 5 112906743.40505     -3210.458 5        32.611                                    21485448.725 2  87979294.02702     -2501.611 2        15.762    21485448.898 5  87979278.05505     -2501.685 5        30.672
G30         7.000    21041091.759 6 110571706.44906      1069.681 6        41.454                                    21041089.430 6  86159693.93406       833.522 6        37.278    21041089.132 6  86159741.95206       833.348 6        41.211
E21        10.000    25724216.511 7 135181720.31007      -349.163 7        45.526                                                                    25724214.888 6 100947364.55206      -260.743 6        40.722    25724217.309 6 103580789.32206      -267.497 6        40.825
E06        11.000    24363372.099 6 128030379.45906       737.239 6        41.850                                                                    24363370.015 7  95607138.67207       550.589 7        43.505    24363370.503 7  98101215.54207       564.967 7        44.775
G04        12.000    23860524.858 4                     -3909.923 4        26.347                                                                                                    23860525.326 4                     -3046.742 4        27.820
E12        13.000    27850424.398 4                     -4100.734 4        25.188                                                                    27850427.432 3                     -3064.625 3        21.286    27850425.188 3                     -3142.995 3        23.829
G05        14.000    23081164.663 7 121292602.79807      2410.572 7        45.124                                    23081157.201 5  94513692.24805      1878.362 5        32.072    23081159.875 5  94513503.24405      1878.461 5        32.593
G06        15.000    23909106.950 6 125643193.51506     -4298.258 6        36.873                                    23909128.257 1  97903893.40701     -3349.349 1         7.375    23909102.916 5                     -3349.218 5        32.916
E11        16.000    25229980.908 4 132584438.71804     -2752.515 4        29.346                                                                    25229973.030 5  99007861.65305     -2055.211 5        34.486    25229972.710 5 101590644.35905     -2108.583 5        34.076
E04        17.000    23311815.726 6 122504453.67506      -339.945 6        38.381                                                                    23311812.842 7  91480632.46007      -254.009 7        45.652    23311812.515 7  93867013.51907      -260.541 7        46.730
R08        18.000    20357237.556 6 109012129.56906     -2880.583 6        41.600                                                                    20357234.058 6  84787200.62806     -2240.374 6        37.524
E19        20.000    24670482.369 5 129644266.22705     -2736.537 5        33.473                                                                    24670477.920 5  96812277.35505     -2043.517 5        34.095    24670498.607 5  99337802.56305     -2096.559 5        32.156
E09        21.000    26368562.818 5 138567741.31705      1354.797 5        34.224                                                                    26368561.609 6 103475909.84706      1011.770 6        38.144    26368561.506 6 106175291.86006      1038.141 6        36.847
E36        22.000    26051182.386 6 136899921.28006      -132.733 6        37.667                                                                    26051182.515 7 102230435.79807       -99.206 7        47.047    26051181.399 7 104897309.37507      -101.704 7        46.079
S36        23.000    38106841.391 5 200253012.86705      -851.177 5        31.691
S23        24.000    38043738.690 6 199921190.64206      -848.059 6        39.183
G11        25.000    22649227.082 7 119022825.12007     -2859.085 7        42.298                                    22649246.706 2  92744858.62202     -2227.901 2        13.273
R17        27.000    22189967.018 7 118742954.41407     -1317.316 7        44.829                                                                    22189958.514 6  92355591.43206     -1024.628 6        40.534
R18        28.000                                                                                                                                    23734785.667 4                      1283.670 4        26.910
E10        29.000    26297461.635 5 138194086.79505     -3768.447 5        33.838                                                                    26297460.717 5 103196876.25305     -2814.028 5        35.410    26297454.964 5 105888968.19005     -2887.323 5        35.114
R11        30.000    20061499.142 7 107202565.41507      1771.304 7        47.149                                                                    20061496.969 7  83379764.91407      1377.642 7        45.630
C20        31.000                                                                                                                                    22987482.834 7 119701808.93207     -2828.017 7        46.739                                                                    22987473.812 7  97267535.82907     -2298.056 7        42.855
R10        32.000    20375627.816 5 108613553.25505     -2589.788 5        32.599
C36        34.000                                                                                                                                    25062557.179 6 130507307.05806      2584.611 6        38.201                                                                    25062558.513 5 106047885.60605      2100.284 5        35.543
R02        35.000    23122079.803 4 123383937.57604      2593.745 4        29.261                                                                    23122079.886 6  95965395.76306      2017.196 6        36.783
R09        37.000    23423776.459 4                     -4846.875 4        27.748                                                                    23423772.621 4                     -3769.437 4        26.587
C05        38.000                                                                                                                                                                                                    39133063.825 5 157572598.17805      -698.272 5        35.267
C35        41.000                                                                                                                                    26585738.148 3                     -3472.125 3        20.643                                                                    26585750.161 4                     -2822.179 4        24.556
C37        42.000                                                                                                                                    23581820.610 7 122796707.71807     -2583.040 7        45.079                                                                    23581823.380 7  99782486.44507     -2098.819 7        42.303
R24        43.000    22944041.740 5                     -4328.943 5        34.362                                                                    22944029.865 4                     -3367.013 4        27.737
R01        44.000    19619804.299 6 104879123.63906       790.662 6        40.756                                                                    19619806.521 6  81572634.38106       614.841 6        37.236
C09        47.000                                                                                                                                    39412925.504 5 205233401.60205     -1639.431 5        34.500    39412914.285 5 158699400.34405     -1268.064 5        31.328    39412895.442 4                     -1332.158 4        29.318
C19        48.000                                                                                                                                    21811937.964 7 113580645.82707      -204.285 7        45.892                                                                    21811931.381 6  92293430.87206      -166.051 6        41.189
C22        51.000                                                                                                                                    24517568.461 6 127669435.37606      1962.343 6        36.310                                                                    24517554.932 5 103741815.81505      1594.175 5        31.970
C12        54.000                                                                                                                                    26166229.064 5                      -946.956 5        30.302    26166216.249 5 105360580.19005      -732.053 5        35.524    26166216.263 5 110717819.40705      -768.977 5        31.042
I09        57.000    38348408.035 6 150487371.34606     -1138.648 6        37.527
I06        59.000    37858621.286 4 148565362.87104      -640.240 4        29.014
> 2025 01 02 05 45 25.0000000  0 41
G13         1.000    24236695.931 6 127364752.65306      2451.485 6        36.340
G20         4.000    20875310.942 7 109700985.59507       570.327 7        45.458                                    20875301.665 4  85480916.52004       444.404 4        24.782
G07         5.000    20698799.042 7 108772956.88807     -1269.207 7        43.551                                    20698794.310 5  84758156.91005      -988.990 5        35.395    20698794.368 5  84758102.86005      -988.947 5        33.257
G09         6.000    21488495.981 5 112922800.52405     -3212.063 5        31.487                                    21488504.833 2  87991806.10602     -2502.868 2        13.879    21488503.183 4  87991790.19704     -2503.088 4        27.904
G30         7.000    21040075.152 6 110566364.17306      1067.129 6        41.325                                    21040072.543 6  86155531.11406       831.530 6        37.338    21040073.051 6  86155579.11406       831.520 6        41.178
E21        10.000    25724549.607 7 135183472.24807      -351.870 7        44.679                                                                    25724548.617 6 100948672.81606      -262.718 6        40.953    25724550.673 6 103582131.72006      -269.585 6        40.987
E06        11.000    24362670.956 6 128026695.35406       736.225 6        41.743                                                                    24362668.910 7  95604387.56707       549.742 7        43.278    24362668.917 7  98098392.66807       564.104 7        44.471
G04        12.000                                                                                                                                                                    23864244.352 4                     -3046.906 4        28.493
E12        13.000    27854328.223 4                     -4101.632 4        25.429                                                                    27854329.799 3                     -3062.431 3        20.357    27854328.316 3                     -3141.980 3        23.162
G05        14.000    23078872.029 7 121280553.87807      2408.820 7        45.326                                    23078863.482 5  94504303.48805      1876.998 5        32.078    23078867.048 5  94504114.52805      1876.932 5        32.377
G06        15.000    23913195.790 6 125664686.69606     -4299.059 6        37.282                                    23913215.387 1  97920641.30201     -3349.888 1         7.875    23913192.546 5                     -3349.762 5        33.683
E11        16.000    25232598.034 4 132598205.54904     -2754.954 4        27.868                                                                    25232592.972 5  99018142.00305     -2056.724 5        34.300    25232591.861 5 101601192.93105     -2110.719 5        33.713
E04        17.000    23312140.247 6 122506156.66206      -341.322 6        38.474                                                                    23312136.856 7  91481904.16607      -254.902 7        45.518    23312136.543 7  93868318.40907      -261.506 7        47.082
R08        18.000    20359929.515 6 109026537.31306     -2882.732 6        41.597                                                                    20359925.666 6  84798406.61506     -2242.365 6        36.783
E19        20.000    24673085.606 5 129657950.69105     -2737.345 5        32.539                                                                    24673082.253 5  96822496.27605     -2044.220 5        34.243    24673106.125 5  99348288.15205     -2097.518 5        31.811
E09        21.000    26367274.409 5 138560968.13505      1354.257 5        34.195                                                                    26367272.235 6 103470851.97506      1011.233 6        37.123    26367273.075 6 106170102.03506      1037.569 6        36.839
E36        22.000    26051308.846 6 136900591.66006      -135.470 6        37.017                                                                    26051309.952 7 102230936.40007      -101.208 7        46.893    26051308.509 7 104897823.03607      -103.865 7        45.809
S36        23.000    38107655.517 5 200257270.66405      -851.655 5        32.653
S23        24.000    38044548.787 6 199925430.81606      -848.262 6        39.772
G11        25.000    22651950.139 7 119037127.36507     -2861.858 7        42.377                                    22651968.695 2  92756003.22302     -2229.997 2        15.333    22651971.417 5  92755916.34205     -2229.851 5        35.886
R17        27.000    22191207.054 7 118749552.03507     -1322.047 7        46.148                                                                    22191189.182 6  92360722.91706     -1028.165 6        39.655
R18        28.000                                                                                                                                    23733244.480 4  98536427.09114      1280.263 4        27.641
E10        29.000    26301047.209 5 138212930.81605     -3769.836 5        32.269                                                                    26301045.946 5 103210948.07605     -2814.764 5        34.481    26301041.283 5 105903407.10005     -2888.484 5        35.081
R11        30.000    20059842.646 7 107193718.52307      1767.314 7        45.919                                                                    20059841.731 7  83372884.00107      1374.637 7        46.292
C20        31.000                                                                                                                                    22990199.511 8 119715953.13908     -2829.774 8        48.228                                                                    22990190.157 7  97279029.14307     -2299.246 7        42.607
R10        32.000    20378063.144 5 108626511.80605     -2594.281 5        32.683
C36        34.000                                                                                                                                    25060076.078 6 130494385.44006      2583.860 6        38.219                                                                    25060077.355 6 106037385.74506      2099.599 6        36.450
R02        35.000    23119650.960 4 123370971.01204      2592.410 4        27.042                                                                    23119649.106 5  95955310.66905      2016.933 5        35.890
