     3.04           OBSERVATION DATA    M                   RINEX VERSION / TYPE
ssrcrin-15.6.1x                         20250102 141500 UTC PGM / RUN BY / DATE 
(00000000023479385599111004) Septentrio proprietary         COMMENT             
ract                                                        MARKER NAME         
01                                                          MARKER NUMBER       
geodetic                                                    MARKER TYPE         
NFB                 CLIMERS@TUW                             OBSERVER / AGENCY   
3296359             SEPT ASTERX SB3 PROB4.14.4              REC # / TYPE / VERS 
Unknown             Unknown                                 ANT # / TYPE        
  4127446.1725  1206914.5311  4695543.0009                  APPROX POSITION XYZ 
        0.0000        0.0000        0.0000                  ANTENNA: DELTA H/E/N
G   23 X1  C1C L1C D1C S1C C1W S1W C2W L2W D2W S2W C2L L2L  SYS / # / OBS TYPES 
       D2L S2L C5Q L5Q D5Q S5Q C1L L1L D1L S1L              SYS / # / OBS TYPES 
E   21 X1  C1C L1C D1C S1C C6C L6C D6C S6C C5Q L5Q D5Q S5Q  SYS / # / OBS TYPES 
       C7Q L7Q D7Q S7Q C8Q L8Q D8Q S8Q                      SYS / # / OBS TYPES 
S    9 X1  C1C L1C D1C S1C C5I L5I D5I S5I                  SYS / # / OBS TYPES 
R   17 X1  C1C L1C D1C S1C C2P L2P D2P S2P C2C L2C D2C S2C  SYS / # / OBS TYPES 
       C3Q L3Q D3Q S3Q                                      SYS / # / OBS TYPES 
C   25 X1  C1P L1P D1P S1P C5P L5P D5P S5P C2I L2I D2I S2I  SYS / # / OBS TYPES 
       C7I L7I D7I S7I C6I L6I D6I S6I C7D L7D D7D S7D      SYS / # / OBS TYPES 
J   17 X1  C1C L1C D1C S1C C2L L2L D2L S2L C5Q L5Q D5Q S5Q  SYS / # / OBS TYPES 
       C1L L1L D1L S1L                                      SYS / # / OBS TYPES 
I    5 X1  C5A L5A D5A S5A                                  SYS / # / OBS TYPES 
SEPTENTRIO RECEIVERS OUTPUT ALIGNED CARRIER PHASES.         COMMENT             
NO FURTHER PHASE SHIFT APPLIED IN THE RINEX ENCODER.        COMMENT             
G L1C                                                       SYS / PHASE SHIFT   
G L2W                                                       SYS / PHASE SHIFT   
G L2L  0.00000                                              SYS / PHASE SHIFT   
G L5Q  0.00000                                              SYS / PHASE SHIFT   
G L1L  0.00000                                              SYS / PHASE SHIFT   
E L1C  0.00000                                              SYS / PHASE SHIFT   
E L6C  0.00000                                              SYS / PHASE SHIFT   
E L5Q  0.00000                                              SYS / PHASE SHIFT   
E L7Q  0.00000                                              SYS / PHASE SHIFT   
E L8Q  0.00000                                              SYS / PHASE SHIFT   
S L1C                                                       SYS / PHASE SHIFT   
S L5I                                                       SYS / PHASE SHIFT   
R L1C                                                       SYS / PHASE SHIFT   
R L2P  0.00000                                              SYS / PHASE SHIFT   
R L2C                                                       SYS / PHASE SHIFT   
R L3Q  0.00000                                              SYS / PHASE SHIFT   
C L1P  0.00000                                              SYS / PHASE SHIFT   
C L5P  0.00000                                              SYS / PHASE SHIFT   
C L2I                                                       SYS / PHASE SHIFT   
C L7I                                                       SYS / PHASE SHIFT   
C L6I                                                       SYS / PHASE SHIFT   
C L7D                                                       SYS / PHASE SHIFT   
J L1C                                                       SYS / PHASE SHIFT   
J L2L  0.00000                                              SYS / PHASE SHIFT   
J L5Q  0.00000                                              SYS / PHASE SHIFT   
J L1L  0.00000                                              SYS / PHASE SHIFT   
I L5A                                                       SYS / PHASE SHIFT   
  2025     1     2    14    15    0.0000000     GPS         TIME OF FIRST OBS   
 C1C    0.000 C2C    0.000 C2P    0.000                     GLONASS COD/PHS/BIS 
DBHZ                                                        SIGNAL STRENGTH UNIT
    18                                                      LEAP SECONDS        
 24 R01  1 R02 -4 R03  5 R04  6 R05  1 R06 -4 R07  5 R08  6 GLONASS SLOT / FRQ #
    R09 -2 R10 -7 R11  0 R12 -1 R13 -2 R14 -7 R15  0 R16 -1 GLONASS SLOT / FRQ #
    R17  4 R18 -3 R19  3 R20  2 R21  4 R22 -3 R23  3 R24  2 GLONASS SLOT / FRQ #
                                                            END OF HEADER       
> 2025 01 02 14 15  0.0000000  0 40
G06         1.000    23758652.428 5 124852453.79705     -3073.690 5        34.529                                                                                                    23758623.818 3                     -2395.241 3        22.952
G11         2.000    22438106.642 5 117913016.19505      -725.749 5        33.263                                    22438100.412 2  91880247.68002      -565.503 2        13.758    22438103.981 6  91880301.70806      -565.343 6        39.210
G25         3.000    19931052.281 7 104738335.49707      -319.153 7        47.981                                    19931053.580 6  81614361.57406      -248.691 6        40.825    19931052.788 6  81614348.58506      -248.738 6        39.523
E25         6.000    23395059.875 7 122941903.93907      -491.385 7        46.819                                                                    23395062.986 7  91807392.43707      -366.964 7        46.944    23395061.681 7  94202263.89607      -376.531 7        46.343
G31         7.000    24670108.024 5 129642387.06705      2699.941 5        34.324                                    24670112.061 2 101020103.56002      2103.853 2        15.905    24670111.852 4 101020006.59604      2103.819 4        28.275
G28         8.000    22681132.769 6 119190095.64906      1833.390 6        41.416                                    22681134.310 5  92875459.47705      1428.616 5        32.790    22681133.510 7  92875540.47307      1428.623 7        46.796
G29         9.000    21775775.819 6 114432500.95606      1695.602 6        39.931                                    21775766.939 3  89168176.30703      1321.245 3        21.619    21775771.974 4                      1321.446 4        28.569
E11        10.000    25636185.190 6 134719061.36406      1725.167 6        36.941                                                                    25636188.838 5 100601923.67605      1288.065 5        31.751    25636185.746 5 103226311.78705      1322.083 5        32.437
E10        11.000    25212960.908 5 132495062.36305       465.898 5        35.238                                                                    25212967.989 6  98941160.64106       347.697 6        41.502    25212966.560 6 101522173.22306       356.953 6        41.163
G24        12.000    24296690.169 4                     -4714.053 4        27.557                                                                                                    24296688.113 4  99490912.59804     -3673.633 4        24.391
E12        13.000    25749447.041 6 135314253.88106      -878.291 6        37.081                                                                    25749447.338 7 101046408.94807      -655.756 7        43.225    25749447.120 7 103682393.70007      -672.810 7        45.458
G12        15.000    21117108.970 8 110971067.42508     -2762.093 8        50.064                                    21117106.286 6  86470994.41406     -2152.281 6        40.474    21117106.376 6  86471015.40206     -2152.302 6        37.516
E24        16.000    25381762.818 6 133382180.83406     -2680.917 6        40.129                                                                    25381759.369 4  99603524.28204     -2002.141 4        27.210    25381769.121 6 102201853.20506     -2054.168 6        41.383
G32        17.000    23458694.830 7 123276299.61907     -2650.609 7        43.879                                    23458713.155 4  96059437.42504     -2065.406 4        24.030    23458705.844 4                     -2065.125 4        28.616
E05        18.000                                                                                                                                    26914700.702 3                     -2943.138 3        23.219
E08        20.000    26495250.320 6 139233460.76706      -757.747 6        38.348                                                                    26495252.779 4 103973149.40704      -566.125 4        29.014    26495245.030 5 106685499.49205      -580.657 5        35.690
E02        21.000    26131877.985 6 137323933.62206      1344.021 6        40.465                                                                    26131921.298 3                      1003.320 3        23.448    26131883.828 6 105222417.20706      1029.660 6        39.583
S23        22.000    38233956.733 5 200920857.68505      -865.555 5        35.929
R14        23.000    21485555.992 7 114530059.05107     -3776.431 7        45.049                                                                    21485561.025 7  89078989.08307     -2937.239 7        42.404
R18        25.000    22535763.553 7 120297449.39407      3583.148 7        42.770                                                                    22535772.491 7  93564735.72307      2786.805 7        43.718
E03        26.000                                                                                                                                    26177042.038 6 102724369.39906     -2334.734 6        36.265    26177043.217 5 105404178.34205     -2395.505 5        35.929
S21        27.000    38518625.024 5 202416807.86705      -860.508 5        35.986
R07        28.000    23601510.665 5 126340639.16905       571.772 5        33.611
R15        30.000    19341453.678 8 103355146.85208      -598.576 8        49.689                                                                    19341456.247 6  80387135.11906      -465.610 6        38.012
S36        31.000    38289922.211 5 201214927.21505      -860.440 5        35.824
C10        33.000                                                                                                                                                                                                    40065956.599 4                     -1219.578 4        26.180    40065878.551 3                     -1282.328 3        22.952
R16        34.000    21757002.822 6 116222549.64606      2412.698 6        39.120                                                                    21757011.417 7  90394989.04707      1876.563 7        45.171
C44        35.000                                                                                                                                    23024207.986 7 119893364.24207      1827.195 7        44.593                                                                    23024211.074 7  97423062.63507      1484.790 7        43.331
R17        36.000    19737838.339 8 105621257.91208      1012.517 8        51.157                                                                    19737840.544 6  82149811.63406       787.537 6        41.940
R24        38.000                                                                                                                                    20878759.487 6  86837437.39606     -2642.029 6        40.810
C05        40.000                                                                                                                                                                                                    39534471.084 5 159188937.43005      -642.442 5        35.771
C12        41.000                                                                                                                                    25250816.754 6 131487622.33906      2563.469 6        38.240    25250819.612 7 101674605.64707      1982.396 7        44.479    25250815.891 6 106844481.76506      2083.358 6        40.086
C35        42.000                                                                                                                                    21929478.356 7 114192523.15107      -828.949 7        46.490                                                                    21929481.175 7  92790815.79007      -673.425 7        46.840
C25        45.000                                                                                                                                    26628580.827 5 138662015.14105      2271.448 5        35.871                                                                    26628593.641 4 112674305.31404      1846.100 4        27.988
C29        46.000                                                                                                                                    25090571.399 5 130653118.23805     -3746.101 5        32.683                                                                    25090560.701 4                     -3044.049 4        29.791
C26        48.000                                                                                                                                    22046517.212 7 114802016.63907     -2042.685 7        43.875                                                                    22046523.569 6  93286070.65306     -1659.546 6        39.721
C41        49.000                                                                                                                                    26907740.809 5 140115383.05805     -1549.271 5        30.536                                                                    26907697.005 6 113855273.30206     -1258.886 6        36.650
C24        51.000                                                                                                                                                                                                                                                                    22235369.426 7  94085171.46607       709.165 7        42.009
I02        55.000    37388463.696 6 146720363.94106      -938.695 6        39.255
I06        58.000    38671109.072 7 151753753.02207      -727.857 7        42.995
> 2025 01 02 14 15  5.0000000  0 40
G06         1.000    23761571.773 5 124867828.59405     -3076.264 5        33.665                                                                                                    23761548.877 3                     -2397.819 3        23.086
G11         2.000    22438798.237 5 117916651.38305      -728.753 5        33.581                                    22438792.145 2  91883080.31302      -567.866 2        12.909    22438796.043 6  91883134.33806      -567.923 6        39.619
G25         3.000    19931357.049 7 104739937.01607      -321.534 7        47.433                                    19931358.066 6  81615609.52606      -250.546 6        40.527    19931357.764 6  81615596.52706      -250.437 6        38.243
E25         6.000    23395528.012 7 122944363.39707      -492.588 7        46.894                                                                    23395531.038 7  91809229.04907      -367.795 7        47.194    23395529.750 7  94204148.42607      -377.441 7        46.489
G31         7.000    24667540.576 6 129628888.64506      2699.218 6        36.665                                    24667543.131 2 101009585.40202      2103.267 2        17.132    24667543.767 4 101009488.38604      2103.385 4        28.550
G28         8.000    22679389.346 6 119180933.39806      1831.301 6        41.514                                    22679390.874 5  92868320.07305      1426.990 5        33.132    22679390.232 7  92868401.07807      1427.013 7        46.793
G29         9.000    21774164.445 6 114424027.65606      1693.538 6        40.436                                    21774154.785 3  89161573.75803      1319.634 3        23.105    21774157.826 4                      1319.434 4        26.251
E11        10.000    25634544.634 6 134710438.66206      1723.916 6        36.688                                                                    25634546.793 5 100595484.65305      1287.287 5        31.464    25634545.418 5 103219704.81705      1320.845 5        32.641
E10        11.000    25212520.367 5 132492738.73305       463.452 5        35.443                                                                    25212526.032 7  98939425.46207       346.199 7        42.100    25212524.450 6 101520392.80106       355.236 6        40.722
G24        12.000    24301171.159 4                     -4714.444 4        26.790                                                                                                    24301177.132 4  99509279.80804     -3673.607 4        24.256
E12        13.000    25750282.836 6 135318650.85706      -880.947 6        37.164                                                                    25750284.055 7 101049692.41207      -657.817 7        43.361    25750283.983 7 103685762.82107      -674.908 7        45.294
G12        15.000    21119737.513 8 110984882.11908     -2763.902 8        49.768                                    21119734.295 6  86481759.11406     -2153.689 6        39.811    21119735.377 6  86481780.09506     -2153.581 6        37.146
E24        16.000    25384314.341 6 133395587.08806     -2681.796 6        39.997                                                                    25384309.096 4  99613535.48704     -2002.129 4        25.925    25384320.474 6 102212125.52406     -2054.838 6        41.094
G32        17.000    23461217.655 7 123289558.57107     -2653.140 7        43.141                                    23461233.102 4  96069769.01604     -2067.368 4        24.586    23461225.027 5                     -2067.143 5        30.385
E05        18.000                                                                                                                                    26918448.289 3                     -2940.823 3        22.019
E08        20.000    26495964.466 6 139237254.66406      -760.310 6        37.240                                                                    26495974.147 4 103975982.50804      -567.692 4        29.365    26495966.450 5 106688406.49605      -582.479 5        35.248
E02        21.000    26130599.239 6 137317214.59206      1343.555 6        40.524                                                                    26130644.851 4                      1003.450 4        24.872    26130604.480 6 105217268.88506      1029.584 6        38.667
S23        22.000    38234780.098 6 200925184.29306      -865.317 6        36.200
R14        23.000    21489098.165 7 114548945.37607     -3778.313 7        44.026                                                                    21489104.514 7  89093678.43007     -2938.661 7        42.995
R18        25.000    22532407.122 7 120279536.72007      3581.811 7        42.216                                                                    22532416.643 7  93550803.70507      2785.792 7        43.973
E03        26.000    26180001.318 4 137576973.87714     -3128.101 4        28.389                                                                    26180017.259 6 102736045.35806     -2335.818 6        36.023    26180017.529 5 105416158.89705     -2396.969 5        34.510
S21        27.000    38519445.455 6 202421109.55706      -860.574 6        36.019
R07        28.000    23600977.031 5 126337788.28105       568.117 5        32.299                                                                    23600970.046 4                       444.018 4        25.248
R15        30.000    19342015.055 8 103358146.30008      -601.352 8        49.556                                                                    19342017.604 6  80389468.03206      -467.713 6        38.985
S36        31.000    38290740.428 6 201219230.07906      -860.682 6        36.095
C10        33.000                                                                                                                                                                                                    40067467.954 4                     -1219.404 4        26.012    40067391.972 3                     -1281.457 3        23.810
R16        34.000    21754745.706 6 116210487.36506      2411.789 6        39.129                                                                    21754752.378 7  90385607.26407      1875.983 7        44.602
C44        35.000                                                                                                                                    23022453.678 7 119884232.53407      1825.368 7        44.715                                                                    23022457.394 7  97415642.41407      1483.047 7        44.026
R17        36.000    19736893.558 8 105616205.64008      1008.286 8        50.798                                                                    19736896.149 7  82145882.10407       784.276 7        42.216
R24        38.000                                                                                                                                    20881936.314 6  86850654.44106     -2644.856 6        39.931
C05        40.000                                                                                                                                                                                                    39535268.772 5 159192149.27005      -642.544 5        35.871
C12        41.000                                                                                                                                    25248356.320 6 131474805.39106      2562.831 6        37.762    25248358.480 7 101664694.81307      1981.807 7        44.652    25248354.431 6 106834067.01606      2082.345 6        39.982
C35        42.000                                                                                                                                    21930275.854 7 114196674.14907      -831.660 7        46.946                                                                    21930278.208 7  92794188.84507      -676.004 7        46.915
C25        45.000                                                                                                                                    26626399.760 6 138650657.83706      2271.400 6        36.147                                                                    26626408.802 4 112665076.58604      1845.470 4        28.265
C29        46.000                                                                                                                                    25094171.313 5 130671851.13305     -3747.248 5        32.156                                                                    25094157.987 4                     -3044.950 4        29.877
C26        48.000                                                                                                                                    22048479.923 7 114812234.61407     -2044.650 7        42.887                                                                    22048486.257 6  93294373.65406     -1661.867 6        39.489
C41        49.000                                                                                                                                                                                                                                                                    26909186.152 6 113861573.63906     -1261.421 6        36.945
C24        51.000                                                                                                                                                                                                                                                                    22234532.202 7  94081628.93907       707.688 7        42.021
I02        55.000    37389659.410 6 146725057.22606      -938.835 6        39.333
I06        58.000    38672036.096 7 151757392.13307      -727.739 7        43.031
> 2025 01 02 14 15 10.0000000  0 40
G06         1.000    23764493.782 5 124883217.04705     -3078.835 5        33.880                                    23764495.005 1  97311635.91311     -2399.152 1         6.125    23764476.855 3                     -2399.148 3        23.695
G11         2.000    22439493.128 5 117920303.68705      -731.735 5        33.976                                    22439487.192 2  91885926.25302      -570.213 2        13.758    22439491.523 6  91885980.28806      -570.221 6        39.745
G25         3.000    19931664.233 7 104741550.10107      -323.335 7        47.623                                    19931664.583 6  81616866.48306      -251.950 6        40.224    19931664.700 6  81616853.49506      -251.889 6        37.353
E25         6.000    23395997.201 7 122946828.50307      -493.241 7        46.901                                                                    23396000.004 7  91811069.88607      -368.268 7        47.527    23395998.978 7  94206037.28307      -377.865 7        46.601
G31         7.000    24664972.421 6 129615394.77606      2698.550 6        38.384                                    24664975.128 3 100999070.79703      2102.732 3        18.597    24664976.166 4 100998973.76604      2102.888 4        29.858
G28         8.000    22677649.210 7 119171781.42007      1829.749 7        43.041                                    22677649.329 5  92861188.67805      1425.781 5        33.389    22677648.594 7  92861269.68807      1425.721 7        47.106
G29         9.000    21772553.965 6 114415564.80106      1691.759 6        40.830                                    21772544.741 4  89154979.34604      1318.254 4        24.737    21772545.895 4                      1319.211 4        24.917
E11        10.000    25632905.659 6 134701823.59606      1722.754 6        37.217                                                                    25632906.625 5 100589051.33905      1286.595 5        31.509    25632906.028 5 103213103.67505      1320.293 5        33.078
E10        11.000    25212081.091 5 132490427.07105       461.511 5        35.614                                                                    25212086.204 7  98937699.25507       344.620 7        42.358    25212084.699 6 101518621.56406       353.626 6        40.648
G24        12.000    24305656.644 4                     -4716.174 4        26.371                                                                                                    24305663.022 4  99527649.16304     -3673.508 4        24.571
E12        13.000    25751122.273 6 135323061.05406      -882.964 6        37.119                                                                    25751123.078 7 101052985.74307      -659.429 7        43.634    25751123.307 7 103689142.08007      -676.578 7        45.014
G12        15.000    21122367.844 8 110998705.81108     -2765.235 8        49.398                                    21122364.038 6  86492530.81906     -2154.727 6        38.886    21122365.697 6  86492551.80606     -2154.871 6        36.612
E24        16.000    25386865.963 6 133408997.21806     -2682.095 6        39.955                                                                    25386859.604 4  99623549.52904     -2002.871 4        25.865    25386872.557 6 102222400.82506     -2055.075 6        40.622
G32        17.000    23463743.823 7 123302830.07207     -2655.260 7        42.565                                    23463755.974 4  96080110.39904     -2069.020 4        25.759    23463751.046 5                     -2068.852 5        30.800
E05        18.000                                                                                                                                    26922196.519 3                     -2941.109 3        20.405
E08        20.000    26496682.492 6 139241061.24706      -762.165 6        36.499                                                                    26496697.480 5 103978825.08805      -568.951 5        30.181    26496690.487 5 106691323.23705      -584.116 5        34.567
E02        21.000    26129321.698 6 137310497.74206      1343.563 6        40.229                                                                    26129370.747 4                      1003.683 4        26.084    26129325.715 6 105212122.25206      1029.463 6        37.716
S23        22.000    38235606.422 5 200929511.20605      -865.280 5        35.924
R14        23.000    21492642.723 7 114567840.95807     -3779.672 7        42.732                                                                    21492649.086 7  89108374.98207     -2939.746 7        43.026
R18        25.000    22529052.976 6 120261630.73206      3580.986 6        41.321                                                                    22529061.894 7  93536876.89107      2785.138 7        43.744
E03        26.000    26182983.596 4 137592617.25104     -3129.144 4        28.635                                                                    26182993.784 5 102747727.08005     -2336.395 5        35.410    26182992.809 5 105428145.33605     -2397.172 5        32.635
S21        27.000    38520260.672 5 202425411.54105      -860.095 5        35.800
R07        28.000    23600445.818 5 126334957.62305       564.626 5        31.125
R15        30.000    19342578.316 8 103361159.60408      -603.668 8        49.420                                                                    19342580.711 6  80391811.71606      -469.554 6        39.300
S36        31.000    38291558.024 6 201223533.21106      -860.100 6        36.140
C10        33.000                                                                                                                                                                                                    40068981.335 4                     -1218.267 4        25.128    40068906.573 3                     -1279.657 3        23.810
R16        34.000    21752490.748 7 116198429.46207      2411.577 7        42.703                                                                    21752494.772 7  90376228.90707      1875.636 7        44.554
C44        35.000                                                                                                                                    23020701.446 7 119875109.62307      1824.036 7        45.067                                                                    23020705.305 7  97408229.34407      1482.077 7        44.248
R17        36.000    19735953.307 8 105611174.55908      1004.410 8        50.630                                                                    19735955.829 7  82141969.05307       781.213 7        42.226
R24        38.000    20885180.995 5 111682640.16215     -3403.634 5        35.905                                                                    20885117.857 6  86863885.26206     -2647.223 6        38.991
C05        40.000                                                                                                                                                                                                    39536066.161 5 159195361.21105      -642.105 5        35.938
C12        41.000                                                                                                                                    25245897.089 6 131461992.41006      2562.542 6        37.013    25245898.066 7 101654787.04407      1981.555 7        44.837    25245893.713 6 106823655.45206      2082.192 6        39.604
C35        42.000                                                                                                                                    21931075.485 7 114200839.06307      -834.003 7        47.015                                                                    21931077.884 7  92797573.16707      -677.742 7        46.638
C25        45.000                                                                                                                                    26624218.310 5 138639300.57005      2271.648 5        35.238                                                                    26624220.366 4 112655847.94804      1845.887 4        27.245
C29        46.000                                                                                                                                    25097770.805 5 130690589.99905     -3747.977 5        31.947                                                                    25097756.512 4                     -3045.851 4        29.649
C26        48.000                                                                                                                                    22050445.802 7 114822462.83607     -2046.363 7        42.546                                                                    22050451.084 6  93302684.92806     -1662.803 6        39.330
C41        49.000                                                                                                                                                                                                                                                                    26910677.823 6 113867884.58006     -1262.790 6        37.164
C24        51.000                                                                                                                                                                                                                                                                    22233696.637 6  94078092.92706       706.799 6        41.981
I02        55.000    37390856.311 6 146729751.39206      -938.638 6        39.411
I06        58.000    38672963.309 7 151761031.35907      -727.662 7        43.253
> 2025 01 02 14 15 15.0000000  0 41
G06         1.000    23767423.933 5 124898618.25505     -3081.631 5        34.629                                    23767424.513 1  97323636.83401     -2401.198 1         7.625    23767408.137 4                     -2400.961 4        24.075
G11         2.000    22440191.383 5 117923972.22505      -735.399 5        34.119                                    22440185.252 2  91888784.87602      -573.034 2        14.667    22440189.276 6  91888838.91506      -573.240 6        38.973
G25         3.000    19931973.480 7 104743174.00307      -326.158 7        47.677                                    19931973.084 6  81618131.87406      -254.151 6        39.937    19931974.633 6  81618118.87906      -254.023 6        37.055
E25         6.000    23396466.895 7 122949298.44107      -494.771 7        47.005                                                                    23396470.007 7  91812914.32807      -369.417 7        47.701    23396469.127 7  94207929.84307      -379.085 7        47.029
G31         7.000    24662405.049 6 129601904.69406      2697.388 6        39.733                                    24662407.844 3 100988559.14003      2101.845 3        19.433    24662408.282 5 100988462.12905      2101.733 5        30.445
G28         8.000    22675909.343 7 119162638.90307      1827.214 7        45.094                                    22675909.478 5  92854064.66605      1423.800 5        33.707    22675908.769 7  92854145.68007      1423.766 7        47.276
G29         9.000    21770945.640 7 114407111.55907      1689.235 7        42.381                                    21770936.925 4  89148392.42504      1316.284 4        26.275    21770938.602 4                      1316.541 4        28.455
E11        10.000    25631269.045 6 134693215.30206      1720.595 6        37.781                                                                    25631269.423 5 100582623.12005      1284.794 5        31.623    25631267.525 5 103206507.76705      1318.243 5        33.599
E10        11.000    25211641.946 5 132488126.60405       458.448 5        33.742                                                                    25211648.447 7  98935981.38307       342.570 7        42.174    25211647.227 6 101516858.90106       351.357 6        40.617
G24        12.000    24310145.889 4                     -4716.181 4        27.042                                                                                                    24310147.441 4  99546019.98504     -3674.674 4        26.024
E12        13.000    25751963.263 6 135327483.65706      -886.080 6        36.495                                                                    25751964.584 7 101056288.33807      -661.608 7        43.678    25751964.898 7 103692530.82607      -678.895 7        44.969
G12        15.000    21124999.960 8 111012537.68708     -2767.470 8        49.086                                    21124995.463 6  86503308.90206     -2156.465 6        37.928    21124997.148 5  86503329.87305     -2156.501 5        35.662
E24        16.000    25389418.198 6 133422410.44406     -2683.301 6        40.198                                                                    25389410.649 4  99633565.90404     -2003.953 4        24.917    25389425.403 6 102232678.49006     -2055.943 6        40.193
G32        17.000    23466271.347 6 123316113.29006     -2657.877 6        40.920                                    23466281.560 4  96090460.89904     -2071.071 4        25.910    23466276.449 5                     -2071.153 5        30.491
E05        18.000                                                                                                                                    26925942.665 3                     -2938.486 3        20.810
E08        20.000    26497408.442 6 139244879.71206      -765.279 6        36.170                                                                    26497423.301 5 103981676.50305      -571.288 5        30.974    26497417.563 5 106694249.07405      -586.326 5        33.413
E02        21.000    26128043.969 6 137303782.28706      1342.630 6        39.793                                                                    26128099.362 4                      1002.852 4        28.123    26128047.878 6 105206976.67606      1028.795 6        37.554
S23        22.000    38236433.073 6 200933837.70006      -865.756 6        36.000
R14        23.000    21496188.439 6 114586745.10306     -3782.042 6        41.745                                                                    21496194.470 7  89123078.18707     -2941.597 7        42.307
R06        24.000    23061383.684 4                     -2599.897 4        27.485
R18        25.000    22525700.310 6 120243730.69506      3579.103 6        40.822                                                                    22525708.345 7  93522954.68407      2783.743 7        43.551
E03        26.000    26185965.019 5 137608267.55005     -3131.096 5        30.151                                                                    26185971.339 5 102759414.01605     -2338.069 5        34.924    26185969.503 5 105440137.11005     -2398.917 5        32.036
S21        27.000    38521080.101 5 202429712.93205      -860.422 5        35.790
R15        30.000    19343144.382 8 103364185.84508      -606.816 8        48.950                                                                    19343146.005 6  80394165.44706      -472.087 6        38.186
S36        31.000    38292379.336 5 201227835.67705      -860.774 5        35.857
C10        33.000                                                                                                                                                                                                    40070489.032 4                     -1220.462 4        25.188    40070421.832 3                     -1281.357 3        23.200
R16        34.000    21750235.246 7 116186374.92807      2410.232 7        44.206                                                                    21750238.107 7  90366853.16507      1874.662 7        43.733
C44        35.000                                                                                                                                    23018951.016 7 119865994.73007      1821.876 7        45.604                                                                    23018954.923 7  97400822.75407      1480.511 7        44.388
R17        36.000    19735016.794 8 105606163.81808       999.758 8        50.823                                                                    19735018.957 6  82138071.83506       777.638 6        41.752
R24        38.000                                                                                                                                    20888301.590 6  86877129.20506     -2650.265 6        39.429
C33        39.000                                                                                                                                    27192282.205 5                     -3291.071 5        32.605
C05        40.000                                                                                                                                                                                                    39536864.650 5 159198572.69805      -642.685 5        35.919
C12        41.000                                                                                                                                    25243439.146 5 131449182.53705      2561.096 5        35.619    25243438.318 7 101644881.67207      1980.576 7        45.074    25243433.356 6 106813246.40806      2081.397 6        39.480
C35        42.000                                                                                                                                    21931878.042 7 114205017.08707      -837.175 7        47.250                                                                    21931880.075 7  92800968.14407      -680.231 7        46.304
C25        45.000                                                                                                                                    26622036.227 5 138627942.51405      2271.420 5        34.833                                                                    26622033.689 4 112646618.70604      1845.249 4        28.047
C29        46.000                                                                                                                                    25101371.691 5 130709333.99205     -3749.208 5        31.600                                                                    25101356.660 4                     -3046.794 4        29.791
C26        48.000                                                                                                                                    22052413.057 7 114832700.49907     -2048.694 7        42.186                                                                    22052417.153 6  93311003.87406     -1664.722 6        38.871
C41        49.000                                                                                                                                    26912181.122 5 140138681.80005     -1557.371 5        32.150                                                                    26912171.903 6 113874205.41006     -1265.372 6        37.191
C24        51.000                                                                                                                                    22232866.380 5                       868.023 5        35.305                                                                    22232862.226 6  94074562.75806       705.377 6        41.728
I02        55.000    37392052.401 6 146734445.70406      -939.121 6        39.129
I06        58.000    38673890.332 7 151764670.04607      -727.942 7        43.098
> 2025 01 02 14 15 20.0000000  0 41
G06         1.000    23770358.391 5 124914033.07305     -3084.262 5        34.600                                    23770356.716 1  97335648.34601     -2403.422 1         4.714    23770342.930 4                     -2402.467 4        25.699
G11         2.000    22440892.101 5 117927657.85705      -738.846 5        34.138                                    22440886.671 2  91891656.77802      -575.727 2        14.762    22440890.297 6  91891710.80306      -575.470 6        38.159
G25         3.000    19932284.958 7 104744809.48507      -328.159 7        47.341                                    19932283.822 6  81619406.28306      -255.709 6        39.859    19932286.025 6  81619393.28606      -255.821 6        37.134
E25         6.000    23396937.620 7 122951774.02107      -495.573 7        46.867                                                                    23396941.085 7  91814762.97607      -370.056 7        47.769    23396940.403 7  94209826.72307      -379.748 7        47.369
G31         7.000    24659837.973 6 129588419.23106      2696.758 6        40.417                                    24659841.562 3 100978051.07903      2101.349 3        20.262    24659842.492 5 100977954.05705      2101.055 5        30.475
G28         8.000    22674171.393 7 119153506.67107      1825.467 7        46.457                                    22674171.457 5  92846948.66205      1422.436 5        34.219    22674171.037 7  92847029.67607      1422.473 7        47.785
G29         9.000    21769339.219 7 114398668.74007      1687.608 7        43.215                                    21769331.273 4  89141813.62504      1315.016 4        27.581    21769333.933 5                      1315.098 5        32.449
E11        10.000    25629633.168 6 134684614.57906      1719.610 6        37.947                                                                    25629633.642 5 100576200.51405      1283.927 5        31.404    25629631.114 5 103199917.61605      1317.553 5        33.557
E10        11.000    25211205.182 5 132485838.05105       457.373 5        30.521                                                                    25211212.753 6  98934272.43306       341.024 6        41.964    25211211.770 6 101515105.38606       349.951 6        40.591
G24        12.000    24314636.793 4                     -4715.683 4        25.835                                                                                                    24314635.984 4  99564392.90204     -3674.622 4        27.497
E12        13.000    25752806.147 5 135331919.46505      -888.400 5        35.552                                                                    25752808.525 7 101059600.79207      -663.447 7        43.520    25752809.183 7 103695929.70007      -680.713 7        44.789
G12        15.000    21127633.448 8 111026378.55808     -2768.979 8        48.599                                    21127628.672 6  86514093.98906     -2157.642 6        36.900    21127630.486 5  86514114.95305     -2157.798 5        34.386
E24        16.000    25391971.588 6 133435827.53406     -2683.592 6        40.601                                                                    25391963.254 4  99643585.15504     -2004.060 4        24.541    25391978.904 6 102242959.10506     -2056.290 6        39.526
G32        17.000    23468800.635 6 123329409.04906     -2660.129 6        38.363                                    23468809.538 4  96100821.19504     -2072.828 4        24.812    23468805.987 5                     -2072.892 5        30.891
E05        18.000                                                                                                                                    26929688.883 3                     -2939.548 3        19.164
E08        20.000    26498137.500 5 139248710.87105      -767.706 5        35.910                                                                    26498151.740 5 103984537.44205      -573.211 5        31.321    26498148.471 5 106697184.62005      -587.920 5        33.096
E02        21.000    26126766.465 6 137297069.02306      1342.542 6        39.327                                                                    26126828.549 4                      1002.814 4        29.308    26126770.827 6 105201832.78506      1028.627 6        37.384
S23        22.000    38237254.237 6 200938164.33606      -865.292 6        36.038
R14        23.000    21499736.441 6 114605658.55306     -3783.614 6        40.923                                                                    21499741.669 6  89137788.62906     -2942.876 6        41.735
R06        24.000    23063829.242 4                     -2603.591 4        29.640
R18        25.000    22522348.830 6 120225837.24206      3578.246 6        41.483                                                                    22522356.486 7  93509037.63507      2782.871 7        43.164
E03        26.000    26188946.231 5 137623925.54805     -3131.963 5        31.789                                                                    26188950.322 5 102771106.69105     -2338.615 5        34.433    26188947.522 5 105452134.83005     -2400.154 5        31.562
S21        27.000    38521896.677 5 202434014.62605      -860.357 5        35.681
R07        28.000                                                                                                                                    23599394.264 4                       432.602 4        26.491
R15        30.000    19343713.236 8 103367226.08008      -609.345 8        48.617                                                                    19343714.727 6  80396530.07506      -474.010 6        37.800
S36        31.000    38293198.345 5 201232137.68405      -860.320 5        35.976
C10        33.000                                                                                                                                                                                                    40071996.170 4                     -1219.242 4        25.203    40071935.024 3                     -1281.062 3        23.657
R16        34.000    21747977.393 7 116174324.74607      2409.610 7        44.805                                                                    21747980.818 7  90357480.82607      1874.228 7        42.294
C44        35.000                                                                                                                                    23017201.920 7 119856888.66207      1820.451 7        46.001                                                                    23017206.139 7  97393423.36007      1479.101 7        44.531
R17        36.000    19734084.214 8 105601174.40508       995.942 8        50.825                                                                    19734085.652 6  82134191.18006       774.653 6        41.018
R24        38.000                                                                                                                                    20891488.599 6  86890386.97506     -2652.834 6        40.102
C05        40.000                                                                                                                                                                                                    39537662.320 5 159201784.28705      -642.186 5        35.933
C12        41.000                                                                                                                                    25240980.159 5 131436376.58405      2560.820 5        33.581    25240979.402 7 101634979.33607      1980.214 7        45.413    25240973.970 6 106802840.57306      2080.870 6        39.276
C35        42.000                                                                                                                                    21932683.363 7 114209208.98607      -839.665 7        47.800                                                                    21932685.024 7  92804374.41107      -682.321 7        46.068
C25        45.000                                                                                                                                    26619855.723 5 138616584.50005      2271.772 5        33.587                                                                    26619853.100 4 112637389.38204      1845.446 4        27.964
C29        46.000                                                                                                                                    25104974.439 5 130728083.89005     -3750.107 5        31.660                                                                    25104957.519 4                     -3047.476 4        29.848
C26        48.000                                                                                                                                    22054381.313 6 114842948.39806     -2050.434 6        41.819                                                                    22054384.665 6  93319331.14806     -1666.361 6        38.267
C41        49.000                                                                                                                                                                                                                                                                    26913668.372 6 113880536.88206     -1267.322 6        37.580
C24        51.000                                                                                                                                    22232036.965 6                       866.535 6        36.771                                                                    22232029.379 6  94071039.13206       704.164 6        41.750
I02        55.000    37393248.799 6 146739140.78906      -939.068 6        39.213
I06        58.000    38674818.024 7 151768308.82407      -727.650 7        43.037
> 2025 01 02 14 15 25.0000000  0 42
G06         1.000    23773292.266 5 124929461.16205     -3087.217 5        33.850                                    23773291.733 1  97347670.20201     -2405.640 1         5.714    23773282.289 4                     -2405.224 4        25.008
G11         2.000    22441597.434 6 117931360.21406      -742.334 6        36.189                                    22441591.399 2  91894541.74402      -578.434 2        15.143    22441594.762 6  91894595.78906      -578.546 6        37.773
G25         3.000    19932598.453 7 104746456.23907      -330.746 7        47.314                                    19932596.826 6  81620689.48106      -257.721 6        39.808    19932599.470 6  81620676.46206      -257.765 6        36.730
E25         6.000    23397409.503 7 122954254.93507      -497.012 7        46.592                                                                    23397413.256 7  91816615.61307      -371.106 7        47.955    23397412.490 7  94211727.68407      -380.756 7        47.664
G31         7.000    24657272.755 6 129574938.09806      2695.560 6        40.536                                    24657275.893 3 100967546.38403      2100.412 3        21.286    24657276.956 5 100967449.38105      2100.161 5        30.785
G28         8.000    22672434.734 7 119144384.45107      1823.158 7        47.320                                    22672435.350 5  92839840.45905      1420.641 5        34.638    22672435.112 7  92839921.47707      1420.650 7        47.852
G29         9.000    21767734.530 7 114390236.07707      1685.339 7        43.056                                    21767727.820 4  89135242.74404      1313.244 4        28.692    21767732.466 5  89135220.85415      1313.173 5        35.271
E11        10.000    25627998.965 6 134676021.20106      1717.808 6        37.792                                                                    25627998.757 5 100569783.37005      1283.170 5        31.238    25627995.724 5 103193333.07405      1316.314 5        33.976
E10        11.000    25210772.455 4 132483561.23504       453.967 4        28.938                                                                    25210779.039 6  98932572.21506       339.112 6        41.723    25210778.547 6 101513360.83306       347.930 6        40.865
G24        12.000    24319122.256 4                     -4716.775 4        25.654                                                                                                    24319122.334 4  99582767.66004     -3674.731 4        27.641
E12        13.000    25753652.596 5 135336368.18605      -891.589 5        35.329                                                                    25753655.119 7 101062922.86907      -665.588 7        43.448    25753655.705 7 103699338.43607      -682.957 7        44.483
G12        15.000    21130269.013 8 111040228.08208     -2771.008 8        48.501                                    21130263.638 5  86524885.81705     -2159.222 5        35.957    21130266.502 5  86524906.78505     -2159.410 5        32.976
E24        16.000    25394525.877 6 133449248.23706     -2684.673 6        41.092                                                                    25394516.516 4  99653607.10204     -2005.475 4        24.887    25394533.288 6 102253242.51006     -2057.109 6        38.781
G32        17.000    23471332.108 5 123342717.03205     -2663.115 5        32.443                                    23471339.770 3  96111191.03203     -2075.141 3        21.786    23471338.160 5                     -2074.998 5        31.457
E05        18.000                                                                                                                                    26933437.315 3                     -2938.159 3        20.143
E08        20.000    26498869.288 5 139252554.36305      -770.189 5        35.510                                                                    26498882.651 5 103987407.58105      -575.072 5        32.287
E02        21.000    26125488.991 6 137290357.64706      1341.640 6        39.315                                                                    26125555.290 4                      1002.318 4        29.299    26125494.100 6 105196690.35806      1028.099 6        37.913
S23        22.000    38238075.496 5 200942491.05205      -865.508 5        35.752
R14        23.000    21503286.125 6 114624580.86306     -3785.469 6        41.707                                                                    21503291.038 6  89152505.96806     -2944.360 6        40.884
R06        24.000    23066276.292 4                     -2607.546 4        29.706
R18        25.000    22518998.610 7 120207950.26207      3576.593 7        42.345                                                                    22519005.257 7  93495125.59107      2781.734 7        43.136
E03        26.000    26191927.452 5 137639591.02405     -3134.159 5        33.515                                                                    26191931.024 5 102782804.91605     -2340.312 5        34.609    26191927.442 5 105464138.18305     -2401.377 5        30.740
S21        27.000    38522715.539 5 202438316.31905      -860.500 5        35.781
R07        28.000    23598838.550 3                       554.060 3        22.381                                                                    23598887.817 4                       429.419 4        29.033
R15        30.000    19344284.995 8 103370279.83108      -612.412 8        48.192                                                                    19344286.391 6  80398905.20106      -476.359 6        37.622
S36        31.000    38294015.449 6 201236439.22006      -860.596 6        36.151
C10        33.000                                                                                                                                                                                                                                                                    40073448.816 4                     -1280.551 4        24.451
