     3.04           OBSERVATION DATA    M                   RINEX VERSION / TYPE
ssrcrin-15.6.1x                         20250102 204500 UTC PGM / RUN BY / DATE 
(00000000023479385599111004) Septentrio proprietary         COMMENT             
ract                                                        MARKER NAME         
01                                                          MARKER NUMBER       
geodetic                                                    MARKER TYPE         
NFB                 CLIMERS@TUW                             OBSERVER / AGENCY   
3296359             SEPT ASTERX SB3 PROB4.14.4              REC # / TYPE / VERS 
Unknown             Unknown                                 ANT # / TYPE        
  4127446.1208  1206915.1511  4695542.3974                  APPROX POSITION XYZ 
        0.0000        0.0000        0.0000                  ANTENNA: DELTA H/E/N
G   23 X1  C1C L1C D1C S1C C1W S1W C2W L2W D2W S2W C2L L2L  SYS / # / OBS TYPES 
       D2L S2L C5Q L5Q D5Q S5Q C1L L1L D1L S1L              SYS / # / OBS TYPES 
E   21 X1  C1C L1C D1C S1C C6C L6C D6C S6C C5Q L5Q D5Q S5Q  SYS / # / OBS TYPES 
       C7Q L7Q D7Q S7Q C8Q L8Q D8Q S8Q                      SYS / # / OBS TYPES 
S    9 X1  C1C L1C D1C S1C C5I L5I D5I S5I                  SYS / # / OBS TYPES 
R   17 X1  C1C L1C D1C S1C C2P L2P D2P S2P C2C L2C D2C S2C  SYS / # / OBS TYPES 
       C3Q L3Q D3Q S3Q                                      SYS / # / OBS TYPES 
C   25 X1  C1P L1P D1P S1P C5P L5P D5P S5P C2I L2I D2I S2I  SYS / # / OBS TYPES 
       C7I L7I D7I S7I C6I L6I D6I S6I C7D L7D D7D S7D      SYS / # / OBS TYPES 
J   17 X1  C1C L1C D1C S1C C2L L2L D2L S2L C5Q L5Q D5Q S5Q  SYS / # / OBS TYPES 
       C1L L1L D1L S1L                                      SYS / # / OBS TYPES 
I    5 X1  C5A L5A D5A S5A                                  SYS / # / OBS TYPES 
SEPTENTRIO RECEIVERS OUTPUT ALIGNED CARRIER PHASES.         COMMENT             
NO FURTHER PHASE SHIFT APPLIED IN THE RINEX ENCODER.        COMMENT             
G L1C                                                       SYS / PHASE SHIFT   
G L2W                                                       SYS / PHASE SHIFT   
G L2L  0.00000                                              SYS / PHASE SHIFT   
G L5Q  0.00000                                              SYS / PHASE SHIFT   
G L1L  0.00000                                              SYS / PHASE SHIFT   
E L1C  0.00000                                              SYS / PHASE SHIFT   
E L6C  0.00000                                              SYS / PHASE SHIFT   
E L5Q  0.00000                                              SYS / PHASE SHIFT   
E L7Q  0.00000                                              SYS / PHASE SHIFT   
E L8Q  0.00000                                              SYS / PHASE SHIFT   
S L1C                                                       SYS / PHASE SHIFT   
S L5I                                                       SYS / PHASE SHIFT   
R L1C                                                       SYS / PHASE SHIFT   
R L2P  0.00000                                              SYS / PHASE SHIFT   
R L2C                                                       SYS / PHASE SHIFT   
R L3Q  0.00000                                              SYS / PHASE SHIFT   
C L1P  0.00000                                              SYS / PHASE SHIFT   
C L5P  0.00000                                              SYS / PHASE SHIFT   
C L2I                                                       SYS / PHASE SHIFT   
C L7I                                                       SYS / PHASE SHIFT   
C L6I                                                       SYS / PHASE SHIFT   
C L7D                                                       SYS / PHASE SHIFT   
J L1C                                                       SYS / PHASE SHIFT   
J L2L  0.00000                                              SYS / PHASE SHIFT   
J L5Q  0.00000                                              SYS / PHASE SHIFT   
J L1L  0.00000                                              SYS / PHASE SHIFT   
I L5A                                                       SYS / PHASE SHIFT   
  2025     1     2    20    45    0.0000000     GPS         TIME OF FIRST OBS   
 C1C    0.000 C2C    0.000 C2P    0.000                     GLONASS COD/PHS/BIS 
DBHZ                                                        SIGNAL STRENGTH UNIT
    18                                                      LEAP SECONDS        
 24 R01  1 R02 -4 R03  5 R04  6 R05  1 R06 -4 R07  5 R08  6 GLONASS SLOT / FRQ #
    R09 -2 R10 -7 R11  0 R12 -1 R13 -2 R14 -7 R15  0 R16 -1 GLONASS SLOT / FRQ #
    R17  4 R18 -3 R19  3 R20  2 R21  4 R22 -3 R23  3 R24  2 GLONASS SLOT / FRQ #
                                                            END OF HEADER       
> 2025 01 02 20 45  0.0000000  0 36
G10         1.000    20738971.709 6 108984012.10406      -590.251 6        39.264                                    20738970.605 4  84922593.95204      -459.931 4        29.592    20738972.025 6  84922613.95206      -459.808 6        37.739
G23         2.000    21891138.792 6 115038912.32306     -3253.464 6        39.072                                    21891135.394 3  89640576.90103     -2535.153 3        18.030    21891137.845 5  89640538.74805     -2535.341 5        32.024
G21         4.000    22479206.025 5 118129030.08705      1517.214 5        33.641                                    22479207.785 2  92048585.88902      1182.209 2        13.515
G08         5.000    20810666.928 5                       834.120 5        32.707                                                                                                    20810668.361 6  85216209.81406       650.001 6        38.841
G02         6.000    24620858.921 5 129383667.61305      1966.743 5        33.952
E09        10.000    26990700.841 4                      -678.753 4        28.436                                                                                                                                    26990713.320 4                      -519.488 4        24.511
E05        11.000    25260687.227 4                      1535.539 4        28.436                                                                    25260706.296 5                      1146.597 5        30.234    25260698.793 5 101714364.95305      1176.769 5        33.575
G27        13.000    20151977.161 8 105899352.19708     -1520.037 8        48.347                                    20151975.302 8  82518930.44108     -1184.440 8        48.319    20151975.451 7  82519008.42607     -1184.439 7        45.231
E27        14.000    25220300.028 5 132533557.68005      -433.809 5        32.569                                                                    25220300.837 7  98969872.51307      -323.827 7        43.316    25220299.473 6 101551781.04606      -332.423 6        41.731
E21        15.000    28523735.005 4                      1712.633 4        24.887                                                                    28523711.088 4                      1279.192 4        28.673    28523736.554 5 114853196.30205      1312.829 5        30.332
E15        16.000    24744152.670 7 130031388.24507       784.700 7        46.420                                                                    24744153.769 8  97101393.78208       585.926 8        49.343    24744151.803 8  99634438.71508       601.210 8        48.234
E30        19.000    25315994.441 6 133036407.46606     -3120.543 6        38.468                                                                    25315996.828 7  99345416.53107     -2330.358 7        43.634    25316003.217 5 101937013.18405     -2391.105 5        31.140
R20        20.000    19791317.424 5 105833063.00905     -1765.746 5        35.629                                                                    19791321.219 7  82314619.86207     -1373.249 7        42.415
S23        22.000    38189697.141 6 200688211.54106      -861.423 6        40.503
E36        24.000    26597295.848 5 139769696.85005     -3176.546 5        32.018                                                                    26597295.500 5 104373493.05405     -2371.352 5        34.371    26597329.260 3                     -2434.909 3        21.405
S48        25.000    77209714.467 5 405739831.36005      -895.900 5        30.113
R05        28.000    20428394.554 7 109201589.61607       987.137 7        43.081                                                                    20428383.630 6  84934435.09906       767.935 6        39.501
R12        30.000    22967095.829 4                      1345.551 4        29.554                                                                    22967089.942 4                      1047.008 4        28.483
S36        31.000    38232224.413 5 200911628.79605      -861.284 5        35.938
E34        32.000    23477382.741 7 123374471.35307     -1468.937 7        47.785                                                                    23477383.147 8  92130310.09808     -1096.906 8        48.284    23477383.082 8  94533768.80008     -1125.566 8        50.255
R11        33.000    21504302.934 6 114912804.89806     -2727.535 6        40.627                                                                    21504298.788 5  89376552.41305     -2121.258 5        34.305
C08        36.000                                                                                                                                    39462362.450 4                     -2091.938 4        27.856    39462362.326 4                     -1617.426 4        29.280
C33        37.000                                                                                                                                    25794372.366 5 134318073.44005      2693.896 5        34.157                                                                    25794381.019 4                      2188.618 4        27.904
C11        38.000                                                                                                                                    22145355.428 7 115316644.87407     -2128.175 7        44.009    22145353.232 7  89170147.92207     -1645.635 7        45.663    22145351.709 6  93704213.43906     -1729.376 6        41.325
R21        39.000    20821053.936 6 111417806.54906      1459.924 6        37.335                                                                    20821058.637 6  86658199.40206      1135.431 6        38.051
R04        40.000    21492460.289 6 115091124.69406     -2961.045 6        37.981                                                                    21492459.454 6  89515338.04106     -2302.858 6        36.465
C14        42.000                                                                                                                                    23928990.129 7 124604561.13807      2112.208 7        42.751    23928986.363 7  96352075.71907      1633.325 7        44.536    23928981.476 6 101251471.22506      1716.324 6        37.206
C13        43.000                                                                                                                                    38894100.824 5 202531809.92105     -1881.523 5        31.811    38894113.819 6 156610456.69806     -1454.924 6        37.066    38894116.834 5                     -1528.942 5        30.996
C21        46.000                                                                                                                                    23987200.451 7 124907696.43007     -2210.482 7        47.284                                                                    23987196.059 7 101497655.44907     -1796.268 7        44.649
C43        48.000                                                                                                                                    21528416.722 7 112104142.87507      -984.711 7        46.769                                                                    21528418.561 7  91093779.29407      -800.326 7        45.785
C42        50.000                                                                                                                                    22928556.158 6 119395080.19406       808.581 6        40.732                                                                    22928575.660 5  97018248.73905       656.846 5        33.832
C34        52.000                                                                                                                                    23522678.700 5 122488735.66605     -3186.121 5        35.586                                                                    23522686.523 3                     -2589.625 3        23.410
C37        54.000                                                                                                                                    25463359.865 6 132594384.61606     -1916.954 6        36.064                                                                    25463347.438 6 107743761.10506     -1557.932 6        36.495
C28        55.000                                                                                                                                    24273850.276 7 126400209.51807      1736.377 7        42.734                                                                    24273836.875 6 102710555.85206      1410.738 6        38.664
I01        57.000   412738992.446 5 316535674.03505     -2097.865 5        34.000
I06        58.000    38609313.539 6 151511369.54206      -559.179 6        40.896
> 2025 01 02 20 45  5.0000000  0 39
G10         1.000    20739534.706 6 108986971.54506      -593.474 6        41.342                                    20739533.896 4  84924899.96404      -462.463 4        28.900    20739533.816 6  84924920.00306      -462.321 6        36.654
G23         2.000    21894235.534 7 115055185.83107     -3255.717 7        42.214                                    21894231.876 3  89653257.55403     -2536.916 3        18.119    21894235.836 5  89653219.49605     -2536.887 5        34.052
G21         4.000    22477765.575 6 118121447.70206      1515.842 6        36.677                                    22477764.824 2  92042677.57702      1181.195 2        15.333
G08         5.000    20809878.916 6 109356633.21016       831.917 6        38.745                                    20809866.077 4  85212913.90614       648.237 4        26.683    20809875.863 6  85212964.94306       648.176 6        38.754
G02         6.000    24618983.887 5 129373836.91405      1965.684 5        33.659
E09        10.000    26991343.695 4                      -680.696 4        26.719                                                                                                                                    26991350.705 4                      -521.572 4        27.449
E05        11.000    25259229.639 4                      1534.487 4        29.554                                                                    25259244.138 4                      1145.757 4        29.365    25259237.698 5 101708483.71805      1175.921 5        33.725
G27        13.000    20153424.920 8 105906960.62908     -1522.980 8        48.667                                    20153422.913 8  82524859.09008     -1186.730 8        48.476    20153423.149 7  82524937.06807     -1186.819 7        44.700
E27        14.000    25220713.288 5 132535733.05605      -436.047 5        32.425                                                                    25220714.658 7  98971496.99607      -325.721 7        43.111    25220713.591 7 101553447.88607      -334.289 7        42.337
E21        15.000                                                                                                                                    28522083.820 4                      1278.456 4        29.602    28522107.451 5 114846635.32805      1311.486 5        31.562
E15        16.000    24743406.834 7 130027468.15907       783.626 7        46.244                                                                    24743408.041 8  97098466.45508       585.156 8        49.778    24743406.128 8  99631435.02608       600.427 8        48.144
E06        18.000    27686220.003 3                     -1777.327 3        19.881
E30        19.000    25318965.477 6 133052015.64906     -3122.514 6        39.658                                                                    25318966.512 7  99357071.96207     -2331.690 7        44.001    25318972.819 4 101948972.63704     -2392.673 4        28.976
R20        20.000    19792971.665 5 105841896.39105     -1767.591 5        35.790                                                                    19792973.112 7  82321490.27907     -1374.811 7        44.092
S23        22.000    38190519.526 6 200692519.56106      -861.469 6        39.189
E36        24.000    26600315.482 5 139785578.89505     -3176.719 5        32.281                                                                    26600316.738 5 104385353.03005     -2372.345 5        33.377    26600348.317 4                     -2434.055 4        26.359
S48        25.000    77210541.078 5 405744313.36105      -896.637 5        32.204
G16        26.000    23230540.831 5                     -4405.198 5        30.808
R05        28.000    20427471.189 7 109196665.26507       982.895 7        42.282                                                                    20427463.904 6  84930605.06206       764.478 6        39.595
R12        30.000                                                                                                                                    22965831.480 5                      1044.315 5        31.245
S36        31.000    38233045.090 6 200915936.07506      -861.388 6        36.038
E34        32.000    23478781.123 7 123381819.56907     -1470.135 7        47.692                                                                    23478781.448 8  92135797.40008     -1097.816 8        48.641    23478781.228 8  94539399.25108     -1126.435 8        49.907
R11        33.000    21506856.555 6 114926453.07306     -2731.559 6        38.393                                                                    21506854.973 6  89387167.69006     -2124.648 6        38.228
C08        36.000                                                                                                                                    39464369.766 4                     -2092.103 4        27.509    39464373.510 5                     -1617.486 5        31.230
C33        37.000                                                                                                                                    25791781.691 5 134304606.70405      2693.416 5        34.010                                                                    25791794.445 4                      2188.543 4        28.645
C11        38.000                                                                                                                                    22147401.679 7 115327290.08207     -2129.703 7        43.934    22147396.844 7  89178379.48107     -1646.820 7        45.919    22147396.154 6  93712863.54506     -1730.570 6        41.006
R21        39.000                                                                                                                                    20819694.622 6  86652525.57406      1134.307 6        36.533
R04        40.000    21495224.005 6 115105939.91606     -2965.097 6        40.784                                                                    21495225.408 5  89526861.01005     -2306.168 5        35.195
C14        42.000                                                                                                                                    23926963.060 7 124594004.58007      2110.591 7        43.170    23926959.205 7  96343912.73507      1632.086 7        46.995    23926951.820 5 101242893.23005      1714.853 5        33.485
C13        43.000                                                                                                                                    38895911.072 4 202541218.74604     -1882.559 4        27.617    38895920.669 6 156617732.19606     -1454.987 6        36.737    38895926.128 5                     -1528.917 5        30.068
C21        46.000                                                                                                                                    23989323.966 8 124918756.46008     -2213.315 8        48.820                                                                    23989319.931 7 101506642.62107     -1798.480 7        45.041
C23        47.000                                                                                                                                    26084330.582 4                     -3654.382 4        29.166
C43        48.000                                                                                                                                    21529363.006 7 112109071.46407      -986.482 7        47.537                                                                    21529364.951 7  91097784.18307      -801.567 7        45.229
C42        50.000                                                                                                                                    22927780.276 6 119391044.36806       805.893 6        40.694                                                                    22927798.236 5  97014969.38505       654.745 5        30.015
C34        52.000                                                                                                                                                                                                                                                                    23525744.509 3                     -2589.821 3        22.952
C37        54.000                                                                                                                                    25465225.464 4                     -1920.469 4        29.953                                                                    25465190.412 6 107751555.43606     -1559.759 6        38.456
C28        55.000                                                                                                                                    24272183.233 7 126391529.54207      1735.792 7        42.074                                                                    24272168.947 6 102703502.70006      1410.356 6        37.112
I01        57.000   412741666.899 5 316546164.61805     -2098.303 5        35.019
I06        58.000    38610026.228 6 151514165.43306      -559.031 6        41.919
> 2025 01 02 20 45 10.0000000  0 37
G10         1.000    20740101.172 6 108989945.98606      -596.302 6        39.907                                    20740100.160 4  84927217.72404      -464.666 4        27.832    20740097.971 5  84927237.75805      -464.709 5        33.689
G23         2.000    21897334.702 7 115071470.23207     -3257.885 7        46.415                                    21897330.778 3  89665946.69503     -2538.599 3        19.134    21897333.584 5  89665908.64105     -2538.646 5        30.996
G21         4.000    22476325.785 6 118113871.82506      1514.473 6        40.153                                    22476323.132 2  92036774.26102      1180.072 2        16.566
G08         5.000    20809088.097 6 109352480.64006       829.304 6        39.703                                    20809078.718 4  85209678.14704       646.211 4        29.772    20809085.697 6  85209729.13006       646.276 6        37.762
G02         6.000    24617122.355 5 129364008.88405      1965.527 5        32.850
E09        10.000    26991994.773 3                      -682.468 3        22.667                                                                                                                                    26992001.005 4                      -523.896 4        27.581
E05        11.000    25257778.964 5                      1533.296 5        31.162                                                                    25257788.589 4                      1145.178 4        28.550    25257779.824 5 101702607.39005      1174.790 5        33.886
G27        13.000    20154876.140 8 105914583.34608     -1526.014 8        48.676                                    20154873.253 8  82530798.87108     -1189.103 8        48.625    20154874.120 7  82530876.86207     -1189.042 7        43.949
E27        14.000    25221132.032 6 132537920.80306      -438.667 6        36.771                                                                    25221130.809 7  98973130.68407      -327.659 7        43.418    25221129.875 7 101555124.19107      -336.157 7        42.880
E21        15.000    28520488.849 4                      1710.972 4        27.665                                                                    28520455.116 4                      1277.435 4        29.526    28520478.185 5 114840078.85005      1311.084 5        31.343
E15        16.000    24742661.787 7 130023552.69507       782.652 7        46.000                                                                    24742663.088 8  97095542.55608       584.386 8        49.912    24742661.171 8  99628434.85408       599.749 8        48.181
E30        19.000    25321937.065 6 133067632.24106     -3124.251 6        41.349                                                                    25321938.506 7  99368733.74007     -2333.094 7        44.689
R20        20.000    19794623.281 6 105850739.67806     -1769.552 6        36.423                                                                    19794627.033 7  82328368.41807     -1376.414 7        43.494
S23        22.000    38191342.233 6 200696827.78306      -861.627 6        40.694
E36        24.000    26603333.781 5 139801462.13505     -3176.689 5        32.317                                                                    26603338.599 5 104397213.87405     -2372.124 5        32.982    26603364.699 4                     -2434.242 4        28.009
S48        25.000    77211373.426 5 405748795.59305      -896.398 5        33.880
G16        26.000    23234742.559 4                     -4406.440 4        28.578
R05        28.000    20426551.464 7 109191762.42807       978.477 7        42.406                                                                    20426547.539 6  84926791.72006       761.101 6        40.191
R12        30.000    22964571.356 5                      1338.410 5        34.657
S36        31.000    38233858.510 6 200920243.86306      -861.838 6        38.384
E34        32.000    23480180.642 7 123389173.19507     -1471.281 7        47.125                                                                    23480180.971 8  92141288.75208     -1098.682 8        48.748    23480180.461 8  94545033.85008     -1127.357 8        49.687
R11        33.000    21509416.651 6 114940121.16606     -2735.499 6        38.589                                                                    21509414.017 6  89397798.40006     -2127.498 6        36.945
C08        36.000                                                                                                                                                                                                    39466381.457 4                     -1617.575 4        29.839
C33        37.000                                                                                                                                    25789195.067 5 134291141.79705      2693.348 5        33.210                                                                    25789211.050 4                      2187.669 4        26.599
C11        38.000                                                                                                                                    22149445.926 7 115337942.43307     -2131.252 7        43.401    22149442.395 7  89186616.54707     -1647.998 7        46.189    22149441.884 6  93721519.47306     -1731.713 6        40.362
R21        39.000                                                                                                                                    20818333.101 5  86646856.76305      1133.308 5        35.252
R04        40.000    21497994.138 6 115120775.38906     -2969.186 6        40.596                                                                    21497997.528 6  89538399.69706     -2309.296 6        38.138
C14        42.000                                                                                                                                    23924937.338 7 124583455.76307      2108.884 7        43.695    23924933.786 7  96335755.73107      1630.808 7        47.169    23924924.301 5 101234321.47505      1713.874 5        32.126
C13        43.000                                                                                                                                                                                                    38897726.660 5 156625008.15805     -1455.007 5        35.881    38897738.365 5                     -1529.287 5        30.619
C21        46.000                                                                                                                                    23991451.291 8 124929829.92008     -2216.115 8        48.332                                                                    23991446.319 7 101515640.70607     -1800.623 7        45.490
C23        47.000                                                                                                                                    26087837.657 3                     -3656.203 3        18.537                                                                    26087845.578 5 110386207.13315     -2970.115 5        31.592
C43        48.000                                                                                                                                    21530311.575 7 112114008.62007      -988.346 7        47.647                                                                    21530312.832 7  91101796.03407      -803.010 7        45.998
C42        50.000                                                                                                                                    22927007.297 6 119387021.47406       803.216 6        41.037                                                                    22927025.020 4  97011700.51004       652.859 4        29.725
C37        54.000                                                                                                                                                                                                                                                                    25467035.791 6 107759359.70106     -1561.730 6        38.877
C28        55.000                                                                                                                                    24270511.877 6 126382852.19006      1735.145 6        41.030                                                                    24270502.951 6 102696451.64206      1409.812 6        36.030
I01        57.000   412744340.909 5 316556656.85205     -2098.783 5        33.383
I06        58.000    38610739.773 6 151516961.34506      -559.195 6        41.688
> 2025 01 02 20 45 15.0000000  0 37
G10         1.000    20740668.464 6 108992935.47006      -599.124 6        41.111                                    20740669.120 4  84929547.21804      -466.858 4        27.293    20740666.679 5  84929567.26905      -466.889 5        31.857
G23         2.000    21900436.271 7 115087765.51007     -3259.749 7        46.730                                    21900431.969 3  89678644.29303     -2540.038 3        22.019    21900434.232 5  89678606.23905     -2540.176 5        34.686
G21         4.000    22474885.145 6 118106302.59306      1513.265 6        40.756                                    22474882.380 2  92030876.12702      1179.199 2        15.381
G08         5.000    20808298.791 6 109348339.75506       827.239 6        40.141                                    20808292.835 5  85206451.48305       644.600 5        31.102    20808297.735 6  85206502.49706       644.676 6        38.450
E09        10.000    26992638.610 4                      -685.641 4        27.485                                                                                                                                    26992652.837 4                      -525.356 4        28.303
E05        11.000    25256320.992 5                      1531.959 5        30.438                                                                    25256329.235 4                      1143.642 4        25.459    25256323.281 5 101696735.90005      1174.057 5        31.706
G27        13.000    20156328.993 8 105922220.45208     -1528.534 8        48.916                                    20156326.266 8  82536749.86208     -1191.067 8        48.588    20156327.601 7  82536827.84107     -1191.080 7        43.664
E27        14.000    25221551.374 6 132540120.85806      -441.001 6        39.042                                                                    25221549.302 7  98974773.60707      -329.292 7        42.880    25221548.507 7 101556809.94407      -337.889 7        43.827
E21        15.000    28518847.790 4                      1709.295 4        26.982                                                                    28518825.943 4                      1276.384 4        29.374    28518848.811 5 114833527.17805      1309.863 5        31.185
E15        16.000    24741917.144 7 130019641.90007       781.989 7        45.518                                                                    24741918.619 8  97092622.15208       583.955 8        49.266    24741917.010 8  99625438.27508       599.221 8        48.034
E30        19.000    25324908.579 6 133083257.44006     -3125.503 6        40.138                                                                    25324912.200 7  99380401.89907     -2334.083 7        45.485    25324903.808 5 101972911.28005     -2394.782 5        31.404
R20        20.000    19796279.653 6 105859592.95106     -1771.469 6        36.817                                                                    19796283.843 7  82335254.27407     -1377.687 7        44.817
S23        22.000    38192155.988 6 200701136.38006      -861.376 6        40.739
E36        24.000    26606358.146 5 139817346.72305     -3176.707 5        32.473                                                                    26606363.092 5 104409075.70305     -2372.034 5        33.563    26606388.830 4                     -2434.197 4        27.437
S48        25.000    77212196.075 5 405753278.04905      -895.978 5        34.010
R10        27.000    23511104.325 5 125327412.28815     -5061.335 5        30.875
R05        28.000    20425635.746 6 109186880.78106       974.498 6        39.934                                                                    20425631.711 6  84922994.83006       757.930 6        36.488
R12        30.000    22963319.183 4 122665928.44214      1334.738 4        28.663                                                                    22963313.621 5  95406795.67315      1038.201 5        30.936
S36        31.000    38234681.100 6 200924551.34506      -860.998 6        36.571
E34        32.000    23481581.538 7 123396532.31407     -1472.031 7        47.542                                                                    23481581.659 8  92146784.20008     -1099.247 8        49.046    23481580.801 8  94550672.66108     -1127.922 8        49.658
R11        33.000    21511978.950 6 114953809.27906     -2739.346 6        38.898                                                                    21511975.871 6  89408444.76106     -2130.747 6        38.393
C08        36.000                                                                                                                                    39468402.941 5                     -2091.966 5        31.155    39468388.209 5                     -1617.573 5        30.113
C33        37.000                                                                                                                                    25786608.820 5 134277678.77705      2692.731 5        32.311                                                                    25786623.599 4                      2188.026 4        27.713
C11        38.000                                                                                                                                    22151490.408 6 115348602.03706     -2132.300 6        40.791    22151490.673 7  89194859.21507     -1648.804 7        47.082    22151488.821 6  93730181.19806     -1732.737 6        39.513
R21        39.000    20816965.055 6 111395941.10906      1456.008 6        36.102                                                                    20816970.167 5  86641193.01405      1132.401 5        34.471
R04        40.000    21500771.623 7 115135631.13107     -2972.808 7        42.436                                                                    21500771.868 6  89549954.15506     -2312.169 6        39.510
C14        42.000                                                                                                                                    23922913.551 7 124572914.74507      2107.724 7        42.986    23922909.197 7  96327604.74607      1629.875 7        47.517    23922900.881 5 101225755.98705      1712.737 5        33.623
C13        43.000                                                                                                                                    38899528.520 5 202560038.40505     -1881.544 5        32.509    38899533.225 6 156632284.70506     -1455.056 6        37.989    38899542.508 4                     -1529.696 4        29.346
C21        46.000                                                                                                                                    23993581.540 8 124940916.87408     -2218.503 8        49.332                                                                    23993575.638 7 101524649.73507     -1802.569 7        44.767
C23        47.000                                                                                                                                                                                                                                                                    26091355.847 5 110401060.75105     -2970.759 5        31.185
C43        48.000                                                                                                                                    21531261.149 7 112118954.36507      -989.675 7        47.892                                                                    21531262.739 7  91105814.82007      -804.074 7        46.332
C42        50.000                                                                                                                                    22926234.400 6 119383011.61006       800.981 6        39.042                                                                    22926252.788 4                       650.767 4        27.808
C34        52.000                                                                                                                                    23531845.149 5 122536552.42105     -3189.199 5        32.569                                                                    23531845.497 4                     -2591.857 4        28.199
C37        54.000                                                                                                                                    25468875.214 5 132623154.54515     -1924.210 5        35.357                                                                    25468883.618 6 107767173.93106     -1563.592 6        39.021
C28        55.000                                                                                                                                    24268844.072 6 126374177.51506      1734.946 6        41.466                                                                    24268838.505 6 102689402.75106      1409.754 6        37.028
I01        57.000   412747014.702 5 316567150.84005     -2098.969 5        34.167
I06        58.000    38611451.846 6 151519757.28506      -559.078 6        41.547
> 2025 01 02 20 45 20.0000000  0 38
G10         1.000    20741240.658 6 108995940.04106      -602.226 6        38.544                                    20741240.513 4  84931888.43004      -469.273 4        25.459    20741239.262 5  84931908.48305      -469.368 5        31.781
G23         2.000    21903538.743 7 115104071.60307     -3262.171 7        45.205                                    21903535.060 3  89691350.31403     -2541.970 3        23.067    21903537.075 5  89691312.35805     -2541.993 5        35.105
G21         4.000    22473445.952 6 118098739.85106      1511.985 6        40.133                                    22473443.050 2  92024983.08002      1178.164 2        14.000
G08         5.000    20807513.746 6 109344210.57406       824.867 6        40.455                                    20807508.861 5  85203233.95205       642.763 5        31.389    20807513.083 6  85203284.97506       642.642 6        40.346
E09        10.000    26993295.809 5                      -688.185 5        33.892                                                                                                                                    26993311.217 4                      -527.559 4        26.240
E05        11.000    25254858.342 5                      1530.734 5        31.298                                                                    25254871.410 3                      1143.510 3        23.067    25254866.935 5 101690869.27405      1173.203 5        32.000
G18        12.000                                                                                                                                                                    24738873.836 3                     -3115.115 3        22.057
G27        13.000    20157784.990 8 105929871.92208     -1531.713 8        50.881                                    20157782.061 8  82542712.03408     -1193.538 8        48.712    20157783.426 7  82542790.02007     -1193.523 7        44.266
E27        14.000    25221971.110 6 132542333.28106      -443.510 6        37.667                                                                    25221970.499 7  98976425.76507      -331.374 7        42.595    25221969.748 7 101558505.19107      -339.896 7        43.907
E21        15.000    28517225.790 3                      1706.779 3        20.714                                                                    28517200.357 4                      1275.643 4        29.242    28517219.119 4 114826980.06704      1309.170 4        28.171
E15        16.000    24741174.541 7 130015735.74907       780.739 7        45.324                                                                    24741174.857 8  97089705.22408       583.141 8        48.496    24741173.343 7  99622445.25607       598.336 7        47.923
E30        19.000    25327883.622 6 133098891.22806     -3127.508 6        37.974                                                                    25327886.023 7  99392076.45507     -2335.522 7        44.245    25327880.028 5 101984890.40905     -2396.458 5        35.605
R20        20.000    19797938.359 6 105868456.05606     -1773.407 6        38.303                                                                    19797941.878 7  82342147.79607     -1379.373 7        44.885
S23        22.000    38192961.001 6 200705445.16906      -861.838 6        37.811
E36        24.000    26609383.906 5 139833232.49305     -3177.001 5        30.204                                                                    26609388.098 5 104420938.52205     -2372.575 5        34.467
G16        26.000    23243134.360 4                     -4408.587 4        28.900
R10        27.000    23515855.133 4 125352722.50304     -5062.216 4        28.711
R05        28.000    20424725.130 6 109182020.51606       969.765 6        36.582                                                                    20424721.483 5  84919214.58705       754.343 5        32.389
R12        30.000    22962068.059 5 122659264.07405      1331.103 5        32.880                                                                    22962064.678 5  95401612.17305      1034.869 5        35.786
S36        31.000    38235497.909 6 200928858.92706      -861.402 6        38.414
E34        32.000    23482982.763 8 123403896.89308     -1473.360 8        48.343                                                                    23482982.970 8  92152283.73208     -1100.195 8        49.029    23482982.413 8  94556315.65408     -1128.918 8        49.275
R11        33.000                                                                                                                                    21514541.897 6  89419106.49606     -2133.690 6        36.896
C08        36.000                                                                                                                                    39470412.126 5                     -2092.027 5        32.545    39470401.450 5                     -1617.684 5        31.781
C33        37.000                                                                                                                                    25784024.954 5 134264217.63305      2692.232 5        31.472                                                                    25784038.062 4                      2187.533 4        28.853
C11        38.000                                                                                                                                    22153539.305 6 115359268.72406     -2133.889 6        40.903    22153540.021 7  89203107.42107     -1650.085 7        46.631    22153537.827 6  93738848.82606     -1734.266 6        39.033
R21        39.000    20815610.415 5                      1454.282 5        35.905                                                                    20815609.219 5  86635534.39215      1131.324 5        31.253
R04        40.000    21503549.810 6 115150507.12706     -2977.092 6        40.434                                                                    21503549.023 6  89561524.41306     -2315.507 6        36.934
C14        42.000                                                                                                                                    23920890.987 6 124562381.55006      2105.977 6        41.311    23920886.071 7  96319459.79607      1628.444 7        47.499    23920879.315 5 101217196.91005      1711.315 5        35.148
C13        43.000                                                                                                                                    38901334.984 5 202569449.23305     -1881.865 5        32.072    38901342.250 6 156639561.81506     -1455.384 6        38.423    38901348.633 4                     -1529.412 4        29.137
C21        46.000                                                                                                                                    23995713.459 8 124952017.29108     -2221.327 8        48.962                                                                    23995707.761 7 101533669.77207     -1805.221 7        45.011
C23        47.000                                                                                                                                                                                                                                                                    26094865.751 5 110415916.97005     -2971.478 5        32.455
C43        48.000                                                                                                                                    21532213.113 8 112123908.72008      -991.620 8        49.136                                                                    21532214.008 7  91109840.67307      -805.930 7        46.795
C42        50.000                                                                                                                                    22925468.235 5 119379014.76205       798.236 5        35.371                                                                    22925479.940 5                       648.466 5        32.796
C34        52.000                                                                                                                                    23534919.718 5 122552501.97205     -3190.345 5        33.341                                                                    23534910.186 4                     -2592.119 4        27.078
C37        54.000                                                                                                                                    25470723.458 6 132632783.38306     -1926.978 6        36.885                                                                    25470732.649 6 107774998.15706     -1565.782 6        39.282
C28        55.000                                                                                                                                    24267175.842 6 126365505.55206      1734.368 6        36.798                                                                    24267172.650 6 102682356.11306      1408.996 6        36.926
I01        57.000   412749689.518 5 316577646.58405     -2099.295 5        34.319
I06        58.000    38612163.905 6 151522553.26706      -559.078 6        41.511
> 2025 01 02 20 45 25.0000000  0 38
G10         1.000    20741816.502 6 108998959.35206      -605.425 6        40.827                                    20741814.723 3  84934241.15003      -471.736 3        22.990    20741810.859 4  84934261.17604      -471.798 4        28.019
G23         2.000    21906643.248 7 115120388.23307     -3264.480 7        46.936                                    21906640.464 4  89704064.56904     -2543.767 4        24.090    21906642.536 5  89704026.56105     -2543.674 5        34.967
G21         4.000    22472006.483 6 118091183.35306      1510.599 6        40.675                                    22472005.043 2  92019094.91902      1177.086 2        16.113
G08         5.000    20806728.707 6 109340092.72606       822.415 6        39.763                                    20806726.993 5  85200025.27505       640.844 5        30.838    20806728.443 6  85200076.28506       640.842 6        39.039
G02         6.000    24611562.523 4 129334541.43804      1963.342 4        29.545
E09        10.000    26993949.165 5 141854174.89415      -690.392 5        32.042                                                                                                                                    26993978.969 4                      -529.153 4        26.766
E05        11.000    25253400.544 4                      1529.418 4        24.962                                                                    25253420.265 3                      1141.994 3        20.738    25253410.301 4 101685007.19404      1172.061 4        27.605
G27        13.000    20159244.561 8 105937537.37508     -1534.602 8        51.161                                    20159240.749 8  82548685.11308     -1195.794 8        48.977    20159242.009 7  82548763.10507     -1195.752 7        43.954
E27        14.000    25222393.495 6 132544557.74606      -445.985 6        40.055                                                                    25222393.841 7  98978086.87307      -333.140 7        43.636    25222393.298 7 101560209.64007      -341.830 7        45.082
E21        15.000                                                                                                                                    28515576.008 5                      1274.842 5        30.226
E15        16.000    24740432.020 7 130011833.85107       779.923 7        44.587                                                                    24740432.269 8  97086791.48208       582.420 8        48.618    24740431.310 7  99619455.50407       597.612 7        47.974
E30        19.000    25330858.111 5 133114533.13305     -3129.410 5        31.170                                                                    25330862.024 7  99403757.07307     -2336.848 7        43.928    25330861.362 6 101996875.76106     -2397.818 6        39.553
R20        20.000    19799597.771 6 105877328.69506     -1775.524 6        38.210                                                                    19799600.233 7  82349048.73307     -1380.998 7        45.657
S23        22.000    38193810.922 5 200709753.70005      -862.017 5        35.886
E36        24.000    26612407.811 5 139849119.33805     -3177.743 5        31.698                                                                    26612412.248 5 104432801.99805     -2372.894 5        35.348
G16        26.000    23247333.016 5 122165543.22815     -4409.376 5        32.916
R10        27.000    23520606.388 4 125378035.15704     -5063.444 4        29.630
R05        28.000                                                                                                                                    20423816.304 4  84915450.74304       750.990 4        29.450
R12        30.000                                                                                                                                    22960822.806 6  95396442.99616      1032.033 6        36.268
S36        31.000    38236325.745 6 200933166.47006      -861.447 6        37.096
E34        32.000    23484384.911 8 123411266.58708     -1474.529 8        48.324                                                                    23484385.303 8  92157787.07108     -1101.120 8        48.844    23484384.737 8  94561962.55408     -1129.842 8        48.692
R11        33.000                                                                                                                                    21517106.039 5  89429783.51605     -2136.922 5        34.033
C08        36.000                                                                                                                                    39472420.265 4                     -2091.931 4        28.360    39472404.433 4                     -1617.695 4        29.772
C33        37.000                                                                                                                                    25781441.006 5 134250758.12105      2692.202 5        30.491                                                                    25781456.854 4                      2187.525 4        28.597
C11        38.000                                                                                                                                    22155590.236 6 115369942.29406     -2135.545 6        41.945    22155588.369 7  89211360.90507     -1651.279 7        46.246    22155587.920 6  93747521.96206     -1735.136 6        36.382
R21        39.000    20814255.588 5 111381265.65415      1452.991 5        35.081                                                                    20814252.839 5  86629880.49805      1130.791 5        31.343
R04        40.000    21506329.481 6 115165402.96806     -2981.246 6        39.757                                                                    21506327.697 5  89573110.02005     -2318.743 5        34.748
C14        42.000                                                                                                                                    23918867.311 6 124551855.73706      2104.205 6        41.959    23918864.437 7  96311320.56607      1627.158 7        47.096    23918859.835 6 101208643.84206      1709.724 6        36.333
C13        43.000                                                                                                                                    38903133.188 5                     -1882.225 5        30.468    38903149.969 6 156646839.16906     -1455.641 6        37.573    38903157.198 4                     -1529.695 4        29.175
C21        46.000                                                                                                                                    23997847.598 8 124963130.83308     -2224.108 8        49.733                                                                    23997842.358 7 101542700.40607     -1807.266 7        45.333
C23        47.000                                                                                                                                    26098406.990 4                     -3658.261 4        25.068                                                                    26098373.586 4 110430775.50704     -2971.774 4        29.526
C43        48.000                                                                                                                                    21533167.635 8 112128871.33008      -993.496 8        49.607                                                                    21533166.825 7  91113873.19007      -807.311 7        46.110
C42        50.000                                                                                                                                    22924704.264 5 119375030.55205       795.766 5        33.838                                                                    22924712.493 5                       646.267 5        35.229
C34        52.000                                                                                                                                    23537991.424 5 122568456.53305     -3191.560 5        35.267                                                                    23537974.549 3                     -2592.355 3        23.562
C37        54.000                                                                                                                                    25472578.765 5 132642424.11205     -1929.673 5        31.109                                                                    25472584.485 6 107782832.05006     -1567.850 6        39.778
C28        55.000                                                                                                                                                                                                                                                                    24265504.705 5 102675311.29505      1408.746 5        35.914
I01        57.000   412752364.058 5 316588143.70705     -2099.969 5        31.728
I06        58.000    38612876.005 6 151525348.97806      -559.205 6        41.890
> 2025 01 02 20 45 30.0000000  0 36
G10         1.000    20742394.577 7 109001993.25807      -608.427 7        42.588                                    20742391.097 3  84936605.25403      -474.128 3        21.333
G23         2.000    21909750.484 7 115136715.28107     -3266.551 7        45.640                                    21909747.553 3  89716786.95703     -2545.336 3        23.676    21909749.017 5  89716748.92805     -2545.618 5        31.457
G21         4.000    22470569.322 6 118083633.11506      1509.380 6        40.367                                    22470568.208 2  92013211.59602      1176.135 2        16.415
G08         5.000    20805947.422 6 109335986.28206       820.056 6        41.850                                    20805946.861 5  85196825.46805       638.998 5        31.434    20805946.582 6  85196876.48606       638.933 6        38.324
