     3.04           OBSERVATION DATA    M                   RINEX VERSION / TYPE
ssrcrin-15.6.1x                         20250102 153000 UTC PGM / RUN BY / DATE 
(00000000023479385599111004) Septentrio proprietary         COMMENT             
ract                                                        MARKER NAME         
01                                                          MARKER NUMBER       
geodetic                                                    MARKER TYPE         
NFB                 CLIMERS@TUW                             OBSERVER / AGENCY   
3296359             SEPT ASTERX SB3 PROB4.14.4              REC # / TYPE / VERS 
Unknown             Unknown                                 ANT # / TYPE        
  4127445.6560  1206914.9280  4695542.5240                  APPROX POSITION XYZ 
        0.0000        0.0000        0.0000                  ANTENNA: DELTA H/E/N
G   23 X1  C1C L1C D1C S1C C1W S1W C2W L2W D2W S2W C2L L2L  SYS / # / OBS TYPES 
       D2L S2L C5Q L5Q D5Q S5Q C1L L1L D1L S1L              SYS / # / OBS TYPES 
E   21 X1  C1C L1C D1C S1C C6C L6C D6C S6C C5Q L5Q D5Q S5Q  SYS / # / OBS TYPES 
       C7Q L7Q D7Q S7Q C8Q L8Q D8Q S8Q                      SYS / # / OBS TYPES 
S    9 X1  C1C L1C D1C S1C C5I L5I D5I S5I                  SYS / # / OBS TYPES 
R   17 X1  C1C L1C D1C S1C C2P L2P D2P S2P C2C L2C D2C S2C  SYS / # / OBS TYPES 
       C3Q L3Q D3Q S3Q                                      SYS / # / OBS TYPES 
C   25 X1  C1P L1P D1P S1P C5P L5P D5P S5P C2I L2I D2I S2I  SYS / # / OBS TYPES 
       C7I L7I D7I S7I C6I L6I D6I S6I C7D L7D D7D S7D      SYS / # / OBS TYPES 
J   17 X1  C1C L1C D1C S1C C2L L2L D2L S2L C5Q L5Q D5Q S5Q  SYS / # / OBS TYPES 
       C1L L1L D1L S1L                                      SYS / # / OBS TYPES 
I    5 X1  C5A L5A D5A S5A                                  SYS / # / OBS TYPES 
SEPTENTRIO RECEIVERS OUTPUT ALIGNED CARRIER PHASES.         COMMENT             
NO FURTHER PHASE SHIFT APPLIED IN THE RINEX ENCODER.        COMMENT             
G L1C                                                       SYS / PHASE SHIFT   
G L2W                                                       SYS / PHASE SHIFT   
G L2L  0.00000                                              SYS / PHASE SHIFT   
G L5Q  0.00000                                              SYS / PHASE SHIFT   
G L1L  0.00000                                              SYS / PHASE SHIFT   
E L1C  0.00000                                              SYS / PHASE SHIFT   
E L6C  0.00000                                              SYS / PHASE SHIFT   
E L5Q  0.00000                                              SYS / PHASE SHIFT   
E L7Q  0.00000                                              SYS / PHASE SHIFT   
E L8Q  0.00000                                              SYS / PHASE SHIFT   
S L1C                                                       SYS / PHASE SHIFT   
S L5I                                                       SYS / PHASE SHIFT   
R L1C                                                       SYS / PHASE SHIFT   
R L2P  0.00000                                              SYS / PHASE SHIFT   
R L2C                                                       SYS / PHASE SHIFT   
R L3Q  0.00000                                              SYS / PHASE SHIFT   
C L1P  0.00000                                              SYS / PHASE SHIFT   
C L5P  0.00000                                              SYS / PHASE SHIFT   
C L2I                                                       SYS / PHASE SHIFT   
C L7I                                                       SYS / PHASE SHIFT   
C L6I                                                       SYS / PHASE SHIFT   
C L7D                                                       SYS / PHASE SHIFT   
J L1C                                                       SYS / PHASE SHIFT   
J L2L  0.00000                                              SYS / PHASE SHIFT   
J L5Q  0.00000                                              SYS / PHASE SHIFT   
J L1L  0.00000                                              SYS / PHASE SHIFT   
I L5A                                                       SYS / PHASE SHIFT   
  2025     1     2    15    30    0.0000000     GPS         TIME OF FIRST OBS   
 C1C    0.000 C2C    0.000 C2P    0.000                     GLONASS COD/PHS/BIS 
DBHZ                                                        SIGNAL STRENGTH UNIT
    18                                                      LEAP SECONDS        
 24 R01  1 R02 -4 R03  5 R04  6 R05  1 R06 -4 R07  5 R08  6 GLONASS SLOT / FRQ #
    R09 -2 R10 -7 R11  0 R12 -1 R13 -2 R14 -7 R15  0 R16 -1 GLONASS SLOT / FRQ #
    R17  4 R18 -3 R19  3 R20  2 R21  4 R22 -3 R23  3 R24  2 GLONASS SLOT / FRQ #
                                                            END OF HEADER       
> 2025 01 02 15 30  0.0000000  0 41
G20         1.000    23691400.971 5 124499342.62705       187.851 5        31.057
G11         2.000    23390042.672 5 122915481.35105     -3427.316 5        35.890                                    23390031.246 1  95778261.62301     -2670.828 1         4.714    23390031.387 5  95778278.57605     -2670.904 5        32.940
G25         3.000    20206272.587 8 106184843.45408     -2428.967 8        48.635                                    20206271.178 7  82741422.42807     -1892.702 7        45.026    20206272.010 7  82741341.44007     -1892.665 7        43.245
G32         4.000    25478621.699 3                     -3793.158 3        19.851
E25         6.000    23355278.164 7 122732853.25007     -1551.306 7        45.491                                                                    23355277.331 7  91651287.09307     -1158.399 7        44.874    23355277.913 8  94042085.75208     -1188.635 8        48.288
G31         7.000    22062009.866 6 115936672.09306       973.457 6        36.336                                    22062011.292 3  90340298.46003       758.530 3        19.403    22062009.981 4  90340291.58104       758.484 4        28.995
G28         8.000    21219136.359 7 111507285.50807      -740.797 7        46.216                                    21219135.480 5  86888853.36405      -577.248 5        31.781    21219135.195 7  86888926.38207      -577.195 7        43.194
G29         9.000    20295325.239 7 106652722.17007      -393.668 7        44.506                                    20295323.263 7  83106019.23207      -306.753 7        45.910    20295323.849 7  83105971.23207      -306.792 7        45.007
E11        10.000    23993086.423 6 126084617.90006      -143.959 6        39.318                                                                    23993085.022 7  94154060.66407      -107.602 7        44.119    23993084.898 7  96610251.16007      -110.377 7        43.427
E10        11.000    24874559.750 7 130716846.15707     -1779.469 7        44.482                                                                    24874561.604 7  97613145.52507     -1328.784 7        45.088    24874560.759 7 100159631.49207     -1363.392 7        45.582
G18        12.000    23795157.073 7 125044413.74607      2828.071 7        45.863                                    23795156.140 4  97437239.40104      2203.680 4        28.417    23795157.496 7  97437272.42907      2203.688 7        42.227
E12        13.000    26535341.724 5 139444175.18605     -2929.492 5        34.990                                                                    26535350.025 4 104130384.29804     -2187.784 4        28.028
G12        15.000    23167789.117 7 121747698.13807     -4020.416 7        44.004                                    23167789.649 4  94868291.12104     -3132.795 4        27.820    23167792.918 5                     -3132.711 5        32.066
E24        16.000    27039493.264 4                     -3272.357 4        25.383                                                                    27039442.853 4                     -2443.707 4        25.414    27039455.521 5 108876672.30305     -2506.975 5        30.234
G26        17.000    23576924.290 5 123897678.89405      2420.723 5        35.781                                    23576938.050 2  96543655.82502      1886.268 2        17.736    23576925.809 5  96543582.83205      1886.296 5        30.528
E07        18.000    27754981.594 5                      -497.688 5        30.966                                                                    27754975.632 4 108916504.21204      -371.516 4        26.623    27754974.423 4 111757844.49004      -381.234 4        28.076
E08        20.000    27145349.962 4 142649640.33004     -2738.696 4        24.466                                                                    27145385.393 4 106524135.28104     -2044.380 4        25.850    27145339.733 4 109302993.53804     -2097.850 4        28.730
E02        21.000    24269527.887 5 127537298.61505       841.495 5        34.676                                                                    24269526.158 5  95238912.16205       628.288 5        33.281    24269528.397 5  97723373.26005       644.568 5        35.000
S23        22.000    38075830.121 5 200089909.34105      -866.007 5        34.924
R08        23.000                                                                                                                                    23748586.452 4                      -172.727 4        27.856
E36        24.000    25736877.418 6 135248201.28106      2107.700 6        39.378                                                                    25736883.567 6 100997150.83806      1573.778 6        39.805    25736880.753 7 103631845.38007      1614.934 7        42.222
R18        25.000    19471146.753 7 103938527.90307      1165.314 7        44.048                                                                    19471150.598 6  80840972.25906       906.359 6        36.291
S21        27.000    38356411.478 5 201564401.00605      -862.095 5        35.214
R07        28.000    23777019.312 4 127280189.04504     -3014.698 4        28.483                                                                    23777002.158 4                     -2344.664 4        28.360
R19        29.000                                                                                                                                    22561224.929 5  93867932.79805      2620.879 5        34.052
R15        30.000    20058482.584 5 107186336.30605     -3270.447 5        33.263                                                                    20058455.790 4  83367198.48304     -2542.959 4        29.820
S36        31.000    38127744.621 5 200362642.94005      -861.673 5        35.738
R16        34.000    19381361.819 8 103532344.42708       754.930 8        48.921                                                                    19381362.476 7  80524843.79507       587.177 7        46.678
C44        35.000                                                                                                                                    21339777.865 8 111122132.35308      -112.992 8        53.180                                                                    21339777.185 8  90295726.44608       -91.862 8        49.904
R17        36.000    19628425.461 8 105036062.99408     -2786.751 8        51.000                                                                    19628426.652 6  81694451.11306     -2167.538 6        40.560
R09        37.000    23217010.885 6 123977586.70906      3150.854 6        36.938                                                                    23217017.202 6  96427043.63506      2450.443 6        38.339
R24        38.000                                                                                                                                    23762029.999 3                     -3982.221 3        22.629
C12        41.000                                                                                                                                    22599559.699 5 117681892.10605      1305.205 5        34.510                                                                    22599560.578 7  95626158.94407      1060.482 7        43.431
C35        42.000                                                                                                                                    22706475.031 6 118238540.07706     -2887.847 6        36.926                                                                    22706472.567 7  96078538.76907     -2346.606 7        43.336
C38        44.000                                                                                                                                    39070807.202 4 203451796.95604       252.098 4        28.455                                                                    39070767.467 4                       205.348 4        27.138
C25        45.000                                                                                                                                    23882807.342 7 124364018.90707      1813.459 7        42.106                                                                    23882809.536 7 101056133.22807      1473.632 7        46.705
C26        48.000                                                                                                                                    23642482.544 5                     -3643.706 5        30.868                                                                    23642486.229 7 100039086.64007     -2960.833 7        44.262
C24        51.000                                                                                                                                    21324260.690 8 111041032.53608      -987.484 8        51.212                                                                    21324259.580 8  90229997.46108      -802.411 8        48.357
C34        52.000                                                                                                                                    24420020.528 4 127161477.25004      2234.568 4        28.872                                                                    24420022.752 5 103329132.25005      1815.517 5        31.245
I02        55.000    37623600.230 5 147643106.08405     -1039.973 5        32.174
I06        58.000    38590912.519 5 151439086.95705      -699.779 5        33.635
> 2025 01 02 15 30  5.0000000  0 41
G20         1.000    23691227.101 4 124498409.98504       185.382 4        27.461
G11         2.000    23393309.152 5 122932623.38605     -3429.519 5        34.381                                    23393293.437 1  95791618.89401     -2672.209 1         2.600    23393293.994 5  95791635.93505     -2672.223 5        32.174
G25         3.000    20208584.564 8 106196993.69408     -2431.063 8        49.372                                    20208583.776 7  82750890.15007     -1894.336 7        45.786    20208584.333 7  82750809.17507     -1894.424 7        43.932
G32         4.000    25482241.227 3                     -3792.832 3        19.791
E25         6.000    23356754.529 7 122740612.65007     -1552.331 7        45.637                                                                    23356753.866 7  91657081.44107     -1159.211 7        44.337    23356754.361 8  94048031.26308     -1189.495 8        48.174
G31         7.000    22061084.836 5 115931811.87105       970.619 5        34.805                                    22061086.936 3  90336511.33003       756.321 3        18.627    22061084.814 5  90336504.41405       756.067 5        31.419
G28         8.000    21219842.755 7 111510997.68107      -744.029 7        46.850                                    21219841.554 5  86891745.97305      -579.764 5        31.645    21219841.686 7  86891818.98607      -579.739 7        42.766
G29         9.000    20295701.362 7 106654696.32307      -395.896 7        44.352                                    20295698.879 7  83107557.53907      -308.491 7        45.499    20295700.046 7  83107509.54107      -308.541 7        45.093
E11        10.000    23993224.152 6 126085344.40806      -146.318 6        39.186                                                                    23993223.274 7  94154603.18607      -109.357 7        44.251    23993222.957 7  96610807.82607      -112.175 7        43.712
E10        11.000    24876253.230 7 130725748.88607     -1781.603 7        43.839                                                                    24876255.633 7  97619793.67807     -1330.450 7        45.044    24876254.823 7 100166453.06707     -1365.156 7        45.717
G18        12.000    23792466.292 7 125030275.22307      2827.508 7        46.220                                    23792465.775 4  97426222.40204      2203.245 4        28.635    23792466.452 7  97426255.42307      2203.259 7        42.245
E12        13.000    26538129.350 5 139458827.97305     -2931.424 5        35.167                                                                    26538144.560 4 104141326.32904     -2189.277 4        24.857
G12        15.000    23171614.663 7 121767802.46207     -4021.267 7        43.776                                    23171616.656 4  94883956.84504     -3133.461 4        27.617    23171618.681 5                     -3133.604 5        31.819
E24        16.000                                                                                                                                    27042553.327 3                     -2442.608 3        22.419    27042575.058 5 108889208.87805     -2507.231 5        30.664
G26        17.000    23574621.364 5 123885576.55805      2420.335 5        34.833                                    23574633.791 2  96534225.48302      1885.985 2        17.849    23574622.307 5  96534152.49505      1885.908 5        30.279
E07        18.000    27755450.278 5                      -499.777 5        33.210                                                                    27755452.368 4 108918366.33704      -373.470 4        26.982    27755448.884 4 111759755.18704      -383.096 4        28.284
E08        20.000    27147962.715 3                     -2739.723 3        23.486                                                                    27147994.444 4 106534361.85204     -2045.447 4        26.778    27147944.280 4 109313486.81804     -2099.135 4        29.877
E02        21.000    24268727.381 5 127533093.68605       840.847 5        34.176                                                                    24268726.471 5  95235772.10905       628.073 5        34.152    24268727.751 5  97720151.29305       644.050 5        34.533
S23        22.000    38076656.656 5 200094240.09305      -866.098 5        34.929
R08        23.000    23748849.552 4                      -225.840 4        26.132
E36        24.000    25734872.851 6 135237665.84206      2106.468 6        39.793                                                                    25734878.576 6 100989283.48206      1573.104 6        39.450    25734875.858 6 103623772.77606      1614.232 6        41.938
R18        25.000    19470057.707 7 103932710.11907      1161.756 7        44.357                                                                    19470060.489 6  80836447.31906       903.541 6        37.183
S21        27.000    38357230.487 5 201568710.03505      -861.588 5        35.495
R07        28.000    23779830.901 4                     -3017.176 4        29.185                                                                    23779822.938 4                     -2347.176 4        28.578
R19        29.000    22558079.206 4                      3368.839 4        24.917                                                                    22558073.546 5  93854831.31205      2620.038 5        32.162
R15        30.000    20061539.025 5 107202695.25505     -3273.007 5        32.048                                                                    20061518.833 5  83379922.11505     -2545.718 5        33.036
S36        31.000    38128563.299 5 200366951.66005      -861.581 5        35.724
R16        34.000    19380657.382 8 103528577.05308       752.134 8        49.762                                                                    19380657.783 7  80521913.62707       584.940 7        47.123
C44        35.000                                                                                                                                    21339887.458 8 111122702.89808      -115.183 8        53.013                                                                    21339886.826 8  90296190.06208       -93.639 8        50.026
R17        36.000    19631031.275 8 105050005.51408     -2790.138 8        51.419                                                                    19631032.554 6  81705295.28606     -2170.132 6        40.315
R09        37.000    23214061.429 6 123961833.11606      3150.734 6        38.835                                                                    23214067.117 6  96414790.89206      2450.583 6        37.066
R24        38.000                                                                                                                                    23766813.808 4                     -3983.777 4        24.135
C12        41.000                                                                                                                                    22598303.770 5 117675370.52205      1303.465 5        33.557    22598321.243 4                      1008.043 4        29.649    22598308.381 7  95620859.61907      1059.108 7        43.731
C35        42.000                                                                                                                                    22709248.204 6 118252982.65106     -2889.240 6        37.947                                                                    22709246.233 7  96090274.56407     -2347.855 7        43.482
C38        44.000                                                                                                                                    39070563.531 4 203450534.95704       252.623 4        28.938                                                                    39070526.174 4                       204.963 4        27.317
C25        45.000                                                                                                                                    23881064.988 6 124354954.12706      1812.415 6        41.881                                                                    23881068.855 7 101048767.36007      1472.643 7        46.934
C26        48.000                                                                                                                                    23645981.124 5                     -3645.029 5        31.645                                                                    23645985.332 7 100053893.54307     -2961.888 7        44.108
C24        51.000                                                                                                                                    21325210.340 8 111045975.77808      -989.733 8        50.995                                                                    21325208.905 8  90234014.25908      -804.331 8        48.165
C34        52.000                                                                                                                                    24417873.497 5 127150308.35705      2233.533 5        31.064                                                                    24417878.257 5 103320056.58405      1814.866 5        30.619
I02        55.000    37624925.655 5 147648306.29605     -1039.938 5        31.932
I06        58.000    38591804.619 5 151442585.61305      -699.856 5        33.695
> 2025 01 02 15 30 10.0000000  0 40
G20         1.000    23691053.553 3                       183.844 3        19.851
G11         2.000    23396573.669 5 122949776.06505     -3431.829 5        33.707                                                                                                    23396561.019 5  95805001.66805     -2674.171 5        32.048
G25         3.000    20210898.564 8 106209154.78508     -2433.785 8        49.330                                    20210898.400 7  82760366.32707     -1896.458 7        46.344    20210898.954 7  82760285.34907     -1896.418 7        44.680
E25         6.000    23358232.032 7 122748377.96407     -1554.027 7        45.639                                                                    23358231.571 7  91662880.21407     -1160.495 7        43.755    23358231.896 7  94053981.30807     -1190.744 7        47.946
G31         7.000    22060161.907 5 115926965.73605       967.227 5        32.084                                    22060165.259 2  90332735.18702       753.665 2        17.057    22060163.390 5  90332728.21405       753.987 5        33.934
G28         8.000    21220552.311 7 111514726.35807      -747.853 7        47.607                                    21220550.820 5  86894651.44205      -582.746 5        31.441    21220550.849 7  86894724.46007      -582.725 7        42.483
G29         9.000    20296079.968 7 106656681.85607      -398.614 7        44.928                                    20296076.642 7  83109104.71207      -310.611 7        45.181    20296077.630 7  83109056.72407      -310.692 7        45.336
E11        10.000    23993364.842 6 126086082.71606      -149.129 6        39.384                                                                    23993363.727 7  94155154.53607      -111.560 7        44.098    23993363.358 7  96611373.55907      -114.505 7        43.659
E10        11.000    24877949.218 7 130734662.84907     -1784.389 7        42.531                                                                    24877951.798 7  97626450.21507     -1332.453 7        44.909    24877950.948 7 100173283.24707     -1367.199 7        45.685
G18        12.000    23789776.246 7 125016139.99907      2826.229 7        46.275                                    23789775.942 4  97415207.98804      2202.244 4        28.512    23789776.687 7  97415241.00007      2202.326 7        42.252
E12        13.000    26540919.740 5 139473488.86405     -2933.334 5        34.510                                                                    26540949.527 4 104152274.68104     -2190.668 4        25.173
G12        15.000    23175441.491 7 121787911.33307     -4022.688 7        43.482                                    23175444.557 4  94899626.11004     -3134.577 4        27.305    23175447.097 5                     -3134.345 5        32.000
E24        16.000    27045703.042 4                     -3272.280 4        25.218                                                                    27045664.020 3                     -2443.705 3        20.524    27045691.577 5 108901747.18705     -2508.502 5        30.377
G26        17.000    23572320.571 5 123873476.70205      2419.276 5        35.238                                    23572330.494 2  96524797.06302      1885.135 2        16.566    23572320.542 4  96524724.11804      1884.691 4        29.991
E07        18.000    27755926.126 5 145858373.97015      -502.505 5        34.205                                                                    27755931.456 4 108920236.81904      -375.152 4        27.940    27755924.699 4 111761674.52504      -384.802 4        27.437
E08        20.000                                                                                                                                    27150601.471 4 106544594.28204     -2046.716 4        27.581    27150550.657 5 109323986.13905     -2101.036 5        31.585
E02        21.000    24267928.784 5 127528892.24805       839.437 5        31.789                                                                    24267927.445 5  95232634.67805       626.780 5        35.129    24267927.754 5  97716931.99405       643.153 5        34.438
S23        22.000    38077475.021 5 200098570.48405      -866.462 5        34.538
R08        23.000    23749066.860 4                      -230.384 4        25.579                                                                    23749005.913 4                      -178.857 4        28.825
E36        24.000    25732868.858 6 135227135.28506      2105.204 6        39.489                                                                    25732874.298 6 100981419.76506      1572.026 6        39.006    25732872.016 6 103615703.93606      1613.020 6        41.888
R18        25.000    19468972.764 7 103926910.80607      1157.677 7        45.607                                                                    19468973.737 6  80831936.72606       900.496 6        36.503
S21        27.000    38358052.738 5 201573018.52205      -862.118 5        35.952
R07        28.000                                                                                                                                    23782643.620 4                     -2349.905 4        29.156
R19        29.000    22554939.193 4                      3366.170 4        25.910                                                                    22554924.841 5                      2618.858 5        30.181
R15        30.000    20064609.543 5 107219068.10505     -3276.381 5        32.964                                                                    20064584.992 6  83392656.45506     -2548.336 6        36.866
S36        31.000    38129386.530 5 200371260.46805      -862.229 5        35.962
R16        34.000    19379954.858 8 103524824.04608       748.600 8        49.821                                                                    19379955.091 7  80518994.62207       582.316 7        47.635
C44        35.000                                                                                                                                    21339999.282 8 111123284.75208      -117.923 8        53.369                                                                    21339998.582 8  90296662.85508       -95.611 8        50.216
R17        36.000    19633639.971 8 105063964.84008     -2794.082 8        50.730                                                                    19633641.765 6  81716152.52406     -2173.075 6        40.861
R09        37.000    23211117.788 6 123946080.34106      3150.044 6        38.670                                                                    23211115.872 5  96402538.78405      2450.129 5        35.743
R24        38.000                                                                                                                                    23771592.551 4                     -3984.921 4        24.602
C12        41.000                                                                                                                                    22597052.100 5 117668858.08605      1301.279 5        34.867    22597067.119 5                      1006.383 5        33.425    22597057.742 7  95615567.72007      1057.447 7        44.134
C35        42.000                                                                                                                                    22712023.316 6 118267433.01406     -2891.280 6        38.745                                                                    22712021.437 7  96102016.67507     -2349.305 7        43.655
C38        44.000                                                                                                                                    39070320.021 5 203449277.42005       250.370 5        30.030                                                                    39070284.250 4                       203.856 4        27.748
C25        45.000                                                                                                                                    23879324.677 6 124345894.72806      1810.973 6        41.273                                                                    23879329.150 7 101041405.84907      1471.686 7        47.163
C26        48.000                                                                                                                                    23649482.445 5                     -3646.397 5        32.150                                                                    23649485.816 7 100068705.68507     -2963.245 7        44.015
C24        51.000                                                                                                                                    21326161.619 8 111050930.77108      -992.626 8        50.447                                                                    21326160.444 8  90238040.59408      -806.467 8        48.041
C34        52.000                                                                                                                                    24415730.894 5 127139143.74605      2232.223 5        33.994                                                                    24415734.490 5 103310984.47205      1813.727 5        30.241
I02        55.000    37626249.851 5 147653506.63605     -1040.190 5        31.547
I06        58.000    38592695.705 5 151446083.66805      -699.874 5        33.635
> 2025 01 02 15 30 15.0000000  0 38
G11         2.000    23399837.081 5 122966940.71205     -3433.769 5        31.909                                    23399823.120 1  95818359.79001     -2675.569 1         1.778    23399829.578 5  95818376.64505     -2675.845 5        31.970
G25         3.000    20213214.570 8 106221327.90508     -2435.767 8        49.055                                    20213215.286 7  82769851.88007     -1897.996 7        46.799    20213215.753 7  82769770.90207     -1898.009 7        45.427
E25         6.000    23359710.810 7 122756150.39307     -1555.182 7        45.503                                                                    23359710.668 7  91668684.29107     -1161.323 7        43.333    23359710.860 7  94059936.80307     -1191.643 7        47.851
G31         7.000    22059244.841 4 115922134.90404       963.552 4        26.275                                    22059246.251 2  90328970.92102       750.809 2        13.636    22059244.290 5  90328963.90605       751.787 5        35.757
G28         8.000    21221265.423 7 111518472.74507      -750.952 7        46.980                                    21221263.360 5  86897570.72005      -585.162 5        31.275    21221263.687 7  86897643.73807      -585.243 7        42.493
G29         9.000    20296459.833 7 106658679.99707      -400.890 7        46.221                                    20296456.757 7  83110661.70707      -312.384 7        45.216    20296457.568 7  83110613.70907      -312.368 7        45.175
E11        10.000    23993507.722 6 126086834.05606      -151.525 6        39.856                                                                    23993506.686 7  94155715.60007      -113.229 7        44.205    23993506.245 7  96611949.25207      -116.144 7        43.922
E10        11.000    24879648.148 6 130743589.22806     -1786.397 6        41.418                                                                    24879650.529 7  97633116.03407     -1334.089 7        44.993    24879649.652 7 100180122.94607     -1368.838 7        46.026
G18        12.000    23787087.030 7 125002009.26807      2825.720 7        46.375                                    23787086.954 4  97404197.06404      2201.860 4        28.265    23787087.407 6  97404230.07806      2201.881 6        41.828
E12        13.000    26543711.323 5 139488159.14205     -2934.795 5        33.293                                                                    26543740.767 4 104163229.80404     -2191.489 4        24.301
G12        15.000    23179269.187 7 121808025.93607     -4023.358 7        43.170                                    23179273.098 4  94915299.85604     -3135.096 4        26.814    23179276.062 5                     -3135.431 5        30.106
E24        16.000    27048819.105 4                     -3274.315 4        26.000                                                                                                                                    27048805.294 5 108914288.19105     -2508.689 5        30.423
G26        17.000    23570024.534 5 123861380.58105      2418.835 5        34.810                                    23570028.132 2  96515371.58002      1884.790 2        14.476    23570017.951 5  96515298.63005      1884.847 5        30.106
E07        18.000    27756403.929 5 145860891.43705      -504.700 5        34.800                                                                    27756413.564 5 108922116.73805      -376.548 5        30.000    27756404.600 4 111763603.62604      -387.347 4        28.019
E08        20.000    27153160.462 5                     -2743.088 5        31.275                                                                    27153208.942 4 106554833.39204     -2048.177 4        28.806    27153159.308 5 109334492.29805     -2102.052 5        32.958
E02        21.000    24267129.322 5 127524695.46305       838.982 5        31.426                                                                    24267129.373 5  95229500.69905       626.530 5        35.838    24267128.925 5  97713716.24905       642.529 5        33.832
S23        22.000    38078301.363 5 200102901.29905      -866.368 5        34.671
R08        23.000    23749289.336 3                      -234.586 3        21.333                                                                    23749223.605 4                      -182.196 4        27.485
E36        24.000    25730866.116 6 135216610.80406      2104.470 6        39.195                                                                    25730871.535 6 100973560.61906      1571.263 6        38.763    25730869.156 6 103607639.73806      1612.422 6        41.669
R18        25.000    19467890.833 7 103921131.01007      1154.002 7        45.391                                                                    19467890.478 5  80827441.35505       897.370 5        35.457
S21        27.000    38358871.952 5 201577327.63905      -862.013 5        35.386
R07        28.000    23785483.378 4                     -3023.396 4        24.105                                                                    23785463.344 4                     -2352.288 4        27.353
R19        29.000    22551802.193 4                      3365.455 4        24.406                                                                    22551781.875 4  93828644.81314      2617.195 4        28.114
R15        30.000    20067681.246 5 107235456.05605     -3278.989 5        32.940                                                                    20067652.907 6  83405402.54306     -2550.323 6        38.934
S36        31.000    38130204.653 5 200375569.81405      -861.892 5        35.752
R16        34.000    19379254.252 8 103521086.73508       745.948 8        48.660                                                                    19379255.347 7  80516087.84007       580.239 7        47.458
C44        35.000                                                                                                                                    21340113.547 8 111123879.11008      -120.087 8        53.962                                                                    21340112.747 8  90297145.83508       -97.543 8        50.471
R17        36.000    19636251.736 8 105077942.50908     -2797.259 8        50.295                                                                    19636253.153 7  81727024.07407     -2175.666 7        42.281
R09        37.000                                                                                                                                    23208165.419 5  96390287.89905      2449.913 5        34.410
C12        41.000                                                                                                                                    22595807.406 5 117662355.96005      1299.656 5        35.943    22595818.145 5  90983996.07815      1004.641 5        35.800    22595809.174 7  95610284.24707      1055.908 7        44.424
C35        42.000                                                                                                                                    22714800.105 6 118281892.31906     -2892.652 6        40.267                                                                    22714798.423 7  96113766.04907     -2350.483 7        43.903
C38        44.000                                                                                                                                    39070077.525 4 203448025.54404       249.705 4        29.479                                                                    39070044.209 4                       203.059 4        28.000
C25        45.000                                                                                                                                    23877586.862 6 124336841.92006      1809.864 6        40.818                                                                    23877590.787 7 101034049.71007      1470.730 7        47.541
C26        48.000                                                                                                                                    23652984.494 5                     -3647.917 5        32.671                                                                    23652987.867 7 100083524.01507     -2964.230 7        44.143
C24        51.000                                                                                                                                    21327115.380 8 111055898.70808      -994.823 8        49.816                                                                    21327114.608 8  90242077.44908      -808.361 8        48.126
C34        52.000                                                                                                                                    24413591.436 5 127127984.61505      2231.196 5        35.333                                                                    24413591.564 5 103301916.78005      1812.958 5        30.468
I02        55.000    37627576.854 5 147658708.12805     -1040.189 5        31.102
I06        58.000    38593587.715 5 151449582.03105      -699.671 5        33.940
> 2025 01 02 15 30 20.0000000  0 39
G11         2.000                                                                                                                                                                    23403096.998 4  95831760.57504     -2677.869 4        29.725
G25         3.000    20215533.048 8 106233512.56808     -2438.173 8        48.895                                    20215534.355 7  82779346.42407     -1899.872 7        47.103    20215534.339 7  82779265.42707     -1899.828 7        45.914
E25         6.000    23361191.157 7 122763929.43007     -1556.618 7        45.079                                                                    23361191.202 7  91674493.30907     -1162.285 7        42.969    23361191.075 7  94065897.36607     -1192.684 7        47.525
G31         7.000    22058332.208 4                       961.816 4        24.015                                                                                                    22058329.163 6  90325211.13206       749.477 6        37.062
G28         8.000    21221981.283 7 111522236.37107      -754.533 7        46.206                                    21221979.182 5  86900503.43005      -587.958 5        31.404    21221980.078 6  86900576.44106      -588.001 6        41.671
G29         9.000    20296842.335 7 106660690.22407      -403.350 7        47.267                                    20296839.139 7  83112228.12707      -314.301 7        45.216    20296840.022 7  83112180.12907      -314.349 7        44.504
E11        10.000    23993653.177 6 126087597.90306      -154.381 6        40.687                                                                    23993652.153 7  94156286.00707      -115.162 7        44.281    23993651.436 7  96612534.53507      -118.185 7        43.763
E10        11.000    24881349.763 6 130752527.52906     -1788.885 6        40.837                                                                    24881351.285 7  97639790.75207     -1335.845 7        45.046    24881350.663 7 100186971.78107     -1370.736 7        46.159
G18        12.000    23784398.918 7 124987882.55807      2824.827 7        46.497                                    23784398.659 4  97393189.28604      2201.157 4        28.095    23784398.931 6  97393222.29006      2201.187 6        41.521
E12        13.000    26546505.105 5 139502838.33705     -2936.675 5        32.964                                                                    26546528.782 3 104174191.65803     -2192.305 3        23.543
G12        15.000    23183097.907 7 121828145.78807     -4024.592 7        42.997                                    23183102.313 4  94930977.68904     -3136.055 4        25.955    23183105.609 4                     -3136.088 4        28.834
E24        16.000    27051932.996 4                     -3274.701 4        25.353                                                                    27051921.872 4                     -2445.237 4        29.251    27051916.937 4 108926831.51404     -2508.925 4        28.777
G26        17.000    23567730.788 5 123849287.62505      2418.220 5        33.617                                    23567726.628 1  96505948.60501      1884.344 1        10.667    23567716.143 4  96505875.63804      1884.766 4        28.957
E07        18.000    27756883.754 5 145863420.95605      -507.204 5        35.795                                                                    27756893.846 5 108924005.72905      -378.872 5        31.230    27756886.340 4 111765541.81504      -388.390 4        27.725
E08        20.000    27155774.599 5                     -2744.879 5        32.395                                                                    27155818.562 4 106565078.80004     -2049.697 4        29.735    27155770.709 5 109345004.92605     -2103.051 5        34.114
E02        21.000    24266328.520 5 127520502.83405       838.426 5        30.913                                                                    24266331.716 6  95226369.85406       625.834 6        36.367    24266331.271 5  97710503.73905       641.927 5        34.162
S23        22.000    38079125.546 5 200107232.32105      -866.255 5        34.914
R08        23.000    23749504.211 3                      -241.165 3        21.119                                                                    23749442.857 4                      -186.374 4        24.992
E36        24.000    25728864.264 6 135206091.94806      2103.180 6        39.132                                                                    25728869.660 6 100965705.63606      1570.530 6        38.553    25728867.609 6 103599579.85206      1611.512 6        41.557
R18        25.000    19466809.797 7 103915370.37807      1150.032 7        45.148                                                                    19466810.905 5  80822960.83505       894.615 5        34.467
S21        27.000    38359687.777 5 201581636.74805      -861.965 5        35.905
R07        28.000    23788303.720 4                     -3028.534 4        25.489                                                                    23788289.486 4                     -2353.999 4        25.414
R19        29.000                                                                                                                                    22548636.384 4  93815560.22304      2616.497 4        28.227
R15        30.000    20070747.798 5 107251858.34205     -3282.005 5        33.257                                                                    20070721.330 6  83418159.90006     -2552.710 6        39.664
S36        31.000    38131021.918 5 200379879.09605      -861.984 5        35.500
R16        34.000    19378556.917 8 103517364.48908       742.796 8        48.500                                                                    19378558.402 7  80513192.77107       577.735 7        47.329
C44        35.000                                                                                                                                    21340229.822 9 111124485.47909      -122.614 9        54.315                                                                    21340229.317 8  90297638.57908       -99.510 8        50.547
R17        36.000    19638866.898 8 105091937.90108     -2800.992 8        50.478                                                                    19638868.580 7  81737909.38407     -2178.523 7        42.821
R09        37.000    23205251.450 5 123914579.31505      3149.611 5        34.762                                                                    23205215.755 5  96378038.17305      2449.997 5        33.515
R24        38.000                                                                                                                                    23781147.018 4                     -3984.530 4        25.910
C12        41.000                                                                                                                                    22594562.608 5 117655863.74605      1297.311 5        35.481    22594570.654 6  90978975.89906      1003.148 6        36.938    22594562.328 7  95605008.81307      1054.327 7        44.435
C35        42.000                                                                                                                                    22717578.395 6 118296360.07906     -2894.552 6        41.304                                                                    22717577.008 7  96125522.31407     -2351.856 7        44.129
C38        44.000                                                                                                                                    39069838.088 4 203446778.81504       249.231 4        28.313                                                                    39069805.751 4                       202.001 4        27.365
C25        45.000                                                                                                                                    23875850.414 6 124327795.22206      1808.570 6        41.273                                                                    23875853.396 7 101026698.55607      1469.723 7        47.686
C26        48.000                                                                                                                                    23656487.076 5                     -3649.472 5        32.742                                                                    23656491.337 7 100098348.17007     -2965.416 7        44.113
C24        51.000                                                                                                                                    21328071.782 8 111060879.09308      -997.401 8        49.217                                                                    21328070.881 8  90246124.43508      -810.396 8        48.077
C34        52.000                                                                                                                                    24411456.313 6 127116830.52606      2230.036 6        36.174                                                                    24411449.482 4 103292853.17704      1812.958 4        29.185
I02        55.000    37628902.485 5 147663910.20105     -1040.811 5        31.298
I06        58.000    38594478.540 5 151453080.33605      -699.653 5        33.826
> 2025 01 02 15 30 25.0000000  0 39
G20         1.000    23690568.355 4                       173.871 4        25.444
G11         2.000    23406348.538 4 123001303.97304     -3438.171 4        25.714                                                                                                    23406367.484 4  95845153.38104     -2678.792 4        26.359
G25         3.000    20217854.089 8 106245708.87108     -2440.211 8        48.719                                    20217855.619 7  82788850.04207     -1901.461 7        47.431    20217855.139 7  82788769.05407     -1901.505 7        45.872
E25         6.000    23362672.498 7 122771715.20207     -1557.702 7        44.754                                                                    23362673.162 7  91680307.37007     -1163.217 7        42.967    23362672.723 7  94071863.10507     -1193.586 7        47.302
G31         7.000    22057426.633 4                       958.947 4        28.322                                                                                                    22057415.136 6  90321470.01006       747.078 6        37.762
G28         8.000    21222701.055 7 111526017.34407      -757.826 7        46.209                                    21222698.402 5  86903449.65805      -590.518 5        31.653    21222700.219 6  86903522.67406      -590.570 6        41.070
G29         9.000    20297226.898 7 106662712.71007      -405.621 7        46.980                                    20297223.841 7  83113804.09207      -316.069 7        45.190    20297224.442 7  83113756.09607      -316.049 7        43.896
E11        10.000    23993800.989 6 126088374.39206      -156.545 6        41.278                                                                    23993799.947 7  94156865.86007      -116.820 7        44.108    23993799.076 7  96613129.51707      -119.908 7        43.943
E10        11.000    24883053.349 6 130761477.89706     -1791.142 6        41.049                                                                    24883054.451 7  97646474.47807     -1337.570 7        44.948    24883054.050 7 100193829.85907     -1372.435 7        46.220
G18        12.000    23781711.266 7 124973760.01007      2824.182 7        46.833                                    23781711.071 4  97382184.73604      2200.657 4        27.976    23781711.366 6  97382217.75506      2200.662 6        41.244
E12        13.000    26549300.510 5 139517526.50105     -2938.437 5        32.557
G12        15.000    23186927.549 7 121848271.02107     -4025.492 7        43.452                                    23186931.994 4  94946659.69704     -3136.747 4        25.038    23186931.766 4                     -3136.766 4        26.108
E24        16.000    27055047.959 3                     -3275.437 3        22.762                                                                    27055038.097 5                     -2445.483 5        30.725    27055030.979 4 108939377.22704     -2509.158 4        28.028
G26        17.000    23565438.764 5 123837198.11305      2417.778 5        31.026                                    23565425.947 1  96496528.18501      1883.981 1         8.000    23565414.222 4  96496455.38104      1884.151 4        27.281
E07        18.000    27757368.555 6 145865962.76006      -509.438 6        36.972                                                                    27757375.131 5 108925903.87705      -380.149 5        32.425    27757368.908 4 111767489.49504      -390.763 4        26.060
E08        20.000    27158387.194 5                     -2746.516 5        32.299                                                                    27158433.132 4 106575330.58404     -2051.072 4        28.815    27158383.897 5 109355524.16805     -2104.285 5        34.933
E02        21.000    24265527.257 4 127516314.55604       837.739 4        29.801                                                                    24265534.909 6  95223242.22606       625.229 6        36.964    24265535.169 5  97707294.49105       641.786 5        34.352
S23        22.000    38079946.285 5 200111563.68005      -866.146 5        34.624
R08        23.000                                                                                                                                    23749661.681 3                      -189.876 3        21.357
E36        24.000    25726863.447 6 135195578.84106      2102.280 6        38.637                                                                    25726868.922 6 100957854.96606      1569.717 6        37.909    25726867.016 6 103591524.37506      1610.750 6        41.278
R18        25.000    19465733.758 7 103909629.01807      1146.434 7        44.846                                                                    19465736.048 5  80818495.35805       891.632 5        35.667
S21        27.000    38360508.199 5 201585946.19105      -861.948 5        35.714
R07        28.000    23791125.555 4                     -3031.769 4        26.886                                                                    23791119.272 3                     -2356.890 3        22.286
R19        29.000                                                                                                                                    22545491.802 5  93802481.45205      2615.367 5        30.679
R15        30.000    20073819.564 4 107268275.30804     -3284.749 4        26.671                                                                    20073792.251 6  83430928.72306     -2554.916 6        40.205
S36        31.000    38131841.124 5 200384188.49205      -861.485 5        35.329
R16        34.000    19377863.055 7 103513657.70707       739.904 7        47.841                                                                    19377864.409 7  80510309.71107       575.555 7        47.368
C44        35.000                                                                                                                                    21340348.093 9 111125103.98709      -124.784 9        54.009                                                                    21340348.116 8  90298141.15608      -101.571 8        50.700
R17        36.000    19641485.827 8 105105951.10908     -2804.337 8        50.717                                                                    19641487.386 7  81748808.55707     -2181.163 7        42.758
R09        37.000                                                                                                                                    23202266.315 5  96365789.61405      2449.455 5        33.635
C12        41.000                                                                                                                                    22593317.102 5 117649381.54905      1295.445 5        33.425    22593329.634 6  90973963.45006      1001.827 6        37.093    22593317.279 7  95599741.46607      1052.552 7        44.265
C35        42.000                                                                                                                                    22720357.807 6 118310836.41206     -2895.943 6        41.459                                                                    22720357.382 7  96137285.51607     -2353.374 7        44.293
C38        44.000                                                                                                                                    39069598.810 4 203445537.41704       247.572 4        27.892                                                                    39069567.373 4                       201.303 4        28.019
C25        45.000                                                                                                                                    23874115.029 6 124318754.76906      1807.557 6        41.385                                                                    23874117.271 7 101019352.44407      1468.569 7        47.895
