     3.04           OBSERVATION DATA    M                   RINEX VERSION / TYPE
ssrcrin-15.6.1x                         20250102 071500 UTC PGM / RUN BY / DATE 
(00000000023479385599111004) Septentrio proprietary         COMMENT             
ract                                                        MARKER NAME         
01                                                          MARKER NUMBER       
geodetic                                                    MARKER TYPE         
NFB                 CLIMERS@TUW                             OBSERVER / AGENCY   
3296359             SEPT ASTERX SB3 PROB4.14.4              REC # / TYPE / VERS 
Unknown             Unknown                                 ANT # / TYPE        
  4127447.0117  1206916.3219  4695544.0874                  APPROX POSITION XYZ 
        0.0000        0.0000        0.0000                  ANTENNA: DELTA H/E/N
G   23 X1  C1C L1C D1C S1C C1W S1W C2W L2W D2W S2W C2L L2L  SYS / # / OBS TYPES 
       D2L S2L C5Q L5Q D5Q S5Q C1L L1L D1L S1L              SYS / # / OBS TYPES 
E   21 X1  C1C L1C D1C S1C C6C L6C D6C S6C C5Q L5Q D5Q S5Q  SYS / # / OBS TYPES 
       C7Q L7Q D7Q S7Q C8Q L8Q D8Q S8Q                      SYS / # / OBS TYPES 
S    9 X1  C1C L1C D1C S1C C5I L5I D5I S5I                  SYS / # / OBS TYPES 
R   17 X1  C1C L1C D1C S1C C2P L2P D2P S2P C2C L2C D2C S2C  SYS / # / OBS TYPES 
       C3Q L3Q D3Q S3Q                                      SYS / # / OBS TYPES 
C   25 X1  C1P L1P D1P S1P C5P L5P D5P S5P C2I L2I D2I S2I  SYS / # / OBS TYPES 
       C7I L7I D7I S7I C6I L6I D6I S6I C7D L7D D7D S7D      SYS / # / OBS TYPES 
J   17 X1  C1C L1C D1C S1C C2L L2L D2L S2L C5Q L5Q D5Q S5Q  SYS / # / OBS TYPES 
       C1L L1L D1L S1L                                      SYS / # / OBS TYPES 
I    5 X1  C5A L5A D5A S5A                                  SYS / # / OBS TYPES 
SEPTENTRIO RECEIVERS OUTPUT ALIGNED CARRIER PHASES.         COMMENT             
NO FURTHER PHASE SHIFT APPLIED IN THE RINEX ENCODER.        COMMENT             
G L1C                                                       SYS / PHASE SHIFT   
G L2W                                                       SYS / PHASE SHIFT   
G L2L  0.00000                                              SYS / PHASE SHIFT   
G L5Q  0.00000                                              SYS / PHASE SHIFT   
G L1L  0.00000                                              SYS / PHASE SHIFT   
E L1C  0.00000                                              SYS / PHASE SHIFT   
E L6C  0.00000                                              SYS / PHASE SHIFT   
E L5Q  0.00000                                              SYS / PHASE SHIFT   
E L7Q  0.00000                                              SYS / PHASE SHIFT   
E L8Q  0.00000                                              SYS / PHASE SHIFT   
S L1C                                                       SYS / PHASE SHIFT   
S L5I                                                       SYS / PHASE SHIFT   
R L1C                                                       SYS / PHASE SHIFT   
R L2P  0.00000                                              SYS / PHASE SHIFT   
R L2C                                                       SYS / PHASE SHIFT   
R L3Q  0.00000                                              SYS / PHASE SHIFT   
C L1P  0.00000                                              SYS / PHASE SHIFT   
C L5P  0.00000                                              SYS / PHASE SHIFT   
C L2I                                                       SYS / PHASE SHIFT   
C L7I                                                       SYS / PHASE SHIFT   
C L6I                                                       SYS / PHASE SHIFT   
C L7D                                                       SYS / PHASE SHIFT   
J L1C                                                       SYS / PHASE SHIFT   
J L2L  0.00000                                              SYS / PHASE SHIFT   
J L5Q  0.00000                                              SYS / PHASE SHIFT   
J L1L  0.00000                                              SYS / PHASE SHIFT   
I L5A                                                       SYS / PHASE SHIFT   
  2025     1     2     7    15    0.0000000     GPS         TIME OF FIRST OBS   
 C1C    0.000 C2C    0.000 C2P    0.000                     GLONASS COD/PHS/BIS 
DBHZ                                                        SIGNAL STRENGTH UNIT
    18                                                      LEAP SECONDS        
 24 R01  1 R02 -4 R03  5 R04  6 R05  1 R06 -4 R07  5 R08  6 GLONASS SLOT / FRQ #
    R09 -2 R10 -7 R11  0 R12 -1 R13 -2 R14 -7 R15  0 R16 -1 GLONASS SLOT / FRQ #
    R17  4 R18 -3 R19  3 R20  2 R21  4 R22 -3 R23  3 R24  2 GLONASS SLOT / FRQ #
                                                            END OF HEADER       
> 2025 01 02 07 15  0.0000000  0 32
G18         2.000    25260442.583 6 132744548.39106        93.655 6        36.382                                                                                                    25260422.967 4 103437245.09104        72.800 4        29.412
G20         4.000    21437754.379 6 112656192.24606     -2838.290 6        40.994                                    21437757.040 1  87783991.20101     -2211.607 1        10.741
G07         5.000    22449847.531 7 117974969.27907     -3088.925 7        47.814                                    22449846.598 6  91928503.17106     -2406.952 6        39.345    22449844.551 6  91928317.16206     -2406.879 6        39.922
G30         7.000    20649118.079 7 108511849.71007     -1446.938 7        43.846                                    20649112.643 5  84554606.10005     -1127.480 5        35.176    20649114.768 6  84554654.06706     -1127.369 6        36.087
G14         8.000    21976420.107 5 115486319.85305      1829.802 5        32.772                                    21976384.576 1  89989354.12801      1425.615 1         2.200    21976325.244 6  89989413.28706      1425.912 6        39.715
G15         9.000    24384162.365 6 128139643.20006      2824.200 6        36.926                                    24384174.482 2  99849132.84502      2200.681 2        14.429    24384157.253 5                      2200.438 5        31.774
E21        10.000    26802694.216 5 140849119.80905     -2803.907 5        32.323                                                                    26802683.135 4 105179589.61004     -2093.783 4        26.012    26802745.506 4                     -2148.984 4        27.126
E06        11.000    23499924.564 7 123492934.27007      -290.780 7        46.938                                                                    23499923.946 7  92218793.67907      -217.156 7        43.556    23499924.199 7  94624437.87507      -222.829 7        43.543
E31        13.000    26039328.324 6 136837599.70006      2085.723 6        38.069                                                                    26039328.934 6 102183982.01106      1557.373 6        39.898    26039328.243 5 104849595.08805      1597.999 5        35.971
G05        14.000    21241334.549 7 111623934.50207      -384.732 7        46.612                                    21241330.310 6  86979651.38906      -299.790 6        39.517    21241329.676 6  86979692.36406      -299.831 6        39.171
E04        17.000    23663082.399 5 124350358.55005     -1549.556 5        34.167                                                                    23663083.084 8  92859057.09908     -1157.097 8        48.752    23663081.536 7  95281397.97707     -1187.253 7        45.851
E05        18.000                                                                                                                                    27390434.652 5 107485946.13105      1280.872 5        32.946
E09        21.000    24659507.713 6 129586581.90206       743.697 6        37.388                                                                    24659507.732 6  96769189.24606       555.456 6        40.770    24659516.138 6  99293613.31306       570.034 6        37.750
E36        22.000    26963306.458 4                     -2702.590 4        27.641                                                                    26963301.363 6 105809747.92706     -2017.783 6        36.828    26963292.659 6 108569953.91706     -2070.466 6        38.363
S36        23.000    38379664.805 5 201686581.63605      -851.116 5        33.006
S23        24.000    38313627.239 6 201339426.41406      -848.931 6        39.060
E34        26.000    27661852.474 5 145364013.37305      -294.262 5        33.760                                                                    27661861.504 6 108551041.69906      -219.813 6        36.011    27661853.526 5 111382880.78805      -225.637 5        32.551
R18        28.000    23632316.443 4                     -2682.850 4        27.293                                                                    23632326.630 5  98117457.80805     -2086.946 5        31.675
R11        30.000    19967962.413 8 106702748.86008     -2755.204 8        51.347                                                                    19967960.907 7  82991000.47007     -2142.953 7        46.887
C20        31.000                                                                                                                                    26031396.835 3                     -4077.861 3        22.781
C36        34.000                                                                                                                                    22424100.268 6 116768170.89806      1085.869 6        41.337                                                                    22424105.108 7  94883810.28307       882.536 7        46.613
R02        35.000    20240217.307 7 108005624.26107      1548.475 7        44.998                                                                    20240218.884 7  84004573.51107      1204.367 7        42.432
R03        36.000    24413507.703 5 130687398.23605      3122.566 5        34.914
R12        38.000    20293619.650 8 108404753.73108      1961.620 8        49.811                                                                    20293619.416 7  84315217.01107      1525.755 7        45.645
C05        43.000                                                                                                                                                                                                    39470252.843 5 158930366.90605      -701.291 5        32.886
R01        44.000    19619839.519 7 104879242.57107     -2217.867 7        44.688                                                                    19619839.239 5  81572791.40805     -1725.257 5        34.205
C07        45.000                                                                                                                                                                                                    39910141.605 3                       292.999 3        22.362
C09        47.000                                                                                                                                    40486137.436 4                     -1568.790 4        24.541    40486088.076 4                     -1213.300 4        27.581
C19        48.000                                                                                                                                    22543865.589 8 117391907.57808     -2443.591 8        51.927                                                                    22543863.407 8  95390433.04908     -1985.548 8        48.533
C22        51.000                                                                                                                                    22379312.287 6 116534906.55206       741.612 6        38.967                                                                    22379308.898 6  94694156.10206       602.806 6        40.417
C21        55.000                                                                                                                                    26763523.043 6 139364631.45806      2367.306 6        37.682                                                                    26763508.730 5 113245160.82005      1923.484 5        34.838
I02        60.000    38459191.075 5 150922135.09805        74.753 5        32.389
> 2025 01 02 07 15  5.0000000  0 35
G13         1.000    21488325.862 4 112921643.66814      1570.521 4        28.986                                    21488291.740 1  87990838.37911      1224.121 1         2.800
G18         2.000    25260353.592 5 132744089.53905        89.979 5        35.143
G20         4.000    21440456.966 6 112670392.18006     -2841.528 6        41.137                                    21440459.094 1  87795055.90001     -2214.113 1         8.762
G07         5.000    22452787.253 7 117990417.84407     -3090.388 7        46.828                                    22452786.252 6  91940540.99606     -2408.091 6        39.384    22452785.019 6  91940354.98806     -2407.974 6        39.252
G30         7.000    20650495.614 7 108519091.30207     -1449.505 7        43.359                                    20650490.435 5  84560248.87405     -1129.479 5        35.210    20650492.650 6  84560296.88806     -1129.497 6        36.873
G14         8.000                                                                                                                                                                    21974585.308 6  89982289.41906      1423.901 6        38.294
G15         9.000    24381481.691 6 128125524.23406      2823.481 6        37.418                                    24381484.868 2  99838130.99702      2200.125 2        15.381    24381467.612 5                      2200.205 5        30.641
E21        10.000    26805363.242 5 140863147.26405     -2806.282 5        30.536                                                                    26805354.729 4 105190064.65904     -2095.389 4        25.398    26805411.895 3                     -2150.079 3        23.505
E06        11.000    23500202.116 7 123494392.42407      -292.306 7        47.301                                                                    23500201.297 7  92219882.54607      -218.230 7        43.342    23500201.371 7  94625555.15207      -223.961 7        43.528
E31        13.000    26037344.325 6 136827175.52406      2084.252 6        38.210                                                                    26037345.783 6 102176197.71806      1556.537 6        40.598    26037344.619 6 104841607.73306      1597.077 6        36.911
G05        14.000    21241702.503 7 111625868.55307      -388.657 7        46.432                                    21241698.664 6  86981158.43906      -302.843 6        39.553    21241697.319 6  86981199.42506      -302.879 6        39.282
E11        16.000    28211536.939 3                     -3867.038 3        20.810
E04        17.000    23664556.858 5 124358110.70605     -1551.187 5        35.214                                                                    23664558.027 8  92864846.02608     -1158.314 8        48.294    23664556.798 7  95287337.91807     -1188.588 7        46.152
E05        18.000                                                                                                                                    27388803.400 5 107479542.79105      1280.699 5        32.635
E09        21.000    24658800.902 6 129582866.67706       742.775 6        37.391                                                                    24658800.288 6  96766414.90106       554.525 6        39.580    24658807.245 6  99290766.51206       568.828 6        37.845
E36        22.000    26965876.286 5                     -2704.361 5        30.868                                                                    26965869.743 5 105819841.75105     -2019.600 5        34.562    26965864.930 6 108580311.12306     -2072.273 6        38.108
S36        23.000    38380481.086 5 201690837.62105      -851.566 5        32.707
S23        24.000    38314439.523 6 201343671.91306      -849.122 6        39.889
E34        26.000    27662134.953 5 145365493.52605      -297.376 5        34.648                                                                    27662143.159 5 108552147.01905      -222.191 5        34.481    27662134.769 5 111384014.93705      -227.717 5        32.299
R18        28.000    23634842.279 6 126164368.72516     -2687.582 6        36.461                                                                    23634844.514 5  98127900.82905     -2089.969 5        32.844
R11        30.000    19970542.413 8 106716535.64108     -2759.266 8        51.110                                                                    19970541.000 7  83001723.50407     -2146.141 7        46.793
C20        31.000                                                                                                                                    26035311.432 3                     -4079.313 3        21.024
C36        34.000                                                                                                                                    22423057.901 6 116762747.48606      1083.407 6        39.577                                                                    22423063.503 7  94879403.34307       880.396 7        46.305
R02        35.000    20238766.771 7 107997889.43607      1545.636 7        43.657                                                                    20238768.235 6  83998557.51106      1202.250 6        41.042
R03        36.000    24410598.800 5 130671786.30005      3122.368 5        33.820
R12        38.000    20291782.787 8 108394955.06208      1957.975 8        49.542                                                                    20291783.985 7  84307595.83907      1522.904 7        45.436
C05        43.000                                                                                                                                                                                                    39471122.842 5 158933874.49105      -701.916 5        33.563
R01        44.000    19621915.577 7 104890341.60907     -2221.499 7        45.684                                                                    19621913.534 5  81581423.96005     -1727.690 5        32.742
C07        45.000                                                                                                                                                                                                    39909784.004 3                       291.983 3        22.705
C09        47.000                                                                                                                                    40487641.627 3                     -1569.295 3        23.829    40487592.124 4                     -1212.885 4        26.587
C19        48.000                                                                                                                                    22546213.498 8 117404132.34508     -2446.124 8        51.370                                                                    22546211.039 8  95400366.68508     -1987.703 8        48.805
C11        50.000                                                                                                                                                                                                    27137004.777 4                     -1121.672 4        26.096
C22        51.000                                                                                                                                    22378602.353 6 116531204.28106       739.332 6        37.486                                                                    22378597.548 6  94691147.72506       600.764 6        39.922
C21        55.000                                                                                                                                    26761247.597 6 139352796.87106      2366.757 6        37.845                                                                    26761236.033 5 113235544.24705      1923.160 5        34.814
I02        60.000    38459096.273 5 150921761.25105        74.690 5        33.551
> 2025 01 02 07 15 10.0000000  0 33
G13         1.000    21486816.344 4                      1570.450 4        27.856
G18         2.000    25260261.202 5 132743645.49505        87.113 5        34.667
G20         4.000    21443161.875 6 112684605.83606     -2844.276 6        41.597                                    21443163.933 1  87806131.38001     -2216.287 1         9.143
G07         5.000    22455728.038 7 118005871.16507     -3091.308 7        47.108                                    22455726.715 6  91952582.52506     -2408.807 6        39.435    22455725.394 6  91952396.51206     -2408.794 6        39.231
G30         7.000    20651875.829 7 108526343.07607     -1451.497 7        44.194                                    20651870.383 5  84565899.59305     -1131.032 5        35.214    20651872.720 6  84565947.59906     -1131.015 6        37.629
G14         8.000                                                                                                                                                                    21972846.257 6  89975173.33806      1422.536 6        36.295
G15         9.000    24378798.117 6 128111406.38206      2823.145 6        38.027                                    24378795.437 2  99827130.04002      2199.899 2        15.238    24378783.275 4                      2200.234 4        28.976
E21        10.000    26808029.989 4 140877183.15004     -2808.237 4        27.617                                                                    26808027.001 4 105200546.01604     -2097.268 4        27.269
E06        11.000    23500480.473 7 123495856.09307      -293.408 7        47.638                                                                    23500479.595 7  92220975.53007      -219.066 7        42.965    23500479.709 7  94626676.65807      -224.819 7        43.636
E31        13.000    26035361.208 6 136816755.76006      2083.340 6        38.357                                                                    26035363.203 6 102168416.71906      1555.851 6        41.144    26035361.551 6 104833623.75206      1596.386 6        37.013
G05        14.000    21242073.458 7 111627819.75507      -392.074 7        47.530                                    21242070.261 6  86982678.83206      -305.513 6        39.369    21242068.950 6  86982719.83206      -305.597 6        39.688
E11        16.000    28215220.716 3                     -3866.027 3        21.429
E04        17.000    23666034.029 5 124365868.62005     -1552.333 5        35.695                                                                    23666034.150 7  92870639.25307     -1159.161 7        47.794    23666033.011 7  95293282.26407     -1189.393 7        46.374
E05        18.000                                                                                                                                    27387172.011 5 107473138.49705      1280.932 5        32.641
E09        21.000    24658093.830 6 129579155.15606       741.537 6        36.113                                                                    24658093.818 6  96763643.26506       553.992 6        39.249    24658099.205 6  99287922.49006       568.448 6        38.129
E36        22.000    26968450.214 5                     -2706.024 5        33.144                                                                    26968438.582 5 105829942.23905     -2020.679 5        33.964    26968438.831 6 108590675.17806     -2073.799 6        38.393
S36        23.000    38381287.905 5 201695093.12705      -850.816 5        33.198
S23        24.000    38315248.792 6 201347917.08906      -849.127 6        39.946
E34        26.000    27662418.253 5 145366985.77105      -299.846 5        34.962                                                                    27662426.773 5 108553261.30805      -223.815 5        34.819    27662417.743 5 111385158.31105      -229.616 5        31.230
R18        28.000    23637360.842 5 126177813.09405     -2690.771 5        34.519                                                                    23637365.177 5  98138357.51805     -2092.696 5        33.880
R11        30.000    19973125.133 8 106730340.04008     -2762.821 8        51.105                                                                    19973124.554 7  83012460.26207     -2148.793 7        47.280
C20        31.000                                                                                                                                    26039231.364 3                     -4080.249 3        23.638
C36        34.000                                                                                                                                    22422018.055 6 116757334.02106      1081.542 6        38.769                                                                    22422023.653 7  94875004.43707       878.910 7        45.946
R02        35.000    20237320.202 7 107990165.07707      1543.647 7        45.047                                                                    20237318.960 6  83992549.66506      1200.690 6        39.486
R12        38.000    20289950.486 8 108385172.35408      1954.825 8        49.575                                                                    20289951.945 7  84299987.06707      1520.354 7        44.220
C05        43.000                                                                                                                                                                                                    39471994.951 5 158937381.74405      -701.346 5        33.299
R01        44.000    19623994.642 7 104901456.47107     -2224.672 7        46.477                                                                    19623994.344 5  81590068.79305     -1729.977 5        32.976
C07        45.000                                                                                                                                                                                                    39909428.470 4                       291.020 4        25.444
C09        47.000                                                                                                                                                                                                    40489097.617 4                     -1212.907 4        26.060
C19        48.000                                                                                                                                    22548563.392 8 117416367.43408     -2448.223 8        51.297                                                                    22548560.728 8  95410308.69208     -1989.354 8        48.717
C22        51.000                                                                                                                                    22377895.202 5 116527511.33605       737.273 5        34.195                                                                    22377887.364 6  94688146.87006       599.367 6        39.207
C21        55.000                                                                                                                                    26758971.001 6 139340962.73806      2366.653 6        38.538                                                                    26758963.531 5 113225928.03005      1923.307 5        34.633
I02        60.000    38459000.194 5 150921388.11005        74.704 5        33.132
> 2025 01 02 07 15 15.0000000  0 34
G13         1.000    21485313.230 5                      1568.642 5        34.133
G18         2.000    25260179.152 5 132743216.59105        84.459 5        35.062
G20         4.000    21445869.839 6 112698833.60206     -2846.766 6        41.697                                    21445871.818 1  87817217.87901     -2218.250 1        10.222
G07         5.000    22458670.535 7 118021329.65707     -3092.160 7        47.542                                    22458668.211 6  91964628.08906     -2409.472 6        39.402    22458666.932 6  91964442.08206     -2409.487 6        38.676
G30         7.000    20653258.532 7 108533605.48307     -1453.563 7        44.566                                    20653252.575 5  84571558.60805     -1132.641 5        34.943    20653254.532 6  84571606.60006     -1132.439 6        37.267
G14         8.000                                                                                                                                                                    21971112.020 5  89968065.38905      1420.757 5        34.367
G15         9.000    24376109.703 6 128097289.96506      2823.267 6        37.875                                    24376107.335 2  99816130.21002      2199.954 2        15.810    24376093.540 4                      2199.537 4        29.062
E21        10.000                                                                                                                                    26810702.673 4 105211034.00904     -2098.125 4        27.521    26810725.864 3                     -2153.434 3        22.552
E06        11.000    23500760.026 7 123497325.67607      -294.452 7        47.962                                                                    23500759.279 7  92222072.94607      -219.924 7        43.200    23500759.244 7  94627802.70307      -225.660 7        43.591
E31        13.000    26033379.179 6 136806340.78706      2082.628 6        38.300                                                                    26033381.642 6 102160639.30906      1555.296 6        41.874    26033379.493 6 104825643.45106      1595.673 6        37.214
G05        14.000    21242448.442 8 111629788.52608      -395.392 8        48.152                                    21242445.121 6  86984212.93006      -308.094 6        38.838    21242444.505 6  86984253.92006      -308.082 6        39.799
E11        16.000    28218899.895 3                     -3868.150 3        20.405
E04        17.000    23667511.393 6 124373632.61106     -1553.248 6        38.739                                                                    23667511.475 7  92876437.05807     -1159.921 7        47.923    23667510.692 7  95299231.31007     -1190.153 7        46.055
E05        18.000                                                                                                                                    27385539.544 5 107466733.68905      1281.126 5        33.281
E09        21.000    24657387.268 5 129575447.65005       741.198 5        34.633                                                                    24657388.280 6  96760874.66906       553.430 6        38.886    24657392.641 6  99285081.61406       567.848 6        39.114
E36        22.000    26971026.092 5                     -2708.081 5        33.671                                                                    26971011.359 5 105840049.76905     -2022.222 5        32.599    26971014.705 6 108601046.35506     -2075.059 6        38.501
S36        23.000    38382103.570 5 201699348.73505      -850.924 5        33.575
S23        24.000    38316053.242 6 201352162.39706      -849.077 6        39.339
E34        26.000    27662703.812 5 145368490.41405      -302.019 5        34.695                                                                    27662711.530 5 108554384.92205      -225.471 5        33.461    27662702.698 4 111386311.28504      -231.750 4        29.678
R18        28.000    23639881.414 5 126191275.32605     -2693.895 5        33.371                                                                    23639886.218 5  98148828.11905     -2095.190 5        32.060
R11        30.000    19975712.183 8 106744162.55608     -2766.224 8        51.172                                                                    19975711.467 7  83023211.09507     -2151.454 7        47.739
C20        31.000                                                                                                                                    26043151.009 4                     -4080.047 4        24.241
C36        34.000                                                                                                                                    22420981.718 6 116751930.94906      1079.630 6        38.351                                                                    22420985.874 7  94870613.94107       877.267 7        45.524
R02        35.000    20235875.637 7 107982451.71407      1541.581 7        45.374                                                                    20235874.428 6  83986550.39906      1199.086 6        38.450
R03        36.000    24404787.581 4 130640556.96104      3123.446 4        28.550
R12        38.000    20288122.638 8 108375405.90708      1951.716 8        49.344                                                                    20288122.747 7  84292390.92907      1518.021 7        43.340
C05        43.000                                                                                                                                                                                                    39472866.184 5 158940889.03605      -701.558 5        33.311
R01        44.000    19626077.281 7 104912587.60607     -2227.748 7        46.252                                                                    19626076.496 5  81598726.38505     -1733.149 5        32.192
C07        45.000                                                                                                                                                                                                    39909074.796 4                       290.897 4        26.251
C09        47.000                                                                                                                                                                                                    40490599.290 4                     -1213.884 4        24.466
C19        48.000                                                                                                                                    22550915.255 8 117428613.27708     -2450.111 8        51.618                                                                    22550912.495 8  95420259.42408     -1990.884 8        48.766
C22        51.000                                                                                                                                    22377191.479 4 116523828.07604       735.755 4        28.834                                                                    22377179.193 6  94685153.93206       597.855 6        38.159
C21        55.000                                                                                                                                    26756698.351 6 139329129.51006      2366.590 6        38.477                                                                    26756690.918 5 113216312.55105      1922.997 5        33.569
I02        60.000    38458904.300 5 150921015.82005        74.713 5        31.653
> 2025 01 02 07 15 20.0000000  0 35
G13         1.000    21483811.532 5 112898244.17415      1567.266 5        35.010
G18         2.000    25260102.200 5 132742802.38305        81.339 5        34.676                                                                                                    25260148.053 5 103435884.73305        63.440 5        33.407
G20         4.000    21448580.219 6 112713074.96706     -2849.571 6        41.533                                    21448582.614 2  87828314.99902     -2220.456 2        12.788
G07         5.000    22461613.355 7 118036792.81607     -3093.102 7        47.142                                    22461610.686 6  91976677.29106     -2410.206 6        39.622    22461609.925 6  91976491.27906     -2410.102 6        38.483
G30         7.000    20654642.792 7 108540877.99107     -1455.606 7        43.655                                    20654636.891 5  84577225.48905     -1134.233 5        35.071    20654639.241 6  84577273.50706     -1134.337 6        37.580
G14         8.000    21969357.669 6 115449811.23806      1821.324 6        36.344                                    21969369.052 1  89960890.08711      1419.172 1         5.714    21969378.684 5  89960965.17305      1419.255 5        33.329
G15         9.000    24373422.870 6 128083174.60506      2822.953 6        38.712                                    24373419.282 2  99805131.17802      2199.747 2        15.238    24373410.710 4                      2199.879 4        28.265
E21        10.000    26813367.726 3                     -2811.737 3        22.971
E06        11.000    23501040.593 7 123498800.67307      -295.580 7        47.882                                                                    23501039.839 7  92223174.39907      -220.673 7        43.012    23501039.812 7  94628932.88607      -226.442 7        43.500
E31        13.000    26031397.862 6 136795930.15306      2081.477 6        37.573                                                                    26031400.796 7 102152865.11907      1554.538 7        42.159    26031398.647 6 104817666.46106      1595.041 6        37.569
G05        14.000    21242825.937 7 111631774.36207      -398.969 7        47.762                                    21242823.045 6  86985760.33106      -310.887 6        38.315    21242822.251 6  86985801.32306      -310.729 6        38.895
E11        16.000    28222579.088 3                     -3869.075 3        20.333
E04        17.000    23668989.950 6 124381402.31706     -1554.608 6        39.216                                                                    23668989.911 7  92882239.10007     -1160.889 7        47.536    23668989.437 7  95305184.71307     -1191.164 7        46.102
E05        18.000                                                                                                                                    27383905.448 5 107460327.89905      1280.903 5        33.521    27383911.737 5 110263669.77315      1314.673 5        30.528
E09        21.000    24656682.031 5 129571743.74805       740.191 5        34.938                                                                    24656683.974 6  96758108.73506       552.926 6        38.652    24656688.098 6  99282243.48306       567.357 6        39.658
E36        22.000    26973606.161 5                     -2709.823 5        32.084                                                                    26973589.642 5 105850163.84205     -2023.741 5        32.341    26973592.006 6 108611424.26906     -2076.193 6        38.084
S36        23.000    38382909.678 5 201703603.79905      -851.123 5        33.240
S23        24.000    38316859.864 6 201356407.02406      -848.817 6        39.057
E34        26.000    27662992.738 5 145370006.99805      -304.507 5        35.014                                                                    27662998.887 5 108555517.47205      -227.328 5        32.874    27662992.890 4 111387473.34004      -233.342 4        28.739
R18        28.000    23642404.731 4 126204754.98104     -2697.495 4        27.054                                                                    23642409.053 5  98159312.25305     -2097.887 5        30.219
R11        30.000    19978302.497 8 106758002.58308     -2769.776 8        50.902                                                                    19978301.354 7  83033975.55707     -2154.272 7        47.157
C20        31.000                                                                                                                                    26047069.872 3                     -4080.347 3        23.333
C36        34.000                                                                                                                                    22419945.768 6 116746537.68006      1077.479 6        38.039                                                                    22419950.018 7  94866231.44707       875.681 7        45.189
R02        35.000    20234431.541 7 107974748.97707      1539.481 7        45.997                                                                    20234431.316 6  83980559.36806      1197.379 6        37.376
R03        36.000    24401871.174 4 130624939.24404      3123.703 4        27.701
R12        38.000    20286297.337 8 108365655.30408      1948.493 8        48.987                                                                    20286296.846 6  84284807.13506      1515.427 6        41.700
C05        43.000                                                                                                                                                                                                    39473738.540 5 158944395.90605      -701.429 5        34.067
R01        44.000    19628162.567 7 104923734.50207     -2230.945 7        45.619                                                                    19628160.491 5  81607396.15905     -1735.165 5        32.826
C07        45.000                                                                                                                                                                                                    39908714.057 4                       289.951 4        26.719
C09        47.000                                                                                                                                    40492120.914 3                     -1568.100 3        22.038    40492104.497 3                     -1213.019 3        23.143
C19        48.000                                                                                                                                    22553269.492 8 117440869.35508     -2452.275 8        51.977                                                                    22553266.166 8  95430218.48608     -1992.614 8        48.651
C11        50.000                                                                                                                                                                                                    27141159.429 3                     -1128.388 3        21.381
C22        51.000                                                                                                                                                                                                                                                                    22376473.213 6  94682168.47506       596.188 6        36.117
C21        55.000                                                                                                                                    26754426.393 6 139317296.65306      2366.426 6        38.375                                                                    26754418.559 5 113206697.35505      1922.942 5        33.108
I02        60.000    38458810.566 5 150920644.04805        74.276 5        32.593
> 2025 01 02 07 15 25.0000000  0 33
G13         1.000    21482312.728 5 112890410.16705      1566.268 5        33.713
G18         2.000    25260027.356 5 132742403.44405        78.188 5        35.157                                                                                                    25260070.774 5 103435573.83205        61.062 5        32.838
G20         4.000    21451292.867 7 112727330.42107     -2852.449 7        42.298                                    21451296.648 2  87839423.11602     -2222.677 2        15.476
G07         5.000    22464556.509 7 118052261.14907     -3094.146 7        47.008                                    22464554.203 6  91988730.52106     -2411.021 6        39.781    22464553.011 6  91988544.50206     -2410.897 6        38.640
G30         7.000    20656026.435 6 108548161.08306     -1457.644 6        41.802                                    20656023.268 5  84582900.62405     -1135.826 5        35.162    20656025.638 6  84582948.65506     -1135.892 6        38.508
G14         8.000                                                                                                                                                                    21967647.500 5  89953873.07905      1417.448 5        34.729
G15         9.000    24370736.140 6 128069060.82906      2822.698 6        38.330                                    24370732.494 2  99794133.39302      2199.511 2        14.143    24370731.573 4                      2199.425 4        29.630
E21        10.000    26816048.607 4                     -2813.712 4        27.030                                                                    26816066.569 5 105232029.06705     -2101.040 5        30.506    26816044.675 5                     -2155.554 5        30.272
E06        11.000    23501322.234 7 123500281.59807      -296.710 7        47.742                                                                    23501321.820 7  92224280.27707      -221.565 7        42.895    23501321.644 7  94630067.61307      -227.322 7        43.454
E31        13.000    26029416.549 6 136785524.36106      2080.577 6        36.227                                                                    26029420.745 7 102145094.54307      1553.713 7        42.383    26029418.412 6 104809693.16706      1594.450 6        37.977
G05        14.000    21243206.511 7 111633777.74707      -402.362 7        47.842                                    21243204.130 6  86987321.39806      -313.531 6        37.754    21243200.706 6  86987362.38806      -313.534 6        36.854
E04        17.000    23670469.141 6 124389178.15706     -1555.934 6        38.240                                                                    23670469.652 7  92888045.72507     -1161.816 7        46.941    23670469.031 7  95311142.81307     -1192.093 7        46.207
E05        18.000                                                                                                                                    27382272.554 5 107453921.53505      1281.435 5        33.419    27382276.703 5 110257096.33005      1314.505 5        30.891
E09        21.000    24655977.533 6 129568043.87606       739.761 6        36.359                                                                    24655980.785 6  96755345.85106       552.289 6        38.598    24655983.894 6  99279408.50206       566.723 6        40.384
E36        22.000    26976190.660 4                     -2711.505 4        29.336                                                                    26976169.222 5 105860284.90805     -2025.167 5        32.036    26976171.046 6 108621809.36106     -2077.754 6        37.788
S36        23.000    38383722.597 5 201707859.35905      -851.103 5        33.269
S23        24.000    38317662.905 6 201360651.56306      -848.848 6        38.523
E34        26.000    27663283.853 5 145371536.08905      -306.883 5        35.419                                                                    27663288.788 5 108556659.34305      -229.167 5        31.517
R18        28.000                                                                                                                                    23644940.236 5  98169810.40915     -2101.186 5        32.389
R11        30.000    19980895.955 8 106771860.63208     -2773.362 8        50.979                                                                    19980894.727 7  83044754.02707     -2157.052 7        46.114
C20        31.000                                                                                                                                    26050989.419 4                     -4081.754 4        25.203
C36        34.000                                                                                                                                    22418909.546 6 116741154.75006      1075.579 6        37.554                                                                    22418915.985 7  94861857.35007       874.156 7        44.936
R02        35.000    20232990.056 7 107967057.26307      1537.272 7        47.002                                                                    20232990.846 6  83974576.92606      1195.553 6        37.588
R03        36.000    24398951.761 4 130609320.60804      3123.569 4        27.916
R12        38.000    20284474.471 8 108355921.00808      1945.238 8        48.616                                                                    20284475.064 6  84277236.01406      1512.881 6        40.794
C05        43.000                                                                                                                                                                                                    39474611.150 5 158947902.80305      -701.433 5        33.940
R01        44.000    19630249.579 7 104934897.72607     -2234.292 7        44.236                                                                    19630250.135 5  81616078.63705     -1737.822 5        32.982
C07        45.000                                                                                                                                                                                                    39908359.041 4                       289.266 4        27.605
C09        47.000                                                                                                                                    40493626.577 3                     -1570.515 3        22.876    40493612.654 4                     -1212.375 4        25.744
C19        48.000                                                                                                                                    22555625.519 8 117453136.16808     -2454.417 8        52.321                                                                    22555621.869 8  95440186.26008     -1994.353 8        48.592
C22        51.000                                                                                                                                                                                                                                                                    22375768.903 5  94679190.89205       594.722 5        34.105
C21        55.000                                                                                                                                    26752154.085 6 139305464.70506      2366.300 6        37.002                                                                    26752146.098 5 113197082.87605      1922.798 5        32.479
I02        60.000    38458717.489 5 150920273.01205        74.350 5        32.395
> 2025 01 02 07 15 30.0000000  0 32
G13         1.000    21480816.658 5 112882583.35205      1564.867 5        32.563
G18         2.000    25259954.653 5 132742019.94305        75.197 5        33.635                                                                                                    25259995.425 5 103435274.98205        58.994 5        32.844
G20         4.000    21454008.926 7 112741600.23707     -2855.337 7        43.526                                    21454013.972 3  87850542.42903     -2224.927 3        18.030
G07         5.000    22467501.435 7 118067734.95407     -3095.241 7        46.922                                    22467498.753 6  92000788.01206     -2411.871 6        39.574    22467498.547 6  92000601.99806     -2411.988 6        38.153
G30         7.000    20657413.389 6 108555455.09106     -1459.749 6        41.912                                    20657411.895 5  84588584.26805     -1137.468 5        35.271    20657414.116 6  84588632.28906     -1137.473 6        39.730
G14         8.000    21965922.190 5 115431618.91205      1817.001 5        32.659                                    21965910.342 1  89946714.33601      1415.877 1        10.667    21965918.758 6  89946789.32406      1415.916 6        36.461
G15         9.000    24368046.610 6 128054948.90606      2822.250 6        37.191                                    24368046.855 2  99783137.03802      2199.222 2        13.394    24368055.392 5                      2199.200 5        30.045
E21        10.000    26818731.554 5                     -2815.479 5        30.687                                                                    26818740.145 5 105242536.86605     -2101.995 5        31.109    26818728.306 5                     -2157.246 5        32.269
E06        11.000    23501605.224 7 123501768.75607      -297.957 7        47.762                                                                    23501604.911 7  92225390.81807      -222.498 7        43.234    23501604.830 7  94631207.11307      -228.289 7        43.460
E31        13.000    26027435.727 5 136775123.69505      2079.550 5        34.462                                                                    26027441.654 7 102137327.79407      1553.103 7        42.652    26027438.799 6 104801723.81406      1593.586 6        37.747
G05        14.000    21243591.280 8 111635798.99208      -405.925 8        48.342                                    21243588.439 6  86988896.38506      -316.302 6        36.960    21243584.984 5  86988937.38205      -316.091 5        34.776
E04        17.000    23671949.229 6 124396960.45006     -1557.091 6        38.736                                                                    23671950.579 7  92893857.17307     -1162.687 7        47.238    23671949.937 7  95317105.85607     -1193.001 7        45.964
E05        18.000                                                                                                                                    27380639.112 5 107447514.79505      1281.632 5        33.263    27380642.220 5 110250522.47105      1314.502 5        30.732
E09        21.000    24655274.462 6 129564348.35906       738.699 6        37.429                                                                    24655279.222 6  96752586.21906       551.588 6        38.240    24655280.940 6  99276576.85906       566.074 6        40.892
E36        22.000    26978775.204 4                     -2713.363 4        27.689                                                                    26978749.967 5 105870413.10905     -2026.692 5        31.366    26978751.742 6 108632201.79206     -2079.240 6        37.788
S36        23.000    38384534.523 5 201712115.12705      -851.036 5        33.545
S23        24.000    38318473.619 6 201364896.55006      -849.016 6        38.970
E34        26.000    27663579.051 5 145373077.93105      -309.723 5        35.929                                                                    27663581.027 5 108557810.74805      -231.041 5        30.317    27663603.664 5 111389826.16705      -237.187 5        31.494
R18        28.000                                                                                                                                    23647474.190 5  98180322.69015     -2103.643 5        35.395
R11        30.000    19983492.757 8 106785737.02208     -2777.018 8        49.428                                                                    19983491.340 7  83055546.77107     -2159.961 7        44.665
C20        31.000                                                                                                                                    26054912.401 4                     -4082.328 4        24.977
C36        34.000                                                                                                                                    22417878.554 6 116735782.44706      1073.469 6        40.145                                                                    22417884.149 7  94857491.94307       872.225 7        44.450
R02        35.000    20231550.325 7 107959376.96707      1535.002 7        46.685                                                                    20231552.167 6  83968603.37406      1193.924 6        39.111
R12        38.000    20282654.559 7 108346203.49007      1941.924 7        46.790                                                                    20282656.425 6  84269677.94306      1510.425 6        41.061
C05        43.000                                                                                                                                                                                                    39475482.083 5 158951409.93205      -701.361 5        33.784
R01        44.000    19632340.566 7 104946077.50207     -2237.599 7        43.270                                                                    19632343.294 5  81624774.04305     -1740.346 5        32.772
C07        45.000                                                                                                                                                                                                    39908007.147 4                       288.527 4        29.355
C09        47.000                                                                                                                                    40495137.109 3                     -1568.376 3        22.781    40495117.771 4                     -1212.391 4        25.429
C19        48.000                                                                                                                                    22557983.286 8 117465414.02708     -2456.591 8        52.666                                                                    22557979.594 8  95450163.02108     -1996.297 8        48.545
C22        51.000                                                                                                                                                                                                                                                                    22375066.414 5  94676221.51005       593.181 5        32.389
C21        55.000                                                                                                                                    26749880.667 6 139293633.92006      2366.223 6        36.730                                                                    26749873.226 5 113187469.39305      1922.278 5        31.509
I02        60.000    38458622.119 5 150919903.23505        73.931 5        30.332
> 2025 01 02 07 15 35.0000000  0 32
G13         1.000    21479326.890 5 112874763.47905      1563.477 5        34.257
G18         2.000    25259883.482 5 132741651.71705        72.127 5        31.026                                                                                                    25259927.366 5 103434988.08705        55.996 5        30.362
G20         4.000    21456727.040 7 112755884.18907     -2857.984 7        43.503                                    21456734.320 3  87861672.78103     -2227.011 3        19.373
G07         5.000    22470446.723 7 118083213.93907     -3096.153 7        47.540                                    22470444.188 6  92012849.54806     -2412.583 6        39.489    22470443.283 6  92012663.53606     -2412.703 6        38.640
G30         7.000    20658804.387 7 108562759.75707     -1461.934 7        42.603                                    20658802.596 5  84594276.21905     -1139.172 5        35.971    20658804.732 6  84594324.23106     -1139.210 6        40.646
G14         8.000    21964191.442 5 115422538.63405      1815.013 5        31.042                                    21964182.940 1  89939638.79701      1414.341 1         7.375    21964191.467 6  89939713.79606      1414.415 6        38.195
G15         9.000    24365356.949 6 128040838.61206      2822.054 6        36.518                                    24365361.717 2  99772141.93502      2198.974 2        13.091    24365373.853 4                      2199.092 4        28.844
