     3.04           OBSERVATION DATA    M                   RINEX VERSION / TYPE
ssrcrin-15.6.1x                         20250102 051500 UTC PGM / RUN BY / DATE 
(00000000023479385599111004) Septentrio proprietary         COMMENT             
ract                                                        MARKER NAME         
01                                                          MARKER NUMBER       
geodetic                                                    MARKER TYPE         
NFB                 CLIMERS@TUW                             OBSERVER / AGENCY   
3296359             SEPT ASTERX SB3 PROB4.14.4              REC # / TYPE / VERS 
Unknown             Unknown                                 ANT # / TYPE        
  4127445.3145  1206914.8889  4695543.5156                  APPROX POSITION XYZ 
        0.0000        0.0000        0.0000                  ANTENNA: DELTA H/E/N
G   23 X1  C1C L1C D1C S1C C1W S1W C2W L2W D2W S2W C2L L2L  SYS / # / OBS TYPES 
       D2L S2L C5Q L5Q D5Q S5Q C1L L1L D1L S1L              SYS / # / OBS TYPES 
E   21 X1  C1C L1C D1C S1C C6C L6C D6C S6C C5Q L5Q D5Q S5Q  SYS / # / OBS TYPES 
       C7Q L7Q D7Q S7Q C8Q L8Q D8Q S8Q                      SYS / # / OBS TYPES 
S    9 X1  C1C L1C D1C S1C C5I L5I D5I S5I                  SYS / # / OBS TYPES 
R   17 X1  C1C L1C D1C S1C C2P L2P D2P S2P C2C L2C D2C S2C  SYS / # / OBS TYPES 
       C3Q L3Q D3Q S3Q                                      SYS / # / OBS TYPES 
C   25 X1  C1P L1P D1P S1P C5P L5P D5P S5P C2I L2I D2I S2I  SYS / # / OBS TYPES 
       C7I L7I D7I S7I C6I L6I D6I S6I C7D L7D D7D S7D      SYS / # / OBS TYPES 
J   17 X1  C1C L1C D1C S1C C2L L2L D2L S2L C5Q L5Q D5Q S5Q  SYS / # / OBS TYPES 
       C1L L1L D1L S1L                                      SYS / # / OBS TYPES 
I    5 X1  C5A L5A D5A S5A                                  SYS / # / OBS TYPES 
SEPTENTRIO RECEIVERS OUTPUT ALIGNED CARRIER PHASES.         COMMENT             
NO FURTHER PHASE SHIFT APPLIED IN THE RINEX ENCODER.        COMMENT             
G L1C                                                       SYS / PHASE SHIFT   
G L2W                                                       SYS / PHASE SHIFT   
G L2L  0.00000                                              SYS / PHASE SHIFT   
G L5Q  0.00000                                              SYS / PHASE SHIFT   
G L1L  0.00000                                              SYS / PHASE SHIFT   
E L1C  0.00000                                              SYS / PHASE SHIFT   
E L6C  0.00000                                              SYS / PHASE SHIFT   
E L5Q  0.00000                                              SYS / PHASE SHIFT   
E L7Q  0.00000                                              SYS / PHASE SHIFT   
E L8Q  0.00000                                              SYS / PHASE SHIFT   
S L1C                                                       SYS / PHASE SHIFT   
S L5I                                                       SYS / PHASE SHIFT   
R L1C                                                       SYS / PHASE SHIFT   
R L2P  0.00000                                              SYS / PHASE SHIFT   
R L2C                                                       SYS / PHASE SHIFT   
R L3Q  0.00000                                              SYS / PHASE SHIFT   
C L1P  0.00000                                              SYS / PHASE SHIFT   
C L5P  0.00000                                              SYS / PHASE SHIFT   
C L2I                                                       SYS / PHASE SHIFT   
C L7I                                                       SYS / PHASE SHIFT   
C L6I                                                       SYS / PHASE SHIFT   
C L7D                                                       SYS / PHASE SHIFT   
J L1C                                                       SYS / PHASE SHIFT   
J L2L  0.00000                                              SYS / PHASE SHIFT   
J L5Q  0.00000                                              SYS / PHASE SHIFT   
J L1L  0.00000                                              SYS / PHASE SHIFT   
I L5A                                                       SYS / PHASE SHIFT   
  2025     1     2     5    15    0.0000000     GPS         TIME OF FIRST OBS   
 C1C    0.000 C2C    0.000 C2P    0.000                     GLONASS COD/PHS/BIS 
DBHZ                                                        SIGNAL STRENGTH UNIT
    18                                                      LEAP SECONDS        
 24 R01  1 R02 -4 R03  5 R04  6 R05  1 R06 -4 R07  5 R08  6 GLONASS SLOT / FRQ #
    R09 -2 R10 -7 R11  0 R12 -1 R13 -2 R14 -7 R15  0 R16 -1 GLONASS SLOT / FRQ #
    R17  4 R18 -3 R19  3 R20  2 R21  4 R22 -3 R23  3 R24  2 GLONASS SLOT / FRQ #
                                                            END OF HEADER       
> 2025 01 02 05 15  0.0000000  0 42
E27         3.000    27493171.204 4 144477790.58104     -2038.859 4        27.808
G20         4.000    21539969.027 7 113193334.23107      1487.265 7        42.679                                    21539969.017 2  88202587.20802      1158.901 2        17.924
G07         5.000    20710222.808 7 108832990.67707      -378.759 7        44.378                                    20710218.608 5  84804936.73505      -295.142 5        32.455    20710219.404 5  84804882.67405      -295.125 5        32.689
G09         6.000    20760991.361 7 109099746.65607     -2687.920 7        44.716                                    20760988.886 7  85012803.47607     -2094.483 7        43.962    20760989.641 7  85012790.46407     -2094.432 7        43.992
G30         7.000    21845929.812 6 114801448.42606      1822.787 6        39.447                                    21845924.161 5  89455487.62405      1420.347 5        33.419    21845928.398 6  89455424.62506      1420.258 6        40.451
G29         8.000    25690270.403 4                     -1630.457 4        24.782
E21        10.000    26051888.924 4 136903698.12704       492.368 4        27.952                                                                    26051877.637 5 102233206.70605       367.469 5        33.060    26051882.920 5 104900127.04805       377.119 5        33.479
E06        11.000    24967028.269 6 131202626.76806      1014.384 6        39.796                                                                    24967025.567 7  97976011.10307       757.419 7        42.487    24967024.478 6 100531885.64406       777.210 6        41.588
G04        12.000    22840541.467 5 120027929.98105     -3696.688 5        33.766                                                                                                    22840533.697 5  93528249.76705     -2880.723 5        31.177
E12        13.000    26745794.128 4                     -3967.823 4        24.586                                                                    26745787.632 5 104956219.48905     -2963.330 5        33.162    26745789.348 6 107694213.41406     -3040.843 6        36.828
G05        14.000    24285345.995 5 127620289.30705      2763.068 5        35.652                                    24285321.051 2  99444348.09202      2153.077 2        15.429    24285321.336 4  99444324.13904      2153.018 4        29.583
G06        15.000    22783101.459 5 119725951.33005     -3871.876 5        30.294                                    22783089.753 2  93292953.14202     -3017.046 2        15.524    22783087.684 5  93292928.12605     -3017.525 5        31.721
E11        16.000    24712800.615 7 129866669.41007     -1939.813 7        42.935                                                                    24712795.319 7  96978325.77607     -1448.534 7        43.259    24712795.198 6  99508188.65006     -1486.265 6        40.503
E04        17.000    23559718.732 7 123807167.04707        40.224 7        47.773                                                                    23559716.702 8  92453459.69308        30.039 8        50.185    23559716.582 8  94865232.93208        30.873 8        48.418
R08        18.000    19805875.868 6 106059721.53906     -2126.259 6        40.594                                                                    19805871.498 7  82490748.58207     -1653.772 7        42.339
E19        20.000    24062874.795 5 126451274.29205     -2497.090 5        34.105                                                                    24062871.134 6  94427901.80406     -1864.513 6        41.626    24062872.228 7  96891225.43807     -1913.101 7        44.033
E09        21.000    27162490.556 4 142739837.21504      1495.733 4        29.697                                                                    27162488.427 5 106591471.16405      1117.202 5        34.805    27162490.258 5 109372157.97305      1146.118 5        35.067
E36        22.000    26456693.680 6 139030856.23306       722.677 6        39.520                                                                    26456690.816 6 103821748.13906       539.684 6        36.348    26456693.677 7 106530134.21807       553.717 7        43.767
S36        23.000    38111889.535 5 200279455.30605      -850.293 5        34.333
S23        24.000    38050036.183 6 199954255.50406      -846.491 6        39.153
G11        25.000    22137623.201 7 116334344.53307     -1786.326 7        45.236                                    22137609.541 2  90649850.88802     -1391.947 2        16.679    22137632.814 5  90649740.00005     -1391.915 5        32.940
R17        27.000                                                                                                                                    22317770.759 5  92887589.79805       234.666 5        34.343
E10        29.000    25368175.946 6 133310651.48606     -3289.171 6        36.144                                                                    25368174.887 7  99550217.22407     -2456.247 7        42.533    25368176.283 6 102147267.79906     -2520.402 6        38.225
R11        30.000    21169966.497 6 113125884.70706      2901.223 6        39.297
C20        31.000                                                                                                                                    22395541.966 7 116619597.08607     -2270.244 7        42.614                                                                    22395535.362 6  94762859.45006     -1844.889 6        39.928
R10        32.000    20065874.769 6 106962414.99006      -948.149 6        41.633
R02        35.000    24303114.079 5 129686026.80905      2556.802 5        33.916
R09        37.000    22193134.165 5 118510273.52705     -4053.096 5        31.706                                                                    22193168.357 5  92174661.52905     -3152.009 5        32.198
C05        38.000                                                                                                                                                                                                    39117890.259 5 157511546.15805      -694.763 5        33.677
C35        41.000                                                                                                                                    25722263.673 5 133942517.82205     -3133.201 5        35.614                                                                    25722268.947 4 108839249.69604     -2546.292 4        29.422
C37        42.000                                                                                                                                    23134533.752 6 120467570.33006     -1664.277 6        38.363                                                                    23134536.255 7  97889871.25407     -1352.326 7        42.072
R24        43.000                                                                                                                                    21919181.296 6  91164654.43706     -2618.302 6        39.261
R01        44.000    20301178.440 6 108521452.23206      1416.372 6        40.567                                                                    20301178.543 6  84405556.48106      1101.898 6        39.204
C16        45.000                                                                                                                                                                                                    40345809.920 4                     -1452.927 4        24.797
C09        47.000                                                                                                                                    39144043.086 5 203833301.80105     -1607.622 5        35.495    39144038.634 5 157616832.92605     -1243.018 5        34.643
C19        48.000                                                                                                                                    22146215.574 8 115321313.58908       381.749 8        49.099                                                                    22146208.522 7  93707866.08107       310.243 7        46.782
C06        50.000                                                                                                                                                                                                    39774911.285 3                     -1471.154 3        23.905
C22        51.000                                                                                                                                                                                                                                                                    25522846.188 5 107995544.51905      1670.688 5        33.126
C44        52.000                                                                                                                                                                                                                                                                    25617515.969 5 108396095.98905     -1055.734 5        31.819
C12        54.000                                                                                                                                    26308408.639 5 136994910.24205        41.576 5        34.114                                                                    26308400.825 5                        33.347 5        30.249
I01        57.000   385047285.428 4 207867469.35504     -3220.590 4        27.880
I06        59.000    37864759.404 6 148589447.22206      -625.567 6        36.045
> 2025 01 02 05 15  5.0000000  0 44
G16         2.000    23633870.050 3                     -2125.632 3        23.676
E27         3.000    27495113.471 4 144487989.53404     -2040.886 4        27.269
G20         4.000    21538555.568 7 113185903.16907      1485.115 7        43.784                                    21538554.934 2  88196796.78702      1157.184 2        17.849
G07         5.000    20710584.522 7 108834890.48407      -381.266 7        44.927                                    20710579.933 5  84806417.11305      -297.092 5        32.754    20710582.842 5  84806363.03605      -297.230 5        34.367
G09         6.000    20763549.056 7 109113189.84407     -2689.476 7        44.084                                    20763546.824 7  85023278.68407     -2095.699 7        43.520    20763547.510 7  85023265.68807     -2095.760 7        43.390
G30         7.000    21844196.594 6 114792338.39606      1821.181 6        40.934                                    21844191.993 5  89448388.90505      1419.099 5        34.767    21844195.061 6  89448325.91206      1418.980 6        40.725
G29         8.000    25691818.049 3                     -1636.391 3        21.667
E21        10.000    26051423.998 4 136901243.07704       490.121 4        26.635                                                                    26051410.185 5 102231373.36905       365.840 5        33.018    26051415.101 5 104898245.90905       375.010 5        32.024
E06        11.000    24966063.433 6 131197556.74906      1013.567 6        40.007                                                                    24966060.796 7  97972225.06007       756.930 7        42.313    24966059.752 6 100528000.82606       776.631 6        41.008
G04        12.000    22844059.043 5 120046414.73005     -3697.492 5        32.599                                                                                                    22844054.266 5  93542653.46405     -2880.559 5        31.766
E12        13.000    26749570.118 4                     -3969.220 4        25.835                                                                    26749563.795 5 104971037.64405     -2963.901 5        33.114    26749565.900 6 107709418.13006     -3041.299 6        36.405
G05        14.000    24282712.627 6 127606475.21306      2762.629 6        36.246                                    24282691.768 2  99433583.98402      2152.684 2        14.381    24282692.156 4  99433559.97204      2153.185 4        28.938
G06        15.000                                                                                                                                                                    22786774.687 4  93308016.72404     -3018.194 4        29.431
E11        16.000    24714647.695 7 129876373.85107     -1942.142 7        43.393                                                                    24714642.095 7  96985572.60507     -1450.325 7        42.990    24714641.730 6  99515624.52106     -1488.150 6        40.107
E04        17.000    23559681.234 8 123806968.15708        39.177 8        48.122                                                                    23559678.867 8  92453311.17008        29.280 8        50.387    23559678.833 8  94865080.54208        30.049 8        48.471
R08        18.000                                                                                                                                    19807857.680 6  82499021.34406     -1655.418 6        41.981
E19        20.000    24065250.444 5 126463759.69005     -2497.471 5        35.919                                                                    24065247.055 6  94437225.31006     -1864.993 6        41.497    24065247.976 7  96900792.18107     -1913.632 7        43.592
E09        21.000    27161064.398 4 142732358.32504      1495.730 4        28.844                                                                    27161065.356 5 106585886.38605      1116.689 5        33.940    27161066.879 5 109366427.48705      1145.950 5        34.119
E36        22.000    26456007.129 6 139027247.52006       720.558 6        39.532                                                                    26456005.008 6 103819053.32806       538.198 6        37.096    26456007.140 7 106527369.10107       552.051 7        43.583
S36        23.000    38112697.128 5 200283705.82605      -850.242 5        34.267
S23        24.000    38050842.636 6 199958487.86906      -846.564 6        39.535
G11        25.000    22139323.911 7 116343284.16607     -1789.466 7        44.272                                    22139310.738 2  90656816.86202     -1394.386 2        16.981    22139326.643 5  90656705.82505     -1394.169 5        31.389
R17        27.000    22317485.697 6 119425275.89016       297.518 6        41.449                                                                    22317491.236 5  92886424.49805       231.498 5        35.324
E10        29.000    25371307.264 6 133327100.72006     -3290.519 6        37.372                                                                    25371305.255 7  99562500.75807     -2457.343 7        42.950    25371306.417 6 102159871.77506     -2521.464 6        39.147
R11        30.000    21167254.467 6 113111384.18916      2898.826 6        41.409                                                                    21167283.677 4                      2254.568 4        28.493
C20        31.000                                                                                                                                    22397722.411 7 116630952.17507     -2271.722 7        42.324                                                                    22397716.509 6  94772086.38806     -1846.127 6        40.200
R10        32.000    20066767.269 7 106967167.38807      -952.911 7        43.014
R07        34.000    23117731.533 3                     -4102.111 3        22.971
R02        35.000    24300717.467 5 129673242.60605      2557.215 5        33.066                                                                    24300682.962 3                      1989.499 3        19.463
R09        37.000    22196929.900 5 118530544.90605     -4056.042 5        31.623                                                                    22196966.582 4  92190428.17604     -3154.389 4        29.972
C05        38.000                                                                                                                                                                                                    39118753.189 5 157515020.17105      -695.233 5        33.832
C35        41.000                                                                                                                                    25725271.077 5 133958187.03305     -3134.510 5        33.814                                                                    25725278.290 5 108851982.23805     -2546.868 5        31.117
C37        42.000                                                                                                                                    23136134.620 6 120475898.17306     -1666.943 6        38.727                                                                    23136135.418 6  97896638.29206     -1354.480 6        41.580
R24        43.000    21922350.457 6 117228665.21116     -3369.793 6        40.088                                                                    21922331.043 6  91177752.49506     -2620.877 6        39.958
R01        44.000    20299856.251 6 108514373.26106      1415.136 6        41.292                                                                    20299853.833 6  84400050.63206      1100.658 6        39.276
C16        45.000                                                                                                                                                                                                    40347620.193 4                     -1452.490 4        24.466
C09        47.000                                                                                                                                    39145587.422 5 203841339.98305     -1608.083 5        35.267    39145582.422 5 157623048.52305     -1243.193 5        34.352
C19        48.000                                                                                                                                    22145849.593 8 115319408.30908       380.270 8        49.220                                                                    22145842.512 7  93706317.89807       308.982 7        46.453
C06        50.000                                                                                                                                                                                                    39776736.821 3                     -1470.824 3        23.333
C22        51.000                                                                                                                                    25520907.828 5 132893809.21415      2055.614 5        33.713                                                                    25520871.145 5 107987191.72205      1670.311 5        32.120
C44        52.000                                                                                                                                                                                                                                                                    25618764.029 5 108401379.34405     -1057.640 5        31.102
C12        54.000                                                                                                                                    26308370.172 5 136994710.40305        38.621 5        32.814                                                                    26308364.274 4                        31.313 4        29.583
I01        57.000   385051388.466 4 207883570.40104     -3220.763 4        27.521
I06        59.000    37865557.013 6 148592575.88506      -625.827 6        36.227
> 2025 01 02 05 15 10.0000000  0 42
E27         3.000    27497060.535 4 144498199.47204     -2043.264 4        26.335
G20         4.000    21537143.775 7 113178482.63807      1483.174 7        44.442                                    21537142.760 2  88191014.57202      1155.728 2        17.094
G07         5.000    20710948.375 7 108836802.73807      -383.637 7        45.299                                    20710944.004 5  84807907.18705      -298.936 5        32.982    20710947.388 6  84807853.10706      -298.786 6        36.321
G09         6.000    20766108.238 7 109126640.74507     -2690.826 7        42.948                                    20766106.188 7  85033759.89107     -2096.747 7        42.942    20766106.237 7  85033746.87507     -2096.652 7        42.707
G30         7.000    21842464.645 7 114783237.51507      1819.282 7        42.064                                    21842461.283 6  89441297.31106      1417.625 6        36.011    21842463.102 6  89441234.29406      1417.653 6        40.501
E21        10.000    26050960.987 3 136898798.47803       487.992 3        23.657                                                                    26050944.264 5 102229547.90405       364.431 5        32.802    26050949.072 5 104896372.82305       373.488 5        30.392
E06        11.000    24965098.715 6 131192490.26106      1013.129 6        39.538                                                                    24965096.425 7  97968441.64907       756.629 7        42.118    24965095.867 6 100524118.72306       776.182 6        40.892
G04        12.000    22847578.630 5 120064902.84705     -3697.388 5        32.156                                                                                                    22847582.014 5  93557059.78305     -2881.571 5        32.850
E12        13.000    26753347.978 4                     -3969.604 4        26.802                                                                    26753340.619 5 104985858.24905     -2964.083 5        33.108    26753342.530 6 107724625.38206     -3041.707 6        36.265
G05        14.000    24280081.589 6 127592663.92906      2762.033 6        38.030                                    24280063.080 2  99422821.96802      2152.223 2        14.714    24280064.181 4  99422798.04204      2151.888 4        29.261
G06        15.000                                                                                                                                                                    22790454.227 4  93323111.91704     -3019.817 4        25.278
E11        16.000    24716496.725 7 129886090.24907     -1944.327 7        43.727                                                                    24716491.122 7  96992828.35707     -1451.936 7        42.986    24716490.239 6  99523069.56006     -1489.854 6        39.444
E04        17.000    23559644.529 8 123806774.32808        38.397 8        48.216                                                                    23559642.069 8  92453166.42208        28.727 8        50.613    23559641.926 8  94864932.02408        29.412 8        48.704
R08        18.000    19809871.871 6 106081004.48906     -2130.239 6        41.051                                                                    19809845.852 6  82507302.02306     -1656.922 6        41.754
E19        20.000    24067626.366 6 126476248.42706     -2498.047 6        37.021                                                                    24067623.680 6  94446551.33006     -1865.287 6        41.623    24067624.269 7  96910361.50207     -1914.136 7        43.469
E09        21.000    27159640.359 5 142724881.19005      1495.327 5        30.370                                                                    27159642.006 5 106580302.84905      1116.606 5        32.389    27159644.549 5 109360698.25405      1146.009 5        33.850
E36        22.000    26455322.453 6 139023649.47706       718.571 6        39.039                                                                    26455321.207 6 103816366.47206       536.593 6        38.228    26455322.513 7 106524612.14707       550.603 7        43.598
S36        23.000    38113507.556 5 200287956.31705      -850.060 5        34.267
S23        24.000    38051649.468 6 199962720.11206      -846.172 6        39.778
G11        25.000    22141028.724 7 116352239.84107     -1792.660 7        42.808                                    22141014.632 2  90663795.29102     -1396.885 2        15.143    22141032.824 5  90663684.31005     -1396.953 5        30.106
R17        27.000    22317217.316 6 119423799.09806       293.255 6        41.983                                                                    22317215.847 6  92885275.90406       228.078 6        36.079
E10        29.000    25374439.329 6 133343558.01106     -3292.157 6        38.084                                                                    25374436.928 7  99574790.28307     -2458.430 7        43.153    25374437.580 6 102172481.89906     -2522.641 6        40.393
R11        30.000    21164542.609 7 113096895.75717      2896.560 7        42.072
C20        31.000                                                                                                                                    22399903.962 7 116642314.88407     -2273.246 7        42.993                                                                    22399898.970 6  94781319.51706     -1847.342 6        40.412
R10        32.000    20067663.599 7 106971943.06407      -957.348 7        43.420
R07        34.000    23121563.360 3                     -4103.318 3        22.590
R02        35.000    24298319.277 5 129660457.17705      2557.359 5        31.691
R09        37.000    22200728.595 5 118550830.25105     -4058.208 5        33.605                                                                    22200765.433 4  92206205.75804     -3156.539 4        28.237
C05        38.000                                                                                                                                                                                                    39119615.689 5 157518494.11805      -694.827 5        33.725
C35        41.000                                                                                                                                    25728281.271 5 133973862.85805     -3135.921 5        32.473                                                                    25728287.557 5 108864720.14405     -2548.035 5        32.784
C37        42.000                                                                                                                                    23137737.741 6 120484239.45606     -1669.512 6        39.450                                                                    23137737.138 6  97903416.27806     -1356.600 6        41.149
R24        43.000    21925501.320 6 117245522.07706     -3372.817 6        41.249                                                                    21925484.183 6  91190863.40306     -2623.469 6        39.877
R01        44.000    20298532.912 7 108507301.34807      1413.771 7        42.284                                                                    20298530.404 6  84394550.26606      1099.523 6        39.288
C16        45.000                                                                                                                                                                                                    40349426.550 4                     -1452.127 4        24.947
C09        47.000                                                                                                                                    39147131.334 5 203849378.65405     -1607.668 5        34.529    39147125.636 5 157629264.56205     -1243.220 5        33.641
C19        48.000                                                                                                                                    22145484.846 8 115317510.09508       379.010 8        49.076                                                                    22145477.857 7  93704775.43607       308.028 7        46.241
C06        50.000                                                                                                                                                                                                    39778562.987 3                     -1471.295 3        23.124
C22        51.000                                                                                                                                    25518931.633 5 132883530.16305      2055.940 5        35.557                                                                    25518896.172 5 107978839.20605      1670.710 5        30.974
C44        52.000                                                                                                                                    25620014.038 3                     -1305.302 3        21.000                                                                    25620015.285 5 108406673.14405     -1059.967 5        30.332
C12        54.000                                                                                                                                    26308333.358 5 136994523.66605        36.112 5        31.789    26308478.967 3                        25.780 3        18.866    26308328.957 4                        29.126 4        29.735
I01        57.000   385055493.614 4 207899671.94104     -3220.285 4        27.222
I06        59.000    37866354.535 6 148595704.62706      -625.651 6        36.321
> 2025 01 02 05 15 15.0000000  0 43
G16         2.000    23637943.044 4                     -2133.512 4        25.128
E27         3.000    27499011.913 3 144508420.44203     -2045.229 3        23.333
G20         4.000    21535733.491 7 113171072.64507      1480.837 7        44.140                                    21535732.365 2  88185240.54502      1153.890 2        16.453
G07         5.000    20711314.227 7 108838727.44107      -386.239 7        44.864                                    20711310.744 5  84809406.94705      -300.962 5        33.174    20711313.683 6  84809352.90306      -301.022 6        37.611
G09         6.000    20768670.085 7 109140099.29607     -2692.635 7        42.318                                    20768666.984 7  85044247.07207     -2098.157 7        42.279    20768667.306 7  85044234.05907     -2098.084 7        42.334
G30         7.000    21840734.120 6 114774145.73706      1817.323 6        41.747                                    21840732.044 6  89434212.80306      1416.101 6        36.450    21840732.853 6  89434149.78606      1416.115 6        40.422
E21        10.000                                                                                                                                    26050480.896 5 102227730.31605       362.627 5        32.898    26050485.792 4 104894507.83504       371.871 4        28.199
E06        11.000    24964135.012 6 131187427.26006      1012.145 6        39.426                                                                    24964132.712 6  97964660.87906       755.673 6        41.690    24964132.469 6 100520239.28106       775.578 6        40.582
G04        12.000    22851098.818 5 120083394.45505     -3698.685 5        30.166                                                                                                    22851109.763 5  93571468.74105     -2882.164 5        33.299
E12        13.000    26757128.810 4                     -3970.474 4        28.616                                                                    26757117.838 5 105000681.37005     -2964.794 5        32.994    26757119.666 5 107739835.17605     -3042.270 5        35.995
G05        14.000    24277454.060 6 127578855.36906      2761.206 6        38.850                                    24277435.067 2  99412062.10102      2151.586 2        16.377    24277438.712 4  99412038.09904      2151.963 4        29.583
G06        15.000    22794152.625 4                     -3877.941 4        25.925                                                                                                    22794140.022 4  93338213.43504     -3020.544 4        24.346
E11        16.000    24718347.821 7 129895818.58607     -1946.985 7        43.807                                                                    24718342.552 7  97000093.02407     -1453.882 7        42.772    24718341.295 6  99530523.73806     -1491.988 6        38.856
E04        17.000    23559608.311 8 123806585.53108        37.104 8        48.392                                                                    23559606.213 8  92453025.43908        27.757 8        50.641    23559606.018 8  94864787.36508        28.482 8        48.962
R08        18.000    19811863.633 6 106091661.34906     -2132.661 6        38.276                                                                    19811836.107 6  82515590.65506     -1658.614 6        41.833
E19        20.000    24070003.349 6 126488740.64406     -2498.848 6        38.057                                                                    24070001.031 6  94455879.93806     -1866.059 6        41.597    24070001.308 7  96919933.46107     -1914.739 7        43.079
E09        21.000    27158217.922 5 142717405.71205      1494.691 5        33.000                                                                    27158219.018 5 106574720.56505      1116.165 5        30.196    27158222.155 5 109354970.28505      1145.389 5        33.012
E36        22.000    26454639.508 6 139020062.08806       716.190 6        38.526                                                                    26454639.231 6 103813687.54506       535.053 6        39.105    26454639.971 7 106521863.35207       548.809 7        43.505
S36        23.000    38114320.238 5 200292207.38705      -850.275 5        34.390
S23        24.000    38052454.969 6 199966952.15806      -846.520 6        39.423
G11        25.000    22142734.644 6 116361211.55006     -1796.127 6        41.046                                    22142721.392 2  90670786.26302     -1399.597 2        13.333    22142748.537 4  90670675.35804     -1399.782 4        28.303
R17        27.000    22316948.529 7 119422343.79407       288.672 7        42.044                                                                    22316943.410 6  92884143.98906       224.562 6        37.108
E10        29.000    25377573.086 6 133360023.29406     -3293.970 6        38.976                                                                    25377570.310 7  99587085.79307     -2459.806 7        43.280    25377570.390 6 102185098.15006     -2523.870 6        41.015
R11        30.000    21161831.885 7 113082419.44607      2893.881 7        42.857
C20        31.000                                                                                                                                    22402086.632 7 116653685.20107     -2275.091 7        43.763                                                                    22402081.841 6  94790558.81406     -1848.444 6        40.365
R10        32.000    20068563.575 7 106976742.16907      -962.302 7        43.054
R07        34.000    23125404.631 4                     -4105.738 4        26.156
R02        35.000    24295922.746 4 129647670.16204      2557.335 4        29.498
R09        37.000    22204535.045 5 118571129.68205     -4061.386 5        35.543
C05        38.000                                                                                                                                                                                                    39120478.949 5 157521967.97005      -695.110 5        33.269
C35        41.000                                                                                                                                    25731299.207 5 133989545.23405     -3137.414 5        30.362                                                                    25731298.896 5 108877463.34605     -2549.179 5        33.904
C37        42.000                                                                                                                                    23139343.268 6 120492594.20406     -1672.441 6        40.584                                                                    23139341.437 6  97910205.19306     -1358.783 6        40.880
R24        43.000                                                                                                                                    21928638.071 6  91203987.17306     -2626.257 6        39.474
R01        44.000    20297212.032 7 108500236.53507      1412.104 7        44.211                                                                    20297209.601 6  84389055.39606      1098.361 6        39.366
C16        45.000                                                                                                                                                                                                    40351231.047 4                     -1452.290 4        24.917
C09        47.000                                                                                                                                    39148675.034 5 203857417.92005     -1608.126 5        34.571    39148668.705 5 157635480.98205     -1243.347 5        33.228
C19        48.000                                                                                                                                    22145121.390 8 115315618.93808       377.354 8        48.778                                                                    22145114.464 7  93703238.71107       306.740 7        46.216
C06        50.000                                                                                                                                                                                                    39780387.480 3                     -1471.615 3        23.467
C22        51.000                                                                                                                                                                                                                                                                    25516920.823 4 107970486.95504      1671.180 4        29.564
C44        52.000                                                                                                                                    25621268.829 3                     -1307.655 3        22.857                                                                    25621268.188 5 108411977.27705     -1061.945 5        30.362
C12        54.000                                                                                                                                    26308298.896 5 136994350.01105        33.423 5        30.604                                                                    26308293.725 4                        26.962 4        28.806
I01        57.000   385059598.340 4 207915774.20204     -3220.917 4        27.329
I06        59.000    37867152.841 6 148598833.42906      -625.822 6        36.253
> 2025 01 02 05 15 20.0000000  0 42
E27         3.000    27500964.294 3                     -2047.790 3        19.731
G20         4.000    21534324.928 7 113163673.43807      1478.746 7        43.752                                    21534324.081 2  88179474.94502      1152.264 2        16.302
G07         5.000    20711683.098 7 108840664.85707      -388.827 7        43.920                                    20711679.979 5  84810916.61005      -302.977 5        32.940    20711681.308 6  84810862.55406      -302.966 6        37.815
G09         6.000    20771233.165 7 109153565.74207     -2694.287 7        43.314                                    20771229.264 6  85054740.40406     -2099.444 6        41.661    20771230.105 6  85054727.39806     -2099.291 6        41.874
G30         7.000    21839004.784 7 114765063.32807      1815.370 7        42.188                                    21839004.258 6  89427135.57906      1414.580 6        36.193    21839004.923 6  89427072.54006      1414.696 6        40.322
E21        10.000    26050053.202 5 136893941.16505       483.719 5        30.264                                                                    26050019.321 5 102225920.77305       361.220 5        32.030    26050029.216 4 104892651.16904       369.682 4        25.774
E06        11.000    24963172.134 6 131182368.04106      1011.220 6        39.036                                                                    24963169.946 6  97960882.87606       755.257 6        41.268    24963169.816 6 100516362.73106       774.902 6        40.253
G04        12.000    22854618.851 4 120101889.59704     -3699.635 4        29.336                                                                                                    22854632.408 5  93585880.54005     -2882.615 5        32.928
E12        13.000    26760904.573 5                     -3971.044 5        30.498                                                                    26760895.504 5 105015507.10605     -2965.471 5        32.395    26760897.951 5 107755047.67905     -3042.761 5        35.171
G05        14.000    24274828.317 6 127565049.69606      2760.711 6        39.093                                    24274807.591 2  99401304.47402      2151.235 2        16.189    24274812.149 5  99401280.49705      2151.064 5        30.400
G06        15.000                                                                                                                                                                    22797832.944 4  93353321.65504     -3022.921 4        26.659
E11        16.000    24720201.312 7 129905559.10007     -1949.352 7        43.907                                                                    24720196.282 7  97007366.77307     -1455.622 7        42.724    24720194.387 6  99537987.23006     -1493.780 6        38.384
E04        17.000    23559573.087 8 123806402.03708        36.062 8        48.430                                                                    23559571.396 8  92452888.41508        26.880 8        50.693    23559571.129 8  94864646.77008        27.544 8        49.075
R08        18.000    19813847.607 5 106102328.62905     -2134.647 5        35.957                                                                    19813828.106 6  82523887.40306     -1660.239 6        40.865
E19        20.000    24072380.582 6 126501236.48406     -2499.723 6        38.465                                                                    24072378.948 6  94465211.22306     -1866.550 6        41.850    24072378.954 7  96929508.18307     -1915.236 7        42.836
E09        21.000    27156795.900 5 142709932.09505      1494.529 5        35.429                                                                    27156794.167 4 106569139.76404      1116.154 4        26.503    27156800.439 5 109349243.76905      1144.879 5        32.814
E36        22.000    26453957.698 6 139016485.57306       714.262 6        38.366                                                                    26453958.804 6 103811016.78106       533.157 6        39.877    26453959.455 7 106519122.90507       547.132 7        43.585
S36        23.000    38115130.460 5 200296459.11105      -850.353 5        34.571
S23        24.000    38053258.846 6 199971184.19306      -846.534 6        39.934
G11        25.000    22144444.986 6 116370199.53006     -1799.309 6        40.563                                    22144431.238 2  90677789.87202     -1402.034 2        13.091
R17        27.000    22316682.547 7 119420910.39707       284.357 7        43.581                                                                    22316674.994 6  92883029.10906       221.243 6        37.709
E10        29.000    25380707.907 6 133376496.81006     -3295.679 6        39.480                                                                    25380705.140 7  99599387.44907     -2461.070 7        43.198    25380704.759 6 102197720.71806     -2525.221 6        41.905
R11        30.000    21159125.205 7                      2891.486 7        44.453                                                                    21159210.001 5                      2249.018 5        30.385
C20        31.000                                                                                                                                    22404270.863 7 116665063.38307     -2276.538 7        44.339                                                                    22404266.024 6  94799804.53606     -1849.835 6        40.069
R10        32.000    20069468.899 7 106981564.82707      -967.006 7        43.276
R07        34.000    23129238.475 4                     -4105.840 4        28.455
R02        35.000    24293528.684 4                      2557.312 4        26.395
R09        37.000    22208348.537 5 118591443.30905     -4064.339 5        35.790
C05        38.000                                                                                                                                                                                                    39121341.426 5 157525441.93205      -694.753 5        32.994
C35        41.000                                                                                                                                    25734314.844 4 134005234.39104     -3138.211 4        25.669                                                                    25734311.966 5 108890212.07505     -2550.327 5        34.148
C37        42.000                                                                                                                                    23140951.237 6 120500962.66806     -1675.103 6        41.185                                                                    23140948.365 6  97917005.26506     -1361.218 6        40.763
R24        43.000    21931794.768 7 117279285.63707     -3379.798 7        42.512                                                                    21931796.389 6  91217123.96106     -2628.763 6        39.153
R01        44.000    20295892.747 7 108493178.91207      1410.714 7        45.032                                                                    20295888.527 6  84383566.12706      1097.292 6        38.709
C16        45.000                                                                                                                                                                                                    40353032.399 3                     -1455.200 3        23.752
C09        47.000                                                                                                                                    39150219.087 5 203865457.89805     -1608.148 5        34.276    39150212.914 5 157641698.05005     -1243.594 5        33.120
C19        48.000                                                                                                                                    22144759.677 8 115313735.07808       375.938 8        48.804                                                                    22144752.576 7  93701707.93207       305.464 7        46.126
C06        50.000                                                                                                                                                                                                    39782215.976 4                     -1471.370 4        25.113
C22        51.000                                                                                                                                                                                                                                                                    25514945.677 4 107962135.31804      1670.181 4        27.952
C44        52.000                                                                                                                                    25622525.216 3                     -1308.027 3        21.929                                                                    25622524.185 5 108417292.04905     -1064.171 5        30.377
C12        54.000                                                                                                                                    26308269.715 5 136994189.69305        31.125 5        31.841                                                                    26308261.664 4                        25.172 4        28.256
I01        57.000   385063699.836 4 207931877.24804     -3220.840 4        27.090
I06        59.000    37867948.312 6 148601962.49406      -625.788 6        36.386
> 2025 01 02 05 15 25.0000000  0 41
G20         4.000    21532918.897 7 113156284.96507      1476.619 7        43.702                                    21532917.814 2  88173717.68902      1150.573 2        16.868
G07         5.000    20712054.413 7 108842614.84207      -391.274 7        42.542                                    20712051.472 5  84812436.06805      -304.889 5        32.952    20712049.653 6  84812382.01306      -304.960 6        37.093
G09         6.000    20773797.774 7 109167039.99907     -2695.706 7        45.061                                    20773793.068 7  85065239.82307     -2100.549 7        42.009    20773794.011 6  85065226.81806     -2100.559 6        41.774
G30         7.000    21837277.929 6 114755990.17606      1813.714 6        41.871                                    21837277.921 5  89420065.56405      1413.292 5        35.924    21837278.592 6  89420002.55506      1413.252 6        40.598
E21        10.000    26049591.458 5 136891528.67305       481.686 5        30.996                                                                    26049560.469 5 102224119.23005       359.384 5        30.838    26049572.473 4 104890802.77004       368.565 4        25.729
E06        11.000    24962209.733 6 131177312.44406      1010.855 6        37.936                                                                    24962207.729 6  97957107.61706       754.727 6        41.008    24962207.696 6 100512488.97706       774.429 6        40.079
G04        12.000    22858139.439 4 120120388.25504     -3699.993 4        29.573                                                                                                    22858145.174 5  93600295.03005     -2883.228 5        31.419
E12        13.000    26764679.735 5                     -3971.733 5        30.423                                                                    26764673.599 5 105030335.41105     -2965.648 5        32.395    26764676.095 5 107770262.79405     -3043.185 5        34.824
G05        14.000    24272202.357 6 127551246.91306      2760.321 6        39.294                                    24272180.991 2  99390549.09602      2150.886 2        16.755    24272186.920 5  99390525.12105      2150.685 5        31.728
G06        15.000    22801545.580 5                     -3880.494 5        30.702                                                                                                    22801525.226 4  93368436.29004     -3024.225 4        29.194
E11        16.000    24722056.955 7 129915311.67707     -1951.746 7        43.151                                                                    24722052.209 7  97014649.54107     -1457.392 7        42.730    24722050.116 6  99545459.97206     -1495.458 6        38.225
E04        17.000    23559539.217 8 123806223.75608        35.067 8        48.165                                                                    23559537.583 8  92452755.27208        26.246 8        50.874    23559537.195 8  94864510.15608        26.917 8        49.436
R08        18.000    19815839.088 5 106113006.27305     -2136.586 5        34.390                                                                    19815821.125 6  82532192.24206     -1661.795 6        40.765
E19        20.000    24074759.061 6 126513735.91906     -2500.219 6        37.977                                                                    24074757.586 7  94474545.23307     -1867.105 7        42.176    24074757.613 7  96939085.69007     -1915.769 7        42.605
E09        21.000    27155373.178 6 142702460.32406      1494.098 6        36.072                                                                    27155362.614 4 106563560.32304      1115.608 4        24.617    27155379.425 5 109343518.63005      1145.007 5        33.018
E36        22.000    26453279.178 6 139012919.87606       712.041 6        37.047                                                                    26453280.119 6 103808354.07406       531.768 6        40.572    26453280.973 7 106516390.73807       545.622 7        43.651
S36        23.000    38115933.671 5 200300710.83805      -850.053 5        34.605
S23        24.000    38054065.432 6 199975416.33006      -846.323 6        39.871
G11        25.000    22146159.142 6 116379203.63006     -1802.369 6        41.805                                    22146144.035 2  90684806.06102     -1404.396 2        13.151
R17        27.000    22316421.269 7 119419498.57607       280.248 7        43.905                                                                    22316411.168 6  92881931.06306       217.814 6        37.172
E10        29.000    25383843.531 6 133392978.46806     -3297.084 6        38.949                                                                    25383841.621 7  99611695.19307     -2462.213 7        43.192    25383841.174 7 102210349.52407     -2526.460 7        42.491
R11        30.000    21156421.622 7 113053503.92617      2889.063 7        45.591
C20        31.000                                                                                                                                    22406457.248 7 116676449.35807     -2277.995 7        44.593                                                                    22406452.061 6  94809056.53206     -1851.123 6        39.745
R10        32.000    20070377.904 7 106986410.98007      -971.559 7        42.663
R07        34.000    23133072.109 4                     -4106.945 4        24.617
R02        35.000    24291137.872 3 129622092.83713      2558.099 3        23.295                                                                    24291128.540 4                      1989.928 4        26.096
R09        37.000    22212162.556 6 118611771.12206     -4067.091 6        36.310
C05        38.000                                                                                                                                                                                                    39122203.707 5 157528915.95205      -694.917 5        33.461
C35        41.000                                                                                                                                                                                                                                                                    25737326.399 5 108902966.18205     -2551.222 5        34.167
