     3.04           OBSERVATION DATA    M                   RINEX VERSION / TYPE
ssrcrin-15.6.1x                         20250102 130000 UTC PGM / RUN BY / DATE 
(00000000023479385599111004) Septentrio proprietary         COMMENT             
ract                                                        MARKER NAME         
01                                                          MARKER NUMBER       
geodetic                                                    MARKER TYPE         
NFB                 CLIMERS@TUW                             OBSERVER / AGENCY   
3296359             SEPT ASTERX SB3 PROB4.14.4              REC # / TYPE / VERS 
Unknown             Unknown                                 ANT # / TYPE        
  4127446.9887  1206915.0306  4695542.5251                  APPROX POSITION XYZ 
        0.0000        0.0000        0.0000                  ANTENNA: DELTA H/E/N
G   23 X1  C1C L1C D1C S1C C1W S1W C2W L2W D2W S2W C2L L2L  SYS / # / OBS TYPES 
       D2L S2L C5Q L5Q D5Q S5Q C1L L1L D1L S1L              SYS / # / OBS TYPES 
E   21 X1  C1C L1C D1C S1C C6C L6C D6C S6C C5Q L5Q D5Q S5Q  SYS / # / OBS TYPES 
       C7Q L7Q D7Q S7Q C8Q L8Q D8Q S8Q                      SYS / # / OBS TYPES 
S    9 X1  C1C L1C D1C S1C C5I L5I D5I S5I                  SYS / # / OBS TYPES 
R   17 X1  C1C L1C D1C S1C C2P L2P D2P S2P C2C L2C D2C S2C  SYS / # / OBS TYPES 
       C3Q L3Q D3Q S3Q                                      SYS / # / OBS TYPES 
C   25 X1  C1P L1P D1P S1P C5P L5P D5P S5P C2I L2I D2I S2I  SYS / # / OBS TYPES 
       C7I L7I D7I S7I C6I L6I D6I S6I C7D L7D D7D S7D      SYS / # / OBS TYPES 
J   17 X1  C1C L1C D1C S1C C2L L2L D2L S2L C5Q L5Q D5Q S5Q  SYS / # / OBS TYPES 
       C1L L1L D1L S1L                                      SYS / # / OBS TYPES 
I    5 X1  C5A L5A D5A S5A                                  SYS / # / OBS TYPES 
SEPTENTRIO RECEIVERS OUTPUT ALIGNED CARRIER PHASES.         COMMENT             
NO FURTHER PHASE SHIFT APPLIED IN THE RINEX ENCODER.        COMMENT             
G L1C                                                       SYS / PHASE SHIFT   
G L2W                                                       SYS / PHASE SHIFT   
G L2L  0.00000                                              SYS / PHASE SHIFT   
G L5Q  0.00000                                              SYS / PHASE SHIFT   
G L1L  0.00000                                              SYS / PHASE SHIFT   
E L1C  0.00000                                              SYS / PHASE SHIFT   
E L6C  0.00000                                              SYS / PHASE SHIFT   
E L5Q  0.00000                                              SYS / PHASE SHIFT   
E L7Q  0.00000                                              SYS / PHASE SHIFT   
E L8Q  0.00000                                              SYS / PHASE SHIFT   
S L1C                                                       SYS / PHASE SHIFT   
S L5I                                                       SYS / PHASE SHIFT   
R L1C                                                       SYS / PHASE SHIFT   
R L2P  0.00000                                              SYS / PHASE SHIFT   
R L2C                                                       SYS / PHASE SHIFT   
R L3Q  0.00000                                              SYS / PHASE SHIFT   
C L1P  0.00000                                              SYS / PHASE SHIFT   
C L5P  0.00000                                              SYS / PHASE SHIFT   
C L2I                                                       SYS / PHASE SHIFT   
C L7I                                                       SYS / PHASE SHIFT   
C L6I                                                       SYS / PHASE SHIFT   
C L7D                                                       SYS / PHASE SHIFT   
J L1C                                                       SYS / PHASE SHIFT   
J L2L  0.00000                                              SYS / PHASE SHIFT   
J L5Q  0.00000                                              SYS / PHASE SHIFT   
J L1L  0.00000                                              SYS / PHASE SHIFT   
I L5A                                                       SYS / PHASE SHIFT   
  2025     1     2    13     0    0.0000000     GPS         TIME OF FIRST OBS   
 C1C    0.000 C2C    0.000 C2P    0.000                     GLONASS COD/PHS/BIS 
DBHZ                                                        SIGNAL STRENGTH UNIT
    18                                                      LEAP SECONDS        
 24 R01  1 R02 -4 R03  5 R04  6 R05  1 R06 -4 R07  5 R08  6 GLONASS SLOT / FRQ #
    R09 -2 R10 -7 R11  0 R12 -1 R13 -2 R14 -7 R15  0 R16 -1 GLONASS SLOT / FRQ #
    R17  4 R18 -3 R19  3 R20  2 R21  4 R22 -3 R23  3 R24  2 GLONASS SLOT / FRQ #
                                                            END OF HEADER       
> 2025 01 02 13 00  0.0000000  0 42
G06         1.000    22923217.335 6 120462518.30406      -185.936 6        37.626                                    22923219.962 1  93866783.97201      -144.877 1         8.667    22923251.665 5                      -144.882 5        31.570
G25         3.000    21057401.354 5 110657505.11205      1453.945 5        34.733                                    21057385.201 3  86226561.80503      1132.935 3        22.971    21057388.305 6  86226569.81906      1132.998 6        38.033
G19         4.000    22804020.292 6 119836012.32006     -3814.302 6        38.234
E25         6.000    23970807.311 7 125967449.09807       424.744 7        42.648                                                                    23970809.864 6  94066727.13906       317.147 6        38.997    23970811.858 7  96520537.46907       325.390 7        42.980
G11         7.000    23579879.694 3                      1746.401 3        21.667                                                                                                    23579825.517 4  96555526.30704      1360.064 4        29.801
G29         9.000    24443602.794 5 128452027.62305      2913.920 5        30.785                                    24443612.031 2 100092507.09702      2270.562 2        15.429    24443609.537 5 100092518.17805      2270.637 5        30.528
E31        10.000                                                                                                                                                                                                    27363952.322 3                     -2527.094 3        22.152
E10        11.000    26952340.571 3                      1971.283 3        20.786                                                                    26952333.390 5 105766744.75605      1472.100 5        35.867    26952336.121 5 108525870.06705      1510.437 5        32.826
G24        12.000    21275879.855 7 111806094.72607     -3486.087 7        47.984                                    21275883.206 7  87121192.80207     -2716.430 7        46.128    21275882.921 7  87121166.79007     -2716.380 7        43.930
E12        13.000    26541015.687 5                      1201.580 5        32.677                                                                    26541018.223 4 104152619.34404       897.314 4        27.425    26541001.571 4 106869645.34004       920.749 4        28.038
E33        14.000    26832441.806 5                     -1427.960 5        32.383
G12        15.000    20096499.717 8 105607786.97508      -946.768 8        48.275                                    20096497.711 7  82291788.92107      -737.740 7        45.430    20096497.442 7  82291806.94407      -737.710 7        43.266
E24        16.000    23986609.504 8 126050445.71308     -1941.382 8        50.161                                                                    23986610.185 7  94128645.20907     -1449.757 7        43.160    23986611.770 7  96584201.01707     -1487.489 7        44.665
G32        17.000    22914265.690 5 120415199.92905        85.479 5        34.733                                    22914295.433 1  93830057.78701        66.631 1        11.407    22914265.473 5  93830093.65105        66.641 5        33.868
E05        18.000    24181404.480 5 127074166.45205     -3607.443 5        30.921                                                                    24181429.793 5  94892973.08405     -2694.173 5        32.719    24181413.043 6  97368429.28006     -2764.510 6        36.193
E08        20.000    27346453.542 6 143706577.08006      1226.414 6        37.474                                                                    27346464.785 6 107313434.60006       915.941 6        38.408    27346462.876 6 110112925.09306       939.707 6        41.318
E02        21.000    28006208.203 5 147173770.21805      1612.332 5        32.174
S23        22.000    38093052.352 6 200180405.76806      -864.048 6        36.302
R14        23.000    19649564.939 7 104743195.06207     -1947.830 7        47.242                                                                    19649568.577 7  81466896.00707     -1514.961 7        42.042
R16        24.000    24518917.190 4                      2566.963 4        24.421                                                                    24518951.600 4                      1996.785 4        26.024
E03        26.000    24840953.210 6 130540275.78206     -1246.368 6        37.871                                                                    24840961.171 7  97481328.77507      -930.635 7        43.369    24840958.425 6 100024299.65006      -955.104 6        37.766
S21        27.000    38382097.850 5 201699337.67905      -859.066 5        34.843
R06        28.000    23051250.079 4                      1175.265 4        28.114
R04        29.000    23367579.259 4                     -5140.650 4        28.303                                                                    23367534.133 4                     -3997.809 4        27.964
R15        30.000    20305795.364 8 108508256.82008      1274.498 8        49.063                                                                    20305797.645 7  84395133.04407       991.219 7        42.385
S36        31.000    38153153.597 5 200496273.63105      -858.898 5        34.752
C07        32.000                                                                                                                                                                                                    40318988.649 4                     -1386.495 4        26.263
C10        33.000                                                                                                                                    39299120.133 4                     -1566.455 4        28.806    39299169.068 3                     -1210.902 3        23.143    39299116.885 5 166287412.48805     -1272.626 5        31.381
C05        35.000                                                                                                                                                                                                    39407089.242 5                      -658.416 5        30.068
R17        36.000    22449464.748 5 120131648.50005      3543.798 5        31.260                                                                    22449467.434 5  93435798.13505      2756.227 5        34.105
C45        37.000                                                                                                                                    23417534.896 6 121941244.93206     -3088.658 6        38.574                                                                    23417529.871 6  99087206.15606     -2510.268 6        38.405
R24        38.000    20206669.926 7 108054093.21307       520.279 7        47.198                                                                    20206669.915 7  84042119.10607       404.594 7        43.543
C33        39.000                                                                                                                                                                                                                                                                    25611158.591 4                     -1208.504 4        27.186
C35        42.000                                                                                                                                                                                                                                                                    22850170.986 6  96686570.38906      1195.919 6        40.057
R05        44.000                                                                                                                                    21512302.055 5  89441011.31705     -2375.271 5        35.005
C42        45.000                                                                                                                                                                                                                                                                    25829091.902 5 109291312.59405     -2885.187 5        34.257
C29        46.000                                                                                                                                    23109452.670 5 120336965.70805     -1994.058 5        35.990                                                                    23109452.742 7  97783634.56607     -1620.615 7        43.691
C26        48.000                                                                                                                                    21635791.541 7 112663264.16507      -345.642 7        46.027                                                                    21635793.663 7  91548141.02807      -281.125 7        46.091
C24        51.000                                                                                                                                    24044527.208 7 125206134.40007      1773.451 7        45.046                                                                    24044527.601 5 101740252.77405      1440.906 5        34.343
C14        53.000                                                                                                                                    25400842.320 6 132268862.44206     -2688.714 6        36.646    25400848.756 6 102278670.30906     -2079.231 6        38.267    25400838.943 4                     -2185.115 4        26.934
I06        58.000    38424558.340 6 150786212.04406      -746.091 6        40.791
I02        59.000    36974460.968 6 145095726.60706      -825.613 6        39.853
> 2025 01 02 13 00  5.0000000  0 44
G06         1.000    22923395.292 6 120463456.22606      -189.613 6        37.353                                    22923398.223 1  93867515.00301      -147.780 1         9.143    22923434.166 5                      -147.552 5        31.102
G25         3.000    21056011.887 5 110650239.20505      1452.355 5        35.962                                    21056002.924 3  86220900.06403      1131.679 3        20.857    21056006.172 6  86220908.06706      1131.671 6        38.700
G19         4.000    22807649.586 6 119855088.34106     -3816.364 6        38.486
E25         6.000    23970403.836 7 125965328.02307       423.369 7        42.796                                                                    23970406.451 6  94065143.23606       316.200 6        39.288    23970408.599 7  96518912.24007       324.367 7        42.938
G11         7.000    23578220.704 3                      1743.539 3        23.086                                                                                                    23578166.796 5  96548728.57905      1358.711 5        30.121
G28         8.000    25354237.948 3                      2726.772 3        20.976                                                                                                    25354147.021 5                      2126.561 5        30.226
G29         9.000    24440830.308 5 128437459.46105      2913.255 5        30.521                                    24440840.094 2 100081155.35102      2270.047 2        15.143    24440837.711 4 100081166.41804      2269.779 4        29.716
E31        10.000                                                                                                                                                                                                    27367090.256 3                     -2530.471 3        20.548
E10        11.000                                                                                                                                    26950459.316 6 105759385.70406      1471.228 6        36.688    26950461.014 5 108518319.03005      1509.535 5        32.587
G24        12.000    21279198.053 7 111823530.79207     -3488.601 7        47.958                                    21279201.172 7  87134779.35107     -2718.391 7        46.116    21279200.736 7  87134753.33107     -2718.410 7        43.738
E12        13.000    26539866.372 5                      1199.740 5        32.880                                                                    26539876.071 4 104148135.98204       895.860 4        25.805    26539859.316 4 106865044.99404       918.762 4        27.856
E33        14.000    26833801.814 5                     -1430.368 5        32.162
G12        15.000    20097401.232 8 105612526.81608      -949.438 8        48.156                                    20097399.414 7  82295482.30207      -739.820 7        45.391    20097399.524 7  82295500.31507      -739.862 7        42.529
E24        16.000    23988456.940 8 126060155.23708     -1942.739 8        49.864                                                                    23988457.859 7  94135895.81707     -1450.713 7        42.394    23988459.198 7  96591640.76907     -1488.619 7        44.075
G32        17.000    22914181.609 6 120414781.15506        81.791 6        36.843                                    22914216.500 2  93829731.52602        63.733 2        13.333    22914181.510 5  93829767.19605        63.712 5        35.162
E05        18.000    24184836.733 5 127092207.72605     -3609.154 5        30.445                                                                    24184857.457 5  94906445.46005     -2695.531 5        33.251    24184850.641 5  97382253.02405     -2765.429 5        35.429
E08        20.000    27345287.012 6 143700449.26706      1224.354 6        37.905                                                                    27345298.705 6 107308858.68706       914.342 6        39.033    27345296.648 6 110108229.80506       938.147 6        41.089
E02        21.000    28004677.695 5 147165709.97005      1611.856 5        32.263
S23        22.000    38093872.653 5 200184725.97605      -864.455 5        35.943
R14        23.000    19651393.381 7 104752940.22407     -1950.474 7        47.698                                                                    19651395.909 6  81474475.57406     -1517.132 6        40.553
R16        24.000    24516516.791 4                      2567.614 4        27.521
R23        25.000    22149686.917 5 118485733.78915     -3818.763 5        30.309
E03        26.000    24842140.057 6 130546513.94406     -1249.360 6        38.634                                                                    24842148.357 7  97485987.14207      -932.780 7        42.955    24842146.286 6 100029079.53206      -957.081 6        37.611
S21        27.000    38382909.928 5 201703633.86405      -859.483 5        34.438
R06        28.000    23050146.129 4                      1171.257 4        25.489
R04        29.000                                                                                                                                    23372341.257 4                     -3998.591 4        27.401
R15        30.000    20304603.696 8 108501888.45408      1272.620 8        48.866                                                                    20304605.880 7  84390179.88507       989.802 7        42.263
S36        31.000    38153975.132 5 200500569.56905      -859.624 5        34.829
C07        32.000                                                                                                                                                                                                    40320707.442 4                     -1385.896 4        25.083
C10        33.000                                                                                                                                    39300627.284 4                     -1566.249 4        29.716    39300672.374 3                     -1211.584 3        23.829    39300620.676 5 166293776.21905     -1273.061 5        31.351
C05        35.000                                                                                                                                                                                                    39407908.716 5                      -659.150 5        30.475
R17        36.000    22446156.560 5 120113932.69105      3541.998 5        33.371                                                                    22446155.949 5  93422019.12205      2755.131 5        32.431
C45        37.000                                                                                                                                    23420501.207 6 121956691.81106     -3090.205 6        38.931                                                                    23420494.542 6  99099757.99006     -2511.075 6        38.517
R24        38.000    20206183.685 7 108051502.97707       515.455 7        46.674                                                                    20206185.583 7  84040104.50807       400.901 7        42.827
C33        39.000                                                                                                                                                                                                                                                                    25612589.976 4                     -1210.856 4        28.360
C35        42.000                                                                                                                                    22848754.593 7 118979501.45917      1469.608 7        44.420                                                                    22848758.846 6  96680593.60506      1194.303 6        40.851
R05        44.000                                                                                                                                    21515161.717 6                     -2378.794 6        38.820
C42        45.000                                                                                                                                    25832493.065 5 134516579.41515     -3551.532 5        34.062                                                                    25832501.043 5 109305739.29805     -2885.904 5        34.124
C29        46.000                                                                                                                                    23111369.836 6 120346943.53506     -1997.130 6        37.399                                                                    23111368.649 7  97791742.34207     -1622.812 7        43.763
C26        48.000                                                                                                                                    21636124.220 7 112664996.54407      -347.686 7        46.247                                                                    21636126.231 7  91549548.70807      -282.353 7        46.045
C24        51.000                                                                                                                                    24042824.795 7 125197268.70807      1772.547 7        45.300                                                                    24042825.159 5 101733048.65005      1440.795 5        33.886
C14        53.000                                                                                                                                    25403423.571 6 132282312.66306     -2691.535 6        36.265    25403432.535 6 102289070.84506     -2081.283 6        38.694    25403422.843 4                     -2187.017 4        27.689
I06        58.000    38425508.375 6 150789942.20406      -746.382 6        40.770
I02        59.000    36975512.878 6 145099853.95806      -825.754 6        39.871
> 2025 01 02 13 00 10.0000000  0 43
G06         1.000    22923575.930 6 120464410.31806      -192.330 6        38.381                                    22923579.382 2  93868258.53402      -149.848 2        12.848    22923616.930 5                      -149.505 5        30.785
G25         3.000    21054620.591 6 110642981.35406      1451.041 6        37.304                                    21054622.217 3  86215244.59903      1130.705 3        21.905    21054624.549 6  86215252.60806      1130.667 6        38.628
G19         4.000    22811278.438 6 119874172.96206     -3817.734 6        39.006
E25         6.000    23970001.233 7 125963211.79707       422.808 7        43.081                                                                    23970003.712 6  94063562.96106       315.732 6        39.979    23970006.016 7  96517290.71907       324.090 7        42.737
G11         7.000                                                                                                                                                                    23576506.896 5  96541937.63805      1357.248 5        30.234
G28         8.000    25351648.932 3                      2728.128 3        22.019                                                                                                    25351553.292 4                      2126.835 4        29.346
G29         9.000    24438057.419 5 128422894.04505      2912.841 5        30.815                                    24438068.440 2 100069805.78602      2269.724 2        13.273    24438065.395 4 100069816.83704      2269.625 4        28.806
E31        10.000                                                                                                                                                                                                    27370228.830 3                     -2528.660 3        21.190
E10        11.000                                                                                                                                    26948586.179 6 105752029.81806      1470.951 6        37.437    26948586.263 5 108510771.23905      1509.440 5        32.126
G24        12.000    21282517.975 8 111840977.60208     -3490.264 8        48.452                                    21282521.231 7  87148374.26507     -2719.686 7        45.857    21282520.674 7  87148348.24507     -2719.734 7        43.594
E12        13.000    26538720.845 5                      1198.174 5        33.126                                                                    26538739.094 4 104143659.02604       894.655 4        24.962    26538719.128 4 106860451.29304       918.572 4        27.317
E33        14.000    26835164.411 5                     -1432.604 5        32.281
G12        15.000    20098304.779 7 105617277.73207      -951.167 7        47.570                                    20098303.142 7  82299184.31407      -741.167 7        45.278    20098303.967 7  82299202.32907      -741.231 7        42.146
E24        16.000    23990305.291 8 126069869.47908     -1943.189 8        49.479                                                                    23990306.591 7  94143149.93607     -1451.015 7        42.267    23990307.644 7  96599084.13307     -1488.916 7        43.793
G32        17.000    22914096.596 6 120414378.06006        78.984 6        39.465                                    22914140.322 2  93829417.42502        61.561 2        13.455    22914101.504 6  93829453.10006        61.738 6        36.922
E05        18.000    24188272.144 5 127110254.62805     -3609.865 5        30.370                                                                    24188290.148 5  94919922.00905     -2695.745 5        34.410
E08        20.000    27344122.550 6 143694329.88206      1223.269 6        38.643                                                                    27344134.658 6 107304289.09106       913.296 6        39.523    27344132.068 6 110103540.95606       937.143 6        40.832
E02        21.000    28003144.771 5 147157650.74905      1611.981 5        32.731
S23        22.000    38094699.800 6 200189046.06006      -863.998 6        36.469
R14        23.000    19653224.244 8 104762695.86408     -1952.067 8        48.075                                                                    19653224.889 6  81482063.29006     -1518.410 6        39.508
R23        25.000    22153255.502 4 118504834.38704     -3821.473 4        25.729
E03        26.000    24843328.483 6 130552764.31206     -1251.275 6        38.931                                                                    24843337.764 7  97490654.62607      -934.386 7        42.609    24843336.917 6 100033868.73706      -958.614 6        38.180
S21        27.000    38383731.535 5 201707929.89805      -859.207 5        34.795
R06        28.000    23049048.605 3                      1167.326 3        22.343
R04        29.000                                                                                                                                    23377139.719 4                     -3998.813 4        26.623
R15        30.000    20303413.490 8 108495527.40808      1271.565 8        48.098                                                                    20303415.039 6  84385232.40606       989.127 6        41.125
S36        31.000    38154787.318 5 200504865.42905      -858.993 5        34.762
C07        32.000                                                                                                                                                                                                    40322427.103 4                     -1384.748 4        25.519
C10        33.000                                                                                                                                    39302130.644 4                     -1566.695 4        28.417    39302176.131 3                     -1213.768 3        22.743    39302124.764 5 166300140.30405     -1272.749 5        32.018
C05        35.000                                                                                                                                                                                                    39408727.314 4                      -658.045 4        29.867
R17        36.000    22442849.512 6 120096222.54706      3541.490 6        36.499                                                                    22442845.705 4  93408244.57704      2754.767 4        29.697
C45        37.000                                                                                                                                    23423468.407 6 121972144.17306     -3091.023 6        39.886                                                                    23423459.901 6  99112314.32606     -2511.785 6        39.108
R24        38.000    20205701.103 7 108048934.65107       511.524 7        46.033                                                                    20205704.824 7  84038106.93407       397.752 7        42.404
C33        39.000                                                                                                                                                                                                                                                                    25614027.826 4                     -1212.974 4        28.303
C35        42.000                                                                                                                                    22847344.726 7 118972156.44307      1468.147 7        44.870                                                                    22847347.967 6  96674625.19206      1192.892 6        41.166
R05        44.000                                                                                                                                    21518024.634 6  89464795.79616     -2381.267 6        40.400
C42        45.000                                                                                                                                    25835902.362 5 134534338.37405     -3552.099 5        34.243                                                                    25835910.227 5 109320169.94505     -2886.518 5        33.659
C29        46.000                                                                                                                                    23113289.521 6 120356934.46106     -1999.438 6        40.133                                                                    23113287.257 7  97799860.80907     -1624.756 7        43.818
C26        48.000                                                                                                                                    21636459.022 7 112666737.16607      -348.869 7        46.764                                                                    21636460.603 7  91550963.13907      -283.460 7        46.056
C24        51.000                                                                                                                                    24041123.630 7 125188405.59807      1772.473 7        45.229                                                                    24041123.598 5 101725846.69805      1440.380 5        33.533
C14        53.000                                                                                                                                    25406009.137 6 132295773.03406     -2693.063 6        36.129    25406018.254 6 102299479.23706     -2082.402 6        40.462    25406008.715 4                     -2188.171 4        27.377
I06        58.000    38426459.193 6 150793672.21906      -745.884 6        40.715
I02        59.000    36976564.663 6 145103982.08206      -825.657 6        39.748
> 2025 01 02 13 00 15.0000000  0 43
G06         1.000    22923761.973 6 120465380.80906      -195.769 6        39.709                                    22923763.192 2  93869014.83802      -152.562 2        16.981    22923804.751 4                      -152.636 4        28.028
G25         3.000    21053240.027 5 110635731.78605      1449.082 5        35.890                                    21053243.271 3  86209595.60603      1129.151 3        23.429    21053245.915 6  86209603.58906      1129.252 6        38.682
G19         4.000    22814909.952 6 119893266.36706     -3819.767 6        39.492
E25         6.000    23969598.802 7 125961100.66007       421.624 7        43.278                                                                    23969601.808 6  94061986.48406       314.829 6        39.859    23969604.394 7  96515673.11107       323.053 7        42.747
G11         7.000                                                                                                                                                                    23574848.374 4  96535153.59104      1356.500 4        29.981
G28         8.000                                                                                                                                                                    25348955.275 4                      2126.262 4        28.047
G29         9.000    24435286.876 5 128408331.56805      2912.140 5        31.389                                    24435297.406 2 100058458.47602      2269.168 2        13.091    24435295.298 4 100058469.52504      2269.159 4        28.332
E31        10.000                                                                                                                                                                                                    27373365.915 3                     -2531.291 3        20.643
E10        11.000    26946694.316 3                      1969.149 3        22.438                                                                    26946713.676 6 105744677.24206      1469.987 6        37.471    26946712.751 5 108503226.85305      1508.623 5        31.260
G24        12.000    21285840.386 8 111858435.36808     -3492.776 8        49.183                                    21285843.370 7  87161977.71407     -2721.643 7        45.610    21285842.182 7  87161951.68507     -2721.598 7        43.162
E12        13.000    26537581.235 5                      1196.422 5        32.844                                                                                                                                    26537580.105 4 106855864.59604       916.229 4        27.353
E33        14.000    26836527.947 5                     -1435.379 5        32.245
G12        15.000    20099210.806 7 105622039.94907      -953.735 7        47.946                                    20099209.052 7  82302895.12807      -743.170 7        45.118    20099210.251 7  82302913.13207      -743.083 7        42.483
E24        16.000    23992154.661 8 126079588.65708     -1944.494 8        49.545                                                                    23992156.364 6  94150407.76806     -1452.161 6        41.843    23992157.007 7  96606531.29107     -1489.966 7        43.263
G32        17.000    22914020.244 6 120413990.88206        75.758 6        41.666                                    22914067.466 1  93829115.62501        59.059 1        10.667    22914023.726 6  93829151.37906        58.861 6        38.411
E05        18.000    24191709.534 5 127128307.46105     -3611.627 5        30.483                                                                    24191726.026 5  94933402.96505     -2696.810 5        34.767    24191737.240 5  97409913.65105     -2767.105 5        35.562
E08        20.000    27342959.895 6 143688219.16606      1221.088 6        39.489                                                                    27342971.856 6 107299725.93006       911.836 6        39.661    27342969.239 6 110098858.75606       935.682 6        40.582
E02        21.000    28001609.048 5 147149592.85305      1611.251 5        31.094
S23        22.000    38095522.377 6 200193366.34006      -864.208 6        36.129
R14        23.000    19655056.106 8 104772462.34808     -1954.431 8        48.213                                                                    19655057.471 6  81489659.43606     -1520.234 6        37.943
R23        25.000    22156834.361 3                     -3824.522 3        22.229
E03        26.000    24844519.875 6 130559027.04206     -1253.744 6        38.532                                                                    24844529.468 7  97495331.34807      -936.337 7        42.184    24844530.363 6 100038667.46306      -960.905 6        38.949
S21        27.000    38384550.459 5 201712226.01105      -859.285 5        34.595
R06        28.000    23047952.575 3                      1163.546 3        23.924
R04        29.000                                                                                                                                    23381939.711 4                     -3999.720 4        27.257
R15        30.000    20302223.376 7 108489173.74307      1269.864 7        47.256                                                                    20302226.439 6  84380290.70106       987.502 6        41.211
S36        31.000    38155606.568 5 200509161.78505      -859.574 5        34.390
C07        32.000                                                                                                                                                                                                    40324149.156 4                     -1385.910 4        26.707
C10        33.000                                                                                                                                    39303633.409 4                     -1566.889 4        28.294    39303676.378 3                     -1211.087 3        22.533    39303629.011 5 166306504.71105     -1272.897 5        32.413
C05        35.000                                                                                                                                                                                                    39409544.851 4                      -659.188 4        29.346
R17        36.000    22439546.507 6 120078518.25806      3540.413 6        38.147                                                                    22439540.019 4  93394474.64004      2753.456 4        26.012
C45        37.000                                                                                                                                    23426436.361 6 121987602.22006     -3092.264 6        41.046                                                                    23426427.848 6  99124875.24806     -2512.730 6        40.582
R24        38.000    20205223.905 7 108046388.52707       506.836 7        45.076                                                                    20205228.747 6  84036126.62306       394.272 6        41.678
C33        39.000                                                                                                                                    25615426.729 5 133386284.93715     -1495.552 5        33.335
C35        42.000                                                                                                                                    22845939.700 7 118964821.89607      1465.737 7        45.627                                                                    22845938.884 6  96668665.25306      1191.143 6        41.445
R05        44.000    21520941.084 5                     -3065.675 5        33.928                                                                    21520890.087 6  89476710.14116     -2384.453 6        40.901
C42        45.000                                                                                                                                    25839313.410 5 134552102.31905     -3553.302 5        32.790                                                                    25839321.010 5 109334604.56905     -2887.442 5        33.234
C29        46.000                                                                                                                                    23115211.335 6 120366938.71006     -2002.422 6        41.492                                                                    23115208.473 7  97807990.06407     -1626.931 7        43.862
C26        48.000                                                                                                                                    21636795.235 7 112668486.26707      -350.812 7        47.004                                                                    21636796.517 7  91552384.39707      -285.037 7        46.042
C24        51.000                                                                                                                                    24039422.500 7 125179545.25107      1771.557 7        44.814                                                                    24039422.280 5 101718646.90605      1439.766 5        32.748
C14        53.000                                                                                                                                    25408598.059 5 132309243.68305     -2695.508 5        34.181    25408605.574 6 102309895.61006     -2084.206 6        40.930    25408595.603 4                     -2190.322 4        27.269
I06        58.000    38427409.932 6 150797402.25506      -746.121 6        40.622
I02        59.000    36977617.127 6 145108110.85206      -825.926 6        39.450
> 2025 01 02 13 00 20.0000000  0 42
G06         1.000    22923951.008 6 120466367.52606      -199.024 6        40.312                                    22923950.030 3  93869783.76403      -155.098 3        20.524
G25         3.000    21051863.067 5 110628490.26205      1447.611 5        35.157                                    21051865.985 4  86203952.87004      1127.992 4        24.316    21051867.779 6  86203960.88206      1127.904 6        39.474
G19         4.000    22818541.733 6 119912368.50806     -3821.361 6        38.982
E25         6.000    23969197.360 7 125958994.40607       420.806 7        43.215                                                                    23969201.167 6  94060413.64706       314.164 6        40.021    23969203.689 7  96514059.24607       322.397 7        42.853
G11         7.000                                                                                                                                                                    23573193.242 5  96528376.42805      1354.744 5        31.162
G29         9.000    24432516.586 5 128393771.97805      2911.357 5        30.015                                    24432526.838 2 100047113.41202      2268.566 2        12.727    24432524.465 4 100047124.42104      2268.495 4        28.000
E31        10.000                                                                                                                                                                                                    27376505.933 3                     -2530.773 3        19.373
E10        11.000    26944821.636 3                      1968.571 3        23.276                                                                    26944841.149 6 105737327.86106      1469.558 6        37.622    26944838.994 4 108495685.78604      1507.507 4        29.915
G24        12.000    21289164.591 8 111875903.86508     -3494.764 8        49.336                                    21289167.449 7  87175589.52207     -2723.191 7        45.217    21289165.856 7  87175563.49507     -2723.204 7        42.762
E12        13.000    26536445.214 5                      1194.596 5        32.419                                                                    26536478.215 4 104134725.02404       891.854 4        27.569    26536443.851 4 106851284.50304       915.428 4        27.461
E33        14.000    26837894.033 5                     -1437.841 5        30.672                                                                    26837887.510 4                     -1073.847 4        25.699
G12        15.000    20100119.293 8 105626813.23908      -955.786 8        48.028                                    20100117.109 7  82306614.57707      -744.770 7        44.962    20100118.881 7  82306632.59507      -744.775 7        43.147
E24        16.000    23994005.023 8 126089312.58108     -1945.290 8        49.387                                                                    23994006.982 6  94157669.12606     -1452.670 6        41.271    23994007.247 7  96613982.07107     -1490.517 7        42.790
G32        17.000    22913950.399 7 120413619.39407        72.807 7        43.016                                    22913998.048 1  93828825.97901        56.813 1         8.286    22913953.309 6  93828861.89406        56.709 6        39.880
E05        18.000    24195151.834 5 127146365.93205     -3612.177 5        30.830                                                                    24195162.871 5  94946888.14805     -2697.428 5        35.076    24195169.721 5  97423750.59905     -2767.876 5        34.810
E08        20.000    27341799.004 6 143682116.93506      1219.525 6        39.595                                                                    27341810.781 6 107295169.11806       910.625 6        39.562    27341808.104 6 110094183.05706       934.528 6        40.698
E02        21.000    28000076.029 5 147141536.01205      1611.133 5        30.445
S23        22.000    38096346.158 6 200197686.72906      -863.935 6        36.431
R14        23.000    19656889.883 7 104782239.22507     -1956.472 7        47.665                                                                    19656892.144 6  81497263.66806     -1521.716 6        37.486
R16        24.000    24509350.605 3                      2570.392 3        23.257                                                                    24509342.536 3                      1996.201 3        21.167
E03        26.000    24845714.556 6 130565302.03106     -1256.328 6        38.943                                                                    24845723.292 6  97500017.21506      -938.128 6        41.533    24845725.081 6 100043475.53506      -962.536 6        39.204
S21        27.000    38385366.302 5 201716522.03205      -859.354 5        34.333
R06        28.000    23046861.356 4                      1160.307 4        27.892
R04        29.000                                                                                                                                    23386737.552 4                     -3999.309 4        26.994
R15        30.000    20301035.477 7 108482827.34307      1268.556 7        46.296                                                                    20301039.796 7  84375354.63307       986.608 7        42.294
S36        31.000    38156427.585 5 200513459.24805      -859.498 5        34.762
C07        32.000                                                                                                                                                                                                    40325870.181 4                     -1385.336 4        27.844
C10        33.000                                                                                                                                    39305134.139 4                     -1566.348 4        28.351    39305189.356 3                     -1210.718 3        21.429    39305132.939 5 166312869.48005     -1273.262 5        32.329
C05        35.000                                                                                                                                                                                                    39410363.015 5                      -658.663 5        30.023
R17        36.000    22436240.064 6                      3539.332 6        38.685                                                                    22436225.747 4                      2753.217 4        25.669
C45        37.000                                                                                                                                    23429405.252 7 122003065.81207     -3093.241 7        42.121                                                                    23429398.384 6  99137440.69606     -2513.719 6        41.926
R24        38.000    20204751.017 7 108043864.44307       502.627 7        42.552                                                                    20204756.011 6  84034163.46806       390.781 6        41.070
C33        39.000                                                                                                                                    25616863.826 5 133393769.06005     -1498.517 5        31.064                                                                    25616915.282 5                     -1217.678 5        34.114
C35        42.000                                                                                                                                    22844533.680 7 118957497.65007      1463.800 7        45.354                                                                    22844532.362 6  96662713.71406      1189.444 6        41.666
R05        44.000                                                                                                                                    21523759.447 6  89488639.05206     -2387.352 6        40.503
C42        45.000                                                                                                                                    25842725.502 5 134569871.07705     -3554.013 5        30.664                                                                    25842732.844 5 109349043.10905     -2888.148 5        33.311
C29        46.000                                                                                                                                    23117135.788 7 120376956.09207     -2004.742 7        42.933                                                                    23117132.363 7  97816130.02807     -1629.203 7        44.004
C26        48.000                                                                                                                                    21637132.558 7 112670243.65807      -352.378 7        46.881                                                                    21637134.026 7  91553812.42807      -286.402 7        45.907
C24        51.000                                                                                                                                    24037722.427 7 125170687.49507      1771.320 7        44.348                                                                    24037721.893 5 101711449.27705      1439.109 5        32.970
C14        53.000                                                                                                                                    25411186.022 5 132322724.47705     -2697.050 5        33.018    25411194.059 6 102320319.82506     -2085.677 6        41.650    25411184.372 4                     -2191.541 4        27.772
I06        58.000    38428359.626 6 150801132.16006      -745.997 6        40.324
I02        59.000    36978669.583 6 145112240.41606      -825.808 6        39.468
> 2025 01 02 13 00 25.0000000  0 44
G06         1.000    22924141.385 6 120467370.41606      -202.217 6        38.814                                    22924141.000 3  93870565.27403      -157.584 3        23.314
G25         3.000    21050488.870 5 110621256.82805      1445.775 5        35.100                                    21050490.156 4  86198316.43604      1126.577 4        25.564    21050491.964 6  86198324.43306      1126.513 6        39.868
G19         4.000    22822178.209 6 119931479.14406     -3822.758 6        38.420
E25         6.000    23968797.913 7 125956893.02707       419.780 7        43.128                                                                    23968801.625 6  94058844.43906       313.429 6        40.136    23968803.758 7  96512449.10907       321.681 7        43.202
G11         7.000                                                                                                                                                                    23571541.046 5  96521606.11505      1353.304 5        32.024
G28         8.000                                                                                                                                                                    25343740.978 4                      2126.909 4        27.988
G29         9.000    24429745.996 4 128379215.08504      2911.119 4        29.659                                    24429756.681 1 100035770.48401      2268.389 1        11.852    24429751.484 4 100035781.50804      2268.450 4        27.916
E31        10.000                                                                                                                                                                                                    27379646.939 3                     -2529.532 3        20.571
E10        11.000    26942950.580 4                      1967.103 4        24.947                                                                    26942969.718 6 105729981.62206      1468.855 6        37.452    26942967.206 4 108488147.96304      1506.705 4        29.810
G24        12.000    21292490.231 8 111893383.08808     -3496.895 8        49.307                                    21292493.451 7  87189209.68207     -2724.847 7        44.721    21292492.145 7  87189183.65207     -2724.902 7        42.491
E12        13.000    26535308.313 5                      1192.859 5        32.581                                                                    26535339.669 4 104130267.94904       890.693 4        27.485    26535309.653 4 106846711.20504       914.175 4        27.293
E33        14.000    26839263.293 4                     -1440.786 4        26.503                                                                    26839256.963 4                     -1076.025 4        28.739
G12        15.000    20101029.567 7 105631597.61007      -957.991 7        47.754                                    20101027.322 7  82310342.66107      -746.485 7        44.713    20101028.991 7  82310360.66207      -746.418 7        43.319
E24        16.000    23995856.190 8 126099041.21308     -1946.198 8        49.216                                                                    23995858.556 6  94164933.99306     -1453.338 6        41.356    23995858.345 7  96621436.46907     -1491.268 7        42.705
G32        17.000    22913882.050 6 120413263.52906        69.633 6        41.719                                    22913931.577 1  93828548.64301        54.211 1         9.333    22913886.739 6  93828584.60206        54.228 6        40.095
E05        18.000    24198589.083 5 127164430.03405     -3612.933 5        30.551                                                                    24198599.249 5  94960377.53305     -2698.161 5        35.514    24198606.601 5  97437591.86705     -2768.719 5        33.108
E08        20.000    27340639.520 6 143676023.16906      1217.852 6        39.991                                                                    27340650.838 6 107290618.63406       909.423 6        39.538    27340648.166 6 110089513.84906       933.161 6        40.448
E02        21.000    27998542.753 4 147133480.27604      1610.853 4        28.578
S23        22.000    38097169.365 6 200202006.96406      -864.134 6        36.582
R14        23.000    19658725.354 7 104792026.68807     -1958.531 7        46.562                                                                    19658727.653 6  81504876.13406     -1523.209 6        38.261
R16        24.000    24506948.794 4                      2568.729 4        25.940
R23        25.000    22163973.141 4                     -3831.966 4        29.024
E03        26.000    24846912.177 6 130571589.16806     -1258.604 6        39.562                                                                    24846919.458 6  97504712.15306      -939.805 6        41.168    24846921.293 6 100048292.93906      -964.271 6        39.835
S21        27.000    38386183.353 5 201720817.78105      -858.992 5        34.567
R06        28.000    23045778.745 4                      1156.447 4        27.114
R04        29.000    23391531.117 4                     -5142.420 4        27.078                                                                    23391537.257 4                     -4000.017 4        26.503
R15        30.000    20299849.104 7 108476488.15007      1267.092 7        46.406                                                                    20299853.943 7  84370424.17307       985.513 7        44.203
S36        31.000    38157247.944 5 200517757.44605      -859.708 5        34.748
C07        32.000                                                                                                                                                                                                    40327590.262 4                     -1385.461 4        28.341
C10        33.000                                                                                                                                    39306635.562 4                     -1566.295 4        28.256    39306686.903 4                     -1210.616 4        25.353    39306636.866 5 166319234.54905     -1273.101 5        32.102
