     3.04           OBSERVATION DATA    M                   RINEX VERSION / TYPE
ssrcrin-15.6.1x                         20250102 124500 UTC PGM / RUN BY / DATE 
(00000000023479385599111004) Septentrio proprietary         COMMENT             
ract                                                        MARKER NAME         
01                                                          MARKER NUMBER       
geodetic                                                    MARKER TYPE         
NFB                 CLIMERS@TUW                             OBSERVER / AGENCY   
3296359             SEPT ASTERX SB3 PROB4.14.4              REC # / TYPE / VERS 
Unknown             Unknown                                 ANT # / TYPE        
  4127446.1590  1206914.7166  4695542.9411                  APPROX POSITION XYZ 
        0.0000        0.0000        0.0000                  ANTENNA: DELTA H/E/N
G   23 X1  C1C L1C D1C S1C C1W S1W C2W L2W D2W S2W C2L L2L  SYS / # / OBS TYPES 
       D2L S2L C5Q L5Q D5Q S5Q C1L L1L D1L S1L              SYS / # / OBS TYPES 
E   21 X1  C1C L1C D1C S1C C6C L6C D6C S6C C5Q L5Q D5Q S5Q  SYS / # / OBS TYPES 
       C7Q L7Q D7Q S7Q C8Q L8Q D8Q S8Q                      SYS / # / OBS TYPES 
S    9 X1  C1C L1C D1C S1C C5I L5I D5I S5I                  SYS / # / OBS TYPES 
R   17 X1  C1C L1C D1C S1C C2P L2P D2P S2P C2C L2C D2C S2C  SYS / # / OBS TYPES 
       C3Q L3Q D3Q S3Q                                      SYS / # / OBS TYPES 
C   25 X1  C1P L1P D1P S1P C5P L5P D5P S5P C2I L2I D2I S2I  SYS / # / OBS TYPES 
       C7I L7I D7I S7I C6I L6I D6I S6I C7D L7D D7D S7D      SYS / # / OBS TYPES 
J   17 X1  C1C L1C D1C S1C C2L L2L D2L S2L C5Q L5Q D5Q S5Q  SYS / # / OBS TYPES 
       C1L L1L D1L S1L                                      SYS / # / OBS TYPES 
I    5 X1  C5A L5A D5A S5A                                  SYS / # / OBS TYPES 
SEPTENTRIO RECEIVERS OUTPUT ALIGNED CARRIER PHASES.         COMMENT             
NO FURTHER PHASE SHIFT APPLIED IN THE RINEX ENCODER.        COMMENT             
G L1C                                                       SYS / PHASE SHIFT   
G L2W                                                       SYS / PHASE SHIFT   
G L2L  0.00000                                              SYS / PHASE SHIFT   
G L5Q  0.00000                                              SYS / PHASE SHIFT   
G L1L  0.00000                                              SYS / PHASE SHIFT   
E L1C  0.00000                                              SYS / PHASE SHIFT   
E L6C  0.00000                                              SYS / PHASE SHIFT   
E L5Q  0.00000                                              SYS / PHASE SHIFT   
E L7Q  0.00000                                              SYS / PHASE SHIFT   
E L8Q  0.00000                                              SYS / PHASE SHIFT   
S L1C                                                       SYS / PHASE SHIFT   
S L5I                                                       SYS / PHASE SHIFT   
R L1C                                                       SYS / PHASE SHIFT   
R L2P  0.00000                                              SYS / PHASE SHIFT   
R L2C                                                       SYS / PHASE SHIFT   
R L3Q  0.00000                                              SYS / PHASE SHIFT   
C L1P  0.00000                                              SYS / PHASE SHIFT   
C L5P  0.00000                                              SYS / PHASE SHIFT   
C L2I                                                       SYS / PHASE SHIFT   
C L7I                                                       SYS / PHASE SHIFT   
C L6I                                                       SYS / PHASE SHIFT   
C L7D                                                       SYS / PHASE SHIFT   
J L1C                                                       SYS / PHASE SHIFT   
J L2L  0.00000                                              SYS / PHASE SHIFT   
J L5Q  0.00000                                              SYS / PHASE SHIFT   
J L1L  0.00000                                              SYS / PHASE SHIFT   
I L5A                                                       SYS / PHASE SHIFT   
  2025     1     2    12    45    0.0000000     GPS         TIME OF FIRST OBS   
 C1C    0.000 C2C    0.000 C2P    0.000                     GLONASS COD/PHS/BIS 
DBHZ                                                        SIGNAL STRENGTH UNIT
    18                                                      LEAP SECONDS        
 24 R01  1 R02 -4 R03  5 R04  6 R05  1 R06 -4 R07  5 R08  6 GLONASS SLOT / FRQ #
    R09 -2 R10 -7 R11  0 R12 -1 R13 -2 R14 -7 R15  0 R16 -1 GLONASS SLOT / FRQ #
    R17  4 R18 -3 R19  3 R20  2 R21  4 R22 -3 R23  3 R24  2 GLONASS SLOT / FRQ #
                                                            END OF HEADER       
> 2025 01 02 12 45  0.0000000  0 35
G25         3.000    21630596.374 7 113669813.81807      1733.752 7        47.328                                    21630599.764 6  88573636.45806      1350.973 6        36.941    21630599.559 5  88573764.43105      1351.022 5        33.994
E25         6.000    24358698.571 8 128005829.31108       603.414 8        48.764                                                                    24358703.367 7  95588893.04407       450.565 7        47.822    24358702.201 8  98082412.14808       462.371 8        48.161
G11         7.000    24203182.201 5 127188625.54105      2017.020 5        30.181
G24        12.000    21013469.026 7 110427120.50107     -3072.361 7        47.406                                    21013469.665 7  86046668.64907     -2394.043 7        45.329    21013472.007 7  86046642.63307     -2394.074 7        42.372
E33        14.000    26926743.006 5                      -971.281 5        30.347                                                                    26926736.588 5 105666293.32305      -725.000 5        30.506    26926727.667 4                      -744.263 4        26.814
G12        15.000    20268923.229 8 106513888.44308      -539.796 8        48.938                                    20268918.632 6  82997841.83706      -420.626 6        38.126    20268922.647 5  82997859.87505      -420.620 5        34.295
E24        16.000    23969263.300 7 125959293.83907     -1760.197 7        43.740                                                                    23969265.756 7  94060577.46707     -1314.503 7        46.331    23969264.348 7  96514357.51107     -1348.779 7        43.788
G32        17.000    23276323.746 8 122317755.82008       635.213 8        48.156                                    23276326.587 6  95312603.45606       494.967 6        37.754    23276327.877 6  95312688.49106       494.801 6        37.437
E05        18.000    23882733.318 6 125504606.04906     -3372.908 6        39.850                                                                    23882744.559 6  93720943.75806     -2518.627 6        38.769    23882750.190 5  96165824.39705     -2584.315 5        34.433
E08        20.000    27881270.794 5 146517317.61405      1509.276 5        33.623                                                                    27881283.628 6 109412277.28706      1127.059 6        36.628    27881282.804 6 112266401.83006      1156.408 6        39.946
S23        22.000    38244955.691 5 200978630.73505      -863.650 5        35.505
R14        23.000    19652766.180 8 104760298.96308     -1566.182 8        51.814                                                                    19652769.472 7  81480165.69307     -1218.236 7        44.804
R23        25.000    21857945.548 6 116925237.65806     -3156.903 6        41.487
E03        26.000    24965370.407 5 131194043.97805      -801.805 5        32.551                                                                    24965381.647 6  97969586.46706      -598.846 6        38.679    24965383.641 5 100525294.13505      -614.754 5        33.737
S21        27.000    38534828.458 5 202502006.26605      -858.565 5        31.525
R04        29.000    22814965.838 5 122172957.68305     -4981.073 5        35.857                                                                    22814912.401 3                     -3874.397 3        23.924
R15        30.000    20841470.427 7 111370770.94507      1520.134 7        42.973
S36        31.000    38305858.175 5 201298648.80205      -859.081 5        34.943
C07        32.000                                                                                                                                    40309326.445 3                     -1791.402 3        20.952    40309358.285 4                     -1382.887 4        25.895
C10        33.000                                                                                                                                    39329846.793 5 204800715.07905     -1547.018 5        31.698    39329822.735 4 158364962.84204     -1195.948 4        29.384    39329821.012 4 166417348.85004     -1256.928 4        26.587
R17        36.000    23359265.926 4 125000204.55904      3688.283 4        29.981
C45        37.000                                                                                                                                    23201320.763 7 120815342.13007     -2880.991 7        42.722                                                                    23201316.515 7  98172356.67107     -2340.919 7        43.319
R24        38.000    20659008.193 7 110472879.61407      1279.154 7        44.587                                                                    20659009.133 4  85923456.07404       995.179 4        26.862
C33        39.000                                                                                                                                    25696708.042 6 133809585.18806      -988.522 6        38.426                                                                    25696725.000 5 108731263.34905      -803.347 5        35.271
C40        40.000                                                                                                                                    40846497.658 3                     -2058.503 3        23.524
C05        41.000                                                                                                                                                                                                    39559308.613 5 159288929.43005      -661.688 5        31.774
C35        42.000                                                                                                                                    23435017.221 5 122032381.64905      1815.994 5        32.838                                                                    23435023.404 5  99161256.04805      1475.756 5        34.100
R05        44.000    21357932.242 5 114170640.97305     -2325.798 5        32.281                                                                    21357947.305 6  88799326.81406     -1809.254 6        41.011
C42        45.000                                                                                                                                    25532763.009 5 132955898.04105     -3335.622 5        35.062                                                                    25532763.116 5 108037536.89605     -2710.359 5        34.629
C29        46.000                                                                                                                                    23106727.760 8 120322970.41608     -1502.143 8        49.352                                                                    23106728.362 7  97772141.83007     -1220.496 7        45.282
C26        48.000                                                                                                                                    21901290.216 6 114045794.70106       -55.447 6        38.330                                                                    21901294.677 7  92671560.03707       -44.924 7        44.778
C24        51.000                                                                                                                                    24658407.330 6 128402828.09806      1856.157 6        40.348                                                                    24658397.240 4 104337850.07604      1508.481 4        26.024
C14        53.000                                                                                                                                    25269584.402 6 131585257.83206     -2289.976 6        38.306    25269563.936 7 101750051.12907     -1770.719 7        42.332    25269562.239 6 106923791.62506     -1860.783 6        40.760
I06        58.000    38553044.225 6 151290420.21906      -748.320 6        40.489
I02        59.000    37087961.539 6 145541126.71906      -799.213 6        38.402
> 2025 01 02 12 45  5.0000000  0 37
G06         1.000    23239949.986 3                       377.366 3        22.362
G25         3.000    21628947.938 7 113661147.46807      1732.500 7        46.481                                    21628949.502 5  88566883.46305      1349.993 5        35.233    21628948.581 5  88567011.43305      1350.159 5        32.946
G19         4.000    22482880.150 6 118148753.17516     -3465.233 6        38.796                                    22482871.903 2  92063594.77812     -2700.195 2        14.000
E25         6.000    24358124.955 8 128002813.30108       602.589 8        49.504                                                                    24358129.345 7  95586640.83107       449.992 7        47.633    24358128.216 7  98080101.18507       461.731 7        47.895
G11         7.000    24201262.690 5 127178542.34005      2016.214 5        30.325
G24        12.000    21016393.461 7 110442486.86007     -3074.595 7        46.953                                    21016393.435 7  86058642.42907     -2395.782 7        45.266    21016395.867 7  86058616.41207     -2395.819 7        43.001
E33        14.000                                                                                                                                                                                                    26927657.219 4                      -746.499 4        26.994
G12        15.000    20269437.917 8 106516591.56808      -541.854 8        49.810                                    20269432.591 6  82999948.19506      -422.225 6        38.270    20269438.139 6  82999966.21506      -422.333 6        36.287
E24        16.000    23970937.973 7 125968096.06707     -1761.070 7        43.257                                                                    23970940.758 7  94067150.54507     -1315.086 7        46.354    23970939.548 7  96521102.05907     -1349.420 7        43.617
G32        17.000    23275719.979 7 122314585.57907       632.330 7        47.293                                    23275723.477 6  95310133.15006       492.723 6        37.161    23275723.847 6  95310218.17606       492.614 6        37.546
E05        18.000    23885941.898 6 125521472.49206     -3374.121 6        38.282                                                                    23885954.989 6  93733538.82806     -2519.411 6        37.875    23885958.963 5  96178748.04705     -2585.261 5        33.150
E08        20.000    27879835.985 5 146509773.58205      1507.827 5        32.305                                                                    27879847.937 6 109406643.77906      1126.234 6        36.737    27879847.084 6 112260621.34806      1155.482 6        40.012
S23        22.000    38245790.520 6 200982947.28806      -863.443 6        37.017
R14        23.000    19654235.822 8 104768134.06408     -1568.156 8        51.579                                                                    19654238.446 7  81486259.66707     -1219.694 7        43.708
R23        25.000    21860905.789 7 116941030.22407     -3160.587 7        42.068
E03        26.000    24966133.312 4 131198058.43404      -804.019 4        27.844                                                                    24966145.515 6  97972584.28206      -600.681 6        39.063    24966147.924 5 100528370.20005      -616.455 5        32.707
S21        27.000    38535647.252 5 202506298.20705      -858.391 5        32.353
R04        29.000    22819621.780 5 122197863.87205     -4981.958 5        33.742
R15        30.000    20840053.714 6 111363171.98606      1519.012 6        41.816                                                                    20840053.249 4  86615631.90914      1181.591 4        29.829
S36        31.000    38306663.773 5 201302942.69305      -859.063 5        33.892
C07        32.000                                                                                                                                    40311054.463 3                     -1789.751 3        22.533    40311069.065 4                     -1382.500 4        25.128
C10        33.000                                                                                                                                    39331329.002 5 204808448.26805     -1546.618 5        31.509    39331309.544 4 158370942.60204     -1195.874 4        28.171    39331305.885 4 166423632.70604     -1257.355 4        27.305
R17        36.000    23355816.617 4 124981761.17904      3688.444 4        26.719
C45        37.000                                                                                                                                    23204086.289 7 120829748.48107     -2881.886 7        43.350                                                                    23204082.871 7  98184063.01307     -2341.814 7        43.736
R24        38.000    20657813.562 7 110466491.99707      1275.378 7        45.109
C33        39.000                                                                                                                                    25697656.266 6 133814533.71106      -991.101 6        39.943                                                                    25697675.187 5 108735284.43705      -805.671 5        34.762
C40        40.000                                                                                                                                    40848473.355 3                     -2059.432 3        22.724
C05        41.000                                                                                                                                                                                                    39560127.586 5                      -661.832 5        30.913
C35        42.000                                                                                                                                    23433270.397 6 122023304.16006      1814.289 6        36.276                                                                    23433280.019 5  99153879.92005      1474.577 5        33.910
R05        44.000    21360112.572 5 114182281.70705     -2330.575 5        33.353                                                                    21360124.797 6  88808380.57806     -1812.662 6        40.448
C42        45.000                                                                                                                                    25535968.788 5 132972577.39205     -3336.781 5        34.857                                                                    25535968.001 5 108051090.16705     -2711.066 5        34.657
C29        46.000                                                                                                                                    23108171.371 8 120330486.79608     -1504.836 8        49.744                                                                    23108171.442 7  97778249.51907     -1222.768 7        44.939
C26        48.000                                                                                                                                    21901345.214 6 114046073.69306       -56.546 6        37.399                                                                    21901348.381 7  92671786.77107       -46.050 7        45.434
C24        51.000                                                                                                                                    24656625.216 6 128393546.47406      1856.002 6        41.237                                                                    24656616.725 4 104330308.06704      1508.467 4        28.275
C14        53.000                                                                                                                                                                                                    25271763.940 7 101758908.46407     -1772.450 7        42.408    25271761.660 6 106933099.34306     -1862.629 6        40.515
I06        58.000    38553997.427 6 151294160.06906      -748.122 6        40.229
I02        59.000    37088979.558 6 145545122.62006      -799.304 6        38.258
> 2025 01 02 12 45 10.0000000  0 38
G06         1.000    23239530.512 4                       373.347 4        24.331                                                                                                    23239562.308 4                       291.041 4        26.671
G17         2.000    25561360.156 3                     -4301.025 3        20.667
G25         3.000    21627300.735 7 113652488.95307      1731.122 7        45.893                                    21627300.547 5  88560136.58905      1348.922 5        34.043    21627301.198 5  88560264.53105      1349.272 5        31.879
G19         4.000    22486185.198 6 118166084.53806     -3467.167 6        36.488                                    22486171.441 2  92077099.67702     -2701.617 2        13.697
E25         6.000    24357552.172 8 127999802.71408       601.714 8        49.644                                                                    24357556.567 7  95584392.67007       449.395 7        47.333    24357555.198 8  98077794.37808       461.060 8        48.021
G11         7.000    24199345.022 5 127168465.93505      2014.474 5        30.528
G24        12.000    21019319.616 7 110457865.77807     -3076.862 7        47.403                                    21019319.759 7  86070625.98607     -2397.554 7        45.222    21019321.879 7  86070599.97707     -2397.553 7        43.467
E33        14.000                                                                                                                                    26928610.710 5 105673564.83505      -728.875 5        33.090    26928589.633 4                      -748.063 4        26.982
G12        15.000    20269955.205 8 106519306.57008      -544.060 8        50.392                                    20269949.185 6  83002063.80406      -423.949 6        38.718    20269953.447 6  83002081.80006      -423.991 6        36.730
E24        16.000    23972613.955 7 125976903.98607     -1761.933 7        43.323                                                                    23972616.888 7  94073727.88807     -1315.728 7        46.282    23972615.637 7  96527850.98207     -1350.085 7        43.954
G32        17.000    23275119.409 7 122311430.51607       629.660 7        46.790                                    23275123.158 6  95307674.67606       490.640 6        36.488    23275122.660 6  95307759.68906       490.653 6        36.892
E05        18.000    23889152.555 6 125538346.68206     -3375.529 6        36.132                                                                    23889166.301 6  93746139.68006     -2520.629 6        36.140    23889164.742 5  96191677.69805     -2586.700 5        30.558
E08        20.000    27878401.717 5 146502237.11605      1506.523 5        30.838                                                                    27878413.519 6 109401015.92306      1124.994 6        36.370    27878413.121 6 112254846.64906      1154.410 6        39.979
S23        22.000    38246602.782 6 200987264.47406      -863.095 6        36.423
R14        23.000    19655707.687 8 104775980.14108     -1570.182 8        51.175                                                                    19655710.498 7  81492362.17307     -1221.281 7        42.673
R23        25.000    21863870.606 7 116956843.00807     -3164.461 7        42.588
E03        26.000                                                                                                                                    24966912.014 6  97975591.67006      -602.310 6        39.856    24966914.802 5 100531456.01605      -617.722 5        31.804
S21        27.000    38536478.688 5 202510590.89305      -858.544 5        32.850
R04        29.000    22824269.389 5                     -4983.297 5        32.982                                                                    22824255.355 4                     -3875.503 4        24.752
R15        30.000    20838635.098 6 111355579.80506      1517.863 6        38.589                                                                    20838639.997 5  86609726.84705      1180.518 5        32.371
S36        31.000    38307478.427 5 201307237.40505      -858.604 5        33.539
C07        32.000                                                                                                                                    40312776.409 4                     -1787.330 4        24.782    40312779.260 4                     -1381.807 4        24.526
C10        33.000                                                                                                                                    39332806.843 5 204816182.59605     -1547.017 5        32.940    39332793.611 4 158376923.29404     -1195.775 4        28.540    39332791.595 4 166429917.35204     -1255.932 4        25.158
R17        36.000    23352362.257 4 124963320.45904      3688.276 4        24.842
C45        37.000                                                                                                                                    23206854.345 7 120844161.25407     -2883.091 7        43.803                                                                    23206850.797 7  98195774.53207     -2342.720 7        43.894
R24        38.000    20656623.922 7 110460124.89907      1271.572 7        45.810                                                                    20656617.378 4                       989.047 4        26.491
C33        39.000                                                                                                                                    25698608.765 6 133819496.78106      -993.907 6        41.778                                                                    25698627.717 5 108739317.26105      -807.249 5        33.485
C40        40.000                                                                                                                                    40850444.660 3                     -2058.298 3        19.821
C05        41.000                                                                                                                                                                                                    39560951.639 5                      -661.953 5        30.951
C35        42.000                                                                                                                                    23431535.153 6 122014235.85306      1812.864 6        38.679                                                                    23431538.630 5  99146511.26605      1473.364 5        34.119
R05        44.000    21362296.326 6 114193943.97106     -2334.549 6        37.546                                                                    21362306.101 6  88817451.22406     -1815.634 6        40.052
C42        45.000                                                                                                                                    25539173.137 5 132989264.17705     -3337.803 5        32.922                                                                    25539172.504 5 108064649.51205     -2712.412 5        34.005
C29        46.000                                                                                                                                    23109617.624 8 120338017.68508     -1507.439 8        50.047                                                                    23109617.527 7  97784368.96607     -1224.989 7        44.530
C26        48.000                                                                                                                                    21901402.510 6 114046360.98706       -57.898 6        36.420                                                                    21901403.564 7  92672020.18507       -47.237 7        45.398
C24        51.000                                                                                                                                    24654841.825 6 128384267.27306      1855.852 6        41.213                                                                    24654838.423 4 104322767.98504      1507.444 4        29.469
C14        53.000                                                                                                                                                                                                    25273967.391 7 101767775.33807     -1774.116 7        42.832    25273963.966 6 106942417.05906     -1864.386 6        40.274
I06        58.000    38554951.141 6 151297900.21906      -748.020 6        40.522
I02        59.000    37089998.004 6 145549119.71006      -799.505 6        38.363
> 2025 01 02 12 45 15.0000000  0 36
G06         1.000    23239177.987 4                       370.650 4        26.982                                                                                                    23239211.876 3                       289.175 3        21.167
G25         3.000    21625654.347 7 113643837.58807      1729.511 7        45.422                                    21625652.928 5  88553395.28605      1347.670 5        32.635    21625656.072 5  88553523.21405      1347.868 5        30.106
G19         4.000    22489486.029 5 118183426.42105     -3469.369 5        30.966                                    22489472.102 1  92090612.75601     -2703.371 1        11.704
E25         6.000    24356980.051 8 127996796.83308       600.649 8        49.686                                                                    24356984.628 7  95582148.03107       448.477 7        47.425    24356983.185 8  98075491.18208       460.247 8        48.247
G11         7.000    24197429.513 5 127158395.51705      2013.403 5        30.128
G24        12.000    21022248.619 7 110473256.52307     -3079.345 7        47.598                                    21022248.507 7  86082618.76307     -2399.488 7        45.314    21022250.386 7  86082592.75507     -2399.461 7        43.503
E33        14.000    26929550.246 4                      -978.921 4        26.611                                                                    26929539.297 5 105677214.93805      -730.854 5        33.305    26929524.247 4                      -750.323 4        26.994
G12        15.000    20270473.840 8 106522032.73508      -546.438 8        50.246                                    20270468.327 6  83004188.10306      -425.795 6        39.595    20270471.942 6  83004206.09206      -425.752 6        38.279
E24        16.000    23974290.633 7 125985716.92207     -1763.157 7        42.116                                                                    23974293.801 7  94080308.96107     -1316.622 7        46.387    23974292.763 7  96534603.73507     -1350.993 7        44.343
G32        17.000    23274521.992 7 122308289.93807       626.633 7        46.863                                    23274525.404 5  95305227.49405       488.281 5        35.857    23274524.512 5  95305312.50705       488.278 5        35.224
E05        18.000    23892364.462 5 125555227.81505     -3377.196 5        34.510                                                                    23892377.611 5  93758745.76805     -2521.863 5        34.190    23892365.853 5  96204612.61505     -2587.714 5        32.030
E08        20.000                                                                                                                                    27876981.058 6 109395393.21406      1123.796 6        36.340    27876980.333 6 112249077.26106      1153.219 6        40.162
S23        22.000    38247420.315 6 200991581.47306      -863.478 6        36.117
R14        23.000    19657181.459 8 104783836.66208     -1572.367 8        51.134                                                                    19657184.763 7  81498472.80707     -1222.844 7        42.317
R23        25.000    21866837.245 6 116972675.19406     -3168.565 6        40.231
E03        26.000                                                                                                                                    24967680.580 6  97978608.06306      -604.241 6        40.350    24967683.026 4 100534551.16804      -619.933 4        29.280
S21        27.000    38537290.175 5 202514883.26105      -858.417 5        33.982
R04        29.000    22828914.263 5 122247695.98915     -4984.516 5        31.826                                                                    22828901.188 4                     -3876.651 4        26.204
R15        30.000    20837214.293 6 111347993.76006      1516.472 6        36.004                                                                    20837224.745 5  86603826.58505      1179.605 5        35.962
S36        31.000    38308293.219 5 201311531.55305      -858.777 5        33.485
C07        32.000                                                                                                                                    40314494.492 4                     -1789.370 4        24.180    40314499.788 4                     -1382.510 4        24.602
C10        33.000                                                                                                                                    39334288.979 5 204823917.32505     -1547.009 5        32.701    39334277.815 4 158382904.23504     -1195.974 4        26.419    39334277.750 4 166436202.44504     -1256.967 4        25.549
R17        36.000    23348919.570 4 124944881.90604      3687.320 4        24.000
C45        37.000                                                                                                                                    23209622.504 7 120858579.66207     -2884.318 7        44.290                                                                    23209619.793 7  98207490.65007     -2343.591 7        44.156
R24        38.000    20655437.460 7 110453777.56607      1267.430 7        44.944                                                                    20655431.012 4                       985.470 4        27.329
C33        39.000                                                                                                                                    25699565.525 7 133824473.71007      -996.866 7        42.292                                                                    25699583.301 5 108743361.42705      -809.870 5        33.665
C05        41.000                                                                                                                                                                                                    39561774.132 5                      -661.874 5        31.260
C35        42.000                                                                                                                                    23429800.531 6 122005176.08206      1811.114 6        40.067                                                                    23429798.491 5  99139149.48705      1471.591 5        34.352
R05        44.000    21364487.691 7 114205627.34007     -2338.782 7        43.573                                                                    21364492.087 6  88826538.25106     -1818.932 6        39.189
C42        45.000                                                                                                                                    25542378.763 5 133005957.70005     -3339.283 5        32.599                                                                    25542377.832 5 108078214.34605     -2713.524 5        33.323
C29        46.000                                                                                                                                    23111066.238 8 120345562.35808     -1510.382 8        49.625                                                                    23111066.245 7  97790499.59907     -1227.139 7        44.417
C26        48.000                                                                                                                                    21901459.685 5 114046655.77105       -59.740 5        35.871                                                                    21901460.222 7  92672259.68807       -48.466 7        46.020
C24        51.000                                                                                                                                    24653059.277 6 128374989.83806      1855.259 6        41.664                                                                    24653059.151 5 104315229.24905      1508.030 5        31.509
C14        53.000                                                                                                                                                                                                    25276171.621 7 101776651.16607     -1775.961 7        43.041    25276168.510 6 106951744.18706     -1866.275 6        40.276
I06        58.000    38555903.924 6 151301640.14806      -748.053 6        40.453
I02        59.000    37091016.544 6 145553117.22306      -799.515 6        38.051
> 2025 01 02 12 45 20.0000000  0 36
G06         1.000    23238827.742 4                       367.290 4        27.653                                                                                                    23238838.048 3                       285.372 3        21.214
G25         3.000    21624009.504 7 113635193.69807      1728.059 7        44.829                                    21624006.879 5  88546659.80505      1346.535 5        31.555    21624012.478 4  88546787.72904      1346.937 4        29.754
E25         6.000    24356408.812 8 127993795.96908       599.807 8        49.784                                                                    24356413.546 7  95579907.13107       447.875 7        47.290    24356412.103 8  98073191.81908       459.608 8        48.401
G11         7.000    24195518.693 5 127148331.49105      2012.227 5        30.211
G24        12.000    21025179.943 7 110488659.39707     -3081.633 7        47.861                                    21025179.660 7  86094620.99507     -2401.271 7        45.457    21025181.188 7  86094594.98507     -2401.270 7        43.289
E33        14.000    26930488.844 4                      -981.866 4        24.331                                                                    26930467.353 5 105680874.59305      -732.868 5        32.982    26930455.811 4                      -751.768 4        26.419
G12        15.000    20270994.548 8 106524770.36408      -548.555 8        49.908                                    20270989.950 6  83006321.33306      -427.449 6        40.465    20270993.057 6  83006339.31906      -427.332 6        39.880
E24        16.000    23975968.985 6 125994535.12806     -1764.031 6        41.247                                                                    23975971.877 7  94086893.98407     -1317.281 7        46.344    23975970.751 7  96541360.53207     -1351.669 7        44.864
G32        17.000    23273927.860 7 122305164.14907       623.780 7        46.424                                    23273930.124 5  95302791.83305       486.058 5        34.838    23273930.042 5  95302876.85505       485.829 5        34.129
E05        18.000    23895577.352 5 125572116.21105     -3378.570 5        32.742                                                                    23895591.684 5  93771357.25205     -2522.827 5        33.443    23895581.646 5  96217553.10005     -2588.782 5        34.314
E08        20.000    27875538.250 4 146487185.32904      1503.727 4        26.012                                                                    27875549.828 6 109389775.96606      1123.227 6        36.348    27875548.808 6 112243313.47706      1152.388 6        40.429
S23        22.000    38248230.640 5 200995898.68205      -863.331 5        35.267
R14        23.000    19658657.506 8 104791703.89008     -1574.364 8        51.238                                                                    19658659.920 7  81504591.77107     -1224.495 7        42.341
R23        25.000    21869796.914 5 116988526.98905     -3172.448 5        35.029
E03        26.000                                                                                                                                    24968451.482 6  97981633.72206      -606.003 6        40.405    24968451.829 4 100537655.81604      -621.862 4        29.791
S21        27.000    38538116.983 5 202519175.70205      -858.217 5        34.300
R04        29.000    22833567.374 5 122272621.35105     -4985.794 5        32.910                                                                    22833557.453 4                     -3877.695 4        28.227
R15        30.000    20835792.943 5 111340414.13405      1515.178 5        31.909                                                                    20835806.652 6  86597931.32706      1178.653 6        37.766
S36        31.000    38309110.985 5 201315825.46905      -858.595 5        33.108
C07        32.000                                                                                                                                    40316212.225 3                     -1789.244 3        23.295    40316219.462 4                     -1382.393 4        24.195
C10        33.000                                                                                                                                    39335774.773 5 204831652.68605     -1547.020 5        33.479    39335760.306 4 158388885.73504     -1196.842 4        25.534
R17        36.000    23345469.378 4 124926445.75604      3687.536 4        25.278
C45        37.000                                                                                                                                    23212392.288 7 120873004.06007     -2885.333 7        44.385                                                                    23212389.977 7  98219211.66507     -2344.630 7        44.340
R24        38.000    20654253.207 7                      1263.536 7        43.251                                                                    20654249.019 5                       982.898 5        30.838
C33        39.000                                                                                                                                    25700522.794 7 133829464.79907      -999.508 7        42.339                                                                    25700542.362 5 108747417.07705      -811.917 5        32.892
C40        40.000                                                                                                                                    40854386.338 4                     -2058.149 4        24.165
C05        41.000                                                                                                                                                                                                    39562596.521 5 159302166.89415      -661.417 5        30.023
C35        42.000                                                                                                                                    23428060.139 6 121996125.16106      1809.554 6        41.998                                                                    23428060.179 5  99131794.89905      1470.354 5        34.114
R05        44.000    21366680.650 7 114217332.29707     -2342.968 7        43.583                                                                    21366681.429 6  88835642.09106     -1822.377 6        37.535
C42        45.000                                                                                                                                    25545584.698 5 133022658.26505     -3340.640 5        31.396                                                                    25545583.654 5 108091784.94905     -2714.651 5        32.587
C29        46.000                                                                                                                                    23112516.984 8 120353121.11708     -1513.046 8        49.005                                                                    23112517.883 7  97796641.71907     -1229.464 7        44.318
C26        48.000                                                                                                                                    21901518.469 6 114046958.37306       -61.041 6        37.278                                                                    21901518.514 7  92672505.59707       -49.713 7        46.359
C24        51.000                                                                                                                                    24651278.438 6 128365714.40206      1855.025 6        41.046                                                                    24651279.367 5 104307692.29205      1507.169 5        33.066
C14        53.000                                                                                                                                                                                                    25278378.261 7 101785536.20607     -1777.802 7        43.251    25278374.598 6 106961081.03506     -1868.384 6        39.841
I06        58.000    38556856.816 6 151305380.00406      -747.830 6        40.548
I02        59.000    37092035.733 6 145557115.49406      -799.872 6        38.291
> 2025 01 02 12 45 25.0000000  0 35
G06         1.000    23238476.671 4                       364.205 4        29.100                                                                                                    23238491.752 3                       283.978 3        22.590
G25         3.000    21622365.408 7 113626556.65107      1726.589 7        44.987                                    21622362.552 5  88539929.65205      1345.390 5        31.155    21622369.072 5  88540057.61405      1345.125 5        31.615
G19         4.000    22496110.402 5 118218142.35405     -3473.560 5        34.148                                    22496079.573 1  92117663.85901     -2706.602 1         9.238
E25         6.000    24355838.695 8 127990799.51608       598.757 8        49.870                                                                    24355843.417 7  95577669.52407       447.163 7        47.193    24355841.780 8  98070895.84708       458.829 8        48.481
G11         7.000    24193606.693 5 127138273.26005      2011.096 5        31.728
G24        12.000    21028112.877 7 110504073.80207     -3084.087 7        47.926                                    21028113.142 7  86106632.20707     -2403.179 7        45.570    21028114.746 7  86106606.20507     -2403.208 7        43.446
E33        14.000    26931424.925 3                      -985.392 3        21.000                                                                    26931401.820 5 105684543.33905      -734.902 5        31.396    26931385.555 4                      -753.983 4        26.790
G12        15.000    20271517.651 8 106527518.86408      -550.802 8        49.766                                    20271513.814 6  83008463.03006      -429.198 6        41.395    20271516.193 6  83008481.01606      -429.111 6        40.820
E24        16.000    23977648.446 6 126003358.00806     -1765.011 6        41.564                                                                    23977650.847 7  94093482.49407     -1318.020 7        46.380    23977649.741 7  96548120.92207     -1352.532 7        45.168
G32        17.000    23273335.738 7 122302052.57807       620.893 7        45.491                                    23273337.192 5  95300367.25905       483.810 5        33.665    23273338.529 5  95300452.23605       483.665 5        32.695
E05        18.000    23898791.372 5 125589011.31705     -3380.102 5        31.389                                                                    23898808.340 5  93783973.74605     -2523.808 5        33.281    23898798.542 5  96230498.68005     -2589.886 5        34.810
E08        20.000    27874108.198 4 146479669.80604      1502.664 4        26.515                                                                    27874119.973 6 109384163.69206      1122.092 6        36.575    27874118.530 6 112237554.79406      1151.297 6        40.279
S23        22.000    38249051.151 5 201000215.14305      -863.356 5        34.362
R14        23.000    19660135.203 8 104799581.09008     -1576.499 8        50.913                                                                    19660138.960 7  81510718.48907     -1226.157 7        42.421
E03        26.000                                                                                                                                    24969224.336 6  97984668.19606      -607.861 6        40.756    24969220.218 5 100540769.53405      -623.497 5        30.460
S21        27.000    38538928.524 5 202523467.75205      -858.435 5        34.205
R04        29.000    22838224.008 5 122297552.38305     -4986.761 5        33.862                                                                    22838214.934 5                     -3878.442 5        30.355
R15        30.000    20834374.533 5 111332840.43805      1514.046 5        32.868                                                                    20834386.692 6  86592040.65106      1177.719 6        36.582
S36        31.000    38309926.386 5 201320118.98805      -858.509 5        32.952
C07        32.000                                                                                                                                    40317924.602 4                     -1788.468 4        25.308    40317939.597 3                     -1382.865 3        23.600
C10        33.000                                                                                                                                    39337261.861 5 204839388.10405     -1546.910 5        34.100    39337247.438 4 158394867.26104     -1196.688 4        25.474    39337247.985 4 166448773.73204     -1256.914 4        26.719
R17        36.000    23342021.926 3                      3686.783 3        23.390
C45        37.000                                                                                                                                    23215163.446 7 120887433.83807     -2886.522 7        44.123                                                                    23215160.947 7  98230937.03907     -2345.605 7        43.992
R24        38.000    20653073.521 7 110441142.41417      1259.629 7        42.855                                                                    20653073.743 5                       979.790 5        34.595
C33        39.000                                                                                                                                    25701483.286 6 133834469.43306     -1002.323 6        41.066                                                                    25701503.900 5 108751483.74605      -814.372 5        33.048
C05        41.000                                                                                                                                                                                                    39563417.279 5                      -661.941 5        30.060
C35        42.000                                                                                                                                    23426321.480 7 121987082.45607      1807.699 7        43.401                                                                    23426323.412 5  99124446.97205      1468.946 5        33.952
R05        44.000    21368870.920 7 114229057.85807     -2347.223 7        43.515                                                                    21368873.633 5  88844761.96705     -1825.659 5        35.562
C42        45.000                                                                                                                                    25548795.178 5 133039365.21705     -3341.846 5        30.060                                                                    25548790.170 5 108105360.79105     -2715.859 5        30.679
C29        46.000                                                                                                                                    23113970.488 8 120360693.36808     -1515.934 8        49.330                                                                    23113972.246 7  97802794.79807     -1231.772 7        44.360
C26        48.000                                                                                                                                    21901578.804 6 114047268.19806       -62.821 6        39.568                                                                    21901578.198 7  92672757.38307       -50.936 7        46.726
C24        51.000                                                                                                                                    24649497.215 6 128356440.43206      1854.558 6        39.408                                                                    24649498.994 5 104300156.43305      1507.120 5        33.946
C14        53.000                                                                                                                                                                                                    25280587.577 7 101794430.01207     -1779.717 7        43.564    25280583.134 6 106970427.06706     -1870.082 6        39.213
I06        58.000    38557809.375 6 151309119.46306      -747.920 6        40.467
I02        59.000    37093054.622 6 145561114.15106      -799.715 6        38.261
> 2025 01 02 12 45 30.0000000  0 34
G06         1.000    23238131.904 4                       361.241 4        27.293                                                                                                    23238148.479 3                       282.362 3        22.286
G25         3.000    21620723.093 7 113617927.29007      1725.098 7        45.002                                    21620720.004 5  88533205.50605      1344.231 5        30.649    21620726.041 5  88533333.45205      1344.247 5        32.120
G19         4.000    22499417.692 5 118235516.41005     -3475.899 5        35.333                                    22499385.945 1  92131201.96201     -2708.478 1         6.875
E25         6.000    24355269.835 8 127987808.34908       597.706 8        50.348                                                                    24355274.249 7  95575435.87007       446.373 7        47.112    24355272.597 8  98068603.92008       457.968 8        48.722
G11         7.000    24191695.977 5 127128221.63305      2009.832 5        31.426
G24        12.000    21031048.414 7 110519500.61107     -3086.645 7        47.890                                    21031049.053 7  86118653.08307     -2405.174 7        45.696    21031050.576 7  86118627.07907     -2405.154 7        43.409
E33        14.000    26932322.858 4                      -986.856 4        24.692                                                                    26932338.660 4 105688221.79604      -736.751 4        28.123    26932325.276 4                      -756.013 4        28.398
G12        15.000    20272042.980 8 106530279.09608      -553.230 8        49.854                                    20272039.936 7  83010613.86207      -431.086 7        42.305    20272041.488 6  83010631.85706      -431.153 6        41.924
E24        16.000    23979328.005 6 126012186.48506     -1766.215 6        40.691                                                                    23979330.982 7  94100075.18107     -1318.901 7        46.526    23979329.773 7  96554885.58607     -1353.348 7        45.678
G32        17.000    23272746.197 7 122298956.07407       617.837 7        44.885                                    23272747.027 5  95297954.42605       481.425 5        32.359    23272752.661 5  95298039.34605       481.127 5        31.698
E05        18.000    23902007.008 5 125605913.87405     -3381.371 5        30.626                                                                    23902026.201 5  93796595.85905     -2524.650 5        33.515    23902015.129 6  96243450.03406     -2591.112 6        36.223
E08        20.000    27872673.764 3                      1500.691 3        23.657                                                                    27872691.250 6 109378557.07906      1120.880 6        36.896    27872689.791 6 112231801.89506      1150.155 6        40.779
S23        22.000    38249885.717 6 201004531.93106      -863.381 6        36.378
R14        23.000    19661614.196 8 104807469.13608     -1578.745 8        50.066                                                                    19661618.193 7  81516853.62907     -1227.864 7        43.189
E03        26.000                                                                                                                                    24969999.951 6  97987712.10706      -609.795 6        41.187    24969993.336 5 100543892.85305      -625.747 5        32.210
S21        27.000    38539752.738 5 202527760.16005      -858.340 5        34.695
R04        29.000    22842884.706 5                     -4988.198 5        32.066                                                                    22842874.686 5                     -3879.465 5        31.389
R15        30.000                                                                                                                                    20832969.474 6  86586155.08506      1176.715 6        37.754
S36        31.000    38310749.473 5 201324412.19505      -858.930 5        34.195
C07        32.000                                                                                                                                    40319642.402 4                     -1789.087 4        26.539    40319656.146 3                     -1382.093 3        23.124
C10        33.000                                                                                                                                    39338745.117 5 204847124.59605     -1547.383 5        33.395
C45        37.000                                                                                                                                    23217935.101 7 120901869.85407     -2887.760 7        44.057                                                                    23217933.261 7  98242667.42307     -2346.613 7        43.888
R24        38.000    20651899.781 6 110434854.92306      1255.519 6        41.895                                                                    20651899.233 6  85893870.46816       976.571 6        37.694
