     3.04           OBSERVATION DATA    M                   RINEX VERSION / TYPE
ssrcrin-15.6.1x                         20250102 094500 UTC PGM / RUN BY / DATE 
(00000000023479385599111004) Septentrio proprietary         COMMENT             
ract                                                        MARKER NAME         
01                                                          MARKER NUMBER       
geodetic                                                    MARKER TYPE         
NFB                 CLIMERS@TUW                             OBSERVER / AGENCY   
3296359             SEPT ASTERX SB3 PROB4.14.4              REC # / TYPE / VERS 
Unknown             Unknown                                 ANT # / TYPE        
  4127446.0630  1206913.6377  4695543.0276                  APPROX POSITION XYZ 
        0.0000        0.0000        0.0000                  ANTENNA: DELTA H/E/N
G   23 X1  C1C L1C D1C S1C C1W S1W C2W L2W D2W S2W C2L L2L  SYS / # / OBS TYPES 
       D2L S2L C5Q L5Q D5Q S5Q C1L L1L D1L S1L              SYS / # / OBS TYPES 
E   21 X1  C1C L1C D1C S1C C6C L6C D6C S6C C5Q L5Q D5Q S5Q  SYS / # / OBS TYPES 
       C7Q L7Q D7Q S7Q C8Q L8Q D8Q S8Q                      SYS / # / OBS TYPES 
S    9 X1  C1C L1C D1C S1C C5I L5I D5I S5I                  SYS / # / OBS TYPES 
R   17 X1  C1C L1C D1C S1C C2P L2P D2P S2P C2C L2C D2C S2C  SYS / # / OBS TYPES 
       C3Q L3Q D3Q S3Q                                      SYS / # / OBS TYPES 
C   25 X1  C1P L1P D1P S1P C5P L5P D5P S5P C2I L2I D2I S2I  SYS / # / OBS TYPES 
       C7I L7I D7I S7I C6I L6I D6I S6I C7D L7D D7D S7D      SYS / # / OBS TYPES 
J   17 X1  C1C L1C D1C S1C C2L L2L D2L S2L C5Q L5Q D5Q S5Q  SYS / # / OBS TYPES 
       C1L L1L D1L S1L                                      SYS / # / OBS TYPES 
I    5 X1  C5A L5A D5A S5A                                  SYS / # / OBS TYPES 
SEPTENTRIO RECEIVERS OUTPUT ALIGNED CARRIER PHASES.         COMMENT             
NO FURTHER PHASE SHIFT APPLIED IN THE RINEX ENCODER.        COMMENT             
G L1C                                                       SYS / PHASE SHIFT   
G L2W                                                       SYS / PHASE SHIFT   
G L2L  0.00000                                              SYS / PHASE SHIFT   
G L5Q  0.00000                                              SYS / PHASE SHIFT   
G L1L  0.00000                                              SYS / PHASE SHIFT   
E L1C  0.00000                                              SYS / PHASE SHIFT   
E L6C  0.00000                                              SYS / PHASE SHIFT   
E L5Q  0.00000                                              SYS / PHASE SHIFT   
E L7Q  0.00000                                              SYS / PHASE SHIFT   
E L8Q  0.00000                                              SYS / PHASE SHIFT   
S L1C                                                       SYS / PHASE SHIFT   
S L5I                                                       SYS / PHASE SHIFT   
R L1C                                                       SYS / PHASE SHIFT   
R L2P  0.00000                                              SYS / PHASE SHIFT   
R L2C                                                       SYS / PHASE SHIFT   
R L3Q  0.00000                                              SYS / PHASE SHIFT   
C L1P  0.00000                                              SYS / PHASE SHIFT   
C L5P  0.00000                                              SYS / PHASE SHIFT   
C L2I                                                       SYS / PHASE SHIFT   
C L7I                                                       SYS / PHASE SHIFT   
C L6I                                                       SYS / PHASE SHIFT   
C L7D                                                       SYS / PHASE SHIFT   
J L1C                                                       SYS / PHASE SHIFT   
J L2L  0.00000                                              SYS / PHASE SHIFT   
J L5Q  0.00000                                              SYS / PHASE SHIFT   
J L1L  0.00000                                              SYS / PHASE SHIFT   
I L5A                                                       SYS / PHASE SHIFT   
  2025     1     2     9    45    0.0000000     GPS         TIME OF FIRST OBS   
 C1C    0.000 C2C    0.000 C2P    0.000                     GLONASS COD/PHS/BIS 
DBHZ                                                        SIGNAL STRENGTH UNIT
    18                                                      LEAP SECONDS        
 24 R01  1 R02 -4 R03  5 R04  6 R05  1 R06 -4 R07  5 R08  6 GLONASS SLOT / FRQ #
    R09 -2 R10 -7 R11  0 R12 -1 R13 -2 R14 -7 R15  0 R16 -1 GLONASS SLOT / FRQ #
    R17  4 R18 -3 R19  3 R20  2 R21  4 R22 -3 R23  3 R24  2 GLONASS SLOT / FRQ #
                                                            END OF HEADER       
> 2025 01 02 09 45  0.0000000  0 35
G13         1.000    20501278.568 8 107734915.87008     -2617.487 8        48.934                                    20501276.224 5  83949288.70805     -2039.601 5        35.567
G17         2.000    22460337.826 5                       590.206 5        31.992                                                                                                    22460326.956 6  91971273.73806       460.027 6        39.129
G19         4.000    23608707.982 5                      2354.566 5        30.136
G30         6.000    24042347.475 4                     -3801.148 4        29.848
G14         8.000    21600016.659 7 113508843.75307     -3084.339 7        44.781                                    21600013.519 4  88448449.61004     -2403.372 4        26.587    21600014.545 6  88448625.61306     -2403.448 6        40.181
G15         9.000    20304325.039 7 106700169.51707      -876.343 7        47.003                                    20304320.161 6  83142894.67606      -682.868 6        41.023    20304325.028 6  83142796.67506      -682.811 6        40.212
G23        10.000    23255115.554 7 122206443.34807      -213.211 7        44.537                                    23255114.028 3  95225785.97403      -166.141 3        23.790    23255114.840 6  95225802.94606      -165.946 6        38.195
E06        11.000    24716042.620 7 129883660.90307     -2984.060 7        47.702                                                                    24716047.690 8  96991054.12208     -2228.320 8        48.313    24716046.689 7  99521193.87907     -2286.472 7        47.042
G24        12.000    22180022.773 5 116557011.22805      1953.244 5        31.615                                    22180089.046 1  90823765.49701      1522.050 1         8.286    22180023.838 5  90823496.20805      1521.723 5        32.473
E31        13.000    23541896.530 7 123713482.02907     -1235.869 7        45.500                                                                    23541899.460 7  92383503.71607      -922.907 7        44.081    23541898.653 7  94793482.01807      -947.070 7        44.251
G05        14.000                                                                                                                                                                    24912131.514 3                     -3493.843 3        21.262
E15        15.000                                                                                                                                                                                                    29011737.714 3                     -1789.518 3        22.667
E24        16.000    25214925.259 6 132505369.42906      1404.115 6        41.206                                                                    25214929.252 6  98948816.21306      1048.698 6        36.586    25214954.241 5 101530116.20505      1075.827 5        33.796
E04        17.000    26745064.049 5                     -3677.559 5        31.924                                                                    26745066.785 4 104953380.81904     -2745.487 4        27.557    26745068.411 6 107691298.17006     -2817.660 6        38.580
E05        18.000    23231311.479 7 122081448.99807       926.826 7        43.020                                                                    23231312.971 7  91164808.69307       691.926 7        43.198    23231312.393 7  93543006.95807       710.004 7        45.824
E09        21.000    23813521.340 8 125141002.31808     -1869.462 8        48.375                                                                    23813523.853 8  93449330.41908     -1396.091 8        50.788    23813523.146 8  95887200.07908     -1432.460 8        48.759
R14        23.000    22656220.150 5 120770478.28105      2517.683 5        34.529                                                                    22656213.145 5                      1958.072 5        30.604
S23        24.000    38275462.191 5 201138890.43005      -857.304 5        35.252
S36        25.000    38342579.806 5 201491706.17605      -856.368 5        33.593
R13        27.000    19401502.046 6 103602941.53906      -637.716 6        38.255
R04        29.000    22003083.977 6 117825525.11306      2765.947 6        41.628                                                                    22003084.172 6  91642077.69006      2151.247 6        39.982
C07        32.000                                                                                                                                    38954180.955 4 202844645.69804     -1007.078 4        29.915    38954185.415 5 156852325.92105      -778.877 5        34.257    38954178.910 5 164827870.36105      -818.654 5        32.802
C10        33.000                                                                                                                                    38659244.114 6 201308838.54106      -619.247 6        40.455    38659244.652 7 155664833.80507      -478.895 7        47.812    38659240.665 6 163579906.86406      -503.216 6        40.582
C36        34.000                                                                                                                                    22335859.029 8 116308662.28508     -2447.666 8        50.279                                                                    22335864.998 7  94510418.44507     -1989.111 7        43.441
R02        35.000    21184894.216 7 113046605.83707     -4599.157 7        44.980                                                                    21184893.547 5  87925263.94605     -3577.027 5        35.967
R03        36.000    19524950.219 8 104518785.80908      -687.388 8        53.207                                                                    19524950.296 7  81292311.81507      -534.658 7        46.290
C45        37.000                                                                                                                                    22089654.125 7 115026610.08907       257.541 7        46.524                                                                    22089646.272 6  93468569.01506       209.320 6        40.353
R12        38.000    20791164.108 5 111062814.53805     -3679.376 5        35.619                                                                    20791167.964 6  86382123.56806     -2861.683 6        36.503
C40        40.000                                                                                                                                    38990206.331 5 203032204.62805     -1132.219 5        34.767                                                                    38990182.124 5                      -920.041 5        30.921
C26        43.000                                                                                                                                    26134834.632 4 136090994.94404      2033.807 4        29.649
C30        44.000                                                                                                                                    25505506.432 3                      1161.358 3        20.476
C42        45.000                                                                                                                                    25752885.700 5 134102024.23505      1852.502 5        32.186                                                                    25752896.833 6 108968972.82606      1505.235 6        37.028
C22        51.000                                                                                                                                    23405835.317 7 121880276.48107     -3620.277 7        42.561                                                                    23405832.342 7  99037649.65207     -2941.714 7        44.650
C21        55.000                                                                                                                                    22998735.727 8 119760494.17508      -644.997 8        48.268                                                                    22998733.949 6  97315171.30506      -524.132 6        39.517
I06        58.000    38294507.345 6 150275875.60906      -735.695 6        36.420
> 2025 01 02 09 45  5.0000000  0 35
G13         1.000    20503770.347 8 107748010.44408     -2620.232 8        49.267                                    20503768.014 5  83959492.26705     -2041.735 5        35.081
G17         2.000    22459776.946 5 118026920.50015       587.414 5        32.108                                    22459777.038 3  91969031.50113       457.718 3        20.810    22459766.441 6  91968979.48506       457.767 6        39.054
G19         4.000    23606470.458 4                      2353.354 4        27.593
G30         6.000    24045966.305 4                     -3801.494 4        28.123
G14         8.000    21602952.160 7 113524270.91007     -3086.481 7        46.243                                    21602949.072 4  88460470.76104     -2405.048 4        27.389    21602950.299 6  88460646.76006     -2405.040 6        39.826
G15         9.000    20305160.503 7 106704560.56807      -879.966 7        46.967                                    20305156.082 6  83146316.28706      -685.693 6        40.918    20305160.201 6  83146218.29406      -685.654 6        40.172
G23        10.000    23255319.590 7 122207518.23007      -216.691 7        42.940                                    23255318.158 3  95226623.54103      -168.863 3        22.286    23255318.111 5  95226640.51605      -168.887 5        35.786
E06        11.000    24718882.203 7 129898585.18707     -2985.579 7        46.889                                                                    24718887.913 8  97002198.86808     -2229.505 8        48.670    24718886.524 7  99532629.35907     -2287.690 7        46.803
G24        12.000    22178163.205 4 116547249.38604      1951.604 4        26.862                                    22178231.570 1  90816158.92001      1520.628 1         6.875    22178167.768 5  90815889.50205      1520.837 5        34.529
E31        13.000    23543073.519 7 123719666.98207     -1237.943 7        46.298                                                                    23543076.385 7  92388122.36407      -924.416 7        44.164    23543075.934 7  94798221.13507      -948.567 7        44.501
G05        14.000    24916386.761 3                     -4485.055 3        23.276
E15        15.000                                                                                                                                                                                                    29013957.418 3                     -1790.496 3        22.990
E24        16.000    25213589.709 6 132498352.24406      1402.827 6        41.569                                                                    25213593.169 5  98943576.10705      1047.769 5        35.943    25213620.049 4 101524739.31904      1074.825 4        29.564
E04        17.000    26748563.747 5                     -3678.278 5        32.952                                                                    26748569.255 4 104967112.96604     -2746.500 4        29.545    26748568.075 6 107705388.61106     -2818.441 6        39.195
E05        18.000    23230429.999 7 122076819.69607       925.316 7        43.191                                                                    23230432.332 7  91161351.74907       690.809 7        43.223    23230431.347 7  93539459.81807       708.992 7        45.670
E09        21.000    23815300.830 8 125150354.94508     -1871.521 8        48.591                                                                    23815303.672 8  93456314.50608     -1397.534 8        50.780    23815302.937 8  95894366.36308     -1434.006 8        48.413
R14        23.000    22653855.085 5 120757894.06705      2516.173 5        34.867                                                                    22653847.907 4                      1957.072 4        29.867
S23        24.000    38276272.006 5 201143177.40705      -857.314 5        35.976
S36        25.000    38343396.972 5 201495988.58705      -856.402 5        34.157
R13        27.000    19402101.053 6 103606138.02406      -640.528 6        39.501
R21        28.000    23315468.604 5                      -732.540 5        31.736                                                                    23315402.074 5  97039773.54415      -569.557 5        35.000
R04        29.000    22000503.198 7 117811701.60707      2763.676 7        43.498                                                                    22000502.546 6  91631326.04906      2149.406 6        39.508
C07        32.000                                                                                                                                    38955149.307 5 202849684.07905     -1008.196 5        30.830    38955152.168 5 156856221.93305      -779.482 5        34.890    38955146.519 5 164831964.45405      -819.252 5        34.038
C10        33.000                                                                                                                                    38659837.951 6 201311937.19106      -620.082 6        40.787    38659839.577 7 155667229.85607      -479.501 7        47.747    38659835.685 6 163582424.75306      -503.862 6        40.620
C36        34.000                                                                                                                                    22338210.327 8 116320904.61908     -2449.146 8        50.399                                                                    22338215.945 7  94520366.31507     -1990.079 7        42.918
R02        35.000    21189202.231 7 113069608.15707     -4601.709 7        43.154                                                                    21189205.428 6  87943154.65006     -3579.349 6        36.779
R03        36.000    19525594.023 8 104522234.71908      -692.060 8        52.925                                                                    19525594.523 7  81294994.29507      -538.251 7        45.610
C45        37.000                                                                                                                                    22089406.878 7 115025326.99607       255.769 7        47.402                                                                    22089399.844 6  93467526.40606       207.764 6        39.778
R12        38.000    20794615.510 6 111081216.01506     -3681.039 6        40.472                                                                    20794609.579 6  86396435.80806     -2863.199 6        36.503
C40        40.000                                                                                                                                    38991293.294 5 203037868.47105     -1133.242 5        35.843                                                                    38991267.753 4                      -920.650 4        29.336
C26        43.000                                                                                                                                    26132883.853 5 136080828.29705      2033.048 5        31.238                                                                    26132895.612 4                      1651.691 4        29.554
C42        45.000                                                                                                                                    25751105.665 5 134092766.02105      1851.289 5        30.211                                                                    25751119.794 6 108961449.73406      1504.066 6        37.720
C22        51.000                                                                                                                                    23409312.634 6 121898382.55906     -3622.114 6        41.325                                                                    23409309.199 7  99052362.28107     -2943.331 7        44.378
C21        55.000                                                                                                                                    22999357.352 8 119763727.14508      -648.040 8        48.365                                                                    22999355.290 6  97317798.37906      -526.557 6        40.994
I06        58.000    38295444.321 6 150279554.46706      -735.692 6        36.333
> 2025 01 02 09 45 10.0000000  0 36
G13         1.000    20506265.084 8 107761118.24908     -2622.998 8        50.189                                    20506262.235 5  83969706.13505     -2043.891 5        35.129
G17         2.000    22459216.855 5 118023989.95005       584.581 5        32.198                                    22459215.872 3  91966747.95103       455.480 3        19.821    22459208.070 6  91966695.96306       455.482 6        37.550
G19         4.000    23604233.198 5                      2352.555 5        30.611
G30         6.000    24049582.256 4                     -3802.337 4        24.827
G10         7.000    25795016.257 4                      1811.357 4        28.009
G14         8.000    21605889.012 7 113539707.88707     -3088.507 7        46.990                                    21605886.646 4  88472499.54304     -2406.626 4        28.313    21605887.954 6  88472675.56506     -2406.713 6        40.272
G15         9.000    20305999.705 7 106708969.16607      -883.640 7        46.073                                    20305995.490 6  83149751.55006      -688.555 6        41.237    20305998.999 6  83149653.55206      -688.424 6        41.411
G23        10.000    23255527.336 7 122208609.82407      -220.123 7        42.627                                    23255525.037 3  95227474.14003      -171.532 3        20.810    23255524.920 5  95227491.11905      -171.685 5        32.293
E06        11.000    24721723.377 7 129913516.69407     -2987.121 7        45.878                                                                    24721729.367 8  97013349.01608     -2230.718 8        49.239    24721727.693 7  99544070.37107     -2288.838 7        46.683
G24        12.000    22176306.029 5 116537493.82805      1950.375 5        32.874                                    22176373.414 1  90808557.00301      1519.809 1         5.000    22176310.196 5  90808287.85405      1519.636 5        32.964
E31        13.000    23544252.649 7 123725861.71907     -1240.049 7        46.467                                                                    23544255.359 7  92392748.27907      -925.985 7        44.027    23544254.967 7  94802967.73507      -950.097 7        44.796
G05        14.000    24920656.100 4                     -4484.422 4        27.006
E15        15.000                                                                                                                                                                                                    29016182.788 3                     -1793.370 3        22.514
E24        16.000    25212255.734 6 132491342.13606      1401.138 6        40.775                                                                    25212259.016 6  98938341.32506      1046.384 6        36.938    25212281.989 5 101519367.86205      1073.619 5        32.964
E04        17.000    26752065.877 5                     -3679.233 5        33.952                                                                    26752073.525 5 104980848.01105     -2747.394 5        32.323    26752068.264 6 107719482.04406     -2819.041 6        39.249
E05        18.000    23229550.087 7 122072197.17107       923.696 7        43.572                                                                    23229552.833 7  91157899.87407       689.786 7        43.088    23229551.446 7  93535917.89907       707.736 7        45.547
E09        21.000    23817082.138 7 125159717.04707     -1873.546 7        47.686                                                                    23817085.365 8  93463305.67708     -1399.060 8        51.096    23817084.387 8  95901539.91008     -1435.525 8        48.334
R14        23.000    22651498.241 5 120745316.18815      2514.853 5        30.121                                                                    22651492.426 5                      1955.728 5        31.215
S23        24.000    38277090.581 5 201147464.49005      -857.390 5        35.957
S36        25.000    38344215.597 5 201500270.14405      -856.774 5        33.425
R13        27.000    19402702.798 5 103609348.96005      -643.812 5        35.871
R21        28.000    23316155.195 4                      -736.678 4        28.872                                                                    23316083.851 5  97042630.82905      -573.180 5        34.600
R04        29.000    21997923.396 7 117797889.01707      2761.292 7        44.354                                                                    21997922.918 6  91620582.89006      2147.633 6        38.646
C07        32.000                                                                                                                                    38956117.808 5 202854725.85605     -1008.691 5        30.906    38956119.585 5 156860120.56405      -780.167 5        34.400    38956114.274 5 164836061.32905      -819.977 5        34.205
C10        33.000                                                                                                                                    38660434.819 6 201315039.28606      -620.951 6        41.027    38660434.810 7 155669628.57807      -480.162 7        47.383    38660431.308 6 163584945.45406      -504.470 6        40.787
C36        34.000                                                                                                                                    22340562.706 8 116333153.37608     -2450.496 8        50.813                                                                    22340567.875 7  94530319.43207     -1991.238 7        43.168
R02        35.000    21193516.211 7 113092623.24007     -4604.292 7        42.957                                                                    21193520.177 6  87961055.30906     -3581.187 6        36.008
R03        36.000    19526241.128 8 104525706.02208      -696.645 8        51.845                                                                    19526242.830 7  81297694.19707      -541.864 7        45.397
C45        37.000                                                                                                                                    22089161.681 7 115024052.17907       254.101 7        47.027                                                                    22089154.651 6  93466490.56006       206.394 6        40.257
R12        38.000    20798067.578 6 111099624.88606     -3682.671 6        40.727                                                                    20798055.910 6  86410753.83606     -2864.162 6        36.832
C40        40.000                                                                                                                                    38992379.183 5 203043536.61405     -1134.113 5        34.438                                                                    38992355.637 5                      -921.568 5        30.430
C26        43.000                                                                                                                                    26130933.508 4 136070664.07604      2032.792 4        29.062                                                                    26130943.119 5                      1651.713 5        31.479
C42        45.000                                                                                                                                    25749326.371 4 134083515.48804      1849.947 4        28.550                                                                    25749344.200 6 108953932.95606      1502.600 6        38.688
C22        51.000                                                                                                                                    23412792.589 6 121916497.34706     -3623.952 6        40.462                                                                    23412788.109 7  99067081.99907     -2944.745 7        44.968
C21        55.000                                                                                                                                    22999981.256 8 119766974.70108      -651.032 8        48.855                                                                    22999979.084 7  97320437.29307      -529.148 7        42.068
I06        58.000    38296381.520 5 150283233.39705      -735.968 5        35.676
> 2025 01 02 09 45 15.0000000  0 36
G13         1.000    20508761.974 8 107774239.67808     -2625.594 8        50.344                                    20508758.997 5  83979930.61905     -2045.917 5        35.295
G17         2.000    22458660.704 5 118021073.52705       581.769 5        31.766                                    22458658.055 3  91964475.49103       453.322 3        18.239    22458652.447 5  91964423.44405       453.480 5        34.810
G19         4.000    23601997.606 5 124029331.71015      2351.504 5        33.659
G30         6.000    24053190.229 3                     -3803.382 3        21.905
G14         8.000    21608828.404 7 113555155.06607     -3090.369 7        47.380                                    21608826.175 4  88484536.27604     -2408.083 4        29.242    21608827.919 6  88484712.29306     -2408.139 6        40.887
G15         9.000    20306842.170 7 106713395.69207      -887.044 7        44.181                                    20306838.404 6  83153200.79306      -691.203 6        40.937    20306840.675 6  83153102.79306      -691.145 6        41.416
G23        10.000    23255738.947 7 122209718.54507      -223.367 7        42.438                                    23255735.320 3  95228338.10303      -174.054 3        19.522    23255737.323 5  95228355.07705      -173.699 5        32.030
E06        11.000    24724566.392 7 129928455.83707     -2988.498 7        45.625                                                                    24724572.303 8  97024504.85408     -2231.648 8        49.579    24724570.397 7  99555517.23607     -2289.933 7        46.962
G24        12.000    22174458.314 6 116527745.08606      1949.200 6        37.788                                    22174516.193 1  90800960.51401      1518.922 1        11.185    22174453.080 5  90800691.42605      1519.145 5        30.491
E31        13.000    23545433.411 7 123732066.61607     -1241.853 7        46.349                                                                    23545435.948 7  92397381.79807      -927.352 7        43.913    23545435.775 7  94807722.13107      -951.580 7        45.392
G05        14.000    24924922.203 4                     -4484.010 4        26.934                                                                                                    24924930.384 3                     -3495.654 3        19.761
E15        15.000                                                                                                                                                                                                    29018407.514 3                     -1793.415 3        22.838
E24        16.000    25210922.858 6 132484339.54206      1399.641 6        40.713                                                                    25210926.041 6  98933112.12206      1045.239 6        37.255
E04        17.000    26755563.974 5 140601451.67315     -3679.938 5        33.796                                                                    26755573.612 5 104994586.35705     -2747.920 5        33.222    26755569.287 6 107733578.76106     -2819.395 6        39.234
E05        18.000    23228671.304 7 122067581.86307       922.414 7        43.843                                                                    23228674.120 7  91154453.37607       688.805 7        42.506    23228673.013 7  93532381.48307       706.734 7        45.007
E09        21.000    23818865.469 7 125169089.03407     -1875.347 7        47.497                                                                    23818868.778 8  93470304.23208     -1400.384 8        51.049    23818867.581 8  95908721.03208     -1436.905 8        48.194
R14        23.000    22649144.274 3                      2513.415 3        21.619                                                                    22649138.139 5  93903166.16215      1954.923 5        34.148
S23        24.000    38277906.375 6 201151751.97206      -857.249 6        36.431
S36        25.000    38345020.533 5 201504552.80205      -856.121 5        32.204
R13        27.000    19403303.402 5 103612574.81905      -646.869 5        33.198
R21        28.000    23316839.371 4                      -741.194 4        29.564                                                                    23316776.487 5  97045505.17915      -576.687 5        32.880
R04        29.000    21995346.128 7 117784087.77607      2759.206 7        45.854                                                                    21995347.569 6  91609848.61206      2146.097 6        39.351
C07        32.000                                                                                                                                    38957083.235 4 202859771.37504     -1008.983 4        27.114    38957089.538 5 156864022.10305      -780.461 5        34.838    38957083.969 5 164840161.24405      -820.474 5        34.410
C10        33.000                                                                                                                                    38661032.372 6 201318145.21106      -621.653 6        41.151    38661031.205 7 155672030.27407      -480.529 7        47.077    38661028.118 6 163587469.25506      -505.030 6        41.256
C36        34.000                                                                                                                                    22342915.947 8 116345408.97208     -2451.717 8        50.797                                                                    22342921.546 7  94540278.10307     -1992.339 7        43.977
R02        35.000    21197831.217 6 113115651.26006     -4606.763 6        41.569                                                                    21197834.263 5  87978965.99905     -3583.146 5        34.333
R03        36.000    19526892.517 8 104529200.25708      -701.065 8        50.978                                                                    19526895.332 7  81300411.92507      -545.319 7        44.987
C45        37.000                                                                                                                                    22088918.493 7 115022786.06307       252.450 7        46.782                                                                    22088911.401 6  93465461.74306       205.056 6        41.704
R12        38.000    20801514.343 6 111118041.56806     -3684.021 6        40.079                                                                    20801505.866 6  86425077.93906     -2865.367 6        37.168
C40        40.000                                                                                                                                    38993468.768 5 203049209.51905     -1135.039 5        32.970                                                                    38993446.945 5                      -922.129 5        31.140
C26        43.000                                                                                                                                    26128979.050 4 136060502.61104      2032.255 4        27.054                                                                    26128989.950 5                      1651.213 5        30.347
C30        44.000                                                                                                                                    25502167.798 3                      1155.250 3        19.254
C42        45.000                                                                                                                                    25747554.597 5 134074273.19705      1847.634 5        31.177                                                                    25747569.367 6 108946422.81106      1501.307 6        39.180
C22        51.000                                                                                                                                    23416273.774 6 121934621.26706     -3625.579 6        40.710                                                                    23416268.704 7  99081809.10707     -2946.160 7        44.907
C21        55.000                                                                                                                                    23000606.790 8 119770237.24508      -653.904 8        48.256                                                                    23000605.147 6  97323088.34306      -531.499 6        41.707
I06        58.000    38297318.665 6 150286912.68006      -735.693 6        36.193
> 2025 01 02 09 45 20.0000000  0 35
G13         1.000    20511261.400 8 107787374.09508     -2628.132 8        50.554                                    20511258.178 5  83990165.22405     -2047.895 5        35.148
G17         2.000    22458107.752 5 118018170.58705       579.024 5        32.958                                    22458103.873 3  91962213.51503       451.174 3        18.896    22458097.732 5  91962161.51205       451.359 5        33.281
G19         4.000    23599760.254 5 124017576.42505      2350.507 5        33.090                                    23599764.418 1  96637093.57111      1831.583 1         8.095
G30         6.000    24056812.020 3                     -3802.494 3        20.024
G14         8.000    21611769.570 7 113570611.84007     -3092.259 7        47.518                                    21611767.733 4  88496580.49104     -2409.549 4        29.299    21611769.517 6  88496756.50606     -2409.499 6        41.099
G15         9.000    20307687.524 7 106717839.58307      -890.383 7        42.855                                    20307684.677 6  83156663.55906      -693.802 6        40.162    20307686.808 6  83156565.54806      -693.690 6        41.545
G23        10.000    23255952.925 7 122210843.78607      -226.670 7        43.333                                    23255948.943 3  95229214.95003      -176.616 3        18.567    23255951.760 5  95229231.89105      -176.541 5        30.808
E06        11.000    24727410.874 7 129943401.97407     -2989.807 7        45.406                                                                    24727416.455 8  97035665.93008     -2232.669 8        49.941    24727414.440 7  99566969.47107     -2290.898 7        46.857
G24        12.000    22172609.490 6 116518002.54406      1947.971 6        38.402                                    22172661.869 2  90793368.87202      1517.932 2        12.061    22172600.273 4  90793099.88904      1518.183 4        28.739
E31        13.000    23546616.066 7 123738281.04207     -1243.750 7        45.874                                                                    23546618.293 7  92402022.44707      -928.753 7        43.945    23546618.392 7  94812483.83107      -952.948 7        46.135
G05        14.000    24929191.404 4                     -4483.778 4        25.188                                                                                                    24929195.561 3                     -3493.217 3        19.522
E15        15.000                                                                                                                                                                                                    29020637.343 3                     -1795.041 3        20.690
E24        16.000    25209591.862 6 132477343.76006      1398.593 6        41.154                                                                    25209595.104 6  98927888.02706      1044.427 6        37.588    25209594.664 6 101508641.70006      1071.572 6        39.237
E04        17.000    26759065.059 5 140619852.80905     -3680.271 5        33.820                                                                    26759073.622 5 105008327.41005     -2748.197 5        34.638    26759070.983 6 107747678.32106     -2820.067 6        38.904
E05        18.000    23227794.234 7 122062973.12207       921.124 7        43.814                                                                    23227796.820 6  91151011.79306       688.018 6        41.723    23227796.054 7  93528850.10707       705.802 7        44.995
E09        21.000    23820650.784 7 125178470.30607     -1877.133 7        47.351                                                                    23820653.721 8  93477309.71608     -1401.691 8        51.037    23820652.709 7  95915909.26507     -1438.292 7        47.995
R14        23.000    22646774.082 4                      2512.583 4        28.588                                                                    22646780.846 5                      1954.021 5        34.257
S23        24.000    38278722.263 6 201156039.30706      -857.314 6        37.660
S36        25.000    38345842.342 5 201508835.11905      -856.298 5        33.228
R13        27.000    19403909.454 4 103615814.94104      -649.562 4        27.653
R21        28.000    23317534.368 4                      -745.141 4        27.138                                                                    23317472.725 5  97048396.12215      -579.433 5        31.230
R04        29.000    21992772.334 7 117770297.37907      2757.219 7        47.261                                                                    21992774.523 6  91599122.75006      2144.562 6        40.439
C07        32.000                                                                                                                                    38958050.948 4 202864820.16904     -1010.495 4        26.335    38958060.682 5 156867926.13405      -781.056 5        33.545    38958053.214 5 164844263.76705      -820.707 5        35.219
C10        33.000                                                                                                                                    38661629.714 6 201321254.29406      -622.131 6        40.744    38661628.486 7 155674434.43007      -480.985 7        47.074    38661625.200 6 163589995.68306      -505.317 6        41.383
C36        34.000                                                                                                                                    22345270.317 8 116357670.78208     -2452.925 8        50.605                                                                    22345276.627 7  94550241.84007     -1993.103 7        44.518
R02        35.000    21202148.091 6 113138691.57906     -4609.276 6        40.584                                                                    21202150.517 5  87996886.19005     -3584.976 5        32.329
R03        36.000    19527548.829 8 104532716.95708      -705.453 8        49.946                                                                    19527552.147 7  81303147.13007      -548.626 7        44.457
C45        37.000                                                                                                                                    22088676.662 7 115021528.01007       250.903 7        46.985                                                                    22088670.694 7  93464439.49107       204.037 7        42.870
R12        38.000    20804961.454 6 111136465.48306     -3685.321 6        38.015                                                                    20804954.675 6  86439407.56506     -2866.265 6        36.110
C40        40.000                                                                                                                                    38994561.807 5 203054886.44605     -1135.726 5        31.872                                                                    38994535.620 5                      -922.796 5        32.479
C26        43.000                                                                                                                                                                                                                                                                    26127040.050 5                      1650.890 5        30.634
C42        45.000                                                                                                                                    25745784.578 5 134065038.43305      1846.339 5        34.362                                                                    25745796.114 6 108938918.85606      1500.305 6        40.060
C22        51.000                                                                                                                                    23419755.067 6 121952753.63606     -3627.223 6        40.365                                                                    23419750.481 7  99096543.12707     -2947.336 7        44.272
C21        55.000                                                                                                                                    23001235.903 8 119773514.13808      -656.770 8        48.245                                                                    23001233.841 6  97325751.09506      -533.600 6        41.268
I06        58.000    38298256.471 6 150290591.90206      -735.621 6        36.231
> 2025 01 02 09 45 25.0000000  0 37
G13         1.000    20513763.254 8 107800521.76008     -2630.907 8        50.648                                    20513759.836 5  84000410.14905     -2050.060 5        35.090
G17         2.000    22457558.563 6 118015281.57306       576.281 6        36.507                                    22457552.612 3  91959962.38503       449.071 3        20.310    22457549.757 5  91959910.33905       449.319 5        32.359
G19         4.000    23597523.520 4 124005826.45304      2349.661 4        29.403                                    23597525.588 1  96627937.78501      1830.920 1         7.500
G30         6.000    24060463.534 3                     -3803.283 3        20.214
G10         7.000    25789889.215 4                      1804.464 4        25.233
G14         8.000    21614712.235 7 113586078.44507     -3094.344 7        46.512                                    21614711.179 4  88508632.36204     -2411.166 4        29.100    21614712.915 6  88508808.37806     -2411.290 6        41.125
G15         9.000    20308537.297 7 106722301.10507      -894.054 7        42.483                                    20308534.375 6  83160140.06006      -696.664 6        39.342    20308536.239 6  83160042.06306      -696.752 6        41.340
G23        10.000    23256169.363 7 122211985.80207      -230.135 7        44.217                                    23256165.790 2  95230104.83302      -179.331 2        17.962    23256169.488 5  95230121.85205      -179.266 5        30.906
E06        11.000    24730256.436 7 129958355.39007     -2991.446 7        45.725                                                                    24730262.002 8  97046832.43108     -2233.906 8        50.022    24730259.876 7  99578427.27007     -2292.118 7        47.058
G24        12.000    22170752.125 6 116508266.47006      1946.465 6        38.523                                    22170808.677 2  90785782.34502      1516.709 2        12.424    22170747.004 5  90785513.37605      1516.741 5        30.113
E31        13.000    23547800.507 7 123744505.26807     -1245.763 7        45.073                                                                    23547802.780 7  92406670.41307      -930.430 7        43.767    23547802.915 7  94817253.03807      -954.605 7        46.691
G05        14.000    24933459.760 3                     -4483.724 3        22.686                                                                                                    24933466.774 3                     -3492.650 3        20.905
E15        15.000                                                                                                                                                                                                    29022867.363 3                     -1797.813 3        21.048
E24        16.000    25208262.321 6 132470355.15306      1396.915 6        40.837                                                                    25208265.797 6  98922669.27606      1043.241 6        38.979    25208267.882 6 101503286.85506      1070.467 6        41.242
E04        17.000    26762566.042 5 140638257.92005     -3681.498 5        34.114                                                                    26762575.754 5 105022071.44205     -2749.191 5        34.990    26762573.432 6 107761780.88606     -2820.731 6        38.414
E05        18.000    23226918.890 7 122058371.22807       919.634 7        43.627                                                                    23226921.234 6  91147575.32306       686.838 6        41.106    23226920.396 7  93525323.98407       704.704 7        44.829
E09        21.000    23822437.776 7 125187861.11307     -1879.172 7        47.069                                                                    23822440.726 8  93484322.32708     -1403.294 8        50.551    23822439.665 8  95923104.80808     -1439.851 8        48.150
R14        23.000    22644413.186 5                      2510.634 5        32.737                                                                    22644427.632 5  93883627.01915      1952.844 5        33.605
S23        24.000    38279536.474 6 201160326.81506      -857.431 6        36.926
S36        25.000    38346650.592 5 201513117.12805      -856.418 5        32.796
R13        27.000    19404519.059 3                      -651.276 3        21.714
R21        28.000    23318232.040 5                      -749.898 5        30.106                                                                    23318175.084 4  97051303.90114      -583.249 4        29.071
R04        29.000    21990199.671 7 117756517.90707      2754.697 7        47.492                                                                    21990203.706 6  91588405.41906      2142.666 6        41.421
C07        32.000                                                                                                                                    38959023.089 4 202869872.43004     -1011.018 4        27.880    38959029.586 5 156871832.82505      -781.700 5        33.443    38959023.941 5 164848369.15805      -821.591 5        35.895
C10        33.000                                                                                                                                    38662226.459 6 201324366.93906      -623.024 6        40.696    38662226.287 7 155676841.32007      -481.676 7        47.272    38662222.942 6 163592524.95406      -506.463 6        41.526
C36        34.000                                                                                                                                    22347625.665 8 116369939.06408     -2454.326 8        50.395                                                                    22347632.795 7  94560210.82707     -1994.632 7        44.912
R02        35.000    21206466.755 6 113161744.69806     -4611.949 6        40.334                                                                    21206472.041 5  88014816.37205     -3587.100 5        34.500
R03        36.000    19528210.661 8 104536255.91408      -710.079 8        50.217                                                                    19528213.292 7  81305899.64707      -552.529 7        44.283
C45        37.000                                                                                                                                    22088436.267 7 115020278.29307       249.066 7        47.222                                                                    22088430.962 7  93463424.01507       201.969 7        43.524
R12        38.000    20808403.919 6 111154896.82606     -3686.945 6        38.327                                                                    20808404.893 6  86453742.97906     -2867.877 6        38.093
C40        40.000                                                                                                                                    38995655.193 5 203060567.72705     -1136.723 5        30.257                                                                    38995626.190 5                      -923.879 5        31.532
C26        43.000                                                                                                                                    26125079.304 3                      2030.918 3        20.214                                                                    26125089.935 4                      1650.311 4        29.763
C30        44.000                                                                                                                                    25499930.117 3                      1152.666 3        21.214
C42        45.000                                                                                                                                    25744012.801 6 134055811.49406      1844.755 6        37.059                                                                    25744024.302 6 108931421.24806      1498.618 6        40.153
C22        51.000                                                                                                                                    23423239.637 6 121970894.75606     -3629.156 6        41.356                                                                    23423233.849 7  99111284.26807     -2949.330 7        43.477
C21        55.000                                                                                                                                    23001869.371 8 119776805.63008      -659.849 8        48.681                                                                    23001865.793 6  97328425.71506      -536.404 6        41.456
I06        58.000    38299194.685 6 150294271.25306      -736.097 6        36.318
> 2025 01 02 09 45 30.0000000  0 35
G13         1.000    20516268.093 8 107813683.39108     -2633.798 8        50.982                                    20516264.227 5  84010665.96105     -2052.309 5        35.171
G17         2.000    22457013.498 6 118012407.08406       573.387 6        38.952                                    22457004.422 3  91957722.54403       446.800 3        22.533    22457002.672 5  91957670.54705       446.524 5        32.431
G19         4.000    23595286.156 4 123994082.40004      2347.728 4        26.311                                    23595289.227 1  96618786.62401      1829.399 1         8.381
G30         6.000    24064089.371 4                     -3804.481 4        24.421
G14         8.000    21617657.601 7 113601555.58207     -3096.593 7        44.629                                    21617656.882 4  88520692.43904     -2412.923 4        28.768    21617657.950 6  88520868.44406     -2412.831 6        41.247
G15         9.000    20309389.875 7 106726780.91307      -897.851 7        42.216                                    20309387.390 6  83163630.81006      -699.626 6        38.619    20309388.674 6  83163532.81806      -699.691 6        41.163
G23        10.000    23256389.740 7 122213145.31207      -233.785 7        44.238                                    23256386.281 2  95231008.35702      -182.154 2        17.811    23256392.657 5  95231025.31005      -181.857 5        31.774
E06        11.000    24733103.556 7 129973316.78307     -2993.084 7        45.764                                                                    24733109.226 8  97058004.88108     -2235.151 8        50.161    24733107.058 7  99589891.17807     -2293.414 7        47.064
G24        12.000    22168894.881 6 116498537.54506      1944.891 6        36.200                                    22168956.906 2  90778201.39802      1515.506 2        13.030    22168895.054 5  90777932.44205      1515.363 5        30.732
E31        13.000    23548987.058 7 123750740.00907     -1248.076 7        44.924                                                                    23548989.150 7  92411326.21007      -932.003 7        43.678    23548989.481 7  94822030.29607      -956.334 7        47.242
G05        14.000    24937724.038 3                     -4483.695 3        22.552                                                                                                    24937734.893 3                     -3492.668 3        19.642
E15        15.000                                                                                                                                                                                                    29025101.654 3                     -1800.048 3        21.690
E24        16.000    25206935.257 6 132463374.34306      1395.311 6        41.032                                                                    25206937.697 6  98917456.35406      1042.037 6        39.916    25206941.059 6 101497937.96306      1069.105 6        41.836
E04        17.000    26766069.825 5 140656667.64905     -3682.542 5        32.563                                                                    26766079.145 5 105035818.93105     -2749.833 5        35.600    26766076.798 6 107775887.02406     -2821.622 6        38.018
E05        18.000    23226044.702 7 122053776.90207       918.104 7        43.500                                                                    23226047.013 6  91144144.50506       685.748 6        40.951    23226045.950 7  93521803.65607       703.448 7        44.670
E09        21.000    23824226.931 7 125197262.16907     -1881.252 7        47.266                                                                    23824229.716 8  93491342.58008     -1404.833 8        50.502    23824228.451 7  95930308.20207     -1441.545 7        47.903
R14        23.000    22642058.081 5                      2509.404 5        32.623                                                                    22642071.904 5  93873865.70005      1951.908 5        32.305
S23        24.000    38280350.336 5 201164615.04505      -857.974 5        35.824
S36        25.000    38347468.326 5 201517399.78805      -856.649 5        32.922
R13        27.000    19405136.487 3                      -655.442 3        22.514
R21        28.000    23318926.572 5 124784321.50015      -754.632 5        33.647                                                                    23318874.754 4  97054229.01704      -586.961 4        28.199
