     3.04           OBSERVATION DATA    M                   RINEX VERSION / TYPE
ssrcrin-15.6.1x                         20250102 194500 UTC PGM / RUN BY / DATE 
(00000000023479385599111004) Septentrio proprietary         COMMENT             
ract                                                        MARKER NAME         
01                                                          MARKER NUMBER       
geodetic                                                    MARKER TYPE         
NFB                 CLIMERS@TUW                             OBSERVER / AGENCY   
3296359             SEPT ASTERX SB3 PROB4.14.4              REC # / TYPE / VERS 
Unknown             Unknown                                 ANT # / TYPE        
  4127446.1964  1206915.3762  4695543.3442                  APPROX POSITION XYZ 
        0.0000        0.0000        0.0000                  ANTENNA: DELTA H/E/N
G   23 X1  C1C L1C D1C S1C C1W S1W C2W L2W D2W S2W C2L L2L  SYS / # / OBS TYPES 
       D2L S2L C5Q L5Q D5Q S5Q C1L L1L D1L S1L              SYS / # / OBS TYPES 
E   21 X1  C1C L1C D1C S1C C6C L6C D6C S6C C5Q L5Q D5Q S5Q  SYS / # / OBS TYPES 
       C7Q L7Q D7Q S7Q C8Q L8Q D8Q S8Q                      SYS / # / OBS TYPES 
S    9 X1  C1C L1C D1C S1C C5I L5I D5I S5I                  SYS / # / OBS TYPES 
R   17 X1  C1C L1C D1C S1C C2P L2P D2P S2P C2C L2C D2C S2C  SYS / # / OBS TYPES 
       C3Q L3Q D3Q S3Q                                      SYS / # / OBS TYPES 
C   25 X1  C1P L1P D1P S1P C5P L5P D5P S5P C2I L2I D2I S2I  SYS / # / OBS TYPES 
       C7I L7I D7I S7I C6I L6I D6I S6I C7D L7D D7D S7D      SYS / # / OBS TYPES 
J   17 X1  C1C L1C D1C S1C C2L L2L D2L S2L C5Q L5Q D5Q S5Q  SYS / # / OBS TYPES 
       C1L L1L D1L S1L                                      SYS / # / OBS TYPES 
I    5 X1  C5A L5A D5A S5A                                  SYS / # / OBS TYPES 
SEPTENTRIO RECEIVERS OUTPUT ALIGNED CARRIER PHASES.         COMMENT             
NO FURTHER PHASE SHIFT APPLIED IN THE RINEX ENCODER.        COMMENT             
G L1C                                                       SYS / PHASE SHIFT   
G L2W                                                       SYS / PHASE SHIFT   
G L2L  0.00000                                              SYS / PHASE SHIFT   
G L5Q  0.00000                                              SYS / PHASE SHIFT   
G L1L  0.00000                                              SYS / PHASE SHIFT   
E L1C  0.00000                                              SYS / PHASE SHIFT   
E L6C  0.00000                                              SYS / PHASE SHIFT   
E L5Q  0.00000                                              SYS / PHASE SHIFT   
E L7Q  0.00000                                              SYS / PHASE SHIFT   
E L8Q  0.00000                                              SYS / PHASE SHIFT   
S L1C                                                       SYS / PHASE SHIFT   
S L5I                                                       SYS / PHASE SHIFT   
R L1C                                                       SYS / PHASE SHIFT   
R L2P  0.00000                                              SYS / PHASE SHIFT   
R L2C                                                       SYS / PHASE SHIFT   
R L3Q  0.00000                                              SYS / PHASE SHIFT   
C L1P  0.00000                                              SYS / PHASE SHIFT   
C L5P  0.00000                                              SYS / PHASE SHIFT   
C L2I                                                       SYS / PHASE SHIFT   
C L7I                                                       SYS / PHASE SHIFT   
C L6I                                                       SYS / PHASE SHIFT   
C L7D                                                       SYS / PHASE SHIFT   
J L1C                                                       SYS / PHASE SHIFT   
J L2L  0.00000                                              SYS / PHASE SHIFT   
J L5Q  0.00000                                              SYS / PHASE SHIFT   
J L1L  0.00000                                              SYS / PHASE SHIFT   
I L5A                                                       SYS / PHASE SHIFT   
  2025     1     2    19    45    0.0000000     GPS         TIME OF FIRST OBS   
 C1C    0.000 C2C    0.000 C2P    0.000                     GLONASS COD/PHS/BIS 
DBHZ                                                        SIGNAL STRENGTH UNIT
    18                                                      LEAP SECONDS        
 24 R01  1 R02 -4 R03  5 R04  6 R05  1 R06 -4 R07  5 R08  6 GLONASS SLOT / FRQ #
    R09 -2 R10 -7 R11  0 R12 -1 R13 -2 R14 -7 R15  0 R16 -1 GLONASS SLOT / FRQ #
    R17  4 R18 -3 R19  3 R20  2 R21  4 R22 -3 R23  3 R24  2 GLONASS SLOT / FRQ #
                                                            END OF HEADER       
> 2025 01 02 19 45  0.0000000  0 41
G10         1.000    21652680.464 7 113785545.11307      1439.579 7        43.137                                    21652674.060 5  88664058.19305      1121.745 5        32.473    21652678.160 6  88664157.23206      1121.866 6        38.781
G23         2.000    20904866.214 7 109855823.92607     -1236.982 7        42.114                                    20904860.633 3  85601924.71803      -963.888 3        18.627    20904859.993 5  85601984.78205      -963.702 5        34.662
G08         5.000    22447791.009 5 117964360.82605      2045.643 5        32.892                                    22447822.175 1  91920000.62001      1593.977 1        10.444    22447792.407 4                      1593.971 4        28.209
G07         8.000    25163280.090 4 132233789.76004     -1160.349 4        29.014                                    25163251.403 2 103039304.87802      -904.167 2        12.848    25163250.683 4                      -904.452 4        28.834
G18        12.000    22692130.922 6 119248167.16306     -3604.132 6        38.126                                    22692129.552 3  92920527.05703     -2808.428 3        23.581    22692126.285 7  92920727.07207     -2808.454 7        43.602
G27        13.000    20385362.842 5                       386.038 5        32.204                                                                                                    20385365.718 6  83474698.89006       301.327 6        36.231
E27        14.000    26077704.462 7 137039330.30807      1095.964 7        42.919                                                                    26077705.145 7 102334534.51407       818.416 7        45.655    26077704.202 7 105004172.25007       839.757 7        46.580
R03        15.000    22810413.949 5 122105740.58205     -3244.823 5        35.381
E15        16.000                                                                                                                                    26099062.750 6 102418306.13706      1054.997 6        36.117    26099058.769 6 105090172.15506      1082.526 6        40.024
G26        17.000    23163628.211 6 121725718.35506     -4277.643 6        36.749                                    23163632.615 3  94851102.06403     -3333.236 3        21.857    23163629.314 5  94851194.05205     -3333.136 5        33.605
E30        19.000    24261541.556 8 127495263.29308     -1629.907 8        50.272                                                                    24261541.217 7  95207543.28507     -1217.130 7        46.495    24261540.461 8  97691210.83608     -1248.791 8        49.948
R20        20.000    19677990.623 5 105227047.50505      -342.281 5        31.026                                                                    19677993.640 6  81843274.34606      -265.862 6        36.174
E02        21.000    25957040.200 5 136405157.10105     -3844.227 5        33.725                                                                    25957039.741 6 101861006.98406     -2870.878 6        39.658    25957039.090 6 104518344.98606     -2945.790 6        40.830
S23        22.000    38198638.110 6 200735220.85906      -864.132 6        40.927
R10        23.000    21059047.048 5 112256583.52005     -3586.976 5        30.506
E36        24.000    25102224.307 6 131913159.27406     -2890.014 6        39.330                                                                    25102226.171 7  98506703.70907     -2158.134 7        47.584    25102224.255 7 101076426.79607     -2214.401 7        42.203
G16        26.000    21225658.790 5 111541607.31305     -2974.998 5        31.449                                    21225654.089 1  86915526.42001     -2318.256 1        11.704
S21        27.000    38471940.654 5 202171681.95105      -864.030 5        33.521
R05        28.000    22527887.919 5                      3136.900 5        33.832                                                                    22527869.963 4                      2439.378 4        28.986
R19        29.000    21885952.186 5                     -3743.783 5        32.000                                                                    21885912.165 5  91058205.81605     -2911.688 5        34.824
S36        31.000    38241587.803 6 200960882.69206      -863.038 6        36.291
E34        32.000    23358718.126 7 122750880.39507      -587.005 7        46.078                                                                    23358718.519 7  91664641.38907      -438.350 7        42.916    23358716.776 7  94055952.23607      -449.837 7        42.474
R11        33.000    21328262.662 7 113971882.03607       474.494 7        44.632                                                                    21328260.507 7  88645021.72507       369.050 7        42.203
C22        34.000                                                                                                                                    25516989.602 5                     -2894.484 5        30.347                                                                    25516973.202 5                     -2352.050 5        32.341
C38        35.000                                                                                                                                    40100645.632 4                     -2095.824 4        28.910
C08        36.000                                                                                                                                    38649041.746 4                     -1956.092 4        29.621    38649040.418 4 155623701.56604     -1511.795 4        26.084    38649031.008 4 163536715.70904     -1589.586 4        27.162
R09        37.000                                                                                                                                    23243208.432 4                     -4133.803 4        28.332
C11        38.000                                                                                                                                    21621502.895 8 112588833.85908     -1123.658 8        48.647    21621499.423 7  87060882.82907      -868.955 7        47.554    21621498.396 7  91487621.08307      -913.349 7        44.621
R21        39.000    22659511.497 5 121256567.60705      2164.016 5        30.445                                                                    22659509.737 6  94309931.22406      1682.537 6        37.890
R04        40.000    21171027.315 7 113369867.59007       268.221 7        46.080                                                                    21171025.147 7  88176627.09007       208.484 7        43.202
C12        41.000                                                                                                                                                                                                    24495266.023 5  98632301.90605     -2549.312 5        35.319
C13        43.000                                                                                                                                    38242748.374 5 199140032.08505     -1700.137 5        35.543    38242751.654 5 153987692.81905     -1314.591 5        34.781    38242748.985 6 161817659.08906     -1381.754 6        37.104
C25        45.000                                                                                                                                    25819001.199 6 134446309.11206     -4070.678 6        36.250                                                                    25818999.045 5 109248607.38905     -3308.369 5        31.441
C21        46.000                                                                                                                                    23769396.543 5 123773505.75605      -128.683 5        35.510                                                                    23769393.937 6 100576114.03206      -104.686 6        39.210
C23        47.000                                                                                                                                    24442306.223 7 127277537.47707     -2633.021 7        43.429                                                                    24442298.436 7 103423441.38707     -2139.681 7        44.427
C43        48.000                                                                                                                                    21841298.601 7 113733454.95307       117.410 7        44.321                                                                    21841295.548 6  92417713.13106        95.366 6        40.276
C42        50.000                                                                                                                                    24622934.773 7 128218186.23907      2186.707 7        43.194                                                                    24622945.143 7 104187749.40807      1776.757 7        44.144
C28        51.000                                                                                                                                    26159529.009 4 136219424.00304      1938.415 4        26.263                                                                    26159523.275 5 110689496.42305      1575.298 5        30.641
C34        52.000                                                                                                                                    22195190.866 7 115576265.93407     -2363.829 7        43.045                                                                    22195191.489 7  93915265.73407     -1920.865 7        42.214
C37        54.000                                                                                                                                                                                                                                                                    25390063.020 6 107433654.82306         0.265 6        40.641
I06        58.000    38686803.729 6 151815456.36806      -580.975 6        39.565
> 2025 01 02 19 45  5.0000000  0 42
G10         1.000    21651312.760 7 113778353.49407      1437.309 7        43.494                                    21651306.329 5  88658454.33705      1119.978 5        33.659    21651309.162 6  88658553.37406      1119.995 6        39.586
G23         2.000    20906045.144 7 109862017.12207     -1240.151 7        42.178                                    20906039.375 2  85606750.59502      -966.347 2        17.962    20906038.107 5  85606810.65405      -966.256 5        35.290
G15         3.000    23690431.503 4                     -1056.170 4        25.759
G08         5.000    22445846.598 6 117954135.64606      2044.708 6        36.042                                    22445878.494 1  91912032.99401      1593.323 1         6.750    22445847.980 4                      1593.071 4        29.924
G07         8.000                                                                                                                                                                    25164358.921 4                      -906.227 4        29.261
G18        12.000    22695562.975 6 119266191.26406     -3605.027 6        40.915                                    22695560.016 3  92934571.81003     -2809.114 3        22.590    22695555.801 7  92934771.81607     -2809.101 7        42.607
G27        13.000    20385001.334 6                       384.311 6        38.435                                                                                                    20384999.333 5  83473198.03105       299.378 5        34.495
E27        14.000    26076663.113 7 137033855.35807      1094.339 7        43.050                                                                    26076663.371 7 102330446.08307       817.202 7        45.828    26076661.619 7 104999977.16007       838.557 7        45.946
R03        15.000    22813446.104 5 122121974.13615     -3248.217 5        33.958                                                                    22813449.713 4                     -2527.667 4        27.605
E15        16.000    26097740.338 3                      1411.471 3        20.024                                                                    26097719.299 6 102413033.14306      1054.515 6        37.055    26097715.665 6 105084761.63706      1081.895 6        39.907
G26        17.000    23167698.337 6 121747109.85806     -4278.517 6        36.881                                    23167702.901 3  94867770.79503     -3333.899 3        21.357    23167700.146 5  94867862.82005     -3334.148 5        32.988
E30        19.000    24263093.346 8 127503418.84608     -1632.156 8        49.936                                                                    24263093.344 7  95213633.47007     -1218.796 7        46.789    24263092.343 8  97697459.90708     -1250.606 8        49.871
R20        20.000    19678312.411 5 105228761.95505      -344.083 5        32.126                                                                    19678314.741 6  81844607.84806      -267.429 6        38.318
E02        21.000    25960698.595 5 136424382.28305     -3845.369 5        32.473                                                                    25960698.221 6 101875363.43606     -2871.469 6        39.772    25960697.548 6 104533075.94806     -2946.480 6        40.665
S23        22.000    38199460.021 6 200739542.14506      -864.095 6        41.006
R10        23.000    21062414.829 4 112274525.55904     -3589.966 4        28.161
E36        24.000    25104974.393 6 131927611.42806     -2890.540 6        39.529                                                                    25104976.314 7  98517495.89507     -2158.587 7        47.950    25104973.989 6 101087500.50706     -2214.951 6        41.337
G16        26.000    21228491.505 5 111556490.39305     -2977.782 5        34.100                                    21228486.102 2  86927123.60702     -2320.400 2        12.000
S21        27.000    38472759.658 5 202176002.09805      -863.772 5        33.311
R05        28.000                                                                                                                                    22524938.251 4                      2438.423 4        29.280
R19        29.000                                                                                                                                    21889418.554 6  91072765.94406     -2912.132 6        37.040
S36        31.000    38242412.934 6 200965198.49206      -862.994 6        36.367
E34        32.000    23359277.565 7 122753819.12907      -588.284 7        46.379                                                                    23359277.954 7  91666835.91007      -439.334 7        43.217    23359275.991 7  94058204.00107      -450.764 7        42.838
R11        33.000    21327820.844 7 113969520.78007       470.189 7        45.083                                                                    21327819.208 7  88643185.20007       365.774 7        43.871
C22        34.000                                                                                                                                    25519770.830 4                     -2896.405 4        27.269                                                                    25519753.200 5                     -2353.745 5        32.862
C38        35.000                                                                                                                                    40102657.085 4                     -2095.636 4        28.436
C08        36.000                                                                                                                                    38650918.875 4                     -1956.135 4        29.526                                                                    38650909.303 4 163544662.71804     -1589.318 4        26.754
R09        37.000                                                                                                                                    23248182.893 4                     -4134.009 4        29.848
C11        38.000                                                                                                                                    21622582.152 8 112594456.29008     -1125.038 8        48.501    21622579.090 7  87065230.45007      -869.953 7        47.578    21622577.925 7  91492189.76207      -914.453 7        44.808
R21        39.000    22657488.898 5 121245754.04205      2162.208 5        31.162                                                                    22657488.815 6  94301520.64406      1681.870 6        38.453
R04        40.000    21170778.850 7 113368537.99707       263.913 7        45.943                                                                    21170775.793 7  88175592.95707       205.135 7        42.449
C12        41.000                                                                                                                                                                                                    24498430.753 6  98645049.72606     -2549.754 6        36.590
C13        43.000                                                                                                                                    38244380.085 5 199148534.12505     -1700.520 5        35.357    38244383.932 5 153994267.13505     -1314.850 5        35.024    38244381.739 6 161824567.69106     -1382.180 6        37.338
C25        45.000                                                                                                                                    25822908.817 6 134466662.99706     -4070.664 6        36.480                                                                    25822907.946 5 109265146.54205     -3308.055 5        30.830
C21        46.000                                                                                                                                    23769521.390 5 123774157.08005      -131.263 5        34.600                                                                    23769519.726 6 100576643.30506      -107.189 6        39.976
C23        47.000                                                                                                                                    24444835.235 7 127290708.26807     -2635.060 7        42.631                                                                    24444827.607 7 103434143.74207     -2141.462 7        44.451
C43        48.000                                                                                                                                    21841186.137 7 113732871.75407       116.071 7        43.640                                                                    21841183.467 6  92417239.26006        94.063 6        40.677
C42        50.000                                                                                                                                    24620835.961 7 128207255.95207      2185.729 7        43.905                                                                    24620846.037 7 104178867.67607      1775.780 7        43.780
C28        51.000                                                                                                                                    26157665.436 4 136209731.93004      1938.145 4        25.970                                                                    26157663.389 4 110681620.82604      1574.654 4        29.962
C34        52.000                                                                                                                                    22197461.303 7 115588088.61507     -2364.983 7        43.372                                                                    22197461.713 6  93924872.62506     -1922.000 6        41.874
C37        54.000                                                                                                                                                                                                                                                                    25390063.924 6 107433658.64506        -2.042 6        41.013
I06        58.000    38687543.854 6 151818361.97106      -581.117 6        39.565
> 2025 01 02 19 45 10.0000000  0 41
G10         1.000    21649947.406 7 113771174.20807      1434.537 7        42.986                                    21649941.062 5  88652860.09205      1117.818 5        34.419    21649942.761 6  88652959.11206      1117.864 6        39.631
G23         2.000    20907226.884 7 109868226.93507     -1243.681 7        43.587                                    20907221.185 2  85611589.44402      -969.071 2        16.528    20907219.424 5  85611649.48105      -968.887 5        34.067
G08         5.000    22443902.979 6 117943916.03606      2043.306 6        38.180                                    22443935.583 1  91904069.65901      1592.159 1         4.286    22443902.140 5                      1592.193 5        31.328
G07         8.000    25165466.235 5 132245421.91705     -1165.833 5        30.604                                    25165464.449 1 103048369.01001      -908.439 1        10.815    25165465.527 5                      -908.586 5        30.483
G18        12.000    22698991.567 7 119284220.15607     -3606.365 7        42.595                                    22698990.671 3  92948620.31003     -2810.164 3        22.495    22698985.673 6  92948820.31106     -2810.074 6        41.511
G27        13.000    20384637.515 6 107121975.37416       381.661 6        40.779                                    20384628.166 4  83471640.31314       297.398 4        26.647    20384634.379 5  83471706.33205       297.557 5        32.742
E27        14.000    26075623.006 7 137028389.11307      1092.371 7        42.988                                                                    26075623.298 7 102326364.13507       815.672 7        45.822    26075620.689 7 104995788.74107       837.011 7        45.350
R03        15.000    22816490.282 5 122138226.19015     -3252.727 5        32.251                                                                    22816481.871 4                     -2531.734 4        26.180
E15        16.000                                                                                                                                    26096375.031 6 102407763.41106      1053.617 6        37.459    26096372.945 6 105079354.42606      1081.142 6        40.131
G26        17.000    23171769.424 5 121768506.80105     -4280.395 5        35.557                                    23171774.255 3  94884443.79003     -3335.360 3        21.548    23171773.004 5  94884535.74505     -3334.933 5        32.641
E30        19.000    24264647.163 8 127511586.22808     -1634.674 8        49.343                                                                    24264647.542 7  95219732.48807     -1220.735 7        46.936    24264646.421 8  97703718.02808     -1252.503 8        49.889
R20        20.000    19678635.378 5 105230486.71905      -345.764 5        32.287                                                                    19678635.872 6  81845949.36506      -269.183 6        38.504
E02        21.000    25964357.853 5 136443612.05705     -3846.146 5        31.200                                                                    25964357.642 6 101889723.38506     -2872.383 6        39.646    25964356.968 6 104547810.48006     -2947.244 6        40.546
S23        22.000    38200280.810 6 200743863.45506      -864.266 6        41.013
R10        23.000    21065781.254 4 112292484.79104     -3593.976 4        25.820
E36        24.000    25107725.264 6 131942066.93706     -2891.337 6        39.877                                                                    25107727.064 8  98528290.59508     -2159.238 8        48.160    25107724.636 6 101098576.79606     -2215.615 6        41.080
G16        26.000    21231328.521 6 111571387.68406     -2981.042 6        37.478                                    21231320.838 2  86938731.90902     -2322.906 2        13.576
S21        27.000    38473576.896 5 202180322.31605      -864.101 5        32.737
R05        28.000    22522003.852 4 120393152.07214      3132.909 4        29.479                                                                    22522013.698 5                      2436.899 5        30.332
R19        29.000                                                                                                                                    21892922.102 6  91087329.36206     -2913.198 6        37.739
S36        31.000    38243234.009 6 200969514.40306      -862.898 6        36.431
E34        32.000    23359837.656 7 122756765.06407      -589.904 7        46.614                                                                    23359838.719 7  91669035.78507      -440.496 7        43.348    23359836.642 7  94060461.28907      -452.080 7        43.395
R11        33.000    21327381.729 7 113967181.56907       465.617 7        45.043                                                                    21327381.279 7  88641365.83307       362.149 7        44.898
C22        34.000                                                                                                                                    25522552.412 3                     -2899.412 3        23.467                                                                    25522535.042 5                     -2355.706 5        32.461
C38        35.000                                                                                                                                    40104670.813 4                     -2095.780 4        28.502
C08        36.000                                                                                                                                    38652798.204 4                     -1956.908 4        29.953                                                                    38652787.268 4 163552611.41104     -1590.042 4        27.030
R09        37.000    23253173.650 3                     -5317.794 3        20.690                                                                    23253162.260 5                     -4134.467 5        30.958
C11        38.000                                                                                                                                    21623663.792 8 112600085.86408     -1126.720 8        48.679    21623659.827 7  87069583.60007      -871.198 7        47.383    21623658.808 7  91496764.25607      -915.425 7        44.743
R21        39.000    22655469.835 5 121234944.31505      2161.616 5        30.008                                                                    22655469.561 6  94293113.08606      1681.253 6        38.745
R04        40.000    21170536.444 7 113367230.62807       259.238 7        46.850                                                                    21170531.682 7  88174576.09607       201.632 7        42.330
C12        41.000                                                                                                                                                                                                    24501596.440 6  98657799.96306     -2550.171 6        37.490
C13        43.000                                                                                                                                    38246013.744 5 199157038.48305     -1701.152 5        34.967    38246017.232 5 154000843.23005     -1315.378 5        34.729    38246014.936 6 161831478.16806     -1382.154 6        37.437
C25        45.000                                                                                                                                    25826819.155 6 134487016.98406     -4070.804 6        36.968                                                                    25826816.230 5 109281685.81405     -3307.468 5        30.641
C21        46.000                                                                                                                                    23769649.949 5 123774822.97705      -134.680 5        35.490                                                                    23769648.464 6 100577184.37806      -109.300 6        40.923
C23        47.000                                                                                                                                    24447366.408 7 127303890.08007     -2637.508 7        42.015                                                                    24447358.863 7 103444855.03707     -2143.100 7        44.214
C43        48.000                                                                                                                                    21841075.712 7 113732295.63907       114.436 7        43.302                                                                    21841073.457 6  92416771.13406        92.979 6        41.268
C42        50.000                                                                                                                                    24618738.631 7 128196331.65807      2184.189 7        44.333                                                                    24618748.225 7 104169990.80207      1774.799 7        43.166
C28        51.000                                                                                                                                    26155803.287 4 136200040.57604      1938.180 4        28.133                                                                    26155800.786 4 110673745.85504      1575.161 4        29.242
C34        52.000                                                                                                                                    22199733.115 7 115599917.69707     -2366.520 7        44.453                                                                    22199732.791 6  93934484.72506     -1922.827 6        41.097
C37        54.000                                                                                                                                                                                                                                                                    25390067.112 6 107433673.46706        -3.986 6        40.856
I06        58.000    38688284.868 6 151821267.50106      -581.245 6        39.360
> 2025 01 02 19 45 15.0000000  0 41
G10         1.000    21648584.372 6 113764007.08606      1432.057 6        41.905                                    21648578.040 5  88647275.32205      1115.890 5        34.533    21648579.045 6  88647374.35306      1115.907 6        39.414
G23         2.000    20908411.142 7 109874453.17107     -1247.027 7        44.056                                    20908405.915 2  85616441.08002      -971.687 2        16.906    20908404.628 5  85616501.11805      -971.880 5        32.353
G08         5.000    22441962.271 6 117933701.87506      2042.219 6        38.907                                    22441994.023 1  91896110.70501      1591.344 1         2.400    22441959.417 5                      1591.494 5        31.728
G07         8.000                                                                                                                                                                    25166577.848 5                      -910.668 5        30.528
G18        12.000    22702422.257 7 119302253.66307     -3607.282 7        43.810                                    22702421.958 3  92962672.40103     -2810.877 3        23.124    22702417.613 6  92962872.40506     -2810.770 6        40.329
G27        13.000    20384277.191 6 107120072.67306       379.244 6        41.919                                    20384267.588 4  83470157.67404       295.511 4        27.892    20384274.157 5  83470223.71505       295.372 5        30.113
E27        14.000    26074584.054 7 137022931.40607      1090.554 7        42.482                                                                    26074584.828 7 102322288.56507       814.451 7        45.872    26074581.509 7 104991606.85507       835.708 7        44.770
R03        15.000                                                                                                                                    22819517.771 4                     -2533.595 4        28.749
E15        16.000    26095027.092 3                      1410.308 3        22.457                                                                    26095032.030 6 102402496.78006      1053.105 6        38.132    26095031.509 6 105073950.44306      1080.299 6        40.250
G26        17.000    23175842.407 5 121789908.95605     -4281.142 5        34.105                                    23175846.588 3  94901120.81203     -3335.963 3        21.381    23175844.539 5  94901212.76405     -3335.743 5        32.245
E30        19.000    24266203.305 8 127519765.26608     -1637.120 8        48.742                                                                    24266204.016 7  95225840.20307     -1222.481 7        47.262    24266202.734 8  97709985.08808     -1254.388 8        49.811
R20        20.000    19678958.297 5 105232221.65305      -348.135 5        33.162                                                                    19678959.623 6  81847298.71706      -270.720 6        38.877
E02        21.000    25968017.442 5 136462846.34005     -3846.943 5        30.091                                                                    25968017.790 6 101904086.67306     -2873.129 6        39.580    25968017.083 6 104562548.45906     -2948.007 6        40.460
S23        22.000    38201104.711 6 200748184.75806      -864.571 6        41.094
R10        23.000    21069154.003 5 112310461.41305     -3597.203 5        30.204
E36        24.000    25110476.988 6 131956525.65906     -2892.134 6        39.844                                                                    25110478.509 8  98539087.67808     -2159.761 8        48.474    25110476.028 6 101109655.51406     -2216.018 6        40.753
G16        26.000    21234167.742 6 111586299.08406     -2983.906 6        39.706                                    21234158.091 2  86950351.16502     -2325.142 2        14.190
S21        27.000    38474406.203 5 202184642.49505      -864.298 5        33.096
R05        28.000    22519078.268 5 120377489.32615      3131.497 5        31.155
R19        29.000    21896408.534 5                     -3745.936 5        31.487                                                                    21896419.117 6  91101895.84316     -2913.600 6        38.168
S36        31.000    38244047.549 6 200973829.65106      -863.258 6        36.423
E34        32.000    23360399.258 7 122759718.01807      -591.355 7        46.581                                                                    23360400.715 7  91671240.91407      -441.491 7        43.716    23360398.833 7  94062723.94607      -453.143 7        43.930
R11        33.000    21326946.950 7 113964864.28907       461.079 7        44.054                                                                    21326947.688 7  88639563.48307       358.705 7        45.701
C22        34.000                                                                                                                                                                                                                                                                    25525318.555 5                     -2357.390 5        31.721
C38        35.000                                                                                                                                    40106684.071 4                     -2096.082 4        29.118
C08        36.000                                                                                                                                    38654679.519 4                     -1956.805 4        29.166                                                                    38654667.226 4 163560561.64304     -1590.552 4        28.047
R09        37.000    23258141.636 3                     -5312.765 3        21.071                                                                    23258139.417 5                     -4134.547 5        31.638
C11        38.000                                                                                                                                    21624746.465 8 112605722.42608     -1128.098 8        48.581    21624742.062 7  87073942.14707      -872.373 7        47.334    21624741.141 7  91501344.40707      -916.645 7        44.534
R21        39.000    22653449.583 4 121224138.48204      2159.693 4        25.955                                                                    22653449.724 6  94284708.56406      1680.722 6        37.289
R04        40.000    21170298.034 8 113365945.25008       254.667 8        48.094                                                                    21170292.061 7  88173576.33607       198.096 7        43.037
C12        41.000                                                                                                                                                                                                    24504764.812 6  98670552.58306     -2550.813 6        38.426
C13        43.000                                                                                                                                    38247648.873 5 199165544.88105     -1701.535 5        34.833    38247651.313 5 154007420.88205     -1315.611 5        35.152    38247648.500 6 161838390.29306     -1382.682 6        37.660
C25        45.000                                                                                                                                    25830729.255 6 134507370.92706     -4071.101 6        37.263                                                                    25830725.026 5 109298225.03805     -3308.080 5        30.083
C21        46.000                                                                                                                                    23769783.499 6 123775503.22906      -137.799 6        37.187                                                                    23769779.941 6 100577737.15206      -111.777 6        41.821
C23        47.000                                                                                                                                    24449899.660 6 127317082.70006     -2639.709 6        41.216                                                                    24449892.284 7 103455575.11107     -2144.853 7        44.026
C43        48.000                                                                                                                                    21840967.180 7 113731726.43307       113.055 7        43.316                                                                    21840964.456 6  92416308.61706        91.740 6        41.418
C42        50.000                                                                                                                                    24616642.260 7 128185413.19407      2182.910 7        44.257                                                                    24616651.276 7 104161118.63407      1773.859 7        42.610
C28        51.000                                                                                                                                    26153940.704 5 136190349.91505      1938.137 5        30.845                                                                    26153938.433 4 110665871.43904      1574.415 4        29.725
C34        52.000                                                                                                                                    22202006.110 7 115611753.04307     -2367.877 7        45.439                                                                    22202005.521 6  93944101.89706     -1924.021 6        40.675
C37        54.000                                                                                                                                    25390078.629 6 132212868.87116        -8.017 6        36.102                                                                    25390073.055 6 107433699.19006        -6.295 6        40.851
I06        58.000    38689025.188 6 151824172.88006      -581.108 6        39.580
> 2025 01 02 19 45 20.0000000  0 41
G10         1.000    21647223.178 6 113756851.28206      1429.900 6        39.937                                    21647217.008 5  88641699.36605      1114.209 5        33.814    21647216.752 6  88641798.40006      1114.168 6        38.934
G23         2.000    20909598.079 7 109880694.96407     -1250.129 7        44.384                                    20909593.193 2  85621304.82702      -974.130 2        16.755    20909591.988 5  85621364.87605      -974.283 5        31.109
G08         5.000    22440016.641 6 117923492.29906      2041.381 6        39.580                                    22440053.258 1  91888155.22801      1590.664 1         8.571    22440016.533 5                      1590.623 5        32.449
G07         8.000                                                                                                                                                                    25167692.636 5                      -912.397 5        31.698
G18        12.000    22705854.508 7 119320290.94207     -3608.031 7        45.127                                    22705854.049 4  92976727.42604     -2811.446 4        24.120    22705849.849 6  92976927.43606     -2811.475 6        39.685
G27        13.000    20383917.827 6 107118180.74106       377.117 6        41.881                                    20383908.432 4  83468683.43304       293.862 4        28.209    20383913.990 4  83468749.46304       293.759 4        28.009
E27        14.000    26073546.721 7 137017481.35607      1089.106 7        42.102                                                                    26073547.744 7 102318218.72207       813.259 7        45.782    26073544.187 7 104987430.84307       834.506 7        44.128
R03        15.000                                                                                                                                    22822557.822 4                     -2534.730 4        29.507
E15        16.000    26093695.130 4                      1409.453 4        27.186                                                                    26093690.237 6 102397232.65806      1052.417 6        38.760    26093690.239 6 105068548.97306      1079.884 6        40.098
G26        17.000    23179916.424 5 121811315.46405     -4281.789 5        31.728                                    23179919.624 3  94917801.23103     -3336.479 3        20.881    23179917.888 5  94917893.18405     -3336.657 5        31.419
E30        19.000    24267761.393 8 127527955.12408     -1639.256 8        48.168                                                                    24267762.426 7  95231956.00207     -1224.100 7        47.466    24267761.195 8  97716260.42808     -1256.059 8        49.551
R20        20.000    19679283.439 5 105233965.78305      -349.791 5        32.156                                                                    19679286.113 6  81848655.30206      -272.218 6        39.571
E02        21.000    25971678.103 4 136482084.26704     -3847.927 4        29.687                                                                    25971678.218 6 101918452.65306     -2873.696 6        39.456    25971678.028 6 104577289.18306     -2948.626 6        40.353
S23        22.000    38201926.613 6 200752505.32706      -864.175 6        40.913
R10        23.000    21072533.720 5 112328454.44805     -3600.549 5        32.886
E36        24.000    25113228.744 6 131970986.71306     -2892.598 6        39.682                                                                    25113230.278 8  98549886.50308     -2160.079 8        48.671    25113227.700 6 101120736.05006     -2216.400 6        40.772
G16        26.000    21237007.386 6 111601223.66006     -2986.546 6        41.619                                    21236997.871 2  86961980.72702     -2327.167 2        17.208
S21        27.000    38475219.748 5 202188962.05105      -864.463 5        32.563
R05        28.000    22516155.416 5 120361833.44315      3130.492 5        30.468                                                                    22516173.236 4                      2434.476 4        29.261
R19        29.000    21899914.201 5                     -3746.797 5        30.913                                                                    21899915.141 6  91116464.68806     -2914.161 6        38.309
S36        31.000    38244878.645 6 200978143.65006      -862.871 6        36.129
E34        32.000    23360962.400 7 122762677.11907      -592.581 7        46.522                                                                    23360963.988 7  91673450.64507      -442.563 7        43.968    23360962.107 7  94064991.31107      -454.046 7        44.372
R11        33.000    21326516.862 7 113962568.07007       456.949 7        43.860                                                                    21326517.380 7  88637777.52207       355.476 7        46.214
C22        34.000                                                                                                                                                                                                                                                                    25528104.045 5                     -2359.274 5        30.121
C38        35.000                                                                                                                                    40108697.634 4                     -2096.337 4        28.502
C08        36.000                                                                                                                                    38656558.387 4                     -1957.263 4        28.976    38656557.477 3                     -1514.415 3        23.200    38656546.225 4 163568512.56304     -1590.484 4        27.222
R09        37.000    23263122.769 3                     -5312.753 3        19.910                                                                    23263118.515 5                     -4134.914 5        32.683
C11        38.000                                                                                                                                    21625830.450 8 112611365.12508     -1129.332 8        48.262    21625825.710 7  87078305.44507      -873.328 7        47.285    21625824.698 7  91505929.54907      -917.737 7        44.414
R21        39.000                                                                                                                                    22651425.522 5  94276306.32305      1680.281 5        34.871
R04        40.000    21170062.237 7 113364681.11307       250.532 7        47.540                                                                    21170056.414 7  88172593.13207       194.843 7        43.507
C12        41.000                                                                                                                                                                                                    24507933.053 6  98683306.85506     -2551.080 6        38.532
C13        43.000                                                                                                                                    38249281.539 5 199174052.59205     -1701.964 5        34.562    38249284.778 5 154013999.58205     -1315.938 5        35.438    38249282.201 6 161845303.47506     -1383.067 6        37.516
C25        45.000                                                                                                                                    25834638.637 6 134527723.90506     -4070.752 6        37.384                                                                    25834633.410 5 109314763.47405     -3308.043 5        30.211
C21        46.000                                                                                                                                    23769918.685 6 123776197.02206      -140.302 6        38.916                                                                    23769913.747 7 100578300.91507      -114.070 7        42.351
C23        47.000                                                                                                                                    24452435.233 6 127330285.29506     -2641.651 6        40.408                                                                    24452427.768 7 103466303.30107     -2146.730 7        43.809
C43        48.000                                                                                                                                    21840859.752 7 113731163.29507       111.833 7        43.699                                                                    21840856.229 6  92415851.01006        90.815 6        41.654
C42        50.000                                                                                                                                    24614546.918 7 128174499.67907      2182.072 7        44.030                                                                    24614555.162 7 104152250.50607      1772.990 7        42.057
C28        51.000                                                                                                                                    26152076.571 5 136180659.05405      1938.142 5        32.078                                                                    26152076.681 4 110657996.79404      1574.943 4        29.886
C34        52.000                                                                                                                                    22204280.137 7 115623593.79007     -2368.952 7        46.307                                                                    22204279.435 6  93953723.46606     -1925.050 6        40.255
C37        54.000                                                                                                                                    25390094.593 6 132212913.06306       -10.290 6        37.792                                                                    25390081.229 6 107433735.09406        -8.456 6        40.656
I06        58.000    38689764.823 6 151827077.45406      -580.877 6        39.366
> 2025 01 02 19 45 25.0000000  0 40
G10         1.000    21645863.046 5 113749707.82405      1427.745 5        34.400                                    21645858.144 5  88636133.04205      1112.526 5        31.736    21645857.739 6  88636232.08706      1112.379 6        38.381
G23         2.000    20910788.957 7 109886953.37307     -1253.262 7        45.312                                    20910783.288 3  85626181.52603      -976.578 3        18.000    20910785.126 4  85626241.48704      -975.915 4        28.540
G08         5.000    22438074.352 6 117913288.39106      2040.199 6        40.141                                    22438113.625 1  91880204.07901      1589.862 1        10.444    22438074.605 5                      1590.004 5        31.283
G07         8.000    25168837.000 5 132262967.33505     -1173.445 5        35.171                                    25168803.249 2 103062040.74002      -914.372 2        12.000    25168807.993 5                      -914.447 5        32.665
G18        12.000    22709287.419 7 119338333.04507     -3608.860 7        45.544                                    22709286.663 4  92990786.22304     -2812.088 4        24.526    22709282.757 6  92990986.20506     -2812.012 6        38.826
G27        13.000    20383559.435 6 107116300.64306       375.007 6        40.367                                    20383551.355 4  83467218.40304       292.207 4        27.677    20383553.841 4  83467284.49704       292.199 4        26.491
E27        14.000    26072511.415 6 137012040.05406      1087.584 6        41.897                                                                    26072512.308 7 102314155.41107       812.155 7        45.819    26072508.985 7 104983261.53507       833.254 7        43.420
E15        16.000    26092353.589 4                      1408.714 4        28.578                                                                    26092349.774 6 102391971.79306      1051.888 6        39.213    26092349.858 6 105063150.87606      1079.477 6        39.733
G26        17.000    23183988.605 5 121832727.39605     -4282.527 5        30.325                                    23183993.402 3  94934485.85403     -3337.057 3        20.333    23183992.370 5  94934577.81105     -3338.043 5        30.453
E30        19.000    24269322.114 7 127536156.82207     -1641.475 7        47.413                                                                    24269323.064 7  95238080.64407     -1225.754 7        47.732    24269321.900 8  97722544.85208     -1257.731 8        49.461
R20        20.000    19679613.247 5 105235720.37705      -351.710 5        32.096                                                                    19679614.877 6  81850019.96806      -273.740 6        40.000
E02        21.000    25975338.345 4 136501326.86704     -3848.735 4        29.005                                                                    25975339.384 6 101932822.11106     -2874.215 6        39.042    25975339.668 6 104592033.49006     -2949.052 6        39.967
S23        22.000    38202748.546 6 200756826.23706      -864.123 6        40.813
R10        23.000    21075913.936 5 112346465.02505     -3604.049 5        34.205
E36        24.000    25115981.343 6 131985451.13206     -2893.226 6        39.943                                                                    25115982.747 8  98560687.86008     -2160.471 8        48.829    25115980.104 6 101131819.16806     -2216.834 6        40.953
G16        26.000    21239849.743 7 111616162.51807     -2989.122 7        43.156                                    21239840.329 3  86973621.38703     -2329.188 3        19.373
S21        27.000    38476042.383 5 202193281.78205      -863.937 5        33.162
R05        28.000    22513231.976 4 120346185.62714      3127.906 4        28.701                                                                    22513246.568 4                      2433.470 4        28.588
R19        29.000    21903418.491 5                     -3747.505 5        30.249                                                                    21903416.182 6  91131036.69906     -2914.790 6        38.835
S36        31.000    38245698.530 6 200982457.96906      -862.814 6        36.302
