     3.04           OBSERVATION DATA    M                   RINEX VERSION / TYPE
ssrcrin-15.6.1x                         20250102 203000 UTC PGM / RUN BY / DATE 
(00000000023479385599111004) Septentrio proprietary         COMMENT             
ract                                                        MARKER NAME         
01                                                          MARKER NUMBER       
geodetic                                                    MARKER TYPE         
NFB                 CLIMERS@TUW                             OBSERVER / AGENCY   
3296359             SEPT ASTERX SB3 PROB4.14.4              REC # / TYPE / VERS 
Unknown             Unknown                                 ANT # / TYPE        
  4127446.2117  1206915.8701  4695542.0293                  APPROX POSITION XYZ 
        0.0000        0.0000        0.0000                  ANTENNA: DELTA H/E/N
G   23 X1  C1C L1C D1C S1C C1W S1W C2W L2W D2W S2W C2L L2L  SYS / # / OBS TYPES 
       D2L S2L C5Q L5Q D5Q S5Q C1L L1L D1L S1L              SYS / # / OBS TYPES 
E   21 X1  C1C L1C D1C S1C C6C L6C D6C S6C C5Q L5Q D5Q S5Q  SYS / # / OBS TYPES 
       C7Q L7Q D7Q S7Q C8Q L8Q D8Q S8Q                      SYS / # / OBS TYPES 
S    9 X1  C1C L1C D1C S1C C5I L5I D5I S5I                  SYS / # / OBS TYPES 
R   17 X1  C1C L1C D1C S1C C2P L2P D2P S2P C2C L2C D2C S2C  SYS / # / OBS TYPES 
       C3Q L3Q D3Q S3Q                                      SYS / # / OBS TYPES 
C   25 X1  C1P L1P D1P S1P C5P L5P D5P S5P C2I L2I D2I S2I  SYS / # / OBS TYPES 
       C7I L7I D7I S7I C6I L6I D6I S6I C7D L7D D7D S7D      SYS / # / OBS TYPES 
J   17 X1  C1C L1C D1C S1C C2L L2L D2L S2L C5Q L5Q D5Q S5Q  SYS / # / OBS TYPES 
       C1L L1L D1L S1L                                      SYS / # / OBS TYPES 
I    5 X1  C5A L5A D5A S5A                                  SYS / # / OBS TYPES 
SEPTENTRIO RECEIVERS OUTPUT ALIGNED CARRIER PHASES.         COMMENT             
NO FURTHER PHASE SHIFT APPLIED IN THE RINEX ENCODER.        COMMENT             
G L1C                                                       SYS / PHASE SHIFT   
G L2W                                                       SYS / PHASE SHIFT   
G L2L  0.00000                                              SYS / PHASE SHIFT   
G L5Q  0.00000                                              SYS / PHASE SHIFT   
G L1L  0.00000                                              SYS / PHASE SHIFT   
E L1C  0.00000                                              SYS / PHASE SHIFT   
E L6C  0.00000                                              SYS / PHASE SHIFT   
E L5Q  0.00000                                              SYS / PHASE SHIFT   
E L7Q  0.00000                                              SYS / PHASE SHIFT   
E L8Q  0.00000                                              SYS / PHASE SHIFT   
S L1C                                                       SYS / PHASE SHIFT   
S L5I                                                       SYS / PHASE SHIFT   
R L1C                                                       SYS / PHASE SHIFT   
R L2P  0.00000                                              SYS / PHASE SHIFT   
R L2C                                                       SYS / PHASE SHIFT   
R L3Q  0.00000                                              SYS / PHASE SHIFT   
C L1P  0.00000                                              SYS / PHASE SHIFT   
C L5P  0.00000                                              SYS / PHASE SHIFT   
C L2I                                                       SYS / PHASE SHIFT   
C L7I                                                       SYS / PHASE SHIFT   
C L6I                                                       SYS / PHASE SHIFT   
C L7D                                                       SYS / PHASE SHIFT   
J L1C                                                       SYS / PHASE SHIFT   
J L2L  0.00000                                              SYS / PHASE SHIFT   
J L5Q  0.00000                                              SYS / PHASE SHIFT   
J L1L  0.00000                                              SYS / PHASE SHIFT   
I L5A                                                       SYS / PHASE SHIFT   
  2025     1     2    20    30    0.0000000     GPS         TIME OF FIRST OBS   
 C1C    0.000 C2C    0.000 C2P    0.000                     GLONASS COD/PHS/BIS 
DBHZ                                                        SIGNAL STRENGTH UNIT
    18                                                      LEAP SECONDS        
 24 R01  1 R02 -4 R03  5 R04  6 R05  1 R06 -4 R07  5 R08  6 GLONASS SLOT / FRQ #
    R09 -2 R10 -7 R11  0 R12 -1 R13 -2 R14 -7 R15  0 R16 -1 GLONASS SLOT / FRQ #
    R17  4 R18 -3 R19  3 R20  2 R21  4 R22 -3 R23  3 R24  2 GLONASS SLOT / FRQ #
                                                            END OF HEADER       
> 2025 01 02 20 30  0.0000000  0 39
G10         1.000    20983614.756 7 110269798.92907       -53.448 7        47.760                                    20983612.787 7  85924434.98507       -41.643 7        44.795    20983612.254 7  85924385.98407       -41.694 7        42.387
G23         2.000    21668626.736 6 113869389.53606     -2834.333 6        40.138                                    21668625.781 3  88729342.44403     -2208.570 3        20.405    21668622.653 6  88729458.44106     -2208.576 6        39.297
G15         3.000    24400916.750 3                     -2838.986 3        22.686
G21         4.000    23058117.796 6 121171311.16506      1740.083 6        37.618
G08         5.000    21287201.563 6 111865246.71506      1220.868 6        41.795                                    21287190.114 4  87167604.73004       951.319 4        28.929    21287198.475 5  87167525.72905       951.442 5        33.066
G30         7.000    25927434.928 4                     -1319.021 4        24.120
G07         8.000    25794757.496 3                     -2394.754 3        18.985                                                                                                    25794778.972 4                     -1866.550 4        25.805
E09        10.000                                                                                                                                                                                                    27211666.265 5 109570073.28405      -187.269 5        30.347
G18        12.000    24343376.337 4                     -3941.338 4        28.844                                                                                                    24343364.423 4                     -3071.014 4        27.964
G27        13.000    20234960.360 8 106335429.48008     -1012.640 8        51.049                                    20234957.900 8  82858730.84608      -789.074 8        52.270    20234958.352 7  82858808.84307      -789.057 7        46.556
E27        14.000    25482809.058 5 133912974.58105        -4.917 5        32.377                                                                                                                                    25482811.542 5 102608696.60005        -4.153 5        35.200
R03        15.000    24562697.400 3                     -4722.932 3        23.124
E15        16.000    25192023.463 7 132384954.32907       944.854 7        44.001                                                                    25192021.423 7  98858926.52807       705.591 7        43.405    25192022.801 8 101437820.19808       723.901 8        48.943
G26        17.000                                                                                                                                                                    25145861.307 3                     -3499.887 3        22.419
E06        18.000    27716306.222 3                     -1355.053 3        20.810                                                                                                                                    27716299.678 4                     -1037.096 4        27.497
E30        19.000    25108385.671 5 131945452.14505     -2797.349 5        33.413                                                                    25108386.238 7  98530718.65307     -2088.859 7        44.318    25108382.136 6 101101062.28006     -2143.551 6        36.968
R20        20.000    19823347.271 5 106004335.24005     -1415.717 5        33.856                                                                    19823347.899 6  82447831.73506     -1100.874 6        41.511
E02        21.000    27719140.068 4                     -4109.750 4        25.414
S23        22.000    38341907.345 6 201488049.86006      -861.708 6        37.660
R10        23.000    22954879.842 4                     -4889.412 4        27.497
E36        24.000    26356829.727 4                     -3130.146 4        25.459                                                                    26356805.644 6 103429940.97906     -2337.819 6        41.731    26356805.332 7 106128095.57107     -2398.777 7        43.391
R05        28.000                                                                                                                                    20955954.777 5  87127782.00605      1324.426 5        33.569
S36        31.000    38384470.078 6 201711689.42006      -861.246 6        38.408
E34        32.000    23542247.814 7 123715340.11907     -1271.827 7        44.381                                                                    23542248.327 7  92384855.04407      -949.732 7        47.145    23542247.432 8  94794954.00008      -974.519 8        48.653
R11        33.000    21407037.280 6 114392990.30106     -1974.560 6        40.307                                                                    21407040.443 6  88972250.88606     -1535.915 6        37.849
C08        36.000                                                                                                                                    39401440.612 4                     -2080.116 4        29.128    39401418.485 6 158653139.32106     -1608.476 6        36.809
C11        38.000                                                                                                                                    22099047.052 6 115075511.45306     -1876.524 6        41.790    22099045.753 7  88983698.44207     -1450.981 7        46.249    22099043.976 5  93508272.87805     -1524.932 5        33.168
R21        39.000    21384508.329 7 114432901.55507      1670.949 7        42.129                                                                    21384521.235 5  89003313.16605      1299.760 5        35.376
R04        40.000    21357569.888 6                     -2199.817 6        36.662                                                                    21357551.649 4                     -1710.897 4        29.763
C14        42.000                                                                                                                                    24615391.916 6 128178798.89406      2350.018 6        37.183    24615403.320 6  99116005.91506      1817.348 6        41.201    24615386.934 5 104155807.71905      1909.754 5        33.946
C13        43.000                                                                                                                                    38870593.439 5 202409448.49805     -1857.163 5        32.222    38870600.044 6 156515778.18006     -1436.010 6        36.896    38870593.394 4                     -1508.830 4        29.791
C21        46.000                                                                                                                                    23947389.354 7 124700378.31507     -1713.279 7        45.579                                                                    23947381.597 7 101329192.60607     -1392.075 7        42.830
C23        47.000                                                                                                                                                                                                                                                                    25760681.580 5                     -2849.519 5        31.215
C43        48.000                                                                                                                                    21683781.002 8 112913150.83708      -688.414 8        48.122                                                                    21683778.545 7  91751164.39107      -559.352 7        46.993
C42        50.000                                                                                                                                    23406548.402 7 121883994.74107      1245.423 7        43.344                                                                    23406553.878 7  99040843.12507      1011.995 7        43.653
C34        52.000                                                                                                                                    23288165.156 5                     -2995.310 5        34.029                                                                    23288094.506 5  98539583.02605     -2433.788 5        33.240
C37        54.000                                                                                                                                    25470523.104 4 132631682.65704     -1463.118 4        29.592                                                                    25470521.137 6 107774193.84406     -1188.529 6        37.648
C28        55.000                                                                                                                                    24880731.167 7 129560584.15607      1813.794 7        44.603                                                                    24880723.675 5 105278488.96905      1473.890 5        35.738
I06        58.000    38780329.913 6 152182475.74206      -563.784 6        37.686
> 2025 01 02 20 30  5.0000000  0 37
G10         1.000    20983667.167 8 110270073.05208       -56.209 8        48.008                                    20983664.635 7  85924648.57707       -43.794 7        44.761    20983664.111 7  85924599.57807       -43.855 7        42.764
G23         2.000    21671324.871 6 113883566.78806     -2836.569 6        41.583                                    21671324.003 3  88740389.65803     -2210.307 3        21.095    21671321.969 6  88740505.67506     -2210.296 6        40.045
G15         3.000    24403617.570 3                     -2843.925 3        19.552
G21         4.000    23056462.615 5 121162613.12705      1739.192 5        35.109
G08         5.000    21286040.829 7 111859146.66707      1219.183 7        43.522                                    21286029.660 5  87162851.44805       950.006 5        30.913    21286039.690 5  87162772.40605       950.130 5        34.524
G30         7.000    25928688.337 3                     -1322.756 3        20.357
G07         8.000    25797027.332 3                     -2396.640 3        23.581
E09        10.000    27211899.150 4 142999415.54614      -246.727 4        25.549                                                                                                                                    27211901.489 5 109571014.49305      -188.899 5        31.509
G18        12.000    24347127.125 4                     -3941.991 4        26.671
G27        13.000    20235925.134 8 106340499.30308     -1015.237 8        50.649                                    20235922.576 8  82862681.35808      -791.095 8        51.828    20235923.194 7  82862759.35207      -791.119 7        46.704
E27        14.000                                                                                                                                    25482795.837 5  99999965.39415        -5.284 5        33.826    25482818.956 5 102608719.50005        -5.559 5        34.933
E15        16.000    25191124.538 7 132380232.13607       944.031 7        43.917                                                                    25191122.938 7  98855400.20707       705.102 7        43.390    25191123.999 8 101434201.87808       723.359 8        49.015
G26        17.000    25150205.311 3                     -4494.507 3        20.452                                                                                                    25150138.172 3                     -3499.390 3        22.629
E06        18.000    27717592.578 4                     -1356.511 4        24.797                                                                                                                                    27717583.441 4                     -1039.074 4        28.663
E30        19.000    25111048.460 5 131959442.58405     -2799.020 5        34.010                                                                    25111048.060 7  98541166.07507     -2090.048 7        44.460    25111045.870 6 101111782.24306     -2144.647 6        38.408
R20        20.000    19824672.417 5 106011417.38705     -1417.312 5        34.471                                                                    19824673.813 7  82453340.06107     -1102.417 7        42.573
E02        21.000    27723052.541 4                     -4109.505 4        25.383
S23        22.000    38342724.785 6 201492358.31206      -861.720 6        37.614
E36        24.000    26359813.238 3                     -3129.497 3        20.381                                                                    26359784.370 7 103441630.34707     -2337.929 7        42.042    26359784.048 7 106140089.88007     -2398.833 7        43.073
R05        28.000    20954358.635 6 112013200.79816      1699.452 6        41.077                                                                    20954362.695 5  87121166.29105      1321.818 5        33.886
S36        31.000    38385285.362 6 201715995.43006      -860.986 6        39.255
E34        32.000    23543458.277 7 123721701.25107     -1272.653 7        43.981                                                                    23543458.871 7  92389605.24807      -950.359 7        47.823    23543457.542 8  94799828.12308      -975.197 8        48.128
R11        33.000    21408886.531 6 114402874.17606     -1978.800 6        41.847                                                                    21408894.070 6  88979938.36806     -1538.966 6        36.586
C08        36.000                                                                                                                                                                                                    39403416.492 5 158661181.31805     -1608.141 5        32.713
C11        38.000                                                                                                                                    22100850.617 7 115084896.71607     -1877.494 7        42.000    22100847.945 7  88990955.74807     -1451.872 7        46.433    22100846.418 5  93515899.14305     -1525.526 5        32.287
R21        39.000    21382950.889 7 114424548.80607      1670.208 7        44.814                                                                    21382955.004 5  88996816.60605      1298.984 5        34.357
C12        41.000                                                                                                                                                                                                    25984287.517 4                     -2766.300 4        27.018
C14        42.000                                                                                                                                    24613137.656 6 128167050.62206      2349.280 6        38.321    24613151.119 6  99106921.40206      1816.533 6        40.903    24613132.334 5 104146261.31405      1908.912 5        34.609
C13        43.000                                                                                                                                    38872373.245 5 202418734.23205     -1856.948 5        31.555    38872381.879 6 156522958.50406     -1436.211 6        36.813    38872376.391 4                     -1509.056 4        28.645
C21        46.000                                                                                                                                    23949034.685 7 124708951.35507     -1715.958 7        46.754                                                                    23949028.413 7 101336158.90107     -1394.247 7        43.348
C23        47.000                                                                                                                                                                                                                                                                    25764049.780 4                     -2850.240 4        29.422
C43        48.000                                                                                                                                    21684442.504 7 112916596.59507      -689.799 7        47.774                                                                    21684440.439 7  91753964.35307      -560.622 7        46.779
C42        50.000                                                                                                                                    23405354.098 7 121877772.89907      1243.374 7        44.348                                                                    23405359.127 7  99035787.39807      1010.257 7        43.507
C34        52.000                                                                                                                                                                                                                                                                    23290972.277 5  98551754.52605     -2435.010 5        34.205
C37        54.000                                                                                                                                    25471919.266 5                     -1465.333 5        30.928                                                                    25471925.293 6 107780142.53906     -1191.019 6        36.250
C28        55.000                                                                                                                                    24878992.720 7 129551515.57807      1813.698 7        42.489                                                                    24878982.284 5 105271119.91405      1473.916 5        34.957
I06        58.000    38781048.199 6 152185294.20506      -563.634 6        37.482
> 2025 01 02 20 30 10.0000000  0 39
G10         1.000    20983721.800 8 110270362.02508       -59.127 8        48.839                                    20983719.399 7  85924873.72907       -46.071 7        44.426    20983718.683 6  85924824.74706       -45.934 6        41.306
G23         2.000    21674024.714 6 113897756.60906     -2838.977 6        41.666                                    21674024.608 3  88751446.68603     -2212.180 3        22.019    21674022.777 6  88751562.67806     -2212.255 6        39.177
G15         3.000    24406331.098 4                     -2845.158 4        26.144
G21         4.000    23054807.727 5 121153921.01605      1738.061 5        34.338
G08         5.000    21284882.035 7 111853056.53707      1217.142 7        42.686                                    21284871.555 5  87158105.89205       948.412 5        32.862    21284882.232 6  87158026.87106       948.413 6        37.985
G30         7.000    25929941.594 3                     -1319.340 3        19.582
E09        10.000    27212137.019 4 143000655.57904      -248.919 4        26.132                                                                                                                                    27212136.681 5 109571964.81605      -190.744 5        30.211
G18        12.000    24350885.385 4                     -3942.099 4        28.607                                                                                                    24350867.072 4                     -3071.763 4        27.521
G27        13.000    20236892.759 8 106345583.04208     -1017.974 8        50.628                                    20236890.016 8  82866642.71208      -793.228 8        51.853    20236890.387 7  82866720.70107      -793.191 7        46.588
E27        14.000    25482802.341 5 133913045.99005        -9.444 5        33.521                                                                    25482803.237 5  99999996.37105        -6.810 5        33.120    25482825.740 5 102608751.39205        -7.399 5        31.638
R03        15.000    24571500.594 3                     -4725.601 3        22.705
E15        16.000    25190225.399 7 132375514.31607       943.311 7        43.352                                                                    25190225.458 7  98851877.17507       704.365 7        43.050    25190226.159 8 101430586.93008       722.748 8        48.396
G26        17.000                                                                                                                                                                    25154410.280 3                     -3498.614 3        22.171
E06        18.000    27718875.983 4                     -1358.792 4        28.607                                                                                                                                    27718878.240 4                     -1040.819 4        29.109
E30        19.000    25113712.421 6 131973442.53006     -2800.723 6        37.456                                                                    25113711.770 7  98551620.60907     -2091.503 7        43.458    25113710.203 6 101122509.49206     -2146.069 6        39.916
R20        20.000    19825997.013 5 106018509.33305     -1419.384 5        34.752                                                                    19825999.532 7  82458855.99507     -1103.691 7        43.094
E02        21.000    27726962.532 4                     -4109.483 4        24.135
S23        22.000    38343542.479 6 201496666.82206      -861.493 6        38.547
R10        23.000    22964050.876 4                     -4892.084 4        28.028
E36        24.000    26362791.580 4                     -3131.110 4        26.898                                                                    26362763.414 7 103453320.77807     -2337.992 7        42.343    26362762.662 7 106152085.28907     -2399.085 7        42.607
R05        28.000    20952776.259 6 112004713.30706      1695.886 6        41.588                                                                    20952774.883 5  87114564.85205      1319.016 5        34.743
S36        31.000    38386096.049 6 201720301.45006      -861.072 6        37.928
E34        32.000    23544670.383 7 123728068.03907     -1273.782 7        44.065                                                                    23544670.333 7  92394359.67807      -951.217 7        47.842    23544669.601 8  94804706.57408      -976.000 8        48.268
R11        33.000    21410741.133 6 114412779.87206     -1983.121 6        40.594                                                                    21410747.858 6  88987642.81906     -1542.494 6        36.718
C08        36.000                                                                                                                                    39405414.253 4                     -2080.382 4        28.938    39405406.614 5 158669223.74005     -1608.444 5        35.338
C11        38.000                                                                                                                                    22102656.664 7 115094288.97607     -1879.029 7        42.732    22102652.267 7  88998218.42207     -1452.935 7        46.122    22102649.055 5  93523531.15805     -1526.856 5        33.748
R21        39.000    21381395.542 7 114416201.47607      1669.141 7        45.138                                                                    21381391.855 5  88990324.21805      1298.378 5        30.166
R04        40.000                                                                                                                                    21361649.011 4                     -1717.624 4        28.607
C12        41.000                                                                                                                                                                                                    25987721.531 4                     -2765.929 4        25.925
C14        42.000                                                                                                                                    24610883.110 5 128155307.99805      2348.088 5        35.976    24610896.141 6  99097841.21906      1815.691 6        40.944    24610877.332 6 104136719.48406      1907.961 6        36.491
C13        43.000                                                                                                                                    38874160.437 5 202428020.75205     -1857.577 5        33.305    38874165.924 6 156530139.38206     -1436.180 6        36.699    38874160.134 4                     -1509.041 4        29.270
C21        46.000                                                                                                                                    23950682.746 7 124717538.62307     -1718.774 7        45.482                                                                    23950677.330 7 101343136.79107     -1396.687 7        44.048
C23        47.000                                                                                                                                    25767426.444 6 134177654.03116     -3508.372 6        36.098                                                                    25767417.932 4                     -2850.733 4        25.865
C43        48.000                                                                                                                                    21685105.427 7 112920050.34807      -691.372 7        46.796                                                                    21685103.663 7  91756770.85807      -561.790 7        46.844
C42        50.000                                                                                                                                    23404162.417 7 121871562.46807      1241.094 7        42.912                                                                    23404167.765 7  99030740.93407      1008.476 7        44.459
C34        52.000                                                                                                                                                                                                                                                                    23293850.120 5  98563930.37705     -2435.219 5        35.609
C37        54.000                                                                                                                                    25473326.968 5                     -1467.917 5        31.645                                                                    25473332.446 5 107786101.83705     -1192.656 5        35.895
C28        55.000                                                                                                                                    24877249.849 6 129542448.82106      1813.273 6        41.521                                                                    24877241.298 6 105263752.44206      1473.509 6        36.060
I06        58.000    38781766.046 6 152188112.50306      -563.394 6        37.051
> 2025 01 02 20 30 15.0000000  0 39
G10         1.000    20983779.540 8 110270665.83608       -62.282 8        48.848                                    20983776.833 7  85925110.46607       -48.535 7        43.788    20983775.563 6  85925061.48706       -48.570 6        39.138
G23         2.000    21676728.111 6 113911958.87206     -2841.714 6        37.750                                    21676727.140 3  88762513.40103     -2214.331 3        22.343    21676724.606 6  88762629.39406     -2214.331 6        38.652
G15         3.000    24409050.533 4                     -2849.015 4        25.744
G21         4.000    23053153.050 6 121145234.87406      1736.557 6        37.066
G08         5.000    21283724.602 7 111846976.40107      1214.997 7        43.092                                    21283715.690 5  87153368.13005       946.751 5        34.057    21283723.281 6  87153289.08106       946.789 6        38.604
G07         8.000    25801607.906 3                     -2401.317 3        21.810                                                                                                    25801591.878 4                     -1870.257 4        28.370
E09        10.000                                                                                                                                                                                                    27212376.529 4 109572924.06504      -192.469 4        26.922
G18        12.000    24354631.997 4                     -3942.491 4        27.581                                                                                                    24354624.174 3                     -3071.630 3        22.210
G27        13.000    20237862.677 8 106350680.70708     -1020.959 8        50.296                                    20237860.104 8  82870614.92108      -795.558 8        51.822    20237860.548 7  82870692.91907      -795.463 7        47.047
E27        14.000    25482818.264 6 133913099.13106       -11.854 6        36.733                                                                    25482812.046 5 100000036.06405        -8.738 5        32.359    25482828.020 6 102608792.03606        -9.199 6        36.854
E15        16.000    25189329.337 7 132370800.89307       942.313 7        43.886                                                                    25189329.105 7  98848357.43107       703.614 7        44.673    25189328.979 8 101426975.37308       721.926 8        48.575
G26        17.000                                                                                                                                                                    25158684.775 3                     -3499.399 3        21.976
E06        18.000    27720172.047 3                     -1358.529 3        23.086                                                                                                                                    27720169.689 4                     -1042.914 4        27.198
E30        19.000    25116378.255 6 131987452.05106     -2802.777 6        37.399                                                                    25116377.852 7  98562082.24807     -2093.083 7        44.196    25116376.670 6 101133244.04406     -2147.698 6        41.323
R20        20.000    19827326.343 5 106025610.92405     -1421.402 5        33.844                                                                    19827327.191 7  82464379.42007     -1105.407 7        42.792
E02        21.000    27730866.304 3                     -4109.666 3        21.929
S23        22.000    38344351.762 6 201500975.32606      -861.760 6        37.819
R10        23.000    22968643.478 4                     -4893.632 4        29.469
E36        24.000    26365778.007 3                     -3131.229 3        23.733                                                                    26365742.712 7 103465012.26307     -2338.459 7        42.305    26365742.285 7 106164081.76807     -2399.391 7        42.654
G16        26.000    22802641.487 4                     -4173.630 4        24.782
R05        28.000    20951189.926 6 111996244.45206      1691.935 6        40.098                                                                    20951187.876 5  87107978.02605      1315.774 5        33.605
R12        30.000                                                                                                                                    23541503.488 3                      1521.653 3        18.776
S36        31.000    38386920.012 5 201724607.31005      -861.155 5        35.690
E34        32.000    23545883.143 7 123734440.45007     -1275.088 7        43.397                                                                    23545883.164 8  92399118.30308      -952.177 8        48.071    23545882.030 8  94809589.34508      -977.020 8        48.566
R11        33.000    21412596.376 6 114422707.33206     -1987.755 6        40.875                                                                    21412601.717 6  88995364.22206     -1545.954 6        36.284
C08        36.000                                                                                                                                    39407417.915 4                     -2080.381 4        29.299    39407403.804 5 158677266.54905     -1608.736 5        31.872
C11        38.000                                                                                                                                    22104462.913 7 115103688.13807     -1880.475 7        43.943    22104457.485 7  89005486.48407     -1454.261 7        45.600    22104455.159 6  93531168.65106     -1527.850 6        37.648
R21        39.000    21379836.630 7 114407859.51107      1667.743 7        42.950                                                                    21379832.014 5  88983836.08305      1297.294 5        33.329
R04        40.000    21363713.418 6 114401935.92916     -2212.972 6        39.790
C14        42.000                                                                                                                                    24608626.891 5 128143571.02405      2346.783 5        35.905    24608640.405 7  99088765.39207      1814.737 7        42.673    24608625.118 5 104127182.16205      1907.043 5        35.352
C13        43.000                                                                                                                                    38875945.935 5 202437308.06105     -1857.713 5        35.576    38875948.247 6 156537320.92506     -1436.358 6        36.741    38875946.078 5                     -1509.672 5        30.830
C21        46.000                                                                                                                                    23952335.355 7 124726140.10707     -1721.756 7        46.622                                                                    23952329.156 7 101350126.15307     -1398.776 7        44.056
C23        47.000                                                                                                                                    25770796.295 5 134195199.96105     -3509.829 5        35.633                                                                    25770787.120 3                     -2852.140 3        21.619
C43        48.000                                                                                                                                    21685770.364 7 112923512.16107      -693.195 7        46.167                                                                    21685768.367 7  91759583.81007      -563.057 7        46.931
C42        50.000                                                                                                                                    23402971.923 7 121865363.44407      1238.689 7        44.315                                                                    23402977.863 7  99025703.67507      1006.611 7        45.546
C34        52.000                                                                                                                                                                                                                                                                    23296729.317 6  98576110.64006     -2436.395 6        36.745
C37        54.000                                                                                                                                    25474739.218 5 132653644.89715     -1470.574 5        35.367                                                                    25474744.048 6 107792071.67506     -1195.077 6        37.565
C28        55.000                                                                                                                                    24875506.711 6 129533383.84406      1812.704 6        39.973                                                                    24875501.242 5 105256386.38305      1473.092 5        35.543
I06        58.000    38782484.122 6 152190930.63506      -563.691 6        38.219
> 2025 01 02 20 30 20.0000000  0 39
G10         1.000    20983839.865 8 110270984.64608       -65.424 8        49.381                                    20983836.940 7  85925358.88907       -50.974 7        43.043    20983836.274 6  85925309.90006       -50.904 6        38.799
G23         2.000    21679433.861 6 113926173.86406     -2844.336 6        40.188                                    21679431.958 3  88773590.01203     -2216.356 3        22.133    21679429.112 6  88773705.99906     -2216.347 6        38.171
G21         4.000    23051502.417 6 121136554.83706      1735.369 6        37.675
G08         5.000    21282570.209 7 111840906.33607      1212.939 7        42.914                                    21282561.886 5  87148638.20105       945.142 5        34.895    21282568.255 6  87148559.17606       945.179 6        39.063
E09        10.000    27212648.586 4                      -254.137 4        27.389                                                                                                                                    27212606.687 4 109573892.49304      -194.676 4        29.763
G18        12.000    24358375.746 3                     -3941.358 3        20.310                                                                                                    24358380.324 3                     -3072.032 3        19.940
G27        13.000    20238835.427 8 106355792.48308     -1023.788 8        49.787                                    20238832.923 8  82874598.12308      -797.753 8        51.294    20238833.333 7  82874676.10907      -797.711 7        47.227
E27        14.000    25482831.823 6 133913164.06506       -14.157 6        37.554                                                                    25482824.574 5 100000084.46505       -10.661 5        32.503    25482845.495 5 102608841.71205       -11.017 5        33.180
R03        15.000    24580347.597 4                     -4729.980 4        28.806                                                                    24580314.653 3                     -3679.834 3        21.643
E15        16.000    25188434.312 7 132366092.02907       941.216 7        43.771                                                                    25188432.812 7  98844841.08807       702.923 7        44.307    25188432.836 8 101423367.28008       721.154 8        48.057
G26        17.000                                                                                                                                                                    25162952.407 3                     -3498.935 3        21.190
E06        18.000    27721465.584 3                     -1364.073 3        23.238                                                                                                                                    27721462.896 4                     -1044.745 4        25.383
E30        19.000    25119046.511 6 132001471.18206     -2804.794 6        40.365                                                                    25119045.601 7  98572551.09807     -2094.548 7        43.528    25119043.468 6 101143986.00206     -2149.170 6        41.106
R20        20.000    19828656.639 5 106032722.35205     -1423.529 5        33.737                                                                    19828656.277 6  82469910.48106     -1107.017 6        41.738
E02        21.000    27734768.098 3                     -4109.482 3        23.390
S23        22.000    38345181.221 6 201505283.98306      -861.728 6        37.142
R10        23.000    22973231.081 4                     -4894.931 4        27.772
E36        24.000                                                                                                                                    26368722.210 7 103476704.89907     -2338.583 7        42.392    26368722.076 7 106176079.44807     -2399.583 7        42.155
G16        26.000    22806612.114 3                     -4176.362 3        21.905
R05        28.000    20949607.371 6 111987794.17406      1688.136 6        38.000                                                                    20949605.179 5  87101405.57405      1312.970 5        32.539
R12        30.000                                                                                                                                    23539703.401 5                      1517.344 5        30.581
S36        31.000    38387732.547 6 201728913.34306      -861.317 6        36.476
E34        32.000    23547096.597 7 123740818.68207     -1276.254 7        43.355                                                                    23547096.990 8  92403881.27308      -953.071 8        48.308    23547095.759 8  94814476.55408      -977.970 8        48.016
R11        33.000    21414459.215 6 114432656.87306     -1992.303 6        41.538                                                                    21414461.981 6  89003102.64906     -1549.432 6        37.698
C08        36.000                                                                                                                                    39409419.592 4                     -2080.569 4        28.682    39409402.757 5 158685309.73505     -1608.776 5        34.219
C11        38.000                                                                                                                                    22106269.920 7 115113094.40507     -1882.008 7        43.975    22106263.753 7  89012760.03607     -1455.430 7        43.640    22106265.118 6  93538812.02406     -1529.102 6        39.441
R21        39.000    21378272.882 7 114399523.17107      1666.699 7        43.168
R04        40.000    21365789.816 5                     -2217.557 5        35.690
C12        41.000                                                                                                                                                                                                    25994590.619 3                     -2767.011 3        18.687
C14        42.000                                                                                                                                    24606373.577 5 128131839.78905      2345.478 5        32.359    24606382.019 7  99079694.02207      1813.766 7        42.201    24606369.794 5 104117649.51205      1906.066 5        33.850
C13        43.000                                                                                                                                    38877730.160 5 202446596.39505     -1857.852 5        34.043    38877732.334 5 156544503.22505     -1436.502 5        34.938    38877729.925 5                     -1509.689 5        30.241
C21        46.000                                                                                                                                    23953991.258 7 124734755.92007     -1724.576 7        47.105                                                                    23953983.080 7 101357127.23607     -1401.486 7        42.965
C23        47.000                                                                                                                                    25774172.996 6 134212751.14606     -3510.751 6        37.705                                                                    25774157.932 3                     -2848.890 3        21.595
C43        48.000                                                                                                                                    21686436.775 7 112926982.12407      -694.776 7        45.220                                                                    21686434.755 7  91762403.46307      -564.592 7        46.790
C42        50.000                                                                                                                                    23401782.943 7 121859175.91307      1236.316 7        44.107                                                                    23401789.416 7  99020675.82907      1004.570 7        44.819
C34        52.000                                                                                                                                    23299589.271 5 121327534.34715     -2999.655 5        33.832                                                                    23299608.586 6  98588295.41806     -2437.406 6        36.930
C37        54.000                                                                                                                                    25476154.105 5 132661004.79205     -1473.269 5        33.048                                                                    25476159.270 6 107798052.23906     -1197.230 6        37.883
C28        55.000                                                                                                                                                                                                                                                                    24873759.155 5 105249022.00005      1472.481 5        34.952
I06        58.000    38783202.768 6 152193748.70406      -563.698 6        38.769
> 2025 01 02 20 30 25.0000000  0 39
G10         1.000    20983903.108 8 110271318.86108       -68.277 8        49.292                                    20983899.771 6  85925619.31806       -53.200 6        41.797    20983900.535 6  85925570.31006       -52.988 6        37.921
G23         2.000    21682142.700 7 113940401.90707     -2846.847 7        42.495                                    21682139.056 3  88784676.80503     -2218.342 3        22.724    21682137.518 6  88784792.78406     -2218.408 6        37.728
G15         3.000    24414472.952 3                     -2852.696 3        23.676
G21         4.000    23049855.491 6 121127881.30006      1734.108 6        36.605
G08         5.000    21281417.330 6 111834846.77406      1210.912 6        41.504                                    21281410.094 5  87143916.47305       943.558 5        35.219    21281415.112 6  87143837.47306       943.460 6        40.174
G07         8.000    25806175.396 4                     -2404.420 4        27.593                                                                                                    25806182.178 4                     -1873.397 4        28.919
E09        10.000                                                                                                                                                                                                    27212849.941 4 109574870.34304      -196.237 4        29.223
G18        12.000    24362132.692 3                     -3944.219 3        23.581                                                                                                    24362146.499 3                     -3072.234 3        23.410
G27        13.000    20239810.997 8 106360918.74508     -1026.632 8        49.940                                    20239808.519 8  82878592.61508      -799.970 8        51.261    20239808.586 7  82878670.59407      -799.954 7        47.276
E27        14.000    25482845.918 5 133913241.06805       -16.565 5        35.914                                                                    25482839.900 5 100000142.02005       -12.534 5        34.333    25482860.358 4 102608900.66604       -12.560 4        27.629
R03        15.000    24584769.808 3                     -4733.672 3        22.400                                                                    24584736.739 3                     -3680.471 3        19.493
E15        16.000    25187538.828 7 132361388.15907       940.343 7        43.062                                                                    25187537.757 7  98841328.46707       702.168 7        43.900    25187537.918 8 101419763.00608       720.563 8        48.185
E06        18.000    27722760.696 4                     -1366.413 4        25.368                                                                                                                                    27722764.124 4                     -1046.347 4        28.028
E30        19.000    25121715.717 6 132015500.40106     -2806.741 6        39.045                                                                    25121715.292 7  98583027.48007     -2096.004 7        43.661    25121713.717 7 101154735.66507     -2150.683 7        43.685
R20        20.000    19829989.461 5 106039844.00705     -1425.263 5        31.826                                                                    19829988.011 6  82475449.56506     -1108.450 6        41.623
E02        21.000    27738682.351 3                     -4109.283 3        21.595
S23        22.000    38346002.828 6 201509592.96006      -861.840 6        38.381
R10        23.000    22977823.313 5                     -4896.228 5        30.762
E36        24.000    26371720.543 4                     -3131.852 4        25.293                                                                    26371702.316 7 103488399.01907     -2338.830 7        42.032    26371702.239 7 106188078.62407     -2399.870 7        42.102
R05        28.000    20948029.346 5 111979363.11505      1684.469 5        31.796                                                                    20948031.021 4  87094848.03604      1309.978 4        29.924
S21        29.000    38619377.360 5 202946231.33615      -862.249 5        34.467
R12        30.000                                                                                                                                    23537882.194 5  97793991.80315      1514.887 5        34.252
S36        31.000    38388562.949 6 201733220.10206      -861.459 6        38.000
E34        32.000    23548311.738 7 123747203.11707     -1277.411 7        43.627                                                                    23548311.628 7  92408648.86207      -953.963 7        47.396    23548310.930 8  94819368.51908      -978.789 8        48.464
R11        33.000    21416327.824 7 114442628.73007     -1996.481 7        42.605                                                                    21416329.807 6  89010858.52706     -1552.855 6        37.493
C08        36.000                                                                                                                                    39411416.373 5                     -2080.588 5        31.026    39411399.574 5 158693353.75705     -1608.844 5        32.832
C11        38.000                                                                                                                                    22108077.855 6 115122508.24706     -1883.504 6        41.497    22108072.088 7  89020039.38407     -1456.438 7        44.169    22108071.859 6  93546461.52806     -1530.727 6        39.297
R21        39.000    21376715.487 7 114391192.89507      1665.453 7        45.685
R04        40.000                                                                                                                                    21367888.762 4                     -1728.137 4        26.311
C14        42.000                                                                                                                                    24604115.960 5 128120114.70305      2344.749 5        31.879    24604122.528 7  99070627.42807      1812.825 7        42.072    24604118.416 5 104108121.92605      1905.036 5        31.509
C13        43.000                                                                                                                                    38879512.409 5 202455886.04405     -1858.338 5        32.245    38879518.321 5 156551686.59005     -1436.758 5        35.590    38879515.434 5                     -1509.663 5        31.336
C21        46.000                                                                                                                                    23955649.067 7 124743386.50607     -1727.513 7        47.600                                                                    23955640.116 7 101364140.31807     -1404.004 7        42.914
C23        47.000                                                                                                                                    25777550.296 5 134230307.88205     -3511.919 5        35.986
C43        48.000                                                                                                                                    21687106.762 7 112930460.70207      -696.496 7        44.175                                                                    21687103.188 7  91765230.09007      -566.256 7        47.321
C42        50.000                                                                                                                                    23400596.926 7 121853000.37407      1233.976 7        45.479                                                                    23400603.872 7  99015657.71607      1002.429 7        45.573
C34        52.000                                                                                                                                                                                                                                                                    23302489.210 6  98600485.05606     -2438.424 6        37.017
C37        54.000                                                                                                                                    25477572.116 5 132668378.34505     -1476.086 5        33.198                                                                    25477575.447 6 107804043.79606     -1199.681 6        38.952
C28        55.000                                                                                                                                    24872023.652 5 129515260.35905      1811.749 5        30.574                                                                    24872017.977 5 105241659.55705      1472.024 5        34.281
I06        58.000    38783920.852 6 152196567.06106      -563.594 6        38.366
> 2025 01 02 20 30 30.0000000  0 39
G10         1.000    20983969.624 8 110271667.82608       -71.641 8        49.892                                    20983965.307 6  85925891.23006       -55.827 6        41.020    20983966.932 6  85925842.25806       -55.775 6        37.527
G23         2.000    21684852.218 7 113954642.33007     -2849.655 7        44.254                                    21684848.291 3  88795773.24403     -2220.513 3        23.429    21684847.033 6  88795889.22006     -2220.389 6        36.979
G21         4.000    23048211.042 6 121119213.58306      1732.716 6        36.658
G08         5.000    21280265.850 7 111828797.16807      1208.559 7        43.932                                    21280260.239 6  87139202.49206       941.730 6        36.681    21280265.508 7  87139123.47807       941.818 7        42.326
G30         7.000    25934997.104 3                     -1334.426 3        21.524
