     3.04           OBSERVATION DATA    M                   RINEX VERSION / TYPE
ssrcrin-15.6.1x                         20250102 011500 UTC PGM / RUN BY / DATE 
(00000000023479385599111004) Septentrio proprietary         COMMENT             
ract                                                        MARKER NAME         
01                                                          MARKER NUMBER       
geodetic                                                    MARKER TYPE         
NFB                 CLIMERS@TUW                             OBSERVER / AGENCY   
3296359             SEPT ASTERX SB3 PROB4.14.4              REC # / TYPE / VERS 
Unknown             Unknown                                 ANT # / TYPE        
  4127445.8152  1206915.6122  4695543.4115                  APPROX POSITION XYZ 
        0.0000        0.0000        0.0000                  ANTENNA: DELTA H/E/N
G   23 X1  C1C L1C D1C S1C C1W S1W C2W L2W D2W S2W C2L L2L  SYS / # / OBS TYPES 
       D2L S2L C5Q L5Q D5Q S5Q C1L L1L D1L S1L              SYS / # / OBS TYPES 
E   21 X1  C1C L1C D1C S1C C6C L6C D6C S6C C5Q L5Q D5Q S5Q  SYS / # / OBS TYPES 
       C7Q L7Q D7Q S7Q C8Q L8Q D8Q S8Q                      SYS / # / OBS TYPES 
S    9 X1  C1C L1C D1C S1C C5I L5I D5I S5I                  SYS / # / OBS TYPES 
R   17 X1  C1C L1C D1C S1C C2P L2P D2P S2P C2C L2C D2C S2C  SYS / # / OBS TYPES 
       C3Q L3Q D3Q S3Q                                      SYS / # / OBS TYPES 
C   25 X1  C1P L1P D1P S1P C5P L5P D5P S5P C2I L2I D2I S2I  SYS / # / OBS TYPES 
       C7I L7I D7I S7I C6I L6I D6I S6I C7D L7D D7D S7D      SYS / # / OBS TYPES 
J   17 X1  C1C L1C D1C S1C C2L L2L D2L S2L C5Q L5Q D5Q S5Q  SYS / # / OBS TYPES 
       C1L L1L D1L S1L                                      SYS / # / OBS TYPES 
I    5 X1  C5A L5A D5A S5A                                  SYS / # / OBS TYPES 
SEPTENTRIO RECEIVERS OUTPUT ALIGNED CARRIER PHASES.         COMMENT             
NO FURTHER PHASE SHIFT APPLIED IN THE RINEX ENCODER.        COMMENT             
G L1C                                                       SYS / PHASE SHIFT   
G L2W                                                       SYS / PHASE SHIFT   
G L2L  0.00000                                              SYS / PHASE SHIFT   
G L5Q  0.00000                                              SYS / PHASE SHIFT   
G L1L  0.00000                                              SYS / PHASE SHIFT   
E L1C  0.00000                                              SYS / PHASE SHIFT   
E L6C  0.00000                                              SYS / PHASE SHIFT   
E L5Q  0.00000                                              SYS / PHASE SHIFT   
E L7Q  0.00000                                              SYS / PHASE SHIFT   
E L8Q  0.00000                                              SYS / PHASE SHIFT   
S L1C                                                       SYS / PHASE SHIFT   
S L5I                                                       SYS / PHASE SHIFT   
R L1C                                                       SYS / PHASE SHIFT   
R L2P  0.00000                                              SYS / PHASE SHIFT   
R L2C                                                       SYS / PHASE SHIFT   
R L3Q  0.00000                                              SYS / PHASE SHIFT   
C L1P  0.00000                                              SYS / PHASE SHIFT   
C L5P  0.00000                                              SYS / PHASE SHIFT   
C L2I                                                       SYS / PHASE SHIFT   
C L7I                                                       SYS / PHASE SHIFT   
C L6I                                                       SYS / PHASE SHIFT   
C L7D                                                       SYS / PHASE SHIFT   
J L1C                                                       SYS / PHASE SHIFT   
J L2L  0.00000                                              SYS / PHASE SHIFT   
J L5Q  0.00000                                              SYS / PHASE SHIFT   
J L1L  0.00000                                              SYS / PHASE SHIFT   
I L5A                                                       SYS / PHASE SHIFT   
  2025     1     2     1    15    0.0000000     GPS         TIME OF FIRST OBS   
 C1C    0.000 C2C    0.000 C2P    0.000                     GLONASS COD/PHS/BIS 
DBHZ                                                        SIGNAL STRENGTH UNIT
    18                                                      LEAP SECONDS        
 24 R01  1 R02 -4 R03  5 R04  6 R05  1 R06 -4 R07  5 R08  6 GLONASS SLOT / FRQ #
    R09 -2 R10 -7 R11  0 R12 -1 R13 -2 R14 -7 R15  0 R16 -1 GLONASS SLOT / FRQ #
    R17  4 R18 -3 R19  3 R20  2 R21  4 R22 -3 R23  3 R24  2 GLONASS SLOT / FRQ #
                                                            END OF HEADER       
> 2025 01 02 01 15  0.0000000  0 37
G03         1.000    19915906.604 8 104658776.20308      -558.150 8        51.083                                    19915903.585 7  81552303.16007      -434.922 7        47.938    19915904.696 7  81552330.18107      -434.911 7        43.001
G19         2.000    22708123.974 6 119332228.03106       939.986 6        40.725                                    22708117.789 4  92985902.39704       732.449 4        25.729
E25         4.000    28601105.844 4                     -1712.884 4        29.194                                                                    28601110.863 5                     -1278.756 5        30.430    28601108.138 5 115164866.17405     -1312.354 5        32.228
E07         5.000    26174133.912 6 137545972.09906     -3310.552 6        38.721                                                                    26174130.118 4 102713046.15004     -2472.414 4        29.422    26174140.111 4 105392464.24904     -2536.298 4        29.194
G28         7.000    23110283.008 6 121445390.12606     -1086.583 6        36.053                                                                                                    23110266.310 5  94632663.94705      -846.729 5        33.168
G21         8.000    22815920.902 4 119898463.17704     -3600.702 4        29.166                                    22815913.799 1  93427366.39401     -2805.770 1        11.481
G02         9.000    21392714.873 7 112419470.60107     -2731.617 7        45.546                                    21392706.770 4  87599529.78104     -2128.532 4        28.749
G31        10.000    22550011.458 6 118501147.80606       753.726 6        37.142                                                                                                    22549983.707 4  92338451.12304       587.298 4        28.512
G17        11.000    22210689.790 6 116718153.24606     -1129.605 6        39.357                                    22210687.530 5  90949114.59405      -880.211 5        30.000    22210688.271 6  90949048.57106      -880.073 6        36.650
G04        12.000    21537359.366 7 113179625.23007      1922.730 7        42.099                                    21537356.783 3  88191840.38203      1498.224 3        22.248    21537354.790 6  88191868.33506      1498.385 6        38.550
E12        13.000    25203910.464 7 132447484.20907      1200.705 7        42.698                                                                    25203906.101 6  98905552.19406       896.672 6        40.596    25203903.843 6 101485770.48406       919.947 6        38.616
E29        14.000    23418523.362 8 123065161.91008      -783.292 8        48.994                                                                    23418520.880 8  91899321.42208      -584.961 8        48.657    23418520.150 8  94296664.33108      -600.239 8        49.500
G06        15.000    25142571.003 6 132125089.65906      2695.104 6        36.454
E26        19.000                                                                                                                                    26224133.450 6 102909122.75506     -2591.170 6        38.529    26224133.628 7 105593737.19307     -2658.806 7        42.849
E19        20.000    24408360.033 5 128266799.84105      1516.939 5        34.514                                                                    24408357.673 6  95783646.60306      1133.004 6        37.346    24408355.968 6  98282337.79406      1162.462 6        40.877
R06        21.000    19463425.628 6 103860556.27706     -2293.708 6        36.544
S36        23.000    38179906.188 6 200636732.39406      -849.539 6        36.401
S23        24.000    38129079.977 6 200369639.54006      -845.890 6        39.952
E33        28.000    23289919.519 7 122389336.51407     -1525.134 7        45.157                                                                    23289916.817 7  91394681.69707     -1138.942 7        47.657    23289915.899 7  93778845.28907     -1168.510 7        44.515
E10        29.000    26973836.095 5 141748522.58105      1852.305 5        33.413                                                                    26973834.593 6 105851190.67306      1383.237 6        38.018    26973833.402 5 108612465.96205      1419.027 5        34.152
R21        30.000    20180386.004 7 107989553.10907     -3775.728 7        44.691                                                                    20180388.100 6  83991720.09806     -2936.683 6        41.244
C20        31.000                                                                                                                                                                                                                                                                    24339641.080 6 102988993.42606      1416.749 6        37.928
R14        32.000                                                                                                                                    24009479.817 5  99543145.24405     -1829.242 5        32.174
R23        33.000    22928590.880 6 122652651.99306      3272.339 6        40.994
R07        34.000    20015645.445 8 107145413.17908      1188.070 8        48.236                                                                    20015643.969 7  83335253.98607       924.110 7        44.184
R22        35.000    19651753.243 8 104902790.02608       724.349 8        49.424                                                                    19651749.744 7  81590769.58207       563.395 7        42.851
C32        36.000                                                                                                                                    21749423.339 8 113254909.12708      -871.646 8        49.498                                                                    21749421.650 7  92028939.24907      -708.333 7        42.713
C30        38.000                                                                                                                                    22282598.572 7 116031342.75807     -2306.019 7        44.662                                                                    22282600.437 7  94284986.19407     -1873.897 7        45.359
C16        45.000                                                                                                                                    38765234.665 6 201860771.50706      -490.841 6        40.436    38765237.650 6 156091568.06006      -379.622 6        40.980    38765233.232 6 164028403.84106      -398.980 6        36.639
C39        46.000                                                                                                                                    38864376.931 6 202376995.65706      -944.833 6        39.309                                                                    38864375.111 5                      -767.837 5        31.706
C09        47.000                                                                                                                                    38949081.893 6 202818093.31506       103.277 6        38.937    38949080.265 7 156831817.51407        79.901 7        44.664    38949077.237 6 164806279.54606        84.042 6        40.646
C41        49.000                                                                                                                                    24211070.949 7 126073385.02507     -3412.708 7        46.154                                                                    24211075.764 7 102445022.04107     -2773.110 7        45.591
C06        50.000                                                                                                                                    38348999.959 5 199693294.61405      -371.288 5        32.311    38348992.001 7 154415635.20307      -286.978 7        43.344    38348991.116 5 162267126.70205      -301.396 5        35.343
C27        52.000                                                                                                                                    24674107.037 6 128484651.02706     -4224.958 6        39.844                                                                    24674108.176 5 104404220.86005     -3432.876 5        32.982
C29        54.000                                                                                                                                    23528115.319 8 122517081.07908      1005.830 8        49.962                                                                    23528112.013 7  99555199.05007       817.367 7        43.130
I01        59.000   376285060.232 6 173482580.62506     -2874.166 6        36.975
I09        60.000    37128018.664 6 145698304.56406      -736.946 6        38.120
> 2025 01 02 01 15  5.0000000  0 36
G03         1.000    19916438.705 8 104661572.24708      -560.384 8        50.630                                    19916435.691 7  81554481.89807      -436.663 7        47.809    19916437.173 7  81554508.91707      -436.650 7        43.071
G19         2.000    22707230.744 6 119327536.59306       936.599 6        38.664                                    22707224.783 4  92982246.72904       729.811 4        25.263
E25         4.000    28602736.471 4                     -1714.957 4        28.455                                                                    28602740.322 5                     -1280.721 5        30.430    28602740.117 5 115171432.18205     -1314.209 5        31.479
E07         5.000    26177284.037 6 137562527.54006     -3311.759 6        38.429                                                                    26177281.115 4 102725408.91904     -2472.125 4        28.957    26177292.202 4 105405149.65104     -2537.987 4        28.891
G28         7.000                                                                                                                                                                    23111305.255 5  94636903.58905      -849.225 5        32.359
G21         8.000    22819350.131 5 119916468.65405     -3601.913 5        32.970                                    22819339.979 1  93441396.60101     -2806.675 1        11.926
G02         9.000    21395314.712 7 112433134.44507     -2733.973 7        44.837                                    21395306.777 4  87610176.91504     -2130.365 4        27.653
G31        10.000    22549290.479 6 118497386.86906       750.421 6        36.737                                    22549286.906 1  92335559.40011       584.743 1        11.926    22549268.498 4  92335520.54004       584.897 4        27.737
G17        11.000    22211766.457 6 116723808.76606     -1132.739 6        39.504                                    22211764.221 4  90953521.49304      -882.646 4        29.166    22211763.089 6  90953455.46906      -882.575 6        36.957
G04        12.000    21535530.727 6 113170016.88206      1920.560 6        41.712                                    21535527.925 3  88184353.33703      1496.545 3        21.905    21535526.710 6  88184381.29606      1496.572 6        39.183
E12        13.000    25202768.555 7 132441483.38707      1199.509 7        42.732                                                                    25202763.840 6  98901071.06206       895.708 6        40.644    25202762.092 6 101481172.44506       919.083 6        38.327
E29        14.000    23419269.638 8 123069084.11708      -785.592 8        48.953                                                                    23419267.208 8  91902250.34308      -586.683 8        48.847    23419266.590 8  94299669.65908      -601.933 8        49.584
G06        15.000    25140010.307 6 132111614.95606      2694.791 6        37.036
E26        19.000    26227442.217 5 137826131.29615     -3471.025 5        34.057                                                                    26227436.194 6 102922081.08406     -2592.118 6        39.099    26227435.941 7 105607033.56507     -2659.722 7        43.416
E19        20.000    24406917.373 5 128259217.91005      1515.341 5        35.581                                                                    24406914.776 6  95777984.78706      1132.017 6        36.654    24406912.886 6  98276528.29506      1161.273 6        40.534
R06        21.000    19465575.343 5 103872031.12805     -2296.417 5        35.838
S36        23.000    38180712.900 6 200640980.42606      -849.767 6        36.295
S23        24.000    38129885.974 6 200373869.05706      -846.001 6        39.928
E33        28.000    23291371.349 7 122396966.59207     -1526.981 7        44.907                                                                    23291368.843 8  91400379.48408     -1140.301 8        48.051    23291368.171 7  93784691.71907     -1169.998 7        44.144
E10        29.000    26972074.490 5 141739262.54205      1851.797 5        33.988                                                                    26972072.559 6 105844275.73306      1382.906 6        37.921    26972071.319 5 108605370.61605      1418.777 5        34.190
R21        30.000    20183916.113 7 108008440.66907     -3779.325 7        44.193                                                                    20183916.582 6  84006410.40806     -2939.466 6        39.901
C20        31.000                                                                                                                                                                                                                                                                    24337967.151 6 102981911.92006      1415.774 6        37.422
R23        33.000    22925530.812 6 122636293.08006      3271.237 6        39.180
R07        34.000    20014538.267 8 107139479.89308      1185.173 8        49.541                                                                    20014535.436 7  83330639.18507       921.767 7        44.290
R22        35.000    19651076.549 8 104899178.05408       720.435 8        49.848                                                                    19651072.260 7  81587960.25707       560.420 7        42.423
C32        36.000                                                                                                                                    21750261.180 8 113259272.34108      -873.668 8        49.254                                                                    21750259.379 7  92032484.71807      -710.024 7        42.525
C30        38.000                                                                                                                                    22284814.718 7 116042879.67507     -2308.755 7        43.473                                                                    22284816.138 7  94294360.85907     -1876.101 7        45.624
C16        45.000                                                                                                                                    38765706.577 6 201863228.57506      -491.976 6        40.594    38765708.739 6 156093468.00806      -380.501 6        40.930    38765705.476 6 164030400.38106      -399.815 6        36.590
C39        46.000                                                                                                                                    38865285.192 6 202381722.35906      -945.876 6        39.279                                                                    38865282.921 5                      -768.355 5        31.487
C09        47.000                                                                                                                                    38948982.498 6 202817578.76506       102.424 6        38.982    38948981.153 7 156831419.62807        79.093 7        44.470    38948978.409 6 164805861.44106        83.047 6        40.498
C41        49.000                                                                                                                                    24214348.969 7 126090450.42207     -3413.502 7        46.259                                                                    24214353.038 7 102458889.07307     -2773.705 7        45.484
C06        50.000                                                                                                                                    38349356.920 5 199695152.69205      -372.227 5        32.653    38349349.363 7 154417071.98507      -287.821 7        43.583    38349347.656 5 162268636.54005      -302.432 5        35.200
C27        52.000                                                                                                                                    24678163.837 6 128505777.53106     -4225.685 6        38.090                                                                    24678165.506 5 104421387.89005     -3433.621 5        32.934
C29        54.000                                                                                                                                    23527150.503 8 122512058.00708      1003.359 8        49.436                                                                    23527147.386 7  99551117.38507       815.351 7        43.346
I01        59.000   376288721.559 6 173496951.35206     -2874.418 6        37.070
I09        60.000    37128957.905 6 145701990.51806      -737.309 6        38.060
> 2025 01 02 01 15 10.0000000  0 37
G03         1.000    19916972.416 8 104664378.18908      -562.342 8        50.180                                    19916969.656 7  81556668.35007      -438.186 7        47.665    19916970.284 7  81556695.36407      -438.318 7        42.832
G19         2.000    22706342.529 6 119322860.54906       933.445 6        36.435                                    22706334.720 4  92978603.05504       727.361 4        25.278
E25         4.000    28604369.641 4                     -1716.982 4        26.982                                                                    28604371.776 5                     -1282.236 5        30.430    28604371.456 5 115178006.19605     -1315.786 5        30.823
E07         5.000    26180435.978 6 137579087.58106     -3312.597 6        38.354                                                                    26180432.728 4 102737775.28604     -2474.004 4        28.853    26180439.848 4 105417838.46504     -2538.279 4        29.384
G28         7.000    23112342.043 6 121456288.15206     -1093.245 6        36.110
G21         8.000    22822778.202 6 119934479.88606     -3602.956 6        36.163                                    22822767.388 2  93455431.30502     -2807.541 2        12.061
G02         9.000    21397917.442 7 112446808.79607     -2736.116 7        44.477                                    21397908.604 4  87620832.23304     -2132.023 4        26.263
G31        10.000    22548570.515 5 118493640.73705       747.455 5        35.667                                    22548572.108 1  92332640.32301       582.410 1        11.778    22548562.588 4  92332601.48404       582.412 4        28.891
G17        11.000    22212847.375 6 116729479.12506     -1135.676 6        41.900                                    22212843.653 4  90957939.95704      -884.940 4        28.550    22212840.543 6  90957873.93006      -884.843 6        36.892
G04        12.000    21533704.192 6 113160418.34806      1918.519 6        41.316                                    21533700.864 3  88176873.93003      1494.949 3        22.267    21533700.559 6  88176901.90706      1494.953 6        40.389
E12        13.000    25201627.722 7 132435487.39707      1198.528 7        42.832                                                                    25201622.898 6  98896593.53706       895.052 6        40.358    25201621.630 6 101476578.10706       918.383 6        38.438
E29        14.000    23420018.300 8 123073016.65608      -787.642 8        49.159                                                                    23420015.548 8  91905186.97508      -588.200 8        48.785    23420014.997 8  94302682.90208      -603.570 8        49.565
G06        15.000    25137447.730 6 132098140.69706      2694.549 6        37.217
E26        19.000    26230742.748 5 137843488.62805     -3471.942 5        34.533                                                                    26230739.999 6 102935042.65706     -2592.719 6        39.159    26230738.984 7 105620333.27207     -2660.491 7        43.757
E19        20.000    24405475.988 6 128251642.98306      1514.155 6        36.284                                                                    24405473.325 5  95772328.21805      1130.612 5        35.733    24405470.999 6  98270724.13006      1160.195 6        40.007
R06        21.000    19467729.133 5 103883519.40605     -2299.007 5        35.410
S36        23.000    38181523.985 6 200645227.28506      -849.406 6        36.049
S23        24.000    38130688.438 6 200378098.16506      -845.969 6        39.772
E33        28.000    23292824.898 7 122404605.50007     -1528.792 7        44.772                                                                    23292822.406 7  91406083.85807     -1141.618 7        47.971    23292822.171 7  93790544.91507     -1171.465 7        43.822
E10        29.000    26970312.755 5 141730003.96005      1851.214 5        35.138                                                                    26970310.670 6 105837361.86406      1382.425 6        37.860    26970309.781 5 108598276.37305      1418.600 5        34.338
R21        30.000    20187449.205 7 108027344.40507     -3782.508 7        43.839                                                                    20187448.403 6  84021113.31506     -2941.940 6        38.279
C20        31.000                                                                                                                                                                                                                                                                    24336294.191 6 102974834.55006      1414.968 6        36.594
R14        32.000                                                                                                                                    24013912.315 4  99561465.63804     -1835.362 4        29.156
R23        33.000    22922474.314 6 122619939.39206      3270.102 6        38.111
R07        34.000    20013433.116 8 107133560.22508      1182.375 8        50.389                                                                    20013428.799 7  83326034.99507       919.613 7        44.761
R22        35.000    19650403.684 8 104895584.63108       716.689 8        50.021                                                                    19650399.512 7  81585165.38407       557.388 7        42.495
C32        36.000                                                                                                                                    21751100.660 8 113263644.58608      -875.474 8        49.735                                                                    21751099.048 7  92036037.50707      -711.470 7        42.811
C30        38.000                                                                                                                                    22287032.897 7 116054429.04007     -2311.281 7        43.558                                                                    22287034.157 7  94303745.62507     -1878.127 7        46.007
C16        45.000                                                                                                                                    38766179.589 6 201865689.92606      -492.828 6        40.784    38766180.817 6 156095371.29306      -381.154 6        40.970    38766177.921 6 164032400.43606      -400.610 6        36.563
C39        46.000                                                                                                                                    38866195.419 6 202386453.31706      -946.666 6        39.592                                                                    38866190.661 5                      -769.309 5        31.721
C09        47.000                                                                                                                                    38948884.645 6 202817068.01906       101.621 6        39.144    38948882.949 7 156831024.68407        78.567 7        44.441    38948880.336 6 164805446.38606        82.587 6        40.489
C41        49.000                                                                                                                                    24217626.986 7 126107518.77707     -3414.147 7        46.550                                                                    24217630.940 7 102472758.49307     -2774.375 7        45.600
C06        50.000                                                                                                                                    38349714.772 5 199697015.15105      -373.160 5        33.629    38349706.744 7 154418512.16207      -288.466 7        43.780    38349705.270 5 162270149.92805      -303.314 5        35.014
C27        52.000                                                                                                                                    24682222.662 5 128526907.52405     -4226.491 5        35.871                                                                    24682223.848 5 104438557.70605     -3434.668 5        32.737
C29        54.000                                                                                                                                    23526187.885 8 122507045.87208      1001.191 8        48.818                                                                    23526184.615 7  99547044.59507       813.437 7        43.833
I01        59.000   376292383.691 6 173511322.47206     -2874.324 6        36.881
I09        60.000    37129897.157 6 145705677.02706      -737.391 6        38.132
> 2025 01 02 01 15 15.0000000  0 37
G03         1.000    19917508.384 8 104667194.28408      -564.446 8        50.075                                    19917505.504 7  81558862.71007      -439.825 7        47.528    19917506.073 7  81558889.70907      -439.735 7        42.542
G19         2.000    22705455.225 5 119318200.18605       930.408 5        35.400                                    22705447.738 4  92974971.59404       725.001 4        26.228
E25         4.000    28606002.928 4                     -1718.971 4        26.491                                                                    28606007.138 5                     -1283.926 5        30.211    28606003.693 4 115184588.44404     -1317.544 4        29.735
E07         5.000    26183588.867 6 137595652.52106     -3313.619 6        37.864                                                                    26183585.451 4 102750145.22804     -2474.816 4        29.668    26183588.746 4 105430531.12504     -2538.933 4        29.848
G28         7.000    23113385.204 5 121461761.80605     -1096.377 5        34.186                                                                                                    23113365.103 4  94645421.20204      -854.657 4        24.767
G21         8.000    22826205.280 6 119952497.22906     -3604.274 6        38.501                                    22826195.907 2  93469470.80502     -2808.494 2        13.151
G02         9.000    21400521.578 7 112460493.92107     -2738.301 7        43.346                                    21400512.389 4  87631495.96004     -2133.740 4        24.256
G31        10.000    22547859.066 5 118489909.74805       744.447 5        35.024                                    22547860.480 2  92329733.02602       580.116 2        12.909    22547855.447 4  92329694.15204       580.117 4        29.810
G17        11.000    22213931.701 7 116735164.61407     -1138.774 7        43.515                                    22213925.696 4  90962370.21004      -887.369 4        28.607    22213923.208 6  90962304.22406      -887.333 6        36.987
G04        12.000    21531880.147 6 113150829.87506      1916.539 6        40.539                                    21531876.237 3  88169402.37903      1493.430 3        22.133    21531876.471 6  88169430.36506      1493.392 6        40.532
E12        13.000    25200487.262 7 132429496.48207      1197.520 7        42.973                                                                    25200482.992 6  98892119.80606       894.263 6        40.358    25200482.413 6 101471987.67206       917.458 6        38.363
E29        14.000    23420768.626 8 123076959.78408      -789.830 8        49.040                                                                    23420765.824 8  91908131.51908      -589.805 8        48.690    23420765.467 8  94305704.26308      -605.253 8        49.601
G06        15.000    25134880.957 6 132084667.02506      2694.421 6        36.287                                    25134884.577 1 102923149.47011      2099.579 1         9.238
E26        19.000    26234046.168 5 137860850.52405     -3473.150 5        34.248                                                                    26234044.327 6 102948007.68506     -2593.467 6        39.321    26234042.982 7 105633636.53007     -2661.131 7        43.981
E19        20.000    24404035.959 6 128244075.27306      1512.586 6        36.355                                                                    24404033.273 5  95766677.00105      1129.637 5        35.057    24404030.535 6  98264925.49306      1159.042 6        39.556
R06        21.000    19469884.488 5 103895021.20405     -2301.808 5        35.348
S36        23.000    38182329.932 6 200649473.33306      -849.290 6        36.208
S23        24.000    38131494.403 6 200382327.36406      -846.096 6        39.694
E33        28.000    23294279.926 7 122412253.47007     -1530.614 7        44.417                                                                    23294277.772 8  91411795.00908     -1143.027 8        48.000    23294277.934 7  93796405.05707     -1172.781 7        43.628
E10        29.000    26968551.719 6 141720747.07606      1850.949 6        36.087                                                                    26968549.161 6 105830449.22906      1382.319 6        37.679    26968549.357 5 108591183.45205      1417.958 5        35.038
R21        30.000    20190985.879 7 108046264.72307     -3785.812 7        45.177                                                                    20190984.063 6  84035829.12106     -2944.485 6        36.416
C20        31.000                                                                                                                                                                                                                                                                    24334622.204 5 102967761.57705      1414.169 5        35.609
R14        32.000    24016101.043 4                     -2364.081 4        24.045
R23        33.000    22919418.454 6 122603591.04906      3269.033 6        37.716
R07        34.000    20012330.244 8 107127654.29108      1179.624 8        50.054                                                                    20012326.096 7  83321441.49907       917.479 7        45.518
R22        35.000    19649733.641 8 104892010.08008       712.914 8        50.042                                                                    19649730.308 7  81582385.18607       554.432 7        42.737
C32        36.000                                                                                                                                    21751941.791 8 113268026.11608      -877.383 8        50.290                                                                    21751940.418 7  92039597.88907      -712.926 7        42.902
C30        38.000                                                                                                                                    22289253.661 7 116065991.09907     -2313.809 7        44.364                                                                    22289254.465 7  94313140.75507     -1880.235 7        45.908
C16        45.000                                                                                                                                    38766653.753 6 201868155.85006      -493.791 6        40.992    38766654.149 6 156097278.10106      -381.997 6        40.520    38766651.245 6 164034404.18806      -401.296 6        36.665
C39        46.000                                                                                                                                    38867106.075 6 202391188.78906      -947.702 6        39.357                                                                    38867099.903 5                      -770.029 5        31.411
C09        47.000                                                                                                                                    38948787.156 6 202816561.33606       100.821 6        39.189    38948785.892 7 156830632.88907        77.934 7        44.364    38948782.949 6 164805034.67406        81.926 6        40.608
C41        49.000                                                                                                                                    24220905.308 7 126124590.31607     -3414.764 7        46.568                                                                    24220909.360 7 102486630.52407     -2774.864 7        45.448
C06        50.000                                                                                                                                    38350073.087 5 199698882.25805      -374.075 5        33.479    38350065.334 7 154419955.92507      -289.280 7        43.670    38350063.980 5 162271667.12105      -303.986 5        34.743
C27        52.000                                                                                                                                    24686280.952 5 128548041.18805     -4227.369 5        34.176                                                                    24686282.610 5 104455730.53105     -3435.169 5        32.748
C29        54.000                                                                                                                                    23525227.883 8 122502044.94908       998.919 8        48.004                                                                    23525224.168 7  99542980.92207       811.663 7        43.941
I01        59.000   376296046.146 6 173525694.20606     -2874.401 6        36.779
I09        60.000    37130836.915 6 145709364.32506      -737.753 6        38.348
> 2025 01 02 01 15 20.0000000  0 38
G03         1.000    19918046.632 8 104670021.16408      -566.470 8        49.997                                    19918043.369 7  81561065.47407      -441.404 7        47.417    19918044.141 7  81561092.47707      -441.444 7        42.493
G19         2.000    22704570.810 5 119313556.16405       927.251 5        35.005                                    22704563.806 4  92971352.86104       722.542 4        27.257
E25         4.000    28607638.764 4                     -1721.533 4        27.677                                                                    28607643.828 5                     -1285.281 5        30.460    28607636.119 4 115191179.40604     -1319.012 4        29.014
E07         5.000    26186742.650 6 137612222.93906     -3314.498 6        37.323                                                                    26186739.351 4 102762519.23604     -2475.059 4        29.744    26186740.612 4 105443227.93304     -2539.776 4        29.867
G28         7.000    23114432.409 5 121467252.68805     -1100.088 5        31.102
G21         8.000    22829634.245 6 119970521.26606     -3605.478 6        39.685                                    22829625.739 2  93483515.48502     -2809.487 2        14.714
G02         9.000    21403127.108 6 112474190.45406     -2740.269 6        39.811                                    21403117.991 3  87642168.55703     -2135.264 3        22.019
G31        10.000    22547153.496 5 118486194.52105       741.594 5        34.800                                    22547152.220 2  92326838.00402       577.880 2        12.848    22547146.565 4  92326799.11304       578.144 4        28.142
G17        11.000    22215015.999 7 116740865.85407     -1141.761 7        43.570                                    22215010.538 4  90966812.72804      -889.686 4        29.147    22215008.798 6  90966746.72906      -889.668 6        37.043
G04        12.000    21530057.889 6 113141252.10806      1914.419 6        39.420                                    21530053.706 3  88161939.16203      1491.760 3        22.762    21530053.237 6  88161967.15206      1491.814 6        40.231
E12        13.000    25199348.149 7 132423511.28307      1196.479 7        42.967                                                                    25199343.859 6  98887650.34106       893.654 6        40.279    25199344.273 6 101467401.61406       916.672 6        38.598
E29        14.000    23421520.954 8 123080914.11508      -791.920 8        48.955                                                                    23421518.360 8  91911084.42608      -591.423 8        48.737    23421518.102 8  94308734.20008      -606.815 8        49.760
G06        15.000    25132310.322 5 132071194.63605      2694.340 5        34.567                                    25132322.203 1 102912651.46801      2099.537 1         7.500
E26        19.000    26237348.524 5 137878217.60805     -3473.990 5        33.329                                                                    26237349.637 6 102960976.61706     -2594.048 6        39.009    26237347.697 7 105646943.78607     -2661.799 7        44.232
E19        20.000    24402596.433 6 128236515.35106      1511.293 6        36.287                                                                    24402594.613 5  95761031.61105      1128.602 5        34.010    24402591.603 6  98259132.83506      1157.983 6        39.054
R06        21.000    19472040.588 5 103906537.12605     -2304.609 5        35.290
R15        22.000    23447866.533 5 125298306.19515       658.250 5        32.838
S36        23.000    38183138.362 6 200653720.07906      -849.120 6        36.329
S23        24.000    38132296.934 6 200386557.15306      -846.070 6        39.955
E33        28.000    23295737.041 7 122419911.14407     -1532.399 7        44.211                                                                    23295734.975 7  91417513.40007     -1144.404 7        47.937    23295735.463 7  93802272.62607     -1174.218 7        43.602
E10        29.000    26966790.457 6 141711492.48606      1850.675 6        36.949                                                                    26966788.000 6 105823538.35206      1381.956 6        37.546    26966789.368 5 108584092.25705      1418.232 5        35.695
R21        30.000    20194526.512 7 108065202.16007     -3789.140 7        45.377                                                                    20194524.414 5  84050558.22905     -2947.148 5        34.767
C20        31.000                                                                                                                                                                                                                                                                    24332951.418 5 102960693.47105      1413.084 5        34.957
R14        32.000                                                                                                                                    24018326.879 3                     -1839.380 3        23.867
R23        33.000    22916365.171 6 122587248.90206      3267.821 6        37.206
R07        34.000    20011228.490 8 107121762.82708      1176.925 8        49.049                                                                    20011226.035 7  83316859.27707       915.387 7        46.136
R22        35.000    19649067.583 8 104888455.02508       709.059 8        49.799                                                                    19649064.760 7  81579620.13407       551.535 7        42.303
C32        36.000                                                                                                                                    21752784.646 8 113272417.56208      -879.219 8        50.472                                                                    21752783.794 7  92043166.30307      -714.407 7        43.082
C30        38.000                                                                                                                                    22291476.178 7 116077566.46907     -2316.573 7        45.354                                                                    22291477.118 7  94322546.66907     -1882.357 7        45.997
C16        45.000                                                                                                                                    38767128.166 6 201870626.95906      -494.754 6        41.359    38767127.861 6 156099188.90306      -382.520 6        40.303    38767125.783 6 164036412.15106      -402.043 6        36.408
C39        46.000                                                                                                                                    38868017.201 6 202395929.37206      -948.432 6        39.342                                                                    38868010.531 5                      -770.788 5        32.000
C09        47.000                                                                                                                                    38948691.159 6 202816059.36406       100.018 6        39.219    38948689.415 7 156830244.74207        77.268 7        44.372    38948686.596 6 164804626.77206        81.230 6        40.493
C41        49.000                                                                                                                                    24224184.246 7 126141665.66007     -3415.388 7        46.707                                                                    24224188.707 7 102500505.62107     -2775.305 7        45.475
C06        50.000                                                                                                                                    38350431.602 5 199700754.65205      -375.177 5        33.665    38350425.160 7 154421403.78107      -289.930 7        43.782    38350423.117 5 162273188.56505      -304.675 5        34.748
C27        52.000                                                                                                                                    24690341.396 5 128569179.15805     -4227.867 5        33.060                                                                    24690342.257 5 104472906.83705     -3435.661 5        33.455
C29        54.000                                                                                                                                    23524269.641 7 122497055.85107       996.668 7        47.112                                                                    23524266.054 7  99538926.84507       809.798 7        44.272
I01        59.000   376299708.927 6 173540067.07806     -2874.740 6        36.654
I09        60.000    37131777.685 6 145713052.83706      -737.655 6        38.297
> 2025 01 02 01 15 25.0000000  0 38
G03         1.000    19918586.396 8 104672858.14208      -568.742 8        50.487                                    19918583.183 7  81563276.10607      -443.176 7        47.283    19918584.076 7  81563303.09607      -443.090 7        42.377
G19         2.000    22703693.563 6 119308927.71906       923.847 6        38.865                                    22703682.936 4  92967746.27404       719.885 4        27.760
E25         4.000    28609278.893 4                     -1723.761 4        26.467                                                                    28609282.834 5                     -1287.298 5        30.226    28609274.101 4 115197778.56404     -1320.796 4        28.313
E07         5.000    26189897.157 6 137628798.14306     -3315.848 6        36.302                                                                    26189893.988 5 102774896.86305     -2475.982 5        30.075    26189893.302 5 105455928.41005     -2541.102 5        31.026
G09         6.000    23670954.280 5                      2799.512 5        34.033
G28         7.000    23115480.930 4 121472759.85304     -1103.525 4        25.008
G21         8.000    22833065.440 6 119988551.33106     -3606.868 6        40.863                                    22833056.905 2  93497564.90402     -2810.544 2        16.641
G02         9.000    21405735.079 5 112487897.69305     -2742.692 5        35.910                                    21405725.376 3  87652849.49603     -2137.160 3        18.836
G31        10.000    22546448.572 5 118482494.37905       738.117 5        34.852                                    22546447.157 1  92323954.75101       575.097 1        11.778    22546447.105 4  92323915.93104       575.388 4        29.374
G17        11.000    22216100.479 7 116746582.16507     -1144.973 7        43.372                                    22216098.113 5  90971266.99205      -892.189 5        30.226    22216097.261 6  90971200.97106      -892.028 6        37.267
G04        12.000    21528237.420 6 113131684.35206      1912.113 6        39.321                                    21528232.884 3  88154483.76003      1489.970 3        23.410    21528232.869 6  88154511.74006      1490.071 6        40.307
E12        13.000    25198210.289 7 132417531.11907      1195.226 7        42.645                                                                    25198206.066 6  98883184.64006       892.476 6        40.019    25198206.943 6 101462819.40506       915.807 6        38.865
E29        14.000    23422275.341 8 123084878.97008      -794.310 8        48.557                                                                    23422272.843 8  91914045.18708      -593.147 8        48.594    23422272.625 8  94311772.20608      -608.619 8        50.002
G06        15.000    25129743.822 5 132057722.80005      2694.086 5        33.527                                    25129759.999 1 102902154.04401      2099.192 1         6.875
E26        19.000    26240654.171 5 137895589.26205     -3475.182 5        32.383                                                                    26240655.382 6 102973948.93906     -2594.824 6        38.150    26240653.167 7 105660254.53207     -2662.682 7        44.125
E19        20.000    24401158.484 5 128228962.52905      1509.724 5        35.395                                                                    24401157.731 5  95755391.55605      1127.196 5        32.778    24401154.241 6  98253345.62506      1156.566 6        38.342
R06        21.000    19474202.807 5 103918066.60205     -2307.688 5        35.410
R15        22.000    23447247.193 5 125295024.39605       654.340 5        32.383
S36        23.000    38183945.328 6 200657966.41406      -849.729 6        36.628
S23        24.000    38133105.390 6 200390786.78506      -846.188 6        40.067
E33        28.000    23297195.850 7 122427577.85207     -1534.518 7        43.913                                                                    23297193.870 7  91423238.53607     -1145.943 7        47.627    23297194.363 7  93808147.12907     -1175.799 7        43.543
E10        29.000    26965030.143 6 141702239.54606      1850.405 6        37.800                                                                    26965027.243 6 105816628.69806      1381.387 6        37.142    26965028.845 6 108577002.35506      1417.634 6        36.457
R21        30.000    20198069.542 7 108084156.01907     -3792.605 7        42.559                                                                    20198068.851 5  84065300.14605     -2950.257 5        33.048
C20        31.000                                                                                                                                                                                                                                                                    24331281.906 5 102953629.68605      1412.249 5        34.986
R23        33.000    22913311.701 6 122570912.15106      3266.457 6        36.892
R07        34.000    20010129.208 8 107115885.12808      1173.823 8        49.147                                                                    20010127.894 7  83312287.74007       913.027 7        45.455
R22        35.000    19648404.954 8 104884918.78608       705.105 8        49.331                                                                    19648402.028 6  81576869.72306       548.343 6        41.414
C32        36.000                                                                                                                                    21753629.111 8 113276818.23908      -881.365 8        50.142                                                                    21753628.848 7  92046742.22107      -716.170 7        43.236
C30        38.000                                                                                                                                    22293700.687 7 116089154.44707     -2319.137 7        46.387                                                                    22293702.301 7  94331962.86207     -1884.470 7        45.762
C16        45.000                                                                                                                                    38767604.312 6 201873102.55406      -495.916 6        41.421    38767602.808 6 156101103.18406      -383.383 6        40.303    38767601.408 6 164038423.78706      -403.015 6        36.582
C39        46.000                                                                                                                                    38868928.889 6 202400674.42206      -949.747 6        38.700                                                                    38868921.525 5                      -771.499 5        31.909
C09        47.000                                                                                                                                    38948595.549 6 202815561.43306        98.825 6        39.051    38948593.571 7 156829859.70907        76.451 7        44.302    38948590.930 6 164804222.15906        80.463 6        40.667
C41        49.000                                                                                                                                    24227463.736 7 126158744.12907     -3416.294 7        46.775                                                                    24227468.495 7 102514383.27207     -2775.966 7        45.553
C06        50.000                                                                                                                                    38350791.499 5 199702631.60905      -376.203 5        33.575    38350785.627 7 154422855.16307      -290.822 7        43.985    38350783.268 5 162274713.71405      -305.351 5        34.395
C27        52.000                                                                                                                                    24694403.360 5 128590320.77905     -4228.969 5        34.100                                                                    24694402.344 5 104490086.10905     -3436.319 5        34.052
C29        54.000                                                                                                                                    23523313.083 7 122492077.91007       994.174 7        46.039                                                                    23523309.978 7  99534881.83907       807.936 7        44.491
I01        59.000   376303371.669 6 173554440.46706     -2875.068 6        36.405
I09        60.000    37132717.527 6 145716742.09806      -738.131 6        38.165
> 2025 01 02 01 15 30.0000000  0 38
G03         1.000    19919128.095 8 104675705.13908      -570.210 8        50.603                                    19919124.898 7  81565494.54307      -444.317 7        47.180    19919125.403 7  81565521.53307      -444.285 7        42.000
G19         2.000    22702817.976 6 119304314.86506       921.229 6        41.630                                    22702804.987 4  92964151.85204       717.841 4        28.787
E25         4.000    28610922.339 4                     -1725.978 4        28.455                                                                    28610922.372 5                     -1288.662 5        30.128    28610914.654 4 115204385.90304     -1322.362 4        26.407
E07         5.000    26193052.723 5 137645378.11505     -3316.551 5        35.729                                                                    26193048.962 5 102787278.02805     -2476.895 5        30.400    26193047.860 5 105468632.55205     -2541.435 5        31.094
G09         6.000    23668296.983 6 124377703.91516      2799.768 6        36.336                                    23668310.450 1  96917776.05711      2181.599 1         8.095
G28         7.000                                                                                                                                                                    23116555.750 3                      -859.199 3        20.810
G21         8.000    22836497.623 6 120006587.35906     -3607.720 6        41.695                                    22836489.278 2  93511618.94902     -2811.215 2        17.170
G02         9.000    21408346.678 5 112501615.57605     -2744.383 5        32.868                                    21408335.287 2  87663538.78302     -2138.509 2        15.238
G31        10.000    22545747.201 5 118478809.28305       735.539 5        35.329                                    22545745.801 1  92321083.29901       573.134 1        11.926    22545746.225 4  92321044.39404       573.681 4        29.460
G17        11.000    22217190.554 7 116752313.45907     -1147.589 7        43.873                                    22217188.460 5  90975732.92305      -894.217 5        30.906    22217188.025 6  90975666.90306      -894.346 6        37.350
G04        12.000    21526419.535 6 113122126.54206      1910.732 6        40.434                                    21526414.280 4  88147036.12004      1488.882 4        24.030    21526414.569 6  88147064.11006      1488.900 6        40.682
E12        13.000    25197073.131 7 132411555.94107      1194.636 7        42.385                                                                    25197069.086 6  98878722.65606       892.200 6        40.343    25197070.486 6 101458241.02406       915.426 6        38.952
