     3.04           OBSERVATION DATA    M                   RINEX VERSION / TYPE
ssrcrin-15.6.1x                         20250102 013000 UTC PGM / RUN BY / DATE 
(00000000023479385599111004) Septentrio proprietary         COMMENT             
ract                                                        MARKER NAME         
01                                                          MARKER NUMBER       
geodetic                                                    MARKER TYPE         
NFB                 CLIMERS@TUW                             OBSERVER / AGENCY   
3296359             SEPT ASTERX SB3 PROB4.14.4              REC # / TYPE / VERS 
Unknown             Unknown                                 ANT # / TYPE        
  4127445.6406  1206914.3298  4695543.3778                  APPROX POSITION XYZ 
        0.0000        0.0000        0.0000                  ANTENNA: DELTA H/E/N
G   23 X1  C1C L1C D1C S1C C1W S1W C2W L2W D2W S2W C2L L2L  SYS / # / OBS TYPES 
       D2L S2L C5Q L5Q D5Q S5Q C1L L1L D1L S1L              SYS / # / OBS TYPES 
E   21 X1  C1C L1C D1C S1C C6C L6C D6C S6C C5Q L5Q D5Q S5Q  SYS / # / OBS TYPES 
       C7Q L7Q D7Q S7Q C8Q L8Q D8Q S8Q                      SYS / # / OBS TYPES 
S    9 X1  C1C L1C D1C S1C C5I L5I D5I S5I                  SYS / # / OBS TYPES 
R   17 X1  C1C L1C D1C S1C C2P L2P D2P S2P C2C L2C D2C S2C  SYS / # / OBS TYPES 
       C3Q L3Q D3Q S3Q                                      SYS / # / OBS TYPES 
C   25 X1  C1P L1P D1P S1P C5P L5P D5P S5P C2I L2I D2I S2I  SYS / # / OBS TYPES 
       C7I L7I D7I S7I C6I L6I D6I S6I C7D L7D D7D S7D      SYS / # / OBS TYPES 
J   17 X1  C1C L1C D1C S1C C2L L2L D2L S2L C5Q L5Q D5Q S5Q  SYS / # / OBS TYPES 
       C1L L1L D1L S1L                                      SYS / # / OBS TYPES 
I    5 X1  C5A L5A D5A S5A                                  SYS / # / OBS TYPES 
SEPTENTRIO RECEIVERS OUTPUT ALIGNED CARRIER PHASES.         COMMENT             
NO FURTHER PHASE SHIFT APPLIED IN THE RINEX ENCODER.        COMMENT             
G L1C                                                       SYS / PHASE SHIFT   
G L2W                                                       SYS / PHASE SHIFT   
G L2L  0.00000                                              SYS / PHASE SHIFT   
G L5Q  0.00000                                              SYS / PHASE SHIFT   
G L1L  0.00000                                              SYS / PHASE SHIFT   
E L1C  0.00000                                              SYS / PHASE SHIFT   
E L6C  0.00000                                              SYS / PHASE SHIFT   
E L5Q  0.00000                                              SYS / PHASE SHIFT   
E L7Q  0.00000                                              SYS / PHASE SHIFT   
E L8Q  0.00000                                              SYS / PHASE SHIFT   
S L1C                                                       SYS / PHASE SHIFT   
S L5I                                                       SYS / PHASE SHIFT   
R L1C                                                       SYS / PHASE SHIFT   
R L2P  0.00000                                              SYS / PHASE SHIFT   
R L2C                                                       SYS / PHASE SHIFT   
R L3Q  0.00000                                              SYS / PHASE SHIFT   
C L1P  0.00000                                              SYS / PHASE SHIFT   
C L5P  0.00000                                              SYS / PHASE SHIFT   
C L2I                                                       SYS / PHASE SHIFT   
C L7I                                                       SYS / PHASE SHIFT   
C L6I                                                       SYS / PHASE SHIFT   
C L7D                                                       SYS / PHASE SHIFT   
J L1C                                                       SYS / PHASE SHIFT   
J L2L  0.00000                                              SYS / PHASE SHIFT   
J L5Q  0.00000                                              SYS / PHASE SHIFT   
J L1L  0.00000                                              SYS / PHASE SHIFT   
I L5A                                                       SYS / PHASE SHIFT   
  2025     1     2     1    30    0.0000000     GPS         TIME OF FIRST OBS   
 C1C    0.000 C2C    0.000 C2P    0.000                     GLONASS COD/PHS/BIS 
DBHZ                                                        SIGNAL STRENGTH UNIT
    18                                                      LEAP SECONDS        
 24 R01  1 R02 -4 R03  5 R04  6 R05  1 R06 -4 R07  5 R08  6 GLONASS SLOT / FRQ #
    R09 -2 R10 -7 R11  0 R12 -1 R13 -2 R14 -7 R15  0 R16 -1 GLONASS SLOT / FRQ #
    R17  4 R18 -3 R19  3 R20  2 R21  4 R22 -3 R23  3 R24  2 GLONASS SLOT / FRQ #
                                                            END OF HEADER       
> 2025 01 02 01 30  0.0000000  0 38
G03         1.000    20043011.422 7 105326716.51507      -926.031 7        45.332                                    20043007.527 6  82072776.18906      -721.584 6        38.267    20043009.080 6  82072803.17606      -721.663 6        38.072
G19         2.000    22597181.529 7 118749198.80407       347.605 7        42.690                                    22597171.519 3  92531594.15003       270.856 3        18.298
E25         4.000    28927009.959 3                     -2087.494 3        21.976                                                                    28927039.340 4                     -1559.066 4        26.455
E07         5.000                                                                                                                                    26755128.371 5 104992881.34305     -2588.683 5        32.922    26755123.936 5 107731861.32605     -2656.353 5        33.156
G09         6.000    23218469.933 6 122013871.79106      2626.033 6        39.856                                    23218463.446 3  95075726.56403      2046.261 3        22.400    23218463.090 5  95075752.55205      2046.093 5        31.283
G28         7.000    23347317.884 5 122690931.97805     -1680.080 5        32.563                                    23347305.451 1  95603321.05601     -1309.107 1        10.518    23347309.359 6  95603298.07306     -1309.093 6        38.438
G21         8.000    23450543.043 5 123233454.94505     -3804.757 5        30.385                                    23450535.431 2  96026004.60502     -2964.748 2        12.727
G02         9.000    21893322.262 7 115050182.85707     -3109.839 7        42.455                                    21893311.240 3  89649414.98403     -2423.263 3        22.419
G31        10.000    22469574.832 4 118078399.53504       175.146 4        27.748                                    22469579.646 2  92009199.98202       136.524 2        12.424
G17        11.000    22450483.419 6 117978292.05906     -1667.023 6        40.727                                    22450478.986 6  91931035.33406     -1298.984 6        37.595    22450479.958 6  91930953.34706     -1298.961 6        41.981
G04        12.000    21240695.837 5 111620600.28805      1534.014 5        34.300                                    21240684.195 3  86977013.48603      1195.326 3        22.267    21240683.313 7  86977045.52207      1195.305 7        44.653
E12        13.000    25015320.744 7 131456435.84107       994.540 7        44.545                                                                    25015315.501 6  98165483.62306       742.702 6        40.651    25015316.510 7 100726395.74107       762.119 7        43.697
E29        14.000    23585124.071 5 123940583.13005     -1159.715 5        30.234                                                                    23585108.466 7  92553045.37307      -865.684 7        47.566    23585108.413 8  94967441.97608      -888.227 8        48.000
G06        15.000    24684696.014 5                      2642.063 5        32.251                                                                                                    24684693.588 4 101079718.09304      2058.149 4        28.957
R08        18.000                                                                                                                                    23432440.500 4                      2149.126 4        26.575
E26        19.000    26832319.179 5 141004799.90405     -3628.497 5        34.810                                                                    26832315.320 4 105295775.03104     -2709.706 4        25.910    26832309.277 4                     -2780.365 4        28.844
E19        20.000    24171666.094 6 127022959.60906      1242.487 6        41.485                                                                    24171664.713 6  94854817.54406       927.806 6        39.447    24171664.462 6  97329278.35706       951.968 6        37.629
R15        22.000    23394724.884 4                       -23.042 4        26.084                                                                    23394775.321 3                       -19.034 3        21.071
S36        23.000    38325444.704 6 201401560.42406      -850.673 6        37.032
S23        24.000    38274001.821 6 201131204.38406      -846.718 6        40.872
E33        28.000    23579541.720 7 123911316.53307     -1858.317 7        45.293                                                                    23579539.709 8  92531225.04608     -1387.723 8        48.415    23579538.514 7  94945037.53707     -1423.900 7        45.270
E10        29.000    26663085.609 3                      1769.654 3        19.731                                                                    26663090.301 6 104631767.18406      1321.824 6        41.113    26663089.244 6 107361231.27806      1356.234 6        40.663
R21        30.000    20863439.048 7 111644502.44307     -4332.634 7        45.290                                                                    20863440.535 6  86834596.88006     -3369.752 6        39.904
C20        31.000                                                                                                                                    24055721.508 6 125264851.29306      1539.362 6        36.805                                                                    24055715.510 5 101787600.99205      1250.832 5        35.776
R14        32.000    24461417.628 4                     -2988.736 4        29.137                                                                    24461391.339 3                     -2325.875 3        22.438
R23        33.000    22397823.335 5 119813409.69705      3017.882 5        30.008
R07        34.000    19858411.438 8 106303728.83008       680.330 8        49.773                                                                    19858408.661 6  82680610.57906       529.157 6        41.807
R22        35.000    19589164.931 7 104568300.44107         6.156 7        45.678                                                                    19589162.928 5                         4.914 5        33.030
C32        36.000                                                                                                                                    21928641.503 8 114188150.16408     -1198.771 8        49.300                                                                    21928640.459 7  92787274.04307      -974.101 7        46.636
C30        38.000                                                                                                                                    22719948.389 8 118308733.08008     -2748.643 8        50.480                                                                    22719948.088 7  96135551.11707     -2233.518 7        42.118
C16        45.000                                                                                                                                    38864405.759 5 202377186.25605      -656.283 5        33.138    38864408.178 6 156490892.80206      -507.387 6        39.574    38864406.497 5 164448033.20405      -533.032 5        34.271
C39        46.000                                                                                                                                    39041724.311 6 203300589.95506     -1106.064 6        37.792
C09        47.000                                                                                                                                    38944242.552 6 202792894.46706       -48.077 6        40.570    38944239.830 7 156812332.40307       -37.083 7        43.295    38944236.959 6 164785803.68806       -39.088 6        37.996
C41        49.000                                                                                                                                    24810115.307 6 129192731.49106     -3513.778 6        38.381                                                                    24810114.885 5 104979745.73805     -2855.454 5        35.462
C06        50.000                                                                                                                                    38427774.549 7 200103497.20907      -540.213 7        43.551    38427765.499 7 154732829.81707      -417.675 7        43.788    38427766.045 6 162600449.80206      -439.006 6        41.318
C27        52.000                                                                                                                                    25414440.373 5                     -4332.097 5        33.419                                                                    25414433.656 5 107536783.35505     -3520.077 5        32.455
C29        54.000                                                                                                                                    23390757.060 5                       578.985 5        34.024                                                                    23390759.135 4  98974023.60604       467.435 4        28.417
I01        59.000   376946920.477 5 176079868.12905     -2897.375 5        34.838
> 2025 01 02 01 30  5.0000000  0 37
G03         1.000    20043893.283 7 105331350.46007      -927.860 7        45.549                                    20043889.872 6  82076387.07006      -723.010 6        38.613    20043891.914 6  82076414.04506      -722.833 6        39.054
G19         2.000    22596849.810 7 118747468.68707       344.289 7        42.210                                    22596841.773 2  92530245.99002       268.263 2        17.547
E25         4.000                                                                                                                                    28929025.934 4                     -1560.395 4        25.444
E07         5.000                                                                                                                                    26758426.978 5 105005826.04805     -2589.390 5        32.479    26758423.304 5 107745143.66805     -2656.490 5        32.683
G09         6.000    23215971.278 6 122000743.23506      2625.279 6        37.750                                    23215965.186 3  95065496.52703      2045.667 3        20.452    23215964.382 5  95065522.51805      2045.689 5        31.381
G28         7.000    23348919.171 5 122699339.58805     -1682.649 5        32.036                                    23348905.478 1  95609872.42201     -1311.125 1        11.333    23348909.127 6  95609849.45406     -1311.443 6        38.577
G21         8.000    23454163.426 5 123252478.75205     -3805.151 5        31.660                                    23454155.545 1  96040828.36701     -2965.066 1        11.926
G02         9.000    21896281.624 6 115065735.91306     -3111.614 6        41.731                                    21896271.597 3  89661534.25503     -2424.641 3        23.581
G31        10.000    22469405.639 3                       168.772 3        23.543                                                                                                    22469407.001 5                       134.191 5        30.400
G17        11.000    22452071.010 6 117986633.24206     -1669.760 6        41.538                                    22452066.425 6  91937534.96106     -1301.118 6        38.303    22452067.287 6  91937453.00206     -1301.134 6        41.926
G04        12.000    21239235.906 6 111612935.11106      1531.924 6        37.482                                    21239225.454 3  86971040.64403      1193.706 3        23.467    21239224.868 7  86971072.63607      1193.747 7        44.736
E12        13.000    25014374.493 7 131451464.88407       993.551 7        44.349                                                                    25014369.594 6  98161771.54406       741.992 6        40.858    25014370.492 7 100722586.82107       761.360 7        43.354
E29        14.000    23586229.154 4 123946383.00704     -1160.781 4        29.735                                                                    23586212.193 7  92557376.54307      -866.943 7        47.918    23586212.114 7  94971886.14607      -889.622 7        47.830
G06        15.000    24682179.787 5                      2641.830 5        33.701                                                                                                    24682179.061 5 101069424.56605      2058.267 5        30.400
E26        19.000    26835771.567 5 141022943.95605     -3629.204 5        34.219                                                                                                                                    26835762.228 4                     -2781.000 4        29.308
E19        20.000    24170484.455 6 127016749.73306      1241.161 6        41.032                                                                    24170483.075 6  94850180.28606       926.946 6        39.330    24170482.644 6  97324520.12106       951.148 6        37.985
R06        21.000    19892314.622 5 106149194.73915     -2751.994 5        30.762
R15        22.000    23394737.346 4                       -25.634 4        24.120                                                                    23394801.672 3                       -24.642 3        21.881
S36        23.000    38326253.044 6 201405812.07106      -850.225 6        37.146
S23        24.000    38274809.097 6 201135436.57406      -846.436 6        40.958
E33        28.000    23581310.415 7 123920611.50107     -1859.889 7        45.655                                                                    23581308.562 8  92538166.08908     -1388.897 8        48.709    23581307.052 7  94952159.64307     -1425.121 7        45.109
E10        29.000                                                                                                                                    26661406.208 6 104625158.18206      1321.577 6        41.266    26661405.042 6 107354449.84006      1356.155 6        40.510
R21        30.000    20867487.997 7 111666170.94607     -4335.172 7        45.261                                                                    20867490.248 6  86851450.17606     -3371.752 6        39.829
C20        31.000                                                                                                                                    24054243.107 6 125257156.60106      1538.149 6        36.355                                                                    24054235.902 5 101781348.42205      1250.123 5        35.200
R23        33.000    22395002.304 4 119798323.97804      3016.545 4        29.810
R07        34.000    19857777.458 8 106300332.94908       677.839 8        50.091                                                                    19857774.291 7  82677969.34207       527.112 7        42.980
R22        35.000    19589163.062 7 104568279.37517         2.156 7        47.831                                                                    19589164.672 5                         1.692 5        31.834
C32        36.000                                                                                                                                    21929792.981 8 114194147.07608     -1200.267 8        48.930                                                                    21929792.202 7  92792147.00907      -975.301 7        46.530
C30        38.000                                                                                                                                    22722587.948 8 118322480.70508     -2750.633 8        49.983                                                                    22722588.357 7  96146722.16407     -2235.042 7        42.806
C16        45.000                                                                                                                                    38865036.474 5 202380468.24405      -656.817 5        32.826    38865038.128 6 156493430.65806      -508.038 6        39.384    38865036.901 5 164450700.08305      -533.677 5        33.766
C39        46.000                                                                                                                                    39042788.503 6 203306120.72706     -1106.607 6        37.921
C09        47.000                                                                                                                                    38944289.146 6 202793135.33906       -48.524 6        40.849    38944286.114 7 156812518.66207       -37.437 7        43.536    38944283.220 6 164785999.41506       -39.473 6        37.849
C41        49.000                                                                                                                                    24813488.693 6 129210300.37506     -3514.050 6        37.618                                                                    24813488.705 5 104994021.86005     -2855.379 5        35.352
C06        50.000                                                                                                                                    38428293.111 7 200106199.30507      -540.934 7        43.672    38428284.472 7 154734919.25407      -418.182 7        43.227    38428284.911 6 162602645.46806      -439.491 6        41.147
C27        52.000                                                                                                                                    25418599.380 5                     -4332.303 5        33.461                                                                    25418593.116 5 107554384.62205     -3520.588 5        31.706
C29        54.000                                                                                                                                    23390206.788 6 121798937.36816       573.185 6        36.034                                                                    23390207.831 4  98971689.74504       465.407 4        29.450
I01        59.000   376950611.874 5 176094355.43905     -2897.464 5        34.805
> 2025 01 02 01 30 10.0000000  0 38
G03         1.000    20044777.102 7 105335994.91507      -930.060 7        46.552                                    20044774.171 6  82080006.13306      -724.723 6        38.898    20044776.066 6  82080033.10306      -724.682 6        38.745
G19         2.000    22596521.097 6 118745755.95706       340.754 6        41.735                                    22596515.103 2  92528911.37002       265.516 2        16.641
E25         4.000    28931014.539 3                     -2091.010 3        23.733                                                                    28931012.233 4                     -1562.298 4        25.564
E07         5.000                                                                                                                                    26761726.382 5 105018773.71505     -2589.999 5        32.341    26761723.693 5 107758429.12205     -2657.190 5        32.898
G09         6.000    23213474.539 5 121987620.71205      2623.689 5        35.067                                    23213467.928 3  95055271.17903      2044.426 3        18.209    23213467.008 5  95055297.19505      2044.525 5        30.823
G28         7.000    23350518.694 4 122707763.80104     -1686.643 4        28.967                                    23350508.711 1  95616436.73401     -1314.310 1        11.037    23350510.870 6  95616413.79706     -1314.385 6        38.366
G21         8.000    23457785.415 5 123271508.01305     -3806.320 5        32.707                                    23457776.620 1  96055656.36001     -2965.990 1        11.407
G02         9.000    21899242.832 6 115081299.35006     -3113.805 6        39.940                                    21899234.034 4  89673661.60604     -2426.344 4        24.060
G31        10.000                                                                                                                                                                    22469245.531 4                       131.173 4        29.128
G17        11.000    22453662.073 7 117994989.30907     -1672.851 7        43.336                                    22453656.601 6  91944046.19706     -1303.527 6        38.721    22453657.951 7  91943964.22707     -1303.564 7        42.146
G04        12.000    21237779.841 6 111605281.64606      1529.366 6        39.904                                    21237769.064 4  86965076.91504      1191.719 4        25.128    21237768.696 7  86965108.90807      1191.772 7        44.767
E12        13.000    25013429.411 7 131446500.53707       992.040 7        43.900                                                                    25013425.018 6  98158064.40306       740.847 6        41.056    25013425.802 7 100718782.97607       760.106 7        43.754
E29        14.000    23587328.926 4 123952193.41404     -1163.611 4        29.668                                                                    23587317.838 7  92561715.55107      -868.700 7        47.912    23587317.783 7  94976338.34507      -891.338 7        47.809
G06        15.000    24679668.794 5 129692522.05415      2641.187 5        33.838                                    24679684.861 2 101059183.25312      2058.072 2        14.048    24679666.153 5 101059133.11505      2057.825 5        30.913
R08        18.000                                                                                                                                    23427271.742 3                      2147.000 3        22.438
E26        19.000    26839225.220 5 141041092.39105     -3630.381 5        34.129                                                                                                                                    26839215.854 5                     -2781.671 5        30.362
E19        20.000    24169304.297 6 127010548.17606      1239.312 6        40.493                                                                    24169302.758 6  94845549.24306       925.558 6        38.958    24169302.942 6  97319768.27106       949.820 6        38.568
R06        21.000    19894895.617 5 106162960.55205     -2754.438 5        33.389
R15        22.000    23394759.655 5                       -31.023 5        30.309
S36        23.000    38327063.794 6 201410063.73806      -850.385 6        36.934
S23        24.000    38275612.978 6 201139669.17106      -846.635 6        40.775
E33        28.000    23583080.882 7 123929916.09907     -1862.107 7        45.840                                                                    23583079.244 8  92545114.32308     -1390.471 8        48.840    23583077.495 7  94959289.12507     -1426.718 7        45.398
E10        29.000                                                                                                                                    26659722.655 6 104618551.51006      1321.073 6        41.027    26659721.348 6 107347670.83106      1355.484 6        40.670
R21        30.000    20871540.049 7 111687853.98807     -4338.226 7        44.962                                                                    20871541.566 6  86868314.78006     -3374.229 6        39.781
C20        31.000                                                                                                                                    24052766.143 5 125249468.03505      1536.920 5        35.605                                                                    24052755.164 5 101775100.87005      1249.004 5        34.767
R23        33.000    22392185.485 5 119783247.31405      3013.937 5        30.679
R07        34.000    19857145.486 8 106296951.64108       674.646 8        50.768                                                                    19857142.788 7  82675339.43807       524.770 7        44.004
R22        35.000    19589164.533 8 104568279.54508        -2.317 8        48.534                                                                    19589171.062 5                        -1.762 5        31.034
C32        36.000                                                                                                                                    21930945.936 8 114200153.08208     -1202.221 8        48.578                                                                    21930945.689 7  92797027.38807      -976.904 7        46.569
C30        38.000                                                                                                                                    22725229.911 8 118336240.37708     -2753.286 8        49.617                                                                    22725230.785 7  96157903.02307     -2237.077 7        43.348
C16        45.000                                                                                                                                    38865669.253 5 202383755.08605      -657.913 5        32.850    38865669.030 6 156495972.23906      -508.747 6        39.396    38865667.712 5 164453370.91405      -534.565 5        33.683
C39        46.000                                                                                                                                    39043854.507 6 203311656.13106     -1107.622 6        37.747
C09        47.000                                                                                                                                    38944336.848 6 202793380.79706       -49.717 6        41.170    38944333.281 7 156812708.47207       -38.468 7        43.484    38944330.492 6 164786198.86406       -40.284 6        37.856
C41        49.000                                                                                                                                    24816859.719 5 129227871.90205     -3514.752 5        35.919                                                                    24816862.937 5 105008300.18105     -2855.815 5        35.129
C06        50.000                                                                                                                                    38428812.737 7 200108906.33407      -541.920 7        43.570    38428804.437 7 154737012.51407      -419.047 7        42.624    38428804.747 6 162604845.17306      -440.421 6        41.044
C27        52.000                                                                                                                                    25422757.927 5                     -4333.014 5        32.844                                                                    25422752.755 5 107571987.86205     -3520.534 5        30.792
C29        54.000                                                                                                                                    23389657.262 6 121796078.09106       570.371 6        38.348                                                                    23389657.494 5  98969366.35505       463.168 5        30.385
I01        59.000   376954303.964 5 176108843.56605     -2897.763 5        35.000
> 2025 01 02 01 30 15.0000000  0 39
G03         1.000    20045662.739 7 105340649.95207      -931.768 7        47.077                                    20045660.397 6  82083633.44306      -726.058 6        38.946    20045661.012 6  82083660.41806      -726.003 6        37.845
G19         2.000    22596198.035 6 118744060.72506       337.528 6        40.205                                    22596191.939 2  92527590.43402       263.014 2        14.286
E25         4.000    28933000.923 4                     -2094.593 4        25.353                                                                    28933001.676 4                     -1563.265 4        25.278
E07         5.000                                                                                                                                    26765026.529 5 105031724.48105     -2590.390 5        32.299    26765024.141 5 107771717.74605     -2657.724 5        33.257
G09         6.000    23210981.752 5 121974504.20405      2622.878 5        31.857                                    23210971.976 2  95045050.58102      2043.761 2        14.619    23210970.742 5  95045076.61905      2043.934 5        31.894
G28         7.000    23352121.107 4 122716204.76404     -1689.103 4        29.251                                    23352115.102 1  95623014.05601     -1316.228 1        10.370    23352116.207 6  95622991.09306     -1316.683 6        37.698
G21         8.000    23461407.260 5 123290542.86705     -3807.193 5        33.928                                    23461398.885 2  96070488.76902     -2966.671 2        12.303
G02         9.000    21902206.154 6 115096873.28306     -3115.670 6        37.981                                    21902198.527 3  89685797.13503     -2427.793 3        22.781
G31        10.000    22469126.507 5 118076071.40115       165.569 5        33.731                                                                                                    22469090.764 4                       128.719 4        29.554
G17        11.000    22455255.164 7 118003360.31307     -1675.399 7        44.278                                    22455249.621 6  91950569.06706     -1305.509 6        39.345    22455251.294 7  91950487.07707     -1305.465 7        42.322
G04        12.000    21236327.044 6 111597639.99806      1527.378 6        40.234                                    21236314.969 4  86959122.37504      1190.174 4        25.714    21236314.748 7  86959154.38307      1190.259 7        45.061
E12        13.000    25012485.713 7 131441542.89407       991.174 7        43.668                                                                    25012481.784 6  98154362.28806       740.201 6        41.123    25012482.382 7 100714984.26307       759.565 7        43.450
E29        14.000    23588437.140 5 123958014.46305     -1165.175 5        30.755                                                                    23588425.485 7  92566062.44707      -869.948 7        47.855    23588425.547 7  94980798.64907      -892.707 7        47.620
G06        15.000    24677154.229 5 129679317.41105      2640.868 5        33.796                                    24677171.394 2 101048893.87702      2057.795 2        13.879    24677154.255 5 101048843.73705      2057.829 5        31.758
R08        18.000    23424763.693 3                      2761.506 3        22.552
E26        19.000    26842679.939 5 141059245.29705     -3630.770 5        33.766                                                                                                                                    26842670.464 5                     -2782.082 5        30.362
E19        20.000    24168125.694 6 127004355.03606      1238.137 6        40.014                                                                    24168124.049 6  94840924.51706       924.539 6        38.390    24168124.470 6  97315022.90306       948.771 6        39.138
R06        21.000    19897478.436 5 106176738.37905     -2756.572 5        34.743
R15        22.000    23394790.152 5                       -35.214 5        33.521
S36        23.000    38327874.141 6 201414315.49606      -849.786 6        36.888
S23        24.000    38276418.801 6 201143902.28706      -846.494 6        40.913
E33        28.000    23584853.443 7 123939230.43207     -1863.536 7        46.436                                                                    23584851.738 8  92552069.82608     -1391.607 8        48.781    23584849.761 7  94966426.07707     -1427.913 7        45.288
E10        29.000    26658082.615 4 140089187.71814      1768.558 4        29.479                                                                    26658039.918 6 104611947.27306      1320.888 6        41.397    26658038.415 6 107340894.30306      1355.232 6        40.484
R21        30.000    20875595.787 7 111709551.65407     -4340.698 7        45.263                                                                    20875596.527 6  86885190.72506     -3376.112 6        38.607
C20        31.000                                                                                                                                    24051290.715 5 125241785.80905      1536.023 5        35.062                                                                    24051278.537 5 101768858.42105      1248.236 5        34.133
R14        32.000    24469805.819 5                     -2999.066 5        31.834                                                                    24469824.086 3                     -2332.256 3        23.448
R23        33.000    22389367.246 5 119768179.77005      3012.819 5        32.168
R07        34.000    19856516.343 8 106293584.85008       672.145 8        50.499                                                                    19856513.195 7  82672720.82407       522.749 7        44.155
R22        35.000    19589168.365 8 104568301.00308        -6.088 8        49.014                                                                    19589182.934 5                        -4.967 5        33.599
C32        36.000                                                                                                                                    21932100.755 8 114206168.24308     -1203.647 8        48.596                                                                    21932100.966 7  92801915.19207      -978.120 7        46.574
C30        38.000                                                                                                                                    22727874.604 8 118350012.16108     -2755.182 8        49.073                                                                    22727875.529 7  96169093.71707     -2238.951 7        43.797
C16        45.000                                                                                                                                    38866301.684 5 202387046.89505      -658.596 5        32.413    38866301.551 6 156498517.64906      -509.239 6        39.559    38866299.711 5 164456045.74305      -535.334 5        33.617
C39        46.000                                                                                                                                    39044921.628 6 203317196.32706     -1108.085 6        37.735
C09        47.000                                                                                                                                    38944384.820 6 202793630.89606       -50.149 6        41.390    38944381.603 7 156812901.86307       -38.881 7        43.718    38944378.512 6 164786402.10206       -40.916 6        37.864
C41        49.000                                                                                                                                    24820225.998 5 129245446.27005     -3515.025 5        34.229                                                                    24820237.415 5 105022580.71205     -2856.192 5        35.405
C06        50.000                                                                                                                                    38429333.247 7 200111618.46107      -542.712 7        43.570    38429325.776 7 154739109.70807      -419.689 7        42.112    38429325.494 6 162607048.98106      -440.985 6        40.968
C27        52.000                                                                                                                                    25426916.410 5                     -4333.374 5        32.772                                                                    25426913.585 4 107589593.23304     -3521.108 4        29.261
C29        54.000                                                                                                                                    23389112.876 6 121793231.81006       568.231 6        40.398                                                                    23389110.654 5  98967053.55405       461.381 5        32.030
I01        59.000   376957996.248 5 176123332.64405     -2897.750 5        35.357
> 2025 01 02 01 30 20.0000000  0 38
G03         1.000    20046550.326 7 105345315.25807      -934.008 7        46.691                                    20046548.386 6  82087268.75406      -727.804 6        38.805    20046548.973 6  82087295.73306      -727.728 6        37.955
G19         2.000    22595879.498 6 118742382.63306       333.948 6        38.084                                    22595872.048 1  92526282.82501       260.213 1        11.852
E25         4.000    28934990.970 3                     -2095.500 3        23.257                                                                    28934993.395 4                     -1564.786 4        25.083
E07         5.000                                                                                                                                    26768327.244 5 105044678.05005     -2590.890 5        32.078    26768325.456 5 107785009.25105     -2658.588 5        33.257
G09         6.000    23208492.625 5 121961393.51605      2621.540 5        30.777                                    23208476.909 2  95034834.56602      2042.725 2        14.333    23208479.126 5  95034860.58205      2043.046 5        32.635
G28         7.000    23353729.278 4 122724662.02704     -1693.258 4        28.853                                    23353724.438 1  95629604.16401     -1319.481 1         8.952    23353723.419 6  95629581.16806     -1319.370 6        36.026
G21         8.000    23465029.701 5 123309582.89005     -3808.176 5        34.490                                    23465022.093 1  96085325.08201     -2967.366 1         9.905
G02         9.000    21905171.289 6 115112457.35006     -3117.809 6        37.043                                    21905165.002 3  89697940.58303     -2429.458 3        21.429
G31        10.000    22468966.316 4 118075253.71304       162.193 4        28.853                                                                                                    22468946.804 4                       125.788 4        29.460
G17        11.000    22456850.403 7 118011745.93507     -1678.479 7        44.190                                    22456845.396 6  91957103.32906     -1307.906 6        40.067    22456846.382 7  91957021.33807     -1307.982 7        42.286
G04        12.000    21234872.101 6 111590009.83406      1524.807 6        38.348                                    21234862.952 4  86953176.83404      1188.158 4        25.248    21234863.098 7  86953208.84607      1188.308 7        45.437
E12        13.000    25011543.845 7 131436591.70007       989.698 7        43.295                                                                    25011539.547 6  98150664.96806       738.973 6        41.342    25011540.151 7 100711190.49107       758.339 7        43.329
E29        14.000    23589547.565 5 123963845.69805     -1167.516 5        32.413                                                                    23589535.078 7  92570417.00307      -871.641 7        47.957    23589535.228 7  94985266.80207      -894.354 7        47.436
G06        15.000    24674642.362 5 129666115.14005      2640.201 5        34.814                                    24674656.687 2 101038606.37102      2057.310 2        14.476    24674641.203 5 101038556.24705      2057.263 5        32.509
E26        19.000    26846133.773 5 141077402.36705     -3631.770 5        32.916                                                                    26846158.557 3                     -2712.803 3        21.381    26846125.893 5                     -2782.990 5        30.891
E19        20.000    24166948.263 6 126998169.95706      1236.228 6        39.592                                                                    24166946.683 6  94836305.78106       923.335 6        37.853    24166947.453 6  97310283.68006       947.296 6        39.465
R06        21.000    19900064.257 5 106190527.93405     -2759.196 5        34.386
R15        22.000    23394827.347 5 125014855.40215       -39.058 5        33.838
S36        23.000    38328683.474 6 201418567.12206      -850.460 6        37.066
S23        24.000    38277223.822 6 201148135.49006      -846.496 6        40.870
E33        28.000    23586627.838 7 123948554.17307     -1865.676 7        46.918                                                                    23586625.970 8  92559032.35808     -1393.164 8        48.778    23586623.856 7  94973570.23607     -1429.469 7        45.543
E10        29.000    26656390.569 5 140080346.48905      1767.944 5        31.238                                                                    26656357.465 6 104605345.20706      1320.222 6        41.189    26656356.059 6 107334120.00606      1354.661 6        40.186
R21        30.000    20879653.498 7 111731263.58307     -4343.779 7        45.737                                                                    20879652.959 6  86902077.77906     -3378.588 6        37.437
C20        31.000                                                                                                                                    24049816.887 5 125234109.50005      1535.067 5        33.527                                                                    24049806.131 5 101762620.84405      1247.052 5        34.619
R14        32.000                                                                                                                                    24472647.004 4                     -2335.087 4        26.527
R23        33.000    22386553.549 5 119753121.00705      3010.915 5        32.539
R07        34.000    19855888.951 8 106290232.32108       669.187 8        49.282                                                                    19855886.889 7  82670113.30007       520.581 7        44.694
R22        35.000    19589176.885 8 104568343.46808       -10.493 8        49.875                                                                    19589199.322 5                        -8.242 5        31.562
C32        36.000                                                                                                                                    21933257.811 8 114212192.25908     -1205.651 8        48.384                                                                    21933257.951 7  92806810.21007      -979.717 7        46.773
C30        38.000                                                                                                                                    22730521.422 8 118363795.75508     -2757.778 8        48.055                                                                    22730522.603 7  96180294.00907     -2240.928 7        44.426
C16        45.000                                                                                                                                    38866936.009 5 202390343.28205      -659.650 5        32.695    38866934.371 6 156501066.63306      -510.006 6        39.589    38866932.767 5 164458724.34205      -536.372 5        33.641
C39        46.000                                                                                                                                    39045990.384 6 203322740.94506     -1109.103 6        37.338
C09        47.000                                                                                                                                    38944434.202 6 202793885.29306       -51.220 6        41.592    38944430.359 7 156813098.58007       -39.582 7        43.765    38944427.220 6 164786608.81406       -41.707 6        38.069
C41        49.000                                                                                                                                    24823600.074 5 129263023.02505     -3515.442 5        32.497                                                                    24823612.590 5 105036863.24805     -2856.653 5        35.667
C06        50.000                                                                                                                                    38429854.697 7 200114335.29507      -543.671 7        43.501    38429847.542 6 154741210.53906      -420.534 6        41.590    38429847.279 6 162609256.64506      -441.917 6        40.870
C27        52.000                                                                                                                                    25431074.599 5                     -4334.026 5        31.668                                                                    25431074.250 4 107607200.35404     -3521.469 4        27.880
C29        54.000                                                                                                                                    23388572.351 6 121790398.23506       565.510 6        41.964                                                                    23388567.314 5  98964751.05805       459.293 5        33.042
I01        59.000   376961688.855 5 176137822.41305     -2897.735 5        35.467
> 2025 01 02 01 30 25.0000000  0 39
G03         1.000    20047439.752 7 105349990.69107      -936.173 7        46.553                                    20047438.118 6  82090911.94706      -729.483 6        38.634    20047438.457 6  82090938.91806      -729.578 6        37.161
G19         2.000    22595563.212 5 118740721.58005       330.470 5        33.449                                    22595555.462 1  92524988.42501       257.591 1         8.000
E25         4.000    28936988.215 3                     -2098.338 3        20.833                                                                    28936986.590 4                     -1566.511 4        25.353
E07         5.000                                                                                                                                    26771628.330 5 105057634.33305     -2591.504 5        32.030    26771627.294 5 107798303.49205     -2659.386 5        33.940
G09         6.000    23205999.646 5 121948288.47405      2620.583 5        32.102                                    23205983.183 2  95024622.89502      2042.007 2        16.113    23205986.993 5  95024648.98705      2041.418 5        33.509
G28         7.000    23355344.600 5 122733135.48905     -1696.230 5        31.026                                    23355336.780 1  95636206.82101     -1321.763 1         8.095    23355334.860 5  95636183.84505     -1321.946 5        34.748
G21         8.000    23468651.517 5 123328627.98905     -3809.774 5        34.681                                    23468646.325 1  96100165.41401     -2968.655 1         8.000
G02         9.000    21908138.891 6 115128051.48106     -3120.066 6        37.675                                    21908133.193 3  89710091.82103     -2431.200 3        19.045
G31        10.000    22468817.245 4 118074452.74704       158.956 4        25.880                                                                                                    22468793.785 4                       123.491 4        29.137
G17        11.000    22458448.840 7 118020146.01407     -1681.502 7        43.784                                    22458443.902 6  91963648.85106     -1310.260 6        40.632    22458445.130 7  91963566.85207     -1310.225 7        42.301
G04        12.000    21233415.498 6 111582391.01806      1522.523 6        37.592                                    21233413.060 4  86947240.12204      1186.355 4        25.203    21233413.159 7  86947272.16207      1186.341 7        45.562
E12        13.000    25010603.238 7 131431646.73707       988.194 7        43.414                                                                    25010598.449 6  98146972.30906       737.943 6        41.476    25010599.056 7 100707401.50107       757.245 7        43.494
E29        14.000    23590656.998 5 123969686.95805     -1169.263 5        33.491                                                                    23590646.776 7  92574779.08807      -873.262 7        47.859    23590647.005 7  94989742.68407      -896.061 7        47.322
G06        15.000    24672131.392 6 129652915.06606      2639.738 6        36.352                                    24672141.798 2 101028320.56302      2056.957 2        15.667    24672129.057 5 101028270.51405      2056.724 5        33.006
R08        18.000    23419629.680 4                      2758.267 4        27.916
E26        19.000    26849588.525 5 141095563.43005     -3632.548 5        31.464                                                                    26849612.729 3                     -2709.896 3        18.418    26849583.280 5                     -2783.418 5        31.472
E19        20.000    24165772.421 6 126991992.76206      1234.580 6        38.961                                                                    24165771.090 6  94831692.94206       921.926 6        37.229    24165771.693 6  97305550.50406       945.881 6        39.595
R06        21.000    19902648.484 5 106204329.03805     -2761.668 5        34.552
R15        22.000    23394869.509 5                       -43.512 5        31.683
S36        23.000    38329491.120 6 201422819.20906      -850.408 6        37.077
S23        24.000    38278028.603 6 201152368.52806      -846.498 6        40.934
E33        28.000    23588403.728 7 123957887.15407     -1867.655 7        47.559                                                                    23588401.826 8  92566001.79608     -1394.673 8        48.693    23588399.901 7  94980721.47507     -1431.005 7        46.020
E10        29.000    26654700.474 5 140071508.19505      1767.171 5        33.677                                                                    26654675.686 6 104598745.21006      1319.732 6        41.130    26654674.449 6 107327347.82806      1354.175 6        40.074
R21        30.000    20883713.778 7 111752989.68307     -4346.691 7        46.420                                                                    20883711.633 6  86918975.82706     -3380.861 6        36.688
C20        31.000                                                                                                                                    24048345.619 5 125226439.03805      1533.451 5        31.917                                                                    24048334.359 5 101756387.97605      1246.076 5        35.200
R14        32.000    24475460.276 5 130467967.53315     -3005.567 5        34.138
R23        33.000    22383738.792 5 119738070.94605      3009.088 5        34.210
R07        34.000    19855264.610 8 106286893.95208       666.152 8        49.313                                                                    19855263.394 7  82667516.81507       518.174 7        45.091
R22        35.000    19589188.756 8 104568406.78118       -14.857 8        49.512                                                                    19589212.138 4                       -11.133 4        28.398
C32        36.000                                                                                                                                    21934415.535 7 114218224.96207     -1207.578 7        47.909                                                                    21934416.453 7  92811712.28507      -981.299 7        46.772
C30        38.000                                                                                                                                    22733169.814 7 118377590.96907     -2760.270 7        46.975                                                                    22733171.975 7  96191503.75807     -2243.013 7        45.032
C16        45.000                                                                                                                                    38867568.881 5 202393644.09005      -660.578 5        32.503    38867568.378 6 156503619.05106      -510.902 6        39.706    38867566.334 5 164461406.54005      -536.860 5        33.341
C39        46.000                                                                                                                                    39047057.063 6 203328289.83006     -1110.389 6        37.274
C09        47.000                                                                                                                                    38944484.334 6 202794143.86306       -52.280 6        41.642    38944480.106 7 156813298.52207       -40.301 7        43.943    38944476.778 6 164786818.93406       -42.597 6        37.883
C41        49.000                                                                                                                                    24826980.650 5 129280601.98705     -3516.232 5        31.955                                                                    24826988.137 5 105051147.62505     -2857.265 5        35.814
C06        50.000                                                                                                                                    38430376.919 7 200117056.72307      -544.895 7        43.666    38430370.047 6 154743314.91506      -421.252 6        41.237    38430369.860 6 162611468.03306      -442.829 6        40.813
C27        52.000                                                                                                                                    25435234.755 5                     -4334.018 5        30.241                                                                    25435235.650 4 107624809.16704     -3522.110 4        27.257
C29        54.000                                                                                                                                    23388032.537 7 121787577.22007       562.868 7        42.969                                                                    23388026.159 5  98962458.79905       457.038 5        34.043
I01        59.000   376965381.110 5 176152312.80605     -2898.003 5        35.338
> 2025 01 02 01 30 30.0000000  0 39
G03         1.000    20048331.495 7 105354676.10807      -938.115 7        45.470                                    20048329.656 6  82094562.92306      -730.990 6        38.393    20048330.248 6  82094589.89406      -731.005 6        36.983
G19         2.000    22595251.183 5 118739077.41305       327.232 5        30.974                                    22595242.216 1  92523707.38401       254.987 1         6.750
E25         4.000                                                                                                                                    28938980.611 4                     -1568.053 4        26.323
E07         5.000                                                                                                                                    26774930.164 5 105070593.21705     -2592.200 5        32.006    26774929.567 5 107811600.41405     -2659.360 5        33.641
