     3.04           OBSERVATION DATA    M                   RINEX VERSION / TYPE
ssrcrin-15.6.1x                         20250102 184500 UTC PGM / RUN BY / DATE 
(00000000023479385599111004) Septentrio proprietary         COMMENT             
ract                                                        MARKER NAME         
01                                                          MARKER NUMBER       
geodetic                                                    MARKER TYPE         
NFB                 CLIMERS@TUW                             OBSERVER / AGENCY   
3296359             SEPT ASTERX SB3 PROB4.14.4              REC # / TYPE / VERS 
Unknown             Unknown                                 ANT # / TYPE        
  4127448.3462  1206914.8290  4695544.2787                  APPROX POSITION XYZ 
        0.0000        0.0000        0.0000                  ANTENNA: DELTA H/E/N
G   23 X1  C1C L1C D1C S1C C1W S1W C2W L2W D2W S2W C2L L2L  SYS / # / OBS TYPES 
       D2L S2L C5Q L5Q D5Q S5Q C1L L1L D1L S1L              SYS / # / OBS TYPES 
E   21 X1  C1C L1C D1C S1C C6C L6C D6C S6C C5Q L5Q D5Q S5Q  SYS / # / OBS TYPES 
       C7Q L7Q D7Q S7Q C8Q L8Q D8Q S8Q                      SYS / # / OBS TYPES 
S    9 X1  C1C L1C D1C S1C C5I L5I D5I S5I                  SYS / # / OBS TYPES 
R   17 X1  C1C L1C D1C S1C C2P L2P D2P S2P C2C L2C D2C S2C  SYS / # / OBS TYPES 
       C3Q L3Q D3Q S3Q                                      SYS / # / OBS TYPES 
C   25 X1  C1P L1P D1P S1P C5P L5P D5P S5P C2I L2I D2I S2I  SYS / # / OBS TYPES 
       C7I L7I D7I S7I C6I L6I D6I S6I C7D L7D D7D S7D      SYS / # / OBS TYPES 
J   17 X1  C1C L1C D1C S1C C2L L2L D2L S2L C5Q L5Q D5Q S5Q  SYS / # / OBS TYPES 
       C1L L1L D1L S1L                                      SYS / # / OBS TYPES 
I    5 X1  C5A L5A D5A S5A                                  SYS / # / OBS TYPES 
SEPTENTRIO RECEIVERS OUTPUT ALIGNED CARRIER PHASES.         COMMENT             
NO FURTHER PHASE SHIFT APPLIED IN THE RINEX ENCODER.        COMMENT             
G L1C                                                       SYS / PHASE SHIFT   
G L2W                                                       SYS / PHASE SHIFT   
G L2L  0.00000                                              SYS / PHASE SHIFT   
G L5Q  0.00000                                              SYS / PHASE SHIFT   
G L1L  0.00000                                              SYS / PHASE SHIFT   
E L1C  0.00000                                              SYS / PHASE SHIFT   
E L6C  0.00000                                              SYS / PHASE SHIFT   
E L5Q  0.00000                                              SYS / PHASE SHIFT   
E L7Q  0.00000                                              SYS / PHASE SHIFT   
E L8Q  0.00000                                              SYS / PHASE SHIFT   
S L1C                                                       SYS / PHASE SHIFT   
S L5I                                                       SYS / PHASE SHIFT   
R L1C                                                       SYS / PHASE SHIFT   
R L2P  0.00000                                              SYS / PHASE SHIFT   
R L2C                                                       SYS / PHASE SHIFT   
R L3Q  0.00000                                              SYS / PHASE SHIFT   
C L1P  0.00000                                              SYS / PHASE SHIFT   
C L5P  0.00000                                              SYS / PHASE SHIFT   
C L2I                                                       SYS / PHASE SHIFT   
C L7I                                                       SYS / PHASE SHIFT   
C L6I                                                       SYS / PHASE SHIFT   
C L7D                                                       SYS / PHASE SHIFT   
J L1C                                                       SYS / PHASE SHIFT   
J L2L  0.00000                                              SYS / PHASE SHIFT   
J L5Q  0.00000                                              SYS / PHASE SHIFT   
J L1L  0.00000                                              SYS / PHASE SHIFT   
I L5A                                                       SYS / PHASE SHIFT   
  2025     1     2    18    45    0.0000000     GPS         TIME OF FIRST OBS   
 C1C    0.000 C2C    0.000 C2P    0.000                     GLONASS COD/PHS/BIS 
DBHZ                                                        SIGNAL STRENGTH UNIT
    18                                                      LEAP SECONDS        
 24 R01  1 R02 -4 R03  5 R04  6 R05  1 R06 -4 R07  5 R08  6 GLONASS SLOT / FRQ #
    R09 -2 R10 -7 R11  0 R12 -1 R13 -2 R14 -7 R15  0 R16 -1 GLONASS SLOT / FRQ #
    R17  4 R18 -3 R19  3 R20  2 R21  4 R22 -3 R23  3 R24  2 GLONASS SLOT / FRQ #
                                                            END OF HEADER       
> 2025 01 02 18 45  0.0000000  0 37
G10         1.000    23717700.280 7 124637343.60007      2646.343 7        42.768                                    23717694.348 5  97120009.06505      2062.081 5        31.698    23717697.916 5  97120016.05505      2062.208 5        33.389
G23         2.000    21466929.968 6 112809509.70106      1071.981 6        41.704                                    21466926.384 4  87903572.02004       835.305 4        26.132    21466926.955 7  87903440.02907       835.363 7        43.024
G07         8.000    25624232.418 5 134656257.70605       725.690 5        35.233
G18        12.000    21133452.544 7 111057268.10707     -2566.509 7        43.970                                    21133445.997 5  86538009.43605     -1999.886 5        33.072    21133448.810 7  86538209.45507     -1999.835 7        44.372
G27        13.000    21743284.077 7 114261699.24507      1711.572 7        44.602                                    21743365.915 1  89035512.75301      1333.808 1         5.857    21743282.911 5  89035111.62805      1333.783 5        34.990
E27        14.000    27759043.537 4                      1932.699 4        26.623                                                                    27759048.778 5 108932457.64305      1443.128 5        34.848    27759042.117 5 111774222.43305      1480.895 5        31.449
R03        15.000    22223179.583 5                      -201.227 5        32.689                                                                    22223179.971 4                      -156.729 4        28.341
G26        17.000    21231606.411 6 111572898.65306     -2921.058 6        37.278                                    21231604.481 5  86940319.78505     -2276.152 5        32.491    21231607.877 6  86939893.81406     -2276.362 6        37.902
R02        18.000    23977873.358 5                     -3396.419 5        30.219                                                                    23977829.665 4                     -2641.558 4        25.338
E30        19.000    24314822.761 7 127775247.04307         1.801 7        45.822                                                                    24314834.912 6  95416621.55406         1.415 6        40.234    24314824.132 7  97905743.40307         1.508 7        42.097
R20        20.000    20547529.269 5 109876873.54205      1148.288 5        33.048                                                                    20547530.280 7  85459868.28307       893.081 7        43.297
E02        21.000    24222033.292 6 127287907.59406     -2869.009 6        36.612                                                                    24222032.646 7  95052566.09707     -2142.430 7        44.322    24222032.544 7  97532206.16707     -2198.181 7        46.423
S23        22.000    38205478.221 6 200771157.74706      -865.517 6        39.667
R10        23.000    20230333.321 6 107839091.79406      -502.282 6        37.951
E36        24.000    23933757.967 6 125772781.83506     -2184.024 6        41.704                                                                    23933760.028 8  93921400.37108     -1630.894 8        50.180    23933758.716 8  96371505.72908     -1673.479 8        50.102
R18        25.000    23078201.234 5                     -4300.990 5        30.800                                                                    23078199.418 3                     -3345.246 3        23.162
G16        26.000    20562076.760 8 108054441.40608      -646.268 8        48.041                                    20562071.791 6  84198254.33406      -503.592 6        40.222
S21        27.000    38479305.107 5 202210371.73605      -864.397 5        33.545
C22        28.000                                                                                                                                    24756116.489 6 128911591.45606      -961.524 6        36.484                                                                    24756112.440 5 104751171.88305      -781.388 5        31.411
R19        29.000    20217778.706 5 108151487.54505     -2884.324 5        35.933                                                                    20217777.748 7  84117813.04507     -2243.308 7        44.248
S36        31.000    38249546.679 5 201002694.61905      -863.920 5        35.762
E34        32.000    23923903.578 8 125720973.83008       510.438 8        50.106                                                                    23923902.529 7  93882550.00307       381.214 7        47.189    23923902.384 8  96331719.31308       391.057 8        48.641
R11        33.000    23156814.686 6 123742969.02106      2896.588 6        37.830
C44        35.000                                                                                                                                    24532480.233 5                     -3470.470 5        33.569                                                                    24532485.256 4                     -2820.807 4        26.275
C08        36.000                                                                                                                                    38020088.673 5 197980600.35105     -1551.644 5        35.643    38020085.174 5 153091144.95605     -1200.033 5        35.186    38020083.371 5 160875514.28905     -1260.564 5        33.263
R09        37.000    20593172.308 7 109966644.34207     -3987.143 7        42.718                                                                    20593170.594 7  85529390.94607     -3101.037 7        44.781
C11        38.000                                                                                                                                    21793243.313 6 113483189.58406      -108.579 6        39.724    21793239.985 7  87752513.26207       -84.015 7        43.687    21793240.104 6  92214363.17206       -88.363 6        38.634
C12        41.000                                                                                                                                    22989244.792 6 119711046.86006     -2754.001 6        36.450    22989250.841 7  92568252.74807     -2129.539 7        43.355    22989243.241 7  97275093.49407     -2237.985 7        44.361
C13        43.000                                                                                                                                    37799271.462 5 196830702.71205     -1276.172 5        32.575    37799269.826 6 152202042.37506      -987.119 6        39.417    37799263.501 5 159941127.81405     -1037.080 5        31.992
C38        44.000                                                                                                                                    39317701.819 4                     -1862.042 4        29.175
C25        45.000                                                                                                                                    23732189.433 6 123579808.07306     -3508.535 6        39.498                                                                    23732188.885 6 100418672.12606     -2850.942 6        40.081
C21        46.000                                                                                                                                    24920142.101 5 129765740.79205      1579.369 5        33.766                                                                    24920137.771 6 105445258.49606      1283.462 6        36.586
C23        47.000                                                                                                                                    23843964.738 6 124161797.93806      -749.393 6        38.393                                                                    23843949.061 7 100891629.54907      -608.952 7        42.538
C43        48.000                                                                                                                                    22842014.258 7 118944443.03407      1012.495 7        46.967                                                                    22842013.258 7  96652066.79307       822.746 7        42.758
C34        52.000                                                                                                                                    21488905.814 8 111898441.96508     -1386.215 8        49.815                                                                    21488904.407 8  90926732.88808     -1126.477 8        49.901
C37        54.000                                                                                                                                    26594019.710 6 138482094.12006      1629.305 6        39.964                                                                    26594036.122 5 112528017.85305      1323.969 5        30.045
I06        58.000    38741482.918 6 152030025.59206      -607.107 6        41.917
> 2025 01 02 18 45  5.0000000  0 39
G10         1.000    23715182.724 7 124624114.03507      2645.683 7        42.612                                    23715176.337 5  97109700.31405      2061.569 5        31.743    23715180.344 5  97109707.29805      2061.867 5        33.240
G23         2.000    21465911.683 6 112804156.96106      1069.335 6        40.701                                    21465908.146 4  87899401.07104       833.234 4        26.503    21465908.056 7  87899269.08507       833.263 7        43.384
G08         5.000    24629322.289 4                      2472.280 4        25.203
G31         7.000    25562061.364 3                     -4185.470 3        23.905
G07         8.000    25623545.921 6 134652634.76106       723.464 6        36.026
G18        12.000    21135895.343 7 111070105.88607     -2568.454 7        44.737                                    21135889.041 5  86548012.91005     -2001.401 5        33.120    21135891.503 7  86548212.92707     -2001.344 7        44.634
G27        13.000    21741656.525 7 114253144.88407      1710.289 7        44.649                                    21741738.213 1  89028846.71701      1332.698 1         8.095    21741654.626 5  89028445.90405      1332.571 5        34.048
E27        14.000                                                                                                                                    27757210.551 5 108925242.21405      1442.782 5        35.014    27757202.036 5 111766818.75205      1480.652 5        30.679
R03        15.000    22223368.948 4                      -205.686 4        28.626                                                                    22223369.313 3                      -161.076 3        22.590
G26        17.000    21234388.603 6 111587511.53406     -2923.904 6        36.560                                    21234385.280 5  86951706.45005     -2278.377 5        32.874    21234388.819 6  86951280.47506     -2278.233 6        38.673
R02        18.000    23981066.768 4                     -3399.288 4        29.611
E30        19.000    24314821.746 7 127775242.79207        -0.040 7        45.815                                                                    24314834.116 6  95416618.39906         0.112 6        40.601    24314823.385 6  97905740.15706        -0.072 6        41.785
R20        20.000    20546456.581 5 109871137.56705      1146.491 5        30.974                                                                    20546457.551 7  85455406.96507       891.532 7        42.607
E02        21.000    24224762.873 5 127302256.51005     -2870.573 5        35.052                                                                    24224763.109 7  95063281.20907     -2143.549 7        44.131    24224763.163 7  97543200.81407     -2199.478 7        46.525
S23        22.000    38206300.262 6 200775485.41006      -865.239 6        39.661
R10        23.000    20230807.965 6 107841614.62206      -506.687 6        36.405
E36        24.000    23935836.612 6 125783705.34706     -2185.177 6        41.607                                                                    23935838.888 8  93929557.55708     -1631.866 8        50.214    23935837.313 8  96379875.71008     -1674.428 8        50.093
R18        25.000    23082239.306 5                     -4301.061 5        31.208                                                                    23082233.770 3                     -3345.090 3        23.657
G16        26.000    20562693.376 7 108057681.08907      -649.441 7        47.142                                    20562688.410 6  84200778.76606      -506.055 6        40.267
S21        27.000    38480131.964 5 202214693.01105      -863.978 5        33.491
C22        28.000                                                                                                                                    24757040.184 5 128916406.57605      -964.387 5        35.243                                                                    24757043.169 4 104755084.68104      -783.647 4        29.441
R19        29.000    20220474.614 6 108165912.48406     -2885.838 6        36.911                                                                    20220474.766 7  84129032.45707     -2244.491 7        44.715
S36        31.000    38250370.437 5 201007014.15905      -863.839 5        35.681
E34        32.000    23923418.670 8 125718425.84908       508.959 8        50.387                                                                    23923417.732 7  93880647.30107       380.008 7        46.968    23923417.460 8  96329766.96708       390.005 8        48.679
R11        33.000    23154116.271 6 123728490.39206      2894.754 6        39.982                                                                    23154090.669 4                      2250.104 4        24.481
C44        35.000                                                                                                                                    24535812.911 5                     -3470.907 5        33.952                                                                    24535817.120 4                     -2820.298 4        26.862
C08        36.000                                                                                                                                    38021579.450 5 197988360.47305     -1552.324 5        35.233    38021575.016 5 153097145.56605     -1200.299 5        34.457    38021573.738 5 160881820.01305     -1260.984 5        33.030
R09        37.000    20596906.063 7 109986588.04607     -3990.180 7        42.009                                                                    20596905.553 7  85544902.72707     -3103.444 7        44.617
C11        38.000                                                                                                                                    21793351.177 6 113483736.86206      -110.118 6        41.442    21793344.142 7  87752936.45607       -85.076 7        42.169    21793344.996 6  92214807.88506       -89.480 6        38.673
C12        41.000                                                                                                                                    22991886.295 6 119724819.57906     -2754.806 6        36.843    22991889.434 7  92578902.67607     -2130.227 7        43.839    22991888.165 7  97286284.96207     -2238.631 7        44.524
C13        43.000                                                                                                                                    37800487.136 5 196837087.37805     -1277.321 5        31.479    37800495.879 6 152206979.41706      -987.714 6        39.550    37800489.615 5 159946315.89105     -1037.634 5        32.545
C38        44.000                                                                                                                                    39319488.961 4                     -1862.451 4        29.687                                                                    39319473.088 4                     -1513.151 4        24.586
C25        45.000                                                                                                                                    23735559.010 6 123597354.33606     -3509.965 6        39.273                                                                    23735558.529 6 100432929.89906     -2851.967 6        40.257
C21        46.000                                                                                                                                    24918626.212 5 129757848.27205      1577.709 5        33.018                                                                    24918621.988 6 105438845.17206      1282.070 6        37.618
C23        47.000                                                                                                                                    23844683.549 6 124165552.03806      -752.138 6        37.520                                                                    23844670.136 7 100894680.09907      -611.216 7        43.098
C43        48.000                                                                                                                                    22841042.499 7 118939383.52407      1011.462 7        47.088                                                                    22841041.660 7  96647955.54207       821.945 7        42.472
C34        52.000                                                                                                                                    21490237.340 8 111905376.50708     -1387.535 8        50.278                                                                    21490236.193 8  90932367.78508     -1127.525 8        50.119
C37        54.000                                                                                                                                    26592456.590 6 138473951.72806      1627.817 6        39.832                                                                    26592472.776 5 112521401.49905      1322.263 5        30.800
I06        58.000    38742256.376 6 152033060.65406      -606.985 6        41.912
> 2025 01 02 18 45 10.0000000  0 38
G10         1.000    23712666.173 7 124610888.77007      2644.489 7        42.273                                    23712659.243 5  97099394.93005      2060.638 5        31.487    23712664.381 5  97099401.93305      2060.452 5        33.275
G23         2.000    21464895.460 6 112798818.49506      1066.281 6        40.169                                    21464892.650 4  87895241.24204       830.864 4        26.395    21464891.791 7  87895109.25707       830.849 7        42.698
G31         7.000    25566039.802 3                     -4184.985 3        21.905
G07         8.000    25622861.665 5 134649023.79005       720.901 5        34.319                                                                                                    25622950.671 4                       560.993 4        25.158
G29         9.000    24160447.852 3                     -3974.529 3        19.940
G18        12.000    21138340.244 7 111082953.76107     -2570.667 7        46.253                                    21138334.124 5  86558024.24505     -2003.121 5        32.934    21138336.442 7  86558224.26407     -2003.149 7        44.962
G27        13.000    21740029.131 7 114244597.44607      1708.769 7        44.596                                    21740111.209 2  89022186.29702      1331.503 2        16.038    21740028.962 5  89021785.55905      1331.858 5        33.431
E27        14.000    27755386.027 5                      1931.653 5        32.030                                                                    27755373.192 5 108918029.23005      1442.296 5        35.395    27755363.627 4 111759417.63604      1480.244 4        29.554
G26        17.000    21237172.543 6 111602137.64106     -2926.545 6        37.607                                    21237168.754 5  86963103.42305     -2280.434 5        33.036    21237172.022 6  86962677.44906     -2280.480 6        39.634
E30        19.000    24314822.707 7 127775248.97507        -2.411 7        45.797                                                                    24314834.863 6  95416623.01806        -1.823 6        40.717    24314823.993 6  97905744.90706        -1.793 6        41.528
R20        20.000    20545383.149 5 109865411.90105      1143.804 5        30.053                                                                    20545387.342 7  85450953.72107       889.769 7        42.354
E02        21.000    24227494.951 5 127316614.26505     -2872.534 5        33.874                                                                    24227495.314 7  95074002.90807     -2145.079 7        44.001    24227495.318 7  97554202.21607     -2201.079 7        46.630
S23        22.000    38207120.322 6 200779813.27906      -865.868 6        39.715
R10        23.000    20231284.547 6 107844160.45306      -511.576 6        36.393
E36        24.000    23937916.692 7 125794635.80407     -2187.022 7        42.330                                                                    23937918.972 8  93937719.91408     -1633.121 8        50.331    23937917.271 8  96388250.99308     -1675.668 8        50.084
R18        25.000    23086266.265 4                     -4301.209 4        28.379                                                                    23086261.740 4                     -3346.090 4        24.496
G16        26.000    20563312.855 7 108060937.71307      -653.173 7        46.542                                    20563308.297 6  84203316.39706      -508.967 6        40.031
S21        27.000    38480949.010 5 202219014.13905      -864.660 5        33.359
C22        28.000                                                                                                                                    24757963.584 5 128921236.31205      -967.349 5        34.962                                                                    24757979.023 4 104759009.36604      -786.325 4        29.602
R19        29.000    20223174.229 6 108180345.98006     -2887.552 6        37.641                                                                    20223172.413 7  84140258.52607     -2246.036 7        44.569
S36        31.000    38251187.719 5 201011333.74405      -863.997 5        35.814
E34        32.000    23922935.466 8 125715885.95308       507.033 8        51.005                                                                    23922934.441 7  93878750.64007       378.582 7        46.870    23922934.107 8  96327820.82508       388.544 8        48.723
R11        33.000    23151415.034 6                      2892.529 6        40.138                                                                    23151384.050 4                      2249.661 4        26.455
C44        35.000                                                                                                                                    24539143.662 5 127781771.61215     -3471.590 5        34.148                                                                    24539150.152 4                     -2820.820 4        27.701
C08        36.000                                                                                                                                    38023069.416 5 197996124.44505     -1553.371 5        34.633    38023065.327 5 153103149.18405     -1201.177 5        34.171    38023064.959 5 160888128.87105     -1261.783 5        33.353
R09        37.000    20600645.797 6 110006548.08806     -3993.655 6        41.428                                                                    20600643.346 7  85560427.17907     -3106.202 7        44.393
C11        38.000                                                                                                                                    21793458.984 7 113484291.46007      -111.845 7        42.311    21793450.543 6  87753365.30206       -86.533 6        41.552    21793451.734 6  92215258.50606       -90.864 6        39.096
R04        40.000    22849492.541 3                      2650.676 3        22.590
C12        41.000                                                                                                                                    22994534.759 6 119738597.10806     -2756.201 6        37.595    22994536.554 7  92589556.34007     -2131.229 7        43.708    22994534.066 7  97297480.31407     -2239.523 7        44.761
C13        43.000                                                                                                                                    37801710.197 5 196843475.94205     -1278.070 5        30.823    37801723.105 6 152211919.47406      -988.454 6        39.619    37801716.466 5 159951507.12205     -1038.604 5        32.096
C38        44.000                                                                                                                                    39321276.635 4                     -1862.925 4        29.441                                                                    39321263.119 4                     -1514.765 4        24.195
C25        45.000                                                                                                                                    23738931.299 6 123614908.58106     -3511.804 6        38.808                                                                    23738930.325 6 100447194.14906     -2853.544 6        40.696
C21        46.000                                                                                                                                    24917112.970 5 129749964.30205      1575.712 5        33.838                                                                    24917107.705 6 105432438.77606      1280.553 6        38.420
C23        47.000                                                                                                                                    23845402.753 5 124169320.47805      -755.222 5        35.562                                                                    23845393.794 7 100897742.26707      -613.654 7        43.346
C43        48.000                                                                                                                                    22840071.059 7 118934329.74307      1010.095 7        46.917                                                                    22840071.204 7  96643848.90307       820.775 7        42.135
C34        52.000                                                                                                                                    21491570.335 8 111912318.56608     -1389.271 8        50.472                                                                    21491569.495 8  90938008.74908     -1128.829 8        50.188
C37        54.000                                                                                                                                    26590896.168 6 138465817.94606      1625.740 6        39.465                                                                    26590910.349 5 112514792.12105      1320.957 5        30.174
I06        58.000    38743029.826 6 152036095.64406      -607.124 6        41.921
> 2025 01 02 18 45 15.0000000  0 38
G10         1.000    23710149.607 6 124597667.44206      2643.555 6        41.657                                    23710143.039 5  97089092.61005      2059.915 5        31.215    23710148.266 5  97089099.58605      2060.269 5        33.389
G23         2.000    21463882.047 6 112793493.89006      1063.335 6        40.472                                    21463879.631 4  87891092.20904       828.572 4        26.012    21463877.861 6  87890960.19506       828.522 6        41.535
G08         5.000    24624635.501 4                      2471.822 4        26.347
G07         8.000                                                                                                                                                                    25622270.881 3                       559.884 3        21.405
G29         9.000    24164224.267 3                     -3966.845 3        19.522
G18        12.000    21140786.286 7 111095811.31407     -2572.758 7        45.824                                    21140781.193 5  86568043.13005     -2004.753 5        32.701    21140783.383 7  86568243.13807     -2004.718 7        45.415
G27        13.000    21738403.363 7 114236056.51907      1707.271 7        44.024                                    21738484.160 2  89015531.01902      1330.336 2        17.811    21738403.295 5  89015130.31105      1330.395 5        33.778
E27        14.000    27753552.420 5                      1930.968 5        33.114                                                                    27753536.911 5 108910818.37905      1441.864 5        35.424    27753526.413 4 111752018.70504      1479.410 4        28.569
R03        15.000    22223796.873 5                      -214.469 5        34.676
G26        17.000    21239957.611 6 111616776.56306     -2929.364 6        38.192                                    21239954.758 5  86974510.37905     -2282.626 5        33.006    21239957.702 6  86974084.41706     -2282.513 6        40.582
E30        19.000    24314825.466 7 127775265.15907        -4.518 7        44.697                                                                    24314836.893 6  95416635.10006        -3.369 6        40.579    24314825.934 6  97905757.31306        -3.397 6        40.801
R20        20.000    20544314.017 5 109859696.31105      1142.097 5        30.558                                                                    20544318.784 7  85446508.24707       888.105 7        42.730
E02        21.000    24230231.422 5 127330980.41105     -2874.084 5        33.222                                                                    24230229.239 7  95084730.87307     -2146.525 7        43.996    24230229.134 7  97565210.03607     -2202.371 7        46.487
S23        22.000    38207946.029 6 200784140.92506      -865.871 6        39.805
R10        23.000    20231768.093 6 107846728.96806      -516.169 6        36.544
E36        24.000    23939998.701 7 125805572.73807     -2188.359 7        42.673                                                                    23940000.316 8  93945887.10108     -1634.145 8        50.475    23939998.480 8  96396631.23708     -1676.720 8        49.729
R18        25.000    23090288.298 4                     -4301.113 4        26.311                                                                    23090294.996 4                     -3345.198 4        24.752
G16        26.000    20563936.292 7 108064210.82307      -656.556 7        46.849                                    20563931.266 6  84205866.86906      -511.599 6        39.868
S21        27.000    38481773.559 5 202223334.76105      -864.321 5        33.665
C22        28.000                                                                                                                                    24758896.431 5 128926080.27305      -970.538 5        34.005                                                                    24758910.317 5 104762945.53605      -788.359 5        30.898
R19        29.000    20225872.874 6 108194787.85706     -2889.623 6        37.410                                                                    20225871.776 7  84151491.07607     -2247.374 7        44.342
S36        31.000    38252009.483 6 201015652.02806      -863.802 6        36.068
E34        32.000    23922453.549 8 125713353.71508       505.439 8        51.058                                                                    23922452.743 7  93876859.68507       377.366 7        46.880    23922452.281 8  96325880.54008       387.275 8        48.497
R11        33.000    23148708.651 6 123699564.97416      2890.205 6        39.604                                                                    23148678.043 4                      2248.054 4        29.213
C44        35.000                                                                                                                                    24542480.337 5 127799129.79005     -3472.179 5        34.900                                                                    24542483.795 4                     -2821.084 4        28.692
C08        36.000                                                                                                                                    38024559.165 5 198003891.89405     -1554.101 5        34.300    38024555.885 5 153109155.44205     -1201.622 5        32.940    38024556.695 5 160894440.58105     -1262.679 5        33.293
R09        37.000    20604388.724 6 110026523.89106     -3997.047 6        40.565                                                                    20604384.345 7  85575963.92807     -3108.728 7        44.382
C11        38.000                                                                                                                                    21793567.211 7 113484852.92607      -113.275 7        43.022    21793559.108 6  87753799.46606       -87.514 6        41.931    21793559.732 6  92215714.74606       -91.928 6        39.411
C12        41.000                                                                                                                                    22997184.836 6 119752379.04706     -2757.020 6        38.712    22997185.257 7  92600213.41107     -2131.933 7        42.904    22997181.146 7  97308679.29607     -2240.312 7        45.016
C13        43.000                                                                                                                                    37802940.664 5 196849867.97005     -1278.693 5        30.211    37802950.360 6 152216862.20306      -989.131 6        39.523    37802944.213 5 159956701.18305     -1039.390 5        32.000
C38        44.000                                                                                                                                    39323065.570 4                     -1863.365 4        29.147                                                                    39323052.586 4                     -1514.436 4        25.534
C25        45.000                                                                                                                                    23742304.305 6 123632470.39206     -3513.461 6        38.429                                                                    23742303.441 6 100461464.56806     -2854.922 6        40.758
C21        46.000                                                                                                                                    24915601.405 5 129742088.47705      1574.228 5        34.286                                                                    24915595.164 6 105426039.08606      1279.071 6        39.051
C23        47.000                                                                                                                                    23846121.773 5 124173102.89905      -758.068 5        34.338                                                                    23846120.220 7 100900815.78307      -615.875 7        43.230
C43        48.000                                                                                                                                    22839101.588 7 118929281.27607      1008.780 7        46.966                                                                    22839101.538 6  96639746.61606       819.897 6        41.752
C34        52.000                                                                                                                                    21492904.511 8 111919267.70408     -1390.884 8        50.814                                                                    21492904.154 8  90943655.51508     -1130.052 8        50.241
C37        54.000                                                                                                                                    26589335.472 6 138457692.38406      1623.859 6        38.991                                                                    26589349.939 5 112508189.41705      1319.947 5        30.113
I06        58.000    38743802.923 6 152039130.21806      -607.053 6        41.936
> 2025 01 02 18 45 20.0000000  0 41
G10         1.000    23707634.575 6 124584449.94306      2643.042 6        41.294                                    23707627.720 5  97078793.27405      2059.511 5        30.936    23707632.927 5  97078800.22905      2059.706 5        34.024
G23         2.000    21462872.214 6 112788183.01506      1060.766 6        41.695                                    21462868.735 4  87886953.89104       826.573 4        25.323    21462866.950 6  87886821.86606       826.691 6        39.961
G05         4.000    25187329.623 3                     -4268.015 3        20.238
G08         5.000    24622276.398 4                      2472.011 4        26.108
G07         8.000    25621479.809 5 134641836.58705       716.443 5        31.592                                    25621481.832 1 104915687.99411       558.268 1        10.815
G29         9.000    24168003.861 3                     -3975.305 3        22.248
G18        12.000    21143234.561 7 111108678.43507     -2574.466 7        44.575                                    21143230.139 5  86578069.47105     -2006.081 5        32.569    21143231.582 7  86578269.47907     -2006.032 7        45.959
G27        13.000    21736779.316 7 114227522.04507      1706.153 7        43.998                                    21736858.099 2  89008880.75202      1329.453 2        16.340    21736781.715 5  89008480.06405      1329.461 5        34.481
E27        14.000    27751715.629 5 145836252.97415      1929.923 5        33.772                                                                    27751700.643 5 108903609.59905      1441.535 5        35.371    27751689.904 4 111744621.84804      1479.494 4        28.483
R03        15.000    22223992.954 6 118966809.53916      -218.533 6        36.336
G26        17.000    21242745.879 6 111631428.23906     -2931.650 6        38.811                                    21242743.311 5  86985927.26105     -2284.400 5        33.180    21242745.687 6  86985501.27706     -2284.325 6        41.125
R02        18.000                                                                                                                                    23990650.348 4                     -2651.302 4        26.311
E30        19.000    24314829.374 7 127775291.22607        -6.216 7        44.140                                                                    24314840.761 6  95416654.56906        -4.763 6        40.253    24314829.766 6  97905777.29206        -4.767 6        40.224
R20        20.000    20543249.012 5 109853990.59805      1139.676 5        32.437                                                                    20543251.894 7  85442070.45907       886.691 7        42.639
E02        21.000    24232969.504 5 127345354.87705     -2875.719 5        33.299                                                                    24232964.771 7  95095465.01107     -2147.500 7        44.104    24232964.447 7  97576224.20707     -2203.517 7        46.454
S23        22.000    38208768.978 6 200788468.13706      -865.460 6        39.964
R10        23.000    20232255.026 6 107849320.12006      -520.511 6        36.624
E36        24.000    23942081.827 7 125816516.05407     -2189.352 7        43.090                                                                    23942082.764 8  93954059.06208     -1634.855 8        50.561    23942080.905 8  96405016.39008     -1677.599 8        49.529
R18        25.000    23094312.436 4                     -4301.707 4        24.707                                                                    23094330.841 3                     -3346.650 3        21.762
G16        26.000    20564562.194 7 108067500.35407      -659.563 7        47.941                                    20564557.302 6  84208430.14206      -513.949 6        39.754
S21        27.000    38482592.202 5 202227654.78505      -864.059 5        33.742
C22        28.000                                                                                                                                    24759839.432 5 128930938.46705      -973.309 5        32.006                                                                    24759841.210 5 104766893.16905      -790.652 5        32.120
R19        29.000    20228573.112 6 108209237.94106     -2890.740 6        36.189                                                                    20228572.925 7  84162730.05807     -2248.450 7        43.852
S36        31.000    38252832.490 6 201019969.37806      -863.363 6        36.234
E34        32.000    23921973.231 8 125710829.05008       504.133 8        51.032                                                                    23921972.418 7  93874974.38407       376.476 7        46.938    23921972.047 8  96323946.05908       386.272 8        48.523
R11        33.000    23145997.749 6 123685117.70916      2888.325 6        38.535                                                                    23145980.134 5                      2246.702 5        31.072
C44        35.000                                                                                                                                    24545818.748 5 127816489.74805     -3472.138 5        34.395                                                                    24545818.535 4                     -2821.478 4        29.820
C08        36.000                                                                                                                                    38026050.826 5 198011662.71405     -1554.496 5        33.790    38026047.779 5 153115164.34805     -1201.990 5        32.389    38026049.634 5 160900755.00205     -1263.080 5        32.826
R09        37.000    20608131.336 6 110046515.27706     -3999.887 6        38.517                                                                    20608128.908 7  85591512.81907     -3111.027 7        44.772
C11        38.000                                                                                                                                    21793676.162 7 113485421.15507      -114.361 7        43.721    21793668.646 7  87754238.85007       -88.449 7        42.366    21793669.202 6  92216176.48406       -92.993 6        39.874
R04        40.000    22844568.162 4                      2647.528 4        25.218
C12        41.000                                                                                                                                    22999833.344 6 119766165.28906     -2757.813 6        39.087    22999831.916 7  92610873.81407     -2132.506 7        42.258    22999828.993 7  97319881.74807     -2240.742 7        45.488
C13        43.000                                                                                                                                    37804168.674 5 196856263.40905     -1279.837 5        30.091    37804178.373 6 152221807.54206      -989.285 6        39.517    37804171.814 5 159961897.96505     -1039.622 5        32.186
C38        44.000                                                                                                                                    39324854.805 4                     -1863.892 4        29.972                                                                    39324842.036 4                     -1515.177 4        26.084
C25        45.000                                                                                                                                    23745677.509 6 123650039.63006     -3514.524 6        38.216                                                                    23745677.862 6 100475741.03606     -2855.883 6        41.061
C21        46.000                                                                                                                                    24914089.549 5 129734220.81505      1572.601 5        34.109                                                                    24914084.086 6 105419645.94006      1277.816 6        39.126
C23        47.000                                                                                                                                    23846852.987 5 124176899.11805      -760.814 5        35.443                                                                    23846849.365 7 100903900.53507      -617.953 7        43.156
C43        48.000                                                                                                                                    22838133.562 7 118924238.01507      1008.143 7        46.617                                                                    22838133.089 6  96635648.54706       819.339 6        41.278
C34        52.000                                                                                                                                    21494240.053 8 111926223.84408     -1391.974 8        50.840                                                                    21494240.176 8  90949307.94208     -1130.991 8        50.431
C37        54.000                                                                                                                                    26587773.913 6 138449574.92106      1622.537 6        38.342                                                                    26587791.293 4 112501593.28504      1318.464 4        29.355
I06        58.000    38744576.396 6 152042164.32006      -606.822 6        41.769
> 2025 01 02 18 45 25.0000000  0 39
G10         1.000    23705120.559 6 124571237.17006      2642.141 6        41.385                                    23705113.443 5  97068497.62105      2058.805 5        31.004    23705118.680 5  97068504.59905      2058.825 5        34.138
G23         2.000    21461863.708 7 112782886.81407      1057.941 7        42.880                                    21461860.353 4  87882826.98804       824.362 4        24.812    21461858.995 6  87882694.96806       824.326 6        37.913
G08         5.000    24619918.691 4                      2471.805 4        27.725
G07         8.000    25620802.359 5 134638261.15005       714.000 5        33.012                                    25620801.595 2 104912901.89402       556.351 2        12.242    25620793.757 3                       557.576 3        19.672
G29         9.000    24171785.504 3                     -3971.662 3        23.105
G18        12.000    21145684.973 7 111121556.01407     -2576.352 7        43.953                                    21145681.134 5  86588103.95205     -2007.552 5        32.641    21145682.257 7  86588303.97007     -2007.598 7        46.678
G27        13.000    21735156.786 7 114218994.89707      1704.787 7        44.128                                    21735234.225 1  89002236.24501      1328.453 1        11.926    21735158.218 5  89001835.52805      1328.198 5        35.638
E27        14.000    27749875.597 5 145826603.11005      1929.838 5        33.892                                                                    27749865.355 5 108896403.54405      1441.041 5        35.457    27749854.249 4 111737227.85604      1478.655 4        27.377
G26        17.000    21245536.719 6 111646093.50206     -2934.185 6        38.378                                    21245534.471 5  86997354.73805     -2286.373 5        33.431    21245536.151 6  86996928.75106     -2286.391 6        41.785
R02        18.000    23993767.714 5                     -3412.646 5        31.298                                                                    23993848.591 3                     -2653.976 3        23.067
E30        19.000    24314835.925 7 127775328.12407        -8.337 7        43.862                                                                    24314846.324 6  95416682.12206        -6.321 6        39.889    24314835.781 6  97905805.58606        -6.510 6        39.589
R20        20.000    20542188.077 5 109848295.58005      1137.945 5        32.491                                                                    20542186.594 7  85437641.01307       885.204 7        43.041
E02        21.000    24235704.702 5 127359738.52305     -2877.550 5        33.245                                                                    24235701.923 7  95106206.01207     -2148.798 7        44.194    24235701.542 7  97587245.40807     -2204.877 7        46.227
S23        22.000    38209591.121 6 200792795.67006      -865.307 6        39.688
R10        23.000    20232745.765 6 107851934.75306      -525.237 6        36.839
E36        24.000    23944165.727 7 125827466.64107     -2190.696 7        44.473                                                                    23944166.657 8  93962236.46408     -1635.953 8        50.690    23944164.772 8  96413407.10408     -1678.634 8        49.223
R18        25.000    23098344.203 4                     -4301.956 4        26.587
G16        26.000    20565191.119 8 108070807.17908      -662.984 8        48.959                                    20565186.540 6  84211006.88806      -516.612 6        39.910
S21        27.000    38483413.679 5 202231975.33205      -864.138 5        33.515
C22        28.000                                                                                                                                    24760779.351 4 128935811.57604      -975.888 4        29.754                                                                    24760776.342 5 104770852.97205      -792.921 5        32.347
R19        29.000    20231275.390 5 108223697.04305     -2892.696 5        35.857                                                                    20231276.170 7  84173976.02507     -2249.802 7        43.746
S36        31.000    38253653.551 5 201024286.40505      -863.365 5        35.967
E34        32.000    23921494.307 8 125708312.83708       502.504 8        51.138                                                                    23921493.687 7  93873095.40207       375.246 7        47.173    23921493.365 8  96322018.05508       385.025 8        48.481
R11        33.000                                                                                                                                    23143280.830 5                      2244.826 5        33.054
C44        35.000                                                                                                                                    24549154.011 5 127833852.40205     -3472.796 5        32.760                                                                    24549153.372 5                     -2821.842 5        30.936
C08        36.000                                                                                                                                    38027542.372 5 198019437.78305     -1554.954 5        32.671    38027540.783 5 153121176.53105     -1202.877 5        31.660    38027542.913 5 160907072.92405     -1263.867 5        32.545
R09        37.000    20611873.483 6 110066523.24606     -4003.082 6        37.580                                                                    20611875.631 7  85607074.60907     -3113.608 7        45.082
C11        38.000                                                                                                                                    21793785.887 7 113485997.05507      -115.848 7        43.894    21793779.700 7  87754684.17907       -89.491 7        43.120    21793779.831 6  92216644.46106       -94.032 6        40.324
R04        40.000    22842099.057 4                      2645.484 4        25.744
C12        41.000                                                                                                                                    23002481.047 6 119779956.69706     -2758.698 6        38.895    23002479.300 6  92621538.21206     -2133.171 6        41.418    23002477.998 7  97331088.43107     -2241.694 7        45.810
C13        43.000                                                                                                                                    37805397.991 5 196862663.04505     -1280.065 5        30.309    37805407.532 6 152226756.19406      -989.910 6        39.168    37805401.085 5 159967098.23905     -1040.260 5        32.377
C38        44.000                                                                                                                                    39326644.916 4                     -1864.544 4        29.905                                                                    39326632.795 4                     -1515.129 4        28.019
C25        45.000                                                                                                                                    23749053.060 6 123667617.21206     -3516.399 6        37.732                                                                    23749053.489 6 100490024.24806     -2857.116 6        41.015
C21        46.000                                                                                                                                    24912580.717 5 129726362.12205      1571.112 5        33.760                                                                    24912574.746 6 105413260.10506      1276.561 6        39.168
C23        47.000                                                                                                                                    23847588.718 5 124180710.08805      -763.663 5        35.500                                                                    23847581.174 7 100906997.29707      -620.403 7        42.773
C43        48.000                                                                                                                                    22837166.126 7 118919200.85307      1006.966 7        45.612                                                                    22837165.591 6  96631555.46106       818.389 6        40.932
C34        52.000                                                                                                                                    21495577.292 8 111933187.87008     -1393.523 8        50.499                                                                    21495577.657 8  90954966.79208     -1132.333 8        50.567
C37        54.000                                                                                                                                    26586216.636 6 138441466.50706      1620.692 6        38.012                                                                    26586234.031 4 112495004.53104      1317.281 4        29.403
I06        58.000    38745349.169 6 152045198.59906      -606.789 6        41.950
> 2025 01 02 18 45 30.0000000  0 37
