     3.04           OBSERVATION DATA    M                   RINEX VERSION / TYPE
ssrcrin-15.6.1x                         20250102 150000 UTC PGM / RUN BY / DATE 
(00000000023479385599111004) Septentrio proprietary         COMMENT             
ract                                                        MARKER NAME         
01                                                          MARKER NUMBER       
geodetic                                                    MARKER TYPE         
NFB                 CLIMERS@TUW                             OBSERVER / AGENCY   
3296359             SEPT ASTERX SB3 PROB4.14.4              REC # / TYPE / VERS 
Unknown             Unknown                                 ANT # / TYPE        
  4127445.4559  1206914.2722  4695542.7339                  APPROX POSITION XYZ 
        0.0000        0.0000        0.0000                  ANTENNA: DELTA H/E/N
G   23 X1  C1C L1C D1C S1C C1W S1W C2W L2W D2W S2W C2L L2L  SYS / # / OBS TYPES 
       D2L S2L C5Q L5Q D5Q S5Q C1L L1L D1L S1L              SYS / # / OBS TYPES 
E   21 X1  C1C L1C D1C S1C C6C L6C D6C S6C C5Q L5Q D5Q S5Q  SYS / # / OBS TYPES 
       C7Q L7Q D7Q S7Q C8Q L8Q D8Q S8Q                      SYS / # / OBS TYPES 
S    9 X1  C1C L1C D1C S1C C5I L5I D5I S5I                  SYS / # / OBS TYPES 
R   17 X1  C1C L1C D1C S1C C2P L2P D2P S2P C2C L2C D2C S2C  SYS / # / OBS TYPES 
       C3Q L3Q D3Q S3Q                                      SYS / # / OBS TYPES 
C   25 X1  C1P L1P D1P S1P C5P L5P D5P S5P C2I L2I D2I S2I  SYS / # / OBS TYPES 
       C7I L7I D7I S7I C6I L6I D6I S6I C7D L7D D7D S7D      SYS / # / OBS TYPES 
J   17 X1  C1C L1C D1C S1C C2L L2L D2L S2L C5Q L5Q D5Q S5Q  SYS / # / OBS TYPES 
       C1L L1L D1L S1L                                      SYS / # / OBS TYPES 
I    5 X1  C5A L5A D5A S5A                                  SYS / # / OBS TYPES 
SEPTENTRIO RECEIVERS OUTPUT ALIGNED CARRIER PHASES.         COMMENT             
NO FURTHER PHASE SHIFT APPLIED IN THE RINEX ENCODER.        COMMENT             
G L1C                                                       SYS / PHASE SHIFT   
G L2W                                                       SYS / PHASE SHIFT   
G L2L  0.00000                                              SYS / PHASE SHIFT   
G L5Q  0.00000                                              SYS / PHASE SHIFT   
G L1L  0.00000                                              SYS / PHASE SHIFT   
E L1C  0.00000                                              SYS / PHASE SHIFT   
E L6C  0.00000                                              SYS / PHASE SHIFT   
E L5Q  0.00000                                              SYS / PHASE SHIFT   
E L7Q  0.00000                                              SYS / PHASE SHIFT   
E L8Q  0.00000                                              SYS / PHASE SHIFT   
S L1C                                                       SYS / PHASE SHIFT   
S L5I                                                       SYS / PHASE SHIFT   
R L1C                                                       SYS / PHASE SHIFT   
R L2P  0.00000                                              SYS / PHASE SHIFT   
R L2C                                                       SYS / PHASE SHIFT   
R L3Q  0.00000                                              SYS / PHASE SHIFT   
C L1P  0.00000                                              SYS / PHASE SHIFT   
C L5P  0.00000                                              SYS / PHASE SHIFT   
C L2I                                                       SYS / PHASE SHIFT   
C L7I                                                       SYS / PHASE SHIFT   
C L6I                                                       SYS / PHASE SHIFT   
C L7D                                                       SYS / PHASE SHIFT   
J L1C                                                       SYS / PHASE SHIFT   
J L2L  0.00000                                              SYS / PHASE SHIFT   
J L5Q  0.00000                                              SYS / PHASE SHIFT   
J L1L  0.00000                                              SYS / PHASE SHIFT   
I L5A                                                       SYS / PHASE SHIFT   
  2025     1     2    15     0    0.0000000     GPS         TIME OF FIRST OBS   
 C1C    0.000 C2C    0.000 C2P    0.000                     GLONASS COD/PHS/BIS 
DBHZ                                                        SIGNAL STRENGTH UNIT
    18                                                      LEAP SECONDS        
 24 R01  1 R02 -4 R03  5 R04  6 R05  1 R06 -4 R07  5 R08  6 GLONASS SLOT / FRQ #
    R09 -2 R10 -7 R11  0 R12 -1 R13 -2 R14 -7 R15  0 R16 -1 GLONASS SLOT / FRQ #
    R17  4 R18 -3 R19  3 R20  2 R21  4 R22 -3 R23  3 R24  2 GLONASS SLOT / FRQ #
                                                            END OF HEADER       
> 2025 01 02 15 00  0.0000000  0 39
G06         1.000    25051198.103 3                     -4172.078 3        23.829                                                                                                    25051168.026 3                     -3249.372 3        19.612
G11         2.000    22670818.806 8 119135958.49508     -2479.832 8        49.072                                    22670819.283 5  92833211.92405     -1932.339 5        30.060    22670817.965 6  92833237.88506     -1932.241 6        40.319
G25         3.000    19817638.531 7 104142348.60807     -1585.018 7        44.746                                    19817638.464 6  81149957.93806     -1235.079 6        40.930    19817639.100 6  81149944.95106     -1235.121 6        39.180
E25         6.000    23201685.498 7 121925720.57507     -1102.081 7        42.629                                                                    23201688.277 8  91048556.33808      -822.992 8        50.681    23201686.905 8  93423631.86808      -844.476 8        49.394
G31         7.000    22860663.406 6 120133581.83806      1892.103 6        41.564                                    22860662.068 5  93610610.62505      1474.356 5        31.321    22860665.680 5  93610649.66905      1474.418 5        35.005
G28         8.000    21471292.924 5 112832451.60305       442.563 5        30.272                                    21471325.082 1  87921348.88701       344.747 1         1.778    21471302.348 6  87921376.93006       344.618 6        36.469
G29         9.000    20609183.189 8 108302041.81908       476.447 8        48.460                                    20609180.856 8  84391201.04008       371.255 8        48.479    20609180.776 7  84391153.03907       371.228 7        45.925
E11        10.000    24392541.255 4 128183707.56404       711.227 4        27.760                                                                    24392540.907 6  95721587.97006       531.138 6        38.117    24392539.612 6  98218670.89106       544.895 6        38.850
E10        11.000    24715863.559 6 129882881.74206      -885.729 6        40.367                                                                    24715865.415 7  96990436.50107      -661.491 7        42.415    24715865.883 7  99520617.63807      -678.858 7        42.959
E12        13.000    25950381.614 5 136370189.78505     -2207.269 5        35.576                                                                    25950385.485 6 101834934.03506     -1648.225 6        37.607    25950385.067 5 104491488.69405     -1691.252 5        34.119
G12        15.000    22160116.154 6 116452160.90606     -3595.433 6        38.423                                    22160114.399 2  90741959.95602     -2801.642 2        16.151
E24        16.000    26255980.812 3                     -3050.290 3        22.267                                                                    26255962.313 5 103033955.86405     -2277.670 5        30.506    26255940.594 6 105721857.76106     -2337.016 6        38.565
E07        18.000    28028350.606 5 147290047.67205       331.485 5        30.958                                                                    28028360.252 5 109989380.32905       247.074 5        33.677    28028358.320 5 112858572.47405       253.639 5        32.922
E08        20.000    26621554.146 4 139897263.67304     -2041.293 4        28.341                                                                    26621562.925 5 104468723.70605     -1524.106 5        33.078    26621565.452 6 107194018.46006     -1563.878 6        38.916
E02        21.000                                                                                                                                    24902322.717 7  97722103.71207       813.563 7        44.101    24902319.673 6 100271354.60606       834.667 6        39.108
S23        22.000    38079031.977 5 200106734.85705      -865.862 5        35.095
R14        23.000    23020879.125 4                     -4596.274 4        29.014
E36        24.000    26813665.058 6 140906755.52106      2392.900 6        40.725                                                                    26813671.397 6 105222637.21906      1786.788 6        36.813    26813670.690 6 107967563.39806      1833.521 6        38.889
R18        25.000    20381099.134 7 108795884.71807      2406.696 7        42.550                                                                    20381102.969 6  84618911.25406      1871.879 6        40.210
E03        26.000                                                                                                                                    27345504.591 4 107309692.34804     -2737.565 4        28.929    27345499.288 4                     -2808.379 4        26.359
S21        27.000    38361169.964 6 201589417.26506      -861.094 6        36.132
R07        28.000    23278838.106 6 124613614.59306     -1680.592 6        39.036                                                                    23278825.568 3                     -1306.991 3        22.114
S48        29.000    77074054.619 5 405027674.22805      -887.229 5        33.210
R15        30.000    19437155.310 8 103866547.57808     -2187.635 8        51.510                                                                    19437156.264 7  80784861.99707     -1701.469 7        43.905
S36        31.000    38132523.686 6 200387760.94806      -861.267 6        36.439
R16        34.000    20098371.419 8 107362455.17708      1663.848 8        49.180                                                                    20098372.949 7  83503814.55707      1294.136 7        45.768
C44        35.000                                                                                                                                    21747587.886 8 113245692.52408       731.718 8        49.987                                                                    21747587.170 7  92021290.92007       594.536 7        43.602
R17        36.000    19222725.690 8 102865080.14308     -1360.357 8        48.136                                                                    19222729.397 5  80005907.76405     -1058.253 5        32.383
R24        38.000                                                                                                                                    22385201.414 4  93102905.88204     -3710.794 4        28.455
C12        41.000                                                                                                                                    23464253.138 5 122184528.21705      1939.464 5        34.333    23464253.279 5  94480929.32805      1499.724 5        35.357    23464253.777 7  99285030.78307      1575.783 7        43.752
C35        42.000                                                                                                                                    22123578.144 6 115203259.69806     -2186.658 6        40.982                                                                    22123580.581 7  93612124.04107     -1776.909 7        46.965
C25        45.000                                                                                                                                    24871056.268 6 129510103.46106      2134.521 6        36.915                                                                    24871060.093 6 105237692.16906      1734.454 6        40.443
C13        47.000                                                                                                                                                                                                    39844388.128 4 160436766.63804       889.843 4        28.227
C26        48.000                                                                                                                                    22778073.223 8 118611391.13208     -3071.209 8        49.572                                                                    22778073.562 7  96381480.28407     -2495.722 7        43.757
C38        50.000                                                                                                                                    39518297.900 4                       594.687 4        29.934                                                                    39518272.275 4                       482.659 4        28.976
C24        51.000                                                                                                                                    21431387.662 8 111598851.89308      -143.796 8        49.265                                                                    21431385.054 7  90683269.88007      -116.989 7        46.044
C34        52.000                                                                                                                                    25543616.834 4                      2504.375 4        29.678                                                                    25543627.349 4                      2035.278 4        27.006
I02        55.000    37455681.402 6 146984147.58706      -999.747 6        36.866
I06        58.000    38566941.500 5 151345000.48505      -712.255 5        33.796
> 2025 01 02 15 00  5.0000000  0 40
G06         1.000    25055163.950 3                     -4174.803 3        22.324
G11         2.000    22673179.396 8 119148365.16008     -2482.760 8        49.059                                    22673180.299 4  92842879.47704     -1934.619 4        29.744    22673180.261 6  92842905.41406     -1934.519 6        38.949
G25         3.000    19819147.628 7 104150280.16807     -1587.318 7        45.476                                    19819147.802 6  81156138.38506     -1236.871 6        40.303    19819148.710 6  81156125.38506     -1237.060 6        38.607
G32         4.000    24503338.017 5 128765905.04415     -3608.615 5        31.253
E25         6.000    23202734.363 7 121931234.43107     -1103.178 7        42.790                                                                    23202737.531 8  91052673.83008      -823.876 8        50.749    23202736.200 8  93427856.77408      -845.344 8        49.444
G31         7.000    22858864.464 6 120124127.12706      1889.902 6        40.188                                    22858862.892 5  93603243.35305      1472.644 5        31.328    22858865.335 5  93603282.38505      1472.460 5        35.952
G28         8.000    21470880.940 5 112830248.26105       439.206 5        32.216                                    21470905.425 1  87919632.19401       342.345 1         2.600    21470884.476 6  87919660.04606       342.002 6        36.238
G29         9.000    20608730.894 8 108299666.05208       474.095 8        48.735                                    20608728.744 8  84389349.79208       369.423 8        48.512    20608728.874 7  84389301.78807       369.433 7        46.043
E11        10.000                                                                                                                                    24391865.395 6  95718937.42106       529.327 6        38.186    24391864.584 6  98215951.19906       543.161 6        39.204
E10        11.000    24716708.231 6 129887317.59006      -888.388 6        41.740                                                                    24716709.353 7  96993749.00307      -663.430 7        42.284    24716710.308 7  99524016.53407      -680.572 7        42.339
E12        13.000    25952483.009 6 136381231.62606     -2209.296 6        36.038                                                                    25952486.800 6 101843179.57306     -1649.980 6        38.483    25952483.726 5 104499949.32105     -1692.945 5        33.593
G12        15.000    22163540.658 6 116470142.17106     -3596.834 6        39.973                                    22163535.928 3  90755971.37003     -2802.727 3        19.791
E24        16.000                                                                                                                                    26258863.201 4 103045344.98604     -2278.081 4        29.621    26258842.759 6 105733543.88706     -2337.385 6        39.048
E07        18.000    28028036.709 4 147288398.36004       328.832 4        27.497                                                                    28028046.874 5 109988148.53205       245.519 5        33.850    28028044.029 5 112857308.57705       252.132 5        33.299
E08        20.000    26623499.194 5 139907473.45605     -2042.853 5        32.162                                                                    26623505.201 5 104476347.93005     -1525.580 5        31.517    26623507.924 6 107201841.55906     -1565.315 6        38.468
E02        21.000                                                                                                                                    24901286.535 7  97718037.46007       813.097 7        44.345    24901284.065 6 100267182.27306       834.187 6        38.408
S23        22.000    38079862.872 5 200111065.14105      -865.758 5        35.671
R14        23.000    23025196.396 4                     -4597.500 4        27.186
E36        24.000    26811388.793 6 140894792.68906      2392.515 6        40.827                                                                    26811395.643 6 105213703.98406      1786.564 6        37.750    26811394.095 6 107958397.12906      1833.109 6        38.432
R18        25.000    20378847.532 6 108783859.30006      2403.702 6        41.952                                                                    20378850.092 6  84609558.18406      1869.642 6        39.886
E03        26.000    27348985.916 3                     -3666.544 3        21.405                                                                    27348992.910 4 107323380.39404     -2737.945 4        29.668    27348985.575 4                     -2809.387 4        24.030
S21        27.000    38361990.033 6 201593723.50906      -861.001 6        36.004
R07        28.000    23280413.234 6 124622028.43016     -1684.889 6        37.456                                                                    23280401.663 4                     -1310.652 4        26.826
S48        29.000    77074879.942 5 405032110.95405      -887.263 5        33.731
R15        30.000    19439203.048 8 103877493.68708     -2190.677 8        50.758                                                                    19439205.306 7  80793375.65807     -1703.808 7        44.629
S36        31.000    38133340.352 6 200392067.58506      -861.081 6        36.178
R16        34.000    20096815.162 8 107354141.32908      1661.924 8        49.693                                                                    20096816.473 7  83497348.24207      1292.536 7        46.405
C44        35.000                                                                                                                                    21746886.382 8 113242039.92608       729.574 8        49.718                                                                    21746885.917 7  92018322.89607       592.695 7        43.860
R17        36.000    19223998.349 7 102871892.76707     -1364.691 7        46.198                                                                    19224002.275 5  80011206.43705     -1061.272 5        34.505
R24        38.000    22389659.177 6 119727407.10316     -4772.348 6        40.143                                                                    22389662.058 4  93121462.60304     -3711.747 4        27.928
C12        41.000                                                                                                                                    23462392.929 6 122174835.74206      1937.963 6        36.136    23462393.942 6  94473434.51806      1498.461 6        37.577    23462392.494 7  99277154.89707      1574.522 7        44.117
C35        42.000                                                                                                                                    22125679.166 6 115214199.14606     -2188.766 6        41.616                                                                    22125681.329 7  93621013.26307     -1778.693 7        46.727
C25        45.000                                                                                                                                    24869007.537 6 129499432.70806      2134.138 6        38.646                                                                    24869010.791 6 105229021.37006      1733.914 6        40.176
C13        47.000                                                                                                                                                                                                    39843282.335 4 160432319.56304       889.092 4        27.940
C26        48.000                                                                                                                                    22781023.185 8 118626752.07308     -3072.950 8        49.977                                                                    22781023.180 7  96393962.33207     -2497.115 7        43.094
C38        50.000                                                                                                                                                                                                                                                                    39517703.171 4                       482.244 4        28.313
C24        51.000                                                                                                                                    21431527.041 8 111599576.60808      -145.913 8        49.017                                                                    21431524.129 7  90683858.77907      -118.644 7        45.774
C34        52.000                                                                                                                                    25541214.464 5                      2504.180 5        32.707                                                                    25541220.583 4                      2035.381 4        25.459
I02        55.000    37456954.505 6 146989146.68006      -999.611 6        36.813
I06        58.000    38567848.462 5 151348560.91505      -712.068 5        33.766
> 2025 01 02 15 00 10.0000000  0 40
G06         1.000    25059131.549 3                     -4175.643 3        23.676
G11         2.000    22675542.653 7 119160785.62907     -2485.332 7        47.922                                    22675543.829 4  92852557.78004     -1936.614 4        28.768    22675545.458 6  92852583.66806     -1936.789 6        36.125
G25         3.000    19820659.216 7 104158222.60507     -1589.447 7        46.000                                    19820659.228 6  81162327.31506     -1238.530 6        39.438    19820660.832 6  81162314.28606     -1238.525 6        38.192
G32         4.000    24506774.517 5 128783951.60405     -3609.787 5        32.114                                                                                                    24506811.156 4                     -2812.361 4        27.102
E25         6.000    23203784.525 7 121936753.23807     -1104.101 7        42.696                                                                    23203787.741 8  91056795.01808      -824.460 8        50.807    23203786.456 8  93432085.47608      -846.009 8        49.720
G31         7.000    22857066.748 6 120114682.09806      1888.285 6        40.605                                    22857065.689 5  93595883.61205      1471.394 5        30.845    22857066.219 5  93595922.63705      1471.348 5        35.810
G28         8.000    21470467.313 5 112828059.33505       436.428 5        34.609                                    21470488.437 1  87917926.40101       340.199 1         2.800    21470467.075 5  87917954.35405       340.298 5        35.057
G29         9.000    20608280.866 8 108297301.28108       472.015 8        48.094                                    20608278.657 8  84387507.11208       367.803 8        48.084    20608279.036 7  84387459.11507       367.840 7        45.776
E11        10.000                                                                                                                                    24391192.010 6  95716294.45806       527.830 6        38.003    24391191.188 6  98213239.27806       541.625 6        39.111
E10        11.000    24717554.355 7 129891765.23007      -890.495 7        42.349                                                                    24717555.593 7  96997070.28507      -664.976 7        42.366    24717556.713 6  99527424.47306      -682.326 6        41.971
E12        13.000    25954586.268 6 136392283.61106     -2210.922 6        36.575                                                                    25954590.177 6 101851432.68306     -1651.192 6        38.613    25954585.538 5 104508417.73405     -1694.242 5        34.029
G12        15.000    22166962.127 6 116488129.11206     -3597.901 6        40.672                                    22166958.987 3  90769987.19603     -2803.567 3        21.405    22167019.702 4                     -2804.006 4        26.994
E24        16.000                                                                                                                                    26261766.513 4 103056735.73204     -2278.481 4        28.171    26261745.821 6 105745231.74206     -2337.675 6        39.030
E07        18.000    28027714.207 4 147286758.93004       327.548 4        27.497                                                                    28027734.242 5 109986924.27005       244.209 5        33.228    28027732.436 5 112856052.42405       250.398 5        33.054
E08        20.000    26625444.031 5 139917693.07205     -2044.818 5        34.076                                                                    26625449.919 5 104483979.42105     -1526.654 5        31.585    26625452.054 6 107209672.17506     -1566.634 6        38.009
E02        21.000    24900246.131 5 130851680.87415      1088.766 5        31.343                                                                    24900250.803 7  97713972.61407       812.989 7        44.287    24900248.746 6 100263011.37806       834.060 6        37.433
S23        22.000    38080690.752 6 200115394.29806      -865.473 6        36.673
R14        23.000    23029507.143 4                     -4598.192 4        27.114
E36        24.000    26809112.813 6 140882831.29306      2392.250 6        40.734                                                                    26809119.699 6 105204771.82206      1786.422 6        38.168    26809117.844 6 107949231.93806      1833.025 6        38.477
R18        25.000    20376598.243 7 108771847.99707      2401.008 7        43.009                                                                    20376600.072 6  84600216.08506      1867.425 6        40.317
E03        26.000    27352473.723 3                     -3666.467 3        21.381                                                                    27352480.242 4 107337069.47704     -2738.052 4        29.431    27352473.293 3                     -2809.453 3        23.410
S21        27.000    38362804.400 5 201598028.85705      -860.772 5        35.343
R07        28.000    23281989.571 5 124630461.61415     -1688.342 5        35.676                                                                    23281982.408 5                     -1313.201 5        33.449
S48        29.000    77075704.299 5 405036545.95405      -886.697 5        33.186
R15        30.000    19441253.567 8 103888454.17208     -2193.307 8        50.700                                                                    19441255.842 7  80801900.47407     -1705.879 7        45.391
S36        31.000    38134161.266 5 200396374.01205      -861.192 5        35.910
R16        34.000    20095260.342 8 107345836.66708      1660.216 8        50.109                                                                    20095261.348 7  83490889.08207      1291.243 7        46.785
C44        35.000                                                                                                                                    21746186.381 8 113238397.69608       727.606 8        48.578                                                                    21746186.425 7  92015363.26407       591.072 7        44.218
R17        36.000    19225273.974 7 102878726.01007     -1368.498 7        45.592                                                                    19225279.001 6  80016521.20506     -1064.509 6        36.582
R24        38.000    22394126.065 6 119751272.50106     -4773.725 6        40.248                                                                    22394127.095 4  93140024.54704     -3712.275 4        27.317
C12        41.000                                                                                                                                    23460537.464 6 122165150.00706      1936.626 6        38.390    23460534.048 6  94465944.94706      1497.658 6        38.258    23460532.634 7  99269284.45807      1573.617 7        44.609
C35        42.000                                                                                                                                    22127783.366 7 115225148.65407     -2190.598 7        42.172                                                                    22127784.010 7  93629910.61307     -1780.203 7        46.482
C25        45.000                                                                                                                                    24866959.085 6 129488763.98106      2133.734 6        40.779                                                                    24866961.827 6 105220352.15806      1733.731 6        40.098
C13        47.000                                                                                                                                                                                                    39842177.511 4 160427873.87504       889.114 4        28.483
C26        48.000                                                                                                                                    22783974.337 8 118642120.76908     -3074.337 8        49.321                                                                    22783974.142 7  96406450.62107     -2498.235 7        42.002
C38        50.000                                                                                                                                                                                                                                                                    39517132.525 4                       481.423 4        29.024
C24        51.000                                                                                                                                    21431667.184 8 111600311.29108      -147.714 8        48.307                                                                    21431665.128 7  90684455.73707      -120.086 7        45.691
C34        52.000                                                                                                                                    25538812.469 5                      2504.383 5        35.424                                                                    25538814.872 4                      2033.696 4        24.752
I02        55.000    37458228.467 6 146994145.49806      -999.664 6        36.223
I06        58.000    38568756.036 5 151352120.37905      -711.366 5        33.156
> 2025 01 02 15 00 15.0000000  0 41
G06         1.000    25063106.651 3                     -4182.765 3        21.143                                                                                                    25063115.124 3                     -3256.494 3        23.505
G11         2.000    22677908.926 7 119173220.72807     -2488.466 7        47.155                                    22677909.885 4  92862247.47704     -1939.066 4        27.018    22677912.939 5  92862273.34205     -1939.199 5        33.156
G25         3.000    19822172.777 7 104166176.72507     -1591.827 7        46.255                                    19822172.958 6  81168525.33906     -1240.392 6        38.808    19822174.517 6  81168512.30506     -1240.444 6        37.104
G32         4.000    24510217.541 5 128802003.05805     -3610.487 5        30.030
E25         6.000    23204835.947 7 121942277.84107     -1105.341 7        42.616                                                                    23204839.074 8  91060920.54708      -825.503 8        50.776    23204837.777 8  93436318.62008      -847.036 8        49.989
G31         7.000    22855271.081 7 120105247.67307      1885.733 7        42.144                                    22855270.632 5  93588532.13805      1469.395 5        30.460    22855270.381 6  93588571.17706      1469.543 6        36.563
G28         8.000    21470053.449 6 112825885.63806       433.314 6        37.807                                    21470074.159 1  87916232.50901       337.659 1         6.125    21470053.312 5  87916260.52005       338.197 5        31.328
G29         9.000    20607832.589 7 108294948.35507       469.422 7        47.013                                    20607830.789 7  84385673.65907       365.786 7        47.402    20607831.376 7  84385625.65607       365.802 7        45.812
E11        10.000    24390566.029 4 128173090.17204       703.945 4        25.835                                                                    24390520.027 6  95713659.66506       526.184 6        37.807    24390519.809 6  98210535.74706       540.045 6        38.679
E10        11.000    24718402.929 7 129896225.46507      -893.247 7        42.379                                                                    24718404.152 7  97000400.98707      -667.058 7        42.491    24718405.475 6  99530842.05906      -684.531 6        41.371
E12        13.000    25956692.127 6 136403346.61106     -2213.623 6        36.578                                                                    25956695.205 6 101859694.00106     -1652.986 6        38.291    25956691.265 5 104516894.57905     -1695.958 5        34.576
G12        15.000    22170384.628 6 116506122.49606     -3599.316 6        40.391                                    22170383.807 3  90784008.02803     -2804.659 3        22.648
E24        16.000    26264636.634 5                     -3051.782 5        31.691                                                                                                                                    26264649.508 6 105756921.89206     -2338.210 6        39.529
E07        18.000                                                                                                                                    28027424.604 5 109985708.02205       242.704 5        32.222    28027422.958 5 112854804.47905       248.749 5        33.509
E08        20.000    26627388.506 5 139927923.38705     -2047.048 5        34.524                                                                    26627396.731 5 104491618.94905     -1529.045 5        31.253    26627398.038 6 107217510.96506     -1568.530 6        37.996
E02        21.000    24899215.177 4 130846240.24904      1087.775 4        29.460                                                                    24899215.857 7  97709909.80307       812.432 7        44.868    24899214.257 6 100258842.58906       833.579 6        38.069
S23        22.000    38081515.266 6 200119723.39006      -865.756 6        36.461
R14        23.000    23033825.290 4                     -4600.329 4        24.195                                                                    23033819.124 3                     -3578.442 3        22.971
E36        24.000    26806836.802 6 140870872.14706      2391.598 6        40.369                                                                    26806844.376 6 105195841.35406      1785.924 6        38.943    26806841.740 6 107940068.47806      1832.429 6        38.339
R18        25.000    20374352.324 7 108759851.63807      2397.917 7        44.689                                                                    20374353.186 6  84590885.60206      1864.988 6        41.101
E03        26.000    27355963.418 4                     -3667.162 4        25.955                                                                    27355968.228 4 107350760.21404     -2738.768 4        28.256    27355960.886 3                     -2809.690 3        23.657
S21        27.000    38363622.609 6 201602334.26306      -860.980 6        36.299
R07        28.000    23283576.364 5 124638914.94305     -1692.694 5        33.503                                                                    23283561.334 5                     -1316.256 5        34.229
S48        29.000    77076530.404 5 405040980.42305      -886.570 5        33.473
R15        30.000    19443308.402 8 103899429.78308     -2196.526 8        50.850                                                                    19443310.166 7  80810437.05507     -1708.349 7        45.801
S36        31.000    38134978.879 6 200400681.41706      -861.394 6        36.265
R16        34.000    20093707.270 8 107337542.01908      1657.977 8        50.300                                                                    20093708.944 7  83484437.69507      1289.525 7        47.329
C44        35.000                                                                                                                                    21745489.050 7 113234766.66007       725.116 7        47.316                                                                    21745489.154 7  92012412.72207       589.246 7        44.442
R17        36.000    19226556.286 7 102885580.56207     -1372.976 7        46.116                                                                    19226558.631 6  80021852.53306     -1067.862 6        38.471
R09        37.000    24569094.402 5 131197594.32615      3104.983 5        32.970
R24        38.000    22398588.288 6 119775145.49206     -4775.156 6        40.343                                                                    22398587.947 4  93158592.50104     -3714.089 4        27.521
C12        41.000                                                                                                                                    23458679.135 6 122155471.85606      1934.852 6        37.539    23458674.338 6  94458461.23406      1496.268 6        38.934    23458674.288 7  99261420.17607      1572.183 7        45.169
C35        42.000                                                                                                                                    22129890.191 7 115236109.00507     -2193.044 7        42.929                                                                    22129888.933 7  93638816.80407     -1782.099 7        46.497
C25        45.000                                                                                                                                    24864910.517 7 129478098.10007      2132.802 7        42.078                                                                    24864913.579 6 105211685.28906      1732.969 6        39.664
C13        47.000                                                                                                                                                                                                    39841073.957 4 160423430.21404       888.259 4        26.647
C26        48.000                                                                                                                                    22786926.929 8 118657498.03908     -3076.211 8        48.668                                                                    22786926.990 6  96418945.91006     -2499.719 6        40.984
C38        50.000                                                                                                                                    39516550.989 5                       591.893 5        31.253                                                                    39516562.228 4                       480.942 4        28.673
C24        51.000                                                                                                                                    21431809.669 7 111601056.72707      -150.109 7        47.656                                                                    21431808.448 7  90685061.45607      -122.121 7        45.663
C34        52.000                                                                                                                                    25536407.979 6 132974774.45616      2503.457 6        36.068                                                                    25536409.533 4                      2034.272 4        25.789
I02        55.000    37459502.119 5 146999144.62905      -999.947 5        35.862
I06        58.000    38569663.377 5 151355679.55705      -711.971 5        33.072
> 2025 01 02 15 00 20.0000000  0 41
G06         1.000    25067085.050 3                     -4177.657 3        22.648
G11         2.000    22680277.847 7 119185670.65307     -2491.434 7        45.255                                    22680278.401 4  92871948.73304     -1941.384 4        25.233    22680284.356 5  92871974.60405     -1940.960 5        32.240
G25         3.000    19823688.421 7 104174142.77407     -1594.467 7        47.106                                    19823688.990 6  81174732.66206     -1242.443 6        38.706    19823690.906 5  81174719.61105     -1242.323 5        35.829
G32         4.000    24513657.304 5 128820059.60105     -3611.529 5        32.096                                                                                                    24513664.418 3                     -2814.717 3        23.448
E25         6.000    23205888.361 7 121947808.47007     -1106.711 7        42.535                                                                    23205891.442 8  91065050.56108      -826.431 8        50.575    23205890.192 8  93440556.37608      -848.047 8        50.232
G31         7.000    22853477.093 7 120095823.94907      1883.694 7        42.108                                    22853477.673 4  93581189.00704      1467.803 4        29.962    22853477.403 6  93581228.06806      1467.924 6        37.928
G28         8.000    21469642.427 6 112823727.35906       430.184 6        40.014                                    21469662.823 1  87914550.69601       335.290 1         9.143    21469641.686 5  87914578.80705       335.104 5        30.257
G29         9.000    20607386.770 7 108292607.47307       466.961 7        46.832                                    20607385.214 7  84383849.59007       363.871 7        46.962    20607385.960 7  84383801.59207       363.897 7        45.849
E11        10.000                                                                                                                                    24389850.392 6  95711033.23606       524.528 6        37.558    24389850.628 6  98207840.79606       538.306 6        38.523
E10        11.000    24719253.852 7 129900698.51307      -895.855 7        42.794                                                                    24719255.540 7  97003741.25707      -668.964 7        42.845    24719256.551 6  99534269.47606      -686.508 6        40.925
E12        13.000    25958798.086 6 136414420.81006     -2216.055 6        36.658                                                                    25958802.426 6 101867963.68806     -1654.767 6        38.874    25958798.882 5 104525380.02005     -1697.993 5        34.543
G12        15.000    22173808.548 6 116524122.58806     -3600.633 6        40.162                                    22173809.897 3  90798034.06203     -2805.670 3        23.924
E24        16.000    26267544.396 5                     -3052.561 5        31.947                                                                    26267553.123 4 103079524.29204     -2279.696 4        29.867    26267552.267 6 105768614.56806     -2338.717 6        38.568
E07        18.000                                                                                                                                    28027116.139 5 109984500.06805       240.726 5        31.955    28027114.555 5 112853564.96305       247.073 5        34.048
E08        20.000    26629336.633 5 139938164.54105     -2049.272 5        35.757                                                                    26629347.888 5 104499266.51505     -1530.261 5        30.845    26629346.360 6 107225358.06406     -1570.052 6        37.259
E02        21.000    24898179.474 5 130840802.52705      1087.252 5        30.732                                                                    24898181.351 7  97705849.19507       811.936 7        45.032    24898180.138 6 100254676.02506       832.929 6        37.739
S23        22.000    38082332.938 5 200124052.40205      -865.716 5        35.357
R14        23.000    23038137.437 3                     -4599.748 3        20.833
E36        24.000    26804561.309 6 140858915.49606      2391.120 6        40.365                                                                    26804569.264 6 105186912.73706      1785.575 6        39.450    26804566.301 6 107930906.93806      1831.987 6        37.955
R18        25.000    20372108.640 7 108747870.41407      2394.691 7        44.775                                                                    20372108.578 6  84581566.88406      1862.584 6        41.559
E03        26.000    27359454.910 4                     -3667.176 4        26.958                                                                    27359456.347 4 107364452.79304     -2738.451 4        28.720    27359449.677 3                     -2810.755 3        21.714
S21        27.000    38364442.986 6 201606639.73706      -861.255 6        36.000
R07        28.000    23285160.623 5 124647388.56205     -1696.638 5        30.868                                                                    23285139.851 5  96947823.96215     -1319.723 5        32.509
S48        29.000    77077354.748 5 405045415.01605      -886.858 5        33.503
R15        30.000    19445365.456 8 103910420.66908     -2199.777 8        50.908                                                                    19445366.638 7  80818985.53107     -1710.920 7        45.281
S36        31.000    38135794.043 5 200404989.40305      -861.698 5        35.481
R16        34.000    20092155.796 8 107329257.67808      1655.881 8        48.986                                                                    20092157.636 7  83477994.33007      1287.875 7        47.051
C44        35.000                                                                                                                                    21744794.451 7 113231147.02407       722.781 7        47.326                                                                    21744793.426 7  92009471.47707       587.362 7        44.078
R17        36.000    19227842.908 7 102892456.71407     -1377.357 7        46.124                                                                    19227842.220 6  80027200.65806     -1071.177 6        39.841
R09        37.000    24566183.708 5 131182069.58305      3105.435 5        33.982
R24        38.000    22403049.967 6 119799026.29306     -4776.955 6        39.162                                                                    22403055.639 4  93177166.53104     -3714.988 4        27.952
C12        41.000                                                                                                                                    23456819.413 6 122145801.52406      1933.351 6        36.147    23456817.143 6  94450983.53506      1495.009 6        39.240    23456817.242 7  99253562.26607      1571.006 7        45.204
C35        42.000                                                                                                                                    22131999.164 7 115247080.42507     -2195.346 7        43.877                                                                    22131996.081 7  93647731.99907     -1783.893 7        46.438
C25        45.000                                                                                                                                    24862862.885 7 129467435.30407      2132.279 7        42.863                                                                    24862865.638 6 105203020.93506      1732.724 6        39.162
C13        47.000                                                                                                                                                                                                    39839967.071 4 160418988.72504       887.850 4        26.216
C26        48.000                                                                                                                                    22789881.259 8 118672884.08108     -3078.055 8        48.648                                                                    22789881.213 6  96431448.34906     -2501.126 6        40.810
C38        50.000                                                                                                                                    39515984.224 5                       590.962 5        32.365                                                                    39515993.782 4                       480.213 4        28.104
C24        51.000                                                                                                                                    21431955.150 7 111601813.16907      -152.296 7        45.902                                                                    21431953.713 7  90685676.13407      -123.830 7        45.321
C34        52.000                                                                                                                                    25534005.709 6 132962258.86006      2502.696 6        36.858                                                                    25534007.587 4                      2033.634 4        27.198
I02        55.000    37460775.942 5 147004144.38105      -999.848 5        35.810
I06        58.000    38570570.370 5 151359238.57905      -711.902 5        34.405
> 2025 01 02 15 00 25.0000000  0 41
G06         1.000    25071061.100 3                     -4180.838 3        23.048
G11         2.000    22682649.613 7 119198135.62007     -2494.063 7        44.072                                    22682649.421 3  92881661.68603     -1943.418 3        23.562    22682654.451 5  92881687.56705     -1943.584 5        30.174
G25         3.000    19825206.586 7 104182120.93407     -1596.497 7        47.539                                    19825207.405 6  81180949.42606     -1244.030 6        38.943    19825210.133 5  81180936.34905     -1243.778 5        35.667
G32         4.000    24517089.202 5 128838121.45005     -3612.594 5        31.411                                                                                                    24517100.507 3                     -2814.492 3        22.971
E25         6.000    23206941.696 7 121953345.31107     -1107.579 7        42.140                                                                    23206945.080 8  91069185.21608      -827.134 8        50.499    23206943.799 8  93444798.88908      -848.693 8        50.415
G31         7.000    22851685.429 7 120086411.26607      1881.797 7        43.464                                    22851687.007 4  93573854.49504      1466.330 4        29.128    22851686.797 6  93573893.54006      1466.256 6        37.595
G28         8.000    21469235.354 6 112821584.74106       427.336 6        41.316                                    21469254.712 1  87912881.07001       332.968 1        11.333    21469237.194 5  87912909.17305       332.914 5        31.004
G29         9.000    20606943.457 7 108290278.83007       464.924 7        46.122                                    20606941.960 7  84382035.05007       362.277 7        46.350    20606943.048 7  84381987.06007       362.252 7        45.815
E11        10.000                                                                                                                                    24389183.256 6  95708415.31706       522.948 6        37.119    24389183.124 6  98205154.59606       536.415 6        38.072
E10        11.000    24720107.573 7 129905184.59307      -898.107 7        43.118                                                                    24720109.428 7  97007091.27107      -670.824 7        43.086    24720109.889 6  99537706.85606      -688.176 6        40.563
E12        13.000    25960907.915 6 136425506.38006     -2217.864 6        37.025                                                                    25960911.559 6 101876241.88906     -1656.322 6        38.805    25960907.766 5 104533874.15805     -1699.502 5        34.362
G12        15.000    22177235.574 6 116542129.53106     -3601.778 6        40.288                                    22177237.592 4  90812065.42104     -2806.569 4        24.617    22177237.972 5                     -2806.868 5        33.545
E24        16.000    26270449.328 5                     -3052.948 5        32.263                                                                    26270455.996 4 103090922.22604     -2279.377 4        29.716    26270453.167 6 105780309.87006     -2339.168 6        37.788
E07        18.000                                                                                                                                    28026811.551 5 109983300.11705       238.858 5        31.366    28026808.802 5 112852333.72105       245.743 5        34.243
E08        20.000    26631289.075 6 139948416.73306     -2051.096 6        36.219                                                                                                                                    26631297.191 6 107233213.63506     -1571.700 6        36.972
E02        21.000    24897142.862 5 130835367.96005      1087.048 5        33.042                                                                    24897147.161 7  97701790.93207       811.706 7        44.953    24897146.802 6 100250511.89106       832.946 6        38.598
S23        22.000    38083156.356 5 200128381.47605      -865.415 5        35.376
R14        23.000    23042456.202 3                     -4602.918 3        21.048                                                                    23042477.473 3                     -3580.419 3        20.619
E36        24.000    26802286.468 6 140846961.54506      2390.927 6        40.167                                                                    26802294.307 6 105177986.12906      1785.485 6        39.565    26802291.706 6 107921747.45606      1832.145 6        38.168
R18        25.000    20369864.876 7 108735904.60007      2391.977 7        42.770                                                                    20369866.908 7  84572260.17807      1860.411 7        42.536
E03        26.000    27362948.862 4                     -3667.983 4        26.790                                                                    27362945.230 4 107378147.35304     -2738.874 4        27.557
S21        27.000    38365262.947 5 201610945.41405      -860.675 5        35.905
R07        28.000    23286741.418 5 124655882.82605     -1700.547 5        32.737                                                                    23286728.282 5  96954430.63405     -1322.716 5        32.174
S48        29.000    77078181.148 5 405049849.51805      -886.774 5        33.234
R15        30.000    19447425.283 8 103921427.33508     -2202.517 8        50.744                                                                    19447426.179 7  80827546.27607     -1713.030 7        45.240
S36        31.000    38136615.140 5 200409297.68505      -861.352 5        35.010
R16        34.000    20090605.689 7 107320983.82507      1654.072 7        47.806                                                                    20090608.328 7  83471559.13107      1286.473 7        46.277
C44        35.000                                                                                                                                    21744101.463 7 113227538.97807       720.830 7        47.664                                                                    21744099.921 7  92006539.64607       585.554 7        44.051
R17        36.000    19229131.868 7 102899354.51307     -1381.305 7        45.594                                                                    19229131.908 6  80032565.59906     -1074.379 6        38.724
R09        37.000    24563272.524 5 131166542.94405      3105.859 5        32.725
R24        38.000    22407517.461 6 119822915.15506     -4778.131 6        39.300                                                                    22407523.960 4  93195746.75504     -3716.115 4        29.697
C12        41.000                                                                                                                                    23454962.242 5 122136139.15005      1931.927 5        35.962    23454962.009 6  94443512.03206      1493.854 6        41.189    23454961.846 7  99245710.82207      1569.760 7        45.899
C35        42.000                                                                                                                                    22134108.913 7 115258063.09407     -2197.209 7        44.066                                                                    22134105.347 7  93656656.31807     -1785.693 7        46.550
C25        45.000                                                                                                                                    24860816.168 7 129456775.78107      2131.951 7        43.589                                                                    24860818.242 6 105194359.24306      1732.143 6        39.354
C13        47.000                                                                                                                                                                                                    39838862.333 4 160414549.63204       888.456 4        25.474
C26        48.000                                                                                                                                    22792838.061 8 118688279.09708     -3079.542 8        48.316                                                                    22792837.588 6  96443958.05106     -2502.532 6        40.010
