     3.04           OBSERVATION DATA    M                   RINEX VERSION / TYPE
ssrcrin-15.6.1x                         20250102 074500 UTC PGM / RUN BY / DATE 
(00000000023479385599111004) Septentrio proprietary         COMMENT             
ract                                                        MARKER NAME         
01                                                          MARKER NUMBER       
geodetic                                                    MARKER TYPE         
NFB                 CLIMERS@TUW                             OBSERVER / AGENCY   
3296359             SEPT ASTERX SB3 PROB4.14.4              REC # / TYPE / VERS 
Unknown             Unknown                                 ANT # / TYPE        
  4127446.9613  1206915.4646  4695544.4553                  APPROX POSITION XYZ 
        0.0000        0.0000        0.0000                  ANTENNA: DELTA H/E/N
G   23 X1  C1C L1C D1C S1C C1W S1W C2W L2W D2W S2W C2L L2L  SYS / # / OBS TYPES 
       D2L S2L C5Q L5Q D5Q S5Q C1L L1L D1L S1L              SYS / # / OBS TYPES 
E   21 X1  C1C L1C D1C S1C C6C L6C D6C S6C C5Q L5Q D5Q S5Q  SYS / # / OBS TYPES 
       C7Q L7Q D7Q S7Q C8Q L8Q D8Q S8Q                      SYS / # / OBS TYPES 
S    9 X1  C1C L1C D1C S1C C5I L5I D5I S5I                  SYS / # / OBS TYPES 
R   17 X1  C1C L1C D1C S1C C2P L2P D2P S2P C2C L2C D2C S2C  SYS / # / OBS TYPES 
       C3Q L3Q D3Q S3Q                                      SYS / # / OBS TYPES 
C   25 X1  C1P L1P D1P S1P C5P L5P D5P S5P C2I L2I D2I S2I  SYS / # / OBS TYPES 
       C7I L7I D7I S7I C6I L6I D6I S6I C7D L7D D7D S7D      SYS / # / OBS TYPES 
J   17 X1  C1C L1C D1C S1C C2L L2L D2L S2L C5Q L5Q D5Q S5Q  SYS / # / OBS TYPES 
       C1L L1L D1L S1L                                      SYS / # / OBS TYPES 
I    5 X1  C5A L5A D5A S5A                                  SYS / # / OBS TYPES 
SEPTENTRIO RECEIVERS OUTPUT ALIGNED CARRIER PHASES.         COMMENT             
NO FURTHER PHASE SHIFT APPLIED IN THE RINEX ENCODER.        COMMENT             
G L1C                                                       SYS / PHASE SHIFT   
G L2W                                                       SYS / PHASE SHIFT   
G L2L  0.00000                                              SYS / PHASE SHIFT   
G L5Q  0.00000                                              SYS / PHASE SHIFT   
G L1L  0.00000                                              SYS / PHASE SHIFT   
E L1C  0.00000                                              SYS / PHASE SHIFT   
E L6C  0.00000                                              SYS / PHASE SHIFT   
E L5Q  0.00000                                              SYS / PHASE SHIFT   
E L7Q  0.00000                                              SYS / PHASE SHIFT   
E L8Q  0.00000                                              SYS / PHASE SHIFT   
S L1C                                                       SYS / PHASE SHIFT   
S L5I                                                       SYS / PHASE SHIFT   
R L1C                                                       SYS / PHASE SHIFT   
R L2P  0.00000                                              SYS / PHASE SHIFT   
R L2C                                                       SYS / PHASE SHIFT   
R L3Q  0.00000                                              SYS / PHASE SHIFT   
C L1P  0.00000                                              SYS / PHASE SHIFT   
C L5P  0.00000                                              SYS / PHASE SHIFT   
C L2I                                                       SYS / PHASE SHIFT   
C L7I                                                       SYS / PHASE SHIFT   
C L6I                                                       SYS / PHASE SHIFT   
C L7D                                                       SYS / PHASE SHIFT   
J L1C                                                       SYS / PHASE SHIFT   
J L2L  0.00000                                              SYS / PHASE SHIFT   
J L5Q  0.00000                                              SYS / PHASE SHIFT   
J L1L  0.00000                                              SYS / PHASE SHIFT   
I L5A                                                       SYS / PHASE SHIFT   
  2025     1     2     7    45    0.0000000     GPS         TIME OF FIRST OBS   
 C1C    0.000 C2C    0.000 C2P    0.000                     GLONASS COD/PHS/BIS 
DBHZ                                                        SIGNAL STRENGTH UNIT
    18                                                      LEAP SECONDS        
 24 R01  1 R02 -4 R03  5 R04  6 R05  1 R06 -4 R07  5 R08  6 GLONASS SLOT / FRQ #
    R09 -2 R10 -7 R11  0 R12 -1 R13 -2 R14 -7 R15  0 R16 -1 GLONASS SLOT / FRQ #
    R17  4 R18 -3 R19  3 R20  2 R21  4 R22 -3 R23  3 R24  2 GLONASS SLOT / FRQ #
                                                            END OF HEADER       
> 2025 01 02 07 45  0.0000000  0 33
G13         1.000    20744538.490 7 109013458.39207      1000.060 7        42.483                                    20744534.074 3  84945424.45603       779.269 3        20.857
G18         2.000    25119179.781 5 132002264.91805     -1021.846 5        30.370                                    25119167.876 1 102858809.00401      -796.314 1         5.857
G20         4.000    22269199.974 6 117025431.73206     -3717.957 6        37.569
G07         5.000    23264079.882 5 122253575.50205     -3393.771 5        32.683                                    23264080.059 3  95262544.66403     -2644.503 3        18.567    23264078.549 5  95262525.63905     -2644.925 5        31.034
G30         7.000    20969332.191 7 110194546.48107     -2152.811 7        45.821                                    20969333.020 6  85865853.65306     -1677.509 6        38.787    20969332.358 6  85865922.66606     -1677.423 6        39.664
G14         8.000    21193204.959 7 111370937.40607       951.690 7        45.922                                    21193204.126 5  86782618.54705       741.579 5        30.958    21193203.597 7  86782652.54207       741.640 7        44.293
G15         9.000    23147846.316 6 121642733.63606      2606.437 6        40.949                                    23147855.269 2  94786607.29802      2031.029 2        14.238
E21        10.000    27562427.526 3                     -3348.587 3        20.643                                                                    27562431.428 4 108161028.50704     -2500.736 4        26.443    27562454.954 4                     -2566.174 4        29.517
E06        11.000    23376505.192 8 122844357.92908      -750.232 8        49.303                                                                    23376507.201 8  91734464.43308      -560.230 8        51.627    23376506.540 8  94127474.33408      -574.839 8        49.852
E31        13.000    25095860.218 6 131879626.11506      1640.402 6        37.308                                                                    25095866.912 5  98481609.90405      1225.214 5        34.962    25095861.434 6 101050631.78706      1257.010 6        37.595
G05        14.000    21292143.574 7 111891026.34507     -1661.167 7        42.754                                    21292140.183 5  87187777.88405     -1294.412 5        35.019    21292140.628 6  87187735.87906     -1294.302 6        40.319
E04        17.000    23971322.710 7 125970156.17307     -2004.286 7        45.442                                                                    23971322.126 7  94068642.59407     -1496.681 7        45.088    23971321.926 7  96522538.22507     -1535.810 7        47.717
E05        18.000                                                                                                                                    26495810.947 5 103975203.29505      1306.516 5        30.015    26495801.347 6 106687604.97906      1340.902 6        36.140
E09        21.000    24159947.369 6 126961410.47306       407.452 6        39.991                                                                    24159948.416 7  94808800.22507       304.379 7        45.502    24159948.599 7  97282133.61007       312.283 7        45.276
E36        22.000                                                                                                                                    27691605.150 4 108667831.61604     -2436.290 4        25.368    27691613.362 5                     -2499.273 5        31.977
S23        24.000    38304789.801 6 201292990.37006      -850.048 6        38.781
E34        26.000    27617966.790 4                     -1199.314 4        26.156                                                                    27617986.923 5 108378840.06905      -895.556 5        34.348    27617983.690 5 111206126.19605      -919.215 5        33.222
R18        28.000    24432801.475 4                     -3769.282 4        24.617                                                                    24432806.778 4 101440877.94604     -2931.256 4        29.507
R19        29.000    23813825.208 5                     -1518.148 5        32.132                                                                    23813821.674 4  99079540.31804     -1180.910 4        29.024
R11        30.000    20793530.467 7 111114312.48007     -3857.510 7        44.245                                                                    20793529.730 7  86422480.16207     -3000.261 7        45.065
C10        33.000                                                                                                                                                                                                    39721217.356 6 159940878.69206       312.079 6        36.215
C36        34.000                                                                                                                                    21882321.775 7 113947005.38807       303.520 7        45.020                                                                    21882329.140 6  92591381.83706       246.769 6        38.174
R02        35.000    19571395.432 8 104436644.67008       582.346 8        49.957                                                                    19571394.668 7  81228698.42807       453.035 7        44.910
R03        36.000    23059021.637 5                      3105.897 5        30.664                                                                    23058951.239 5                      2412.343 5        33.994
C45        37.000                                                                                                                                    25181301.484 6 131125626.36006      2287.077 6        36.544                                                                    25181308.580 5 106550304.31505      1858.322 5        33.772
R12        38.000    19544433.508 7 104402760.17907       672.422 7        46.568                                                                    19544435.285 6  81202555.76006       523.046 6        41.354
C40        40.000                                                                                                                                    39585360.105 4 206131364.67604       276.175 4        28.398
R01        44.000    20261396.334 7 108308721.89407     -3358.250 7        43.577                                                                    20261399.233 5  84240165.62205     -2611.952 5        35.305
I02        46.000    38140388.580 5 149671081.89305         5.650 5        35.452
C09        47.000                                                                                                                                    40721036.974 4                     -1525.967 4        24.737
C19        48.000                                                                                                                                    23218242.394 5 120903569.08705     -3177.150 5        32.569                                                                    23218247.716 7  98243942.61007     -2581.843 7        44.382
C22        51.000                                                                                                                                    21954541.696 8 114323062.14008       -47.707 8        48.073                                                                    21954534.840 7  92896812.72107       -38.893 7        46.888
C21        55.000                                                                                                                                    25667052.467 7 133655170.83107      2208.802 7        43.852                                                                    25667046.605 6 108605667.43706      1794.704 6        39.922
> 2025 01 02 07 45  5.0000000  0 33
G13         1.000    20743587.141 7 109008461.36507       998.497 7        42.654                                    20743582.356 3  84941530.65003       778.059 3        19.642
G18         2.000    25120152.408 4 132007379.75704     -1024.608 4        28.986                                    25120141.097 1 102862794.59901      -798.338 1         5.429
G20         4.000    22272743.001 5 117044025.82505     -3719.682 5        35.486
G07         5.000    23267309.203 5 122270546.00705     -3394.520 5        30.913                                    23267308.579 2  95275768.40302     -2645.084 2        17.208    23267306.892 4  95275749.34404     -2644.832 4        29.251
G30         7.000    20971380.939 7 110205313.69107     -2154.350 7        45.639                                    20971381.993 6  85874243.69006     -1678.711 6        39.489    20971381.338 6  85874312.68906     -1678.577 6        39.111
G14         8.000    21192300.541 7 111366184.34007       949.163 7        45.040                                    21192299.628 5  86778914.85505       739.611 5        30.604    21192298.890 7  86778948.86007       739.638 7        44.009
G15         9.000    23145367.621 6 121629702.36306      2605.828 6        40.577                                    23145376.694 2  94776452.97902      2030.517 2        13.576
E21        10.000    27565618.374 3                     -3352.527 3        19.642                                                                    27565618.024 4 108173535.21404     -2501.844 4        25.579    27565642.461 4                     -2566.873 4        28.995
E06        11.000    23377219.467 8 122848111.05908      -751.345 8        49.272                                                                    23377221.418 8  91737267.08108      -561.016 8        51.671    23377220.749 8  94130350.09608      -575.656 8        50.034
E31        13.000    25094299.296 6 131871425.94606      1639.299 6        38.009                                                                    25094309.710 5  98475486.37505      1223.955 5        34.667    25094300.880 6 101044348.55906      1256.086 6        37.112
G05        14.000    21293724.022 6 111899339.44406     -1664.460 6        41.983                                    21293722.337 5  87194255.62305     -1296.986 5        35.676    21293722.698 6  87194213.63706     -1296.885 6        40.260
E04        17.000    23973230.090 7 125980179.26607     -2005.274 7        45.490                                                                    23973229.383 7  94076127.35907     -1497.447 7        44.700    23973229.403 7  96530218.24707     -1536.511 7        47.920
E05        18.000                                                                                                                                    26494146.299 4 103968668.45804      1307.198 4        29.194    26494136.093 6 106680899.74506      1341.183 6        36.174
E09        21.000    24159560.418 6 126959373.99806       406.666 6        40.493                                                                    24159560.930 7  94807279.46907       303.776 7        45.809    24159560.831 7  97280573.18907       311.695 7        45.552
E36        22.000                                                                                                                                                                                                    27694718.448 5                     -2499.973 5        31.970
S23        24.000    38305597.278 6 201297239.26306      -849.880 6        38.670
E34        26.000    27619111.114 4                     -1201.359 4        29.441                                                                    27619125.647 5 108383321.66005      -897.294 5        35.590    27619124.631 5 111210724.70405      -920.874 5        32.168
R18        28.000                                                                                                                                    24436331.661 4 101455537.54504     -2932.700 4        27.569
R19        29.000    23815245.310 5                     -1522.403 5        31.441                                                                    23815244.161 4  99085452.21204     -1184.213 4        28.313
R11        30.000    20797141.713 6 111133604.85606     -3859.707 6        41.523                                                                    20797140.650 7  86437485.35507     -3001.991 7        45.362
C10        33.000                                                                                                                                                                                                    39720831.247 6 159939317.94906       311.991 6        36.465
C36        34.000                                                                                                                                    21882031.345 7 113945491.97707       301.498 7        45.734                                                                    21882038.707 6  92590152.05006       245.389 6        38.901
R02        35.000    19570851.088 8 104433739.07908       579.437 8        50.088                                                                    19570850.132 7  81226438.52407       450.655 7        45.100
R03        36.000                                                                                                                                    23056054.147 5  95993988.36215      2415.235 5        34.567
C45        37.000                                                                                                                                    25179104.744 5 131114192.25105      2286.511 5        35.948                                                                    25179111.510 5 106541013.09705      1858.199 5        33.946
R12        38.000    19543805.261 7 104399405.97607       668.954 7        46.495                                                                    19543807.951 7  81199946.96607       520.371 7        43.120
C40        40.000                                                                                                                                    39585093.790 4 206129983.26604       275.531 4        28.455
R01        44.000    20264538.119 7 108325519.24607     -3360.964 7        42.811                                                                    20264543.330 6  84253230.22406     -2614.178 6        37.410
I02        46.000    38140380.844 5 149671053.03105         5.514 5        35.410
C09        47.000                                                                                                                                    40722504.082 4                     -1525.128 4        25.729
C19        48.000                                                                                                                                    23221292.950 4 120919458.56604     -3178.737 4        29.147                                                                    23221299.159 7  98256854.07807     -2582.970 7        43.991
C22        51.000                                                                                                                                    21954589.067 8 114323305.53708       -49.935 8        48.268                                                                    21954581.438 7  92897010.47107       -40.386 7        46.940
C21        55.000                                                                                                                                    25664931.505 7 133644127.47207      2208.261 7        44.017                                                                    25664925.771 6 108596693.75606      1794.595 6        40.038
> 2025 01 02 07 45 10.0000000  0 33
G13         1.000    20742637.576 7 109003473.55107       996.804 7        42.997                                    20742633.223 3  84937644.05003       776.736 3        19.254
G18         2.000    25121130.670 5 132012509.99005     -1027.429 5        32.593                                    25121117.472 1 102866792.22601      -800.745 1         4.571    25121119.488 5 102866811.10015      -800.747 5        32.910
G20         4.000    22276287.191 5 117062630.16905     -3721.764 5        32.701
G07         5.000    23270537.276 5 122287519.97605     -3395.144 5        30.558                                    23270537.887 2  95288994.80702     -2645.581 2        16.868
G30         7.000    20973431.041 7 110216089.91607     -2156.019 7        45.359                                    20973432.630 6  85882640.74206     -1680.015 6        39.865    20973432.165 6  85882709.75106     -1679.997 6        39.766
G14         8.000    21191397.929 7 111361445.15207       946.567 7        43.884                                    21191397.769 4  86775221.97504       737.589 4        29.886    21191396.957 7  86775255.97707       737.564 7        43.875
G15         9.000    23142890.958 6 121616675.87906      2604.897 6        40.307                                    23142899.084 2  94766302.45402      2029.769 2        14.762    23142963.521 4  94766365.54514      2030.003 4        28.332
E21        10.000                                                                                                                                    27568806.958 4 108186046.61204     -2502.685 4        25.925    27568832.177 4                     -2567.948 4        28.436
E06        11.000    23377934.899 8 122851871.13908      -752.648 8        49.115                                                                    23377936.978 8  91740074.92008      -562.035 8        51.749    23377936.328 8  94133231.18508      -576.639 8        50.087
E31        13.000    25092739.997 6 131863233.35406      1637.724 6        37.977                                                                    25092754.776 5  98469368.51405      1223.258 5        33.784    25092741.881 6 101038071.14306      1254.825 6        36.352
G05        14.000    21295308.897 6 111907670.09906     -1667.708 6        40.436                                    21295307.737 5  87200747.04305     -1299.513 5        35.767    21295306.873 6  87200705.05706     -1299.524 6        39.393
E04        17.000    23975138.535 7 125990208.88907     -2006.422 7        44.963                                                                    23975137.903 7  94083617.00607     -1498.341 7        44.321    23975138.096 8  96537903.27708     -1537.428 8        48.086
E05        18.000                                                                                                                                    26492481.708 4 103962133.66404      1306.749 4        28.844    26492471.672 6 106674194.50806      1341.258 6        36.363
E09        21.000    24159174.157 6 126957342.93706       405.790 6        40.646                                                                    24159174.477 7  94805762.75607       303.065 7        45.956    24159174.120 7  97279016.91907       310.919 7        45.673
E36        22.000                                                                                                                                    27697816.312 4 108692196.12804     -2437.035 4        25.353    27697823.601 5                     -2500.851 5        31.479
S23        24.000    38306404.768 6 201301488.16606      -849.731 6        38.384
E34        26.000    27620256.886 5                     -1204.030 5        30.257                                                                    27620269.023 6 108387812.60106      -899.054 6        36.594    27620267.771 5 111215332.80905      -922.668 5        32.012
R18        28.000                                                                                                                                    24439868.133 4                     -2934.812 4        28.559
R19        29.000    23816668.627 5                     -1526.515 5        30.747                                                                    23816664.118 4  99091380.60504     -1187.274 4        27.162
R11        30.000    20800754.450 6 111152909.64106     -3862.262 6        36.185                                                                    20800753.480 7  86452500.21707     -3003.805 7        46.178
C10        33.000                                                                                                                                                                                                    39720445.083 6 159937759.69106       311.345 6        36.836
C36        34.000                                                                                                                                    21881743.735 7 113943989.87607       299.418 7        46.337                                                                    21881750.421 6  92588931.50706       243.333 6        39.610
R02        35.000    19570309.034 8 104430849.59408       576.525 8        49.305                                                                    19570308.959 7  81224191.13607       448.457 7        45.592
R03        36.000    23053164.996 5 123405381.67315      3105.263 5        35.390                                                                    23053153.014 5  95981912.44215      2415.229 5        35.562
C45        37.000                                                                                                                                    25176909.634 5 131102762.51505      2285.730 5        35.362                                                                    25176914.179 5 106531725.54705      1857.519 5        34.148
R12        38.000    19543181.431 7 104396070.89107       665.295 7        47.488                                                                    19543184.094 7  81197353.01907       517.393 7        44.712
C40        40.000                                                                                                                                    39584828.827 4 206128606.70704       274.787 4        27.437
R01        44.000    20267683.181 7 108342331.61107     -3363.775 7        42.690                                                                    20267689.042 6  84266306.52606     -2616.315 6        37.569
I02        46.000    38140373.346 5 149671025.24605         5.632 5        34.752
C09        47.000                                                                                                                                    40723976.301 4                     -1525.444 4        25.308
C19        48.000                                                                                                                                    23224346.268 4 120935357.58804     -3180.356 4        25.624                                                                    23224352.255 7  98269773.35607     -2584.496 7        43.257
C22        51.000                                                                                                                                    21954638.381 8 114323561.14608       -52.245 8        48.464                                                                    21954630.539 7  92897218.21307       -42.435 7        46.932
C21        55.000                                                                                                                                    25662811.423 7 133633087.84907      2207.635 7        43.659                                                                    25662805.887 6 108587723.18806      1793.989 6        40.181
> 2025 01 02 07 45 15.0000000  0 34
G13         1.000    20741689.842 7 108998495.36707       994.768 7        43.120                                    20741685.995 3  84933764.94403       775.140 3        18.657
G18         2.000    25122112.828 5 132017656.11605     -1030.853 5        35.781                                    25122097.329 1 102870802.11701      -803.270 1         5.286    25122104.658 5 102870821.11305      -803.283 5        34.662
G20         4.000    22279825.801 5 117081244.93005     -3723.871 5        34.329
G07         5.000    23273769.776 5 122304497.79105     -3395.781 5        33.042                                    23273767.708 2  95302224.25302     -2646.072 2        16.000    23273768.085 4  95302205.28404     -2645.973 4        24.361
G30         7.000    20975483.899 7 110226875.55807     -2158.000 7        45.073                                    20975485.056 6  85891045.14006     -1681.556 6        39.976    20975485.278 6  85891114.13706     -1681.472 6        40.274
G14         8.000    21190498.204 7 111356720.23207       943.612 7        43.175                                    21190498.535 4  86771540.21004       735.279 4        28.844    21190498.234 7  86771574.20707       735.341 7        43.964
G15         9.000    23140412.419 6 121603654.47206      2603.929 6        37.981                                    23140422.046 2  94756155.82802      2029.071 2        13.151
E21        10.000                                                                                                                                    27571995.422 4 108198562.96704     -2503.207 4        25.744    27572022.782 4                     -2569.221 4        26.719
E06        11.000    23378651.880 8 122855638.53408      -754.130 8        49.471                                                                    23378653.934 8  91742888.22108      -563.109 8        51.600    23378653.257 8  94136117.88108      -577.861 8        50.067
E31        13.000    25091182.056 6 131855048.74806      1636.125 6        38.781                                                                    25091202.706 5  98463256.62105      1221.946 5        32.862    25091184.922 5 101031799.83305      1253.705 5        35.814
G05        14.000    21296897.707 6 111916018.74706     -1671.440 6        40.241                                    21296896.407 5  87207252.48105     -1302.423 5        35.386    21296895.172 6  87207210.48806     -1302.411 6        38.967
E04        17.000    23977048.475 7 126000245.46507     -2007.931 7        45.025                                                                    23977047.682 7  94091111.82807     -1499.404 7        44.212    23977048.342 8  96545593.62608     -1538.565 8        48.071
E05        18.000                                                                                                                                    26490815.570 4 103955599.08804      1306.818 4        29.223    26490808.780 5 106667489.54605      1341.139 5        35.933
E09        21.000    24158788.344 6 126955317.68406       404.546 6        41.769                                                                    24158789.206 7  94804250.39107       302.060 7        46.086    24158788.473 7  97277465.10107       310.052 7        45.699
E36        22.000                                                                                                                                    27700926.655 4 108704385.58504     -2438.015 4        26.898    27700929.474 5                     -2502.064 5        30.536
S23        24.000    38307215.223 6 201305737.54206      -849.889 6        38.859
E34        26.000    27621404.729 5                     -1206.536 5        32.581                                                                    27621418.363 6 108392313.20306      -901.072 6        37.350    27621413.471 5 111219950.76805      -924.645 5        31.540
R13        27.000    22538824.517 3                      3179.660 3        20.595
R18        28.000                                                                                                                                    24443402.081 4 101484884.89614     -2937.044 4        28.142
R19        29.000    23818093.850 4                     -1530.995 4        28.550                                                                    23818092.798 5  99097325.76415     -1190.598 5        30.883
R11        30.000    20804367.837 5 111172227.20805     -3865.193 5        30.709                                                                    20804368.633 7  86467525.05107     -3005.896 7        46.433
C10        33.000                                                                                                                                                                                                    39720059.241 6 159936204.23606       311.007 6        36.760
C36        34.000                                                                                                                                    21881457.250 7 113942499.47807       297.025 7        46.659                                                                    21881464.455 6  92587720.44706       241.214 6        40.348
R02        35.000    19569770.133 8 104427976.35708       573.104 8        48.567                                                                    19569770.709 7  81221956.39307       445.787 7        46.534
R03        36.000    23050268.138 5 123389858.33305      3104.460 5        35.724                                                                    23050253.273 5  95969838.77105      2414.380 5        35.957
C45        37.000                                                                                                                                    25174715.862 5 131091337.58405      2284.785 5        35.086                                                                    25174718.010 5 106522441.85305      1856.223 5        33.886
R12        38.000    19542562.487 7 104392755.41607       661.212 7        47.952                                                                    19542564.274 7  81194774.31107       514.335 7        44.700
C40        40.000                                                                                                                                    39584565.450 4 206127235.31104       273.873 4        26.683
R01        44.000    20270830.903 6 108359159.55706     -3367.091 6        41.881                                                                    20270835.996 6  84279394.91106     -2618.832 6        37.316
I02        46.000    38140365.869 5 149670998.95105         5.450 5        34.481
C09        47.000                                                                                                                                    40725439.286 4                     -1525.036 4        25.669
C19        48.000                                                                                                                                    23227409.620 4 120951266.59904     -3183.296 4        28.303                                                                    23227406.952 7  98282700.67307     -2586.228 7        42.273
C22        51.000                                                                                                                                    21954689.666 8 114323829.35308       -54.826 8        48.619                                                                    21954682.031 7  92897436.15507       -44.620 7        46.965
C21        55.000                                                                                                                                    25660692.035 7 133622052.35807      2206.722 7        43.327                                                                    25660686.715 6 108578755.94606      1793.070 6        40.474
> 2025 01 02 07 45 20.0000000  0 34
G13         1.000    20740743.470 7 108993526.48907       992.746 7        42.368                                    20740740.542 2  84929893.08102       773.567 2        17.962
G18         2.000    25123093.643 6 132022817.79506     -1033.925 6        36.045                                    25123080.277 1 102874824.17401      -805.609 1         8.000    25123088.661 6 102874843.19606      -805.718 6        36.389
G20         4.000    22283368.949 5 117099869.91605     -3725.980 5        33.737
G07         5.000    23277004.002 6 122321479.09606     -3396.669 6        36.045                                    23276998.362 2  95315456.37702     -2646.763 2        16.641    23276995.035 3                     -2646.012 3        21.000
G30         7.000    20977538.688 7 110237670.27207     -2159.849 7        45.067                                    20977539.154 6  85899456.60306     -1682.998 6        40.219    20977538.689 6  85899525.61206     -1683.099 6        40.107
G14         8.000    21189602.605 7 111352009.25107       940.736 7        42.286                                    21189601.979 4  86767869.31104       733.046 4        28.284    21189601.566 7  86767903.31007       733.069 7        43.973
G15         9.000    23137929.863 5 121590637.85705      2602.845 5        35.010                                    23137945.935 1  94746012.97901      2028.202 1        11.259    23137993.158 4  94746076.19204      2027.862 4        26.395
E21        10.000                                                                                                                                    27575185.029 4 108211084.12304     -2504.649 4        24.617    27575215.346 4                     -2569.859 4        25.789
E06        11.000    23379370.212 8 122859412.94908      -755.679 8        49.349                                                                    23379372.195 8  91745706.76308      -564.278 8        51.684    23379371.496 8  94139009.95208      -579.016 8        50.170
E31        13.000    25089626.290 6 131846871.80206      1634.652 6        39.123                                                                    25089653.487 5  98457150.49105      1220.326 5        32.910    25089629.608 5 101025534.41405      1252.444 5        35.433
G05        14.000    21298490.042 7 111924384.98507     -1675.097 7        43.046                                    21298488.345 5  87213771.63405     -1305.269 5        35.362    21298488.179 6  87213729.64906     -1305.408 6        38.664
E04        17.000    23978959.454 7 126010288.64907     -2009.357 7        44.748                                                                    23978958.948 7  94098611.59107     -1500.545 7        44.209    23978959.748 8  96553289.03308     -1539.595 8        48.236
E05        18.000                                                                                                                                    26489148.527 4 103949064.57804      1306.863 4        29.915    26489145.889 5 106660784.64405      1340.926 5        35.629
E09        21.000    24158403.744 7 126953297.91607       403.356 7        42.313                                                                    24158404.903 7  94802742.12007       301.228 7        46.307    24158403.965 7  97275917.48907       309.120 7        45.755
E36        22.000                                                                                                                                    27704038.958 4 108716579.75504     -2439.726 4        28.417    27704035.695 4                     -2503.068 4        29.848
S23        24.000    38308021.385 6 201309987.02306      -850.072 6        38.568
E34        26.000    27622554.290 5                     -1209.190 5        32.461                                                                    27622571.011 6 108396823.17106      -902.985 6        37.947    27622561.610 5 111224578.38905      -926.083 5        31.789
R13        27.000    22535849.090 3                      3177.317 3        21.214
R18        28.000                                                                                                                                    24446939.327 4 101499572.70404     -2939.172 4        28.938
R19        29.000    23819525.587 4                     -1535.473 4        26.958                                                                    23819533.814 5  99103287.31215     -1193.973 5        34.195
R11        30.000    20807980.009 5 111191557.24105     -3867.472 5        31.238                                                                    20807985.626 7  86482559.60107     -3007.931 7        46.116
C10        33.000                                                                                                                                                                                                    39719674.046 6 159934651.29106       310.214 6        36.907
C36        34.000                                                                                                                                    21881173.427 7 113941020.44407       294.578 7        47.565                                                                    21881180.250 6  92586518.60706       239.499 6        41.013
R02        35.000    19569234.091 8 104425118.98708       569.782 8        48.311                                                                    19569235.141 7  81219733.99607       443.196 7        46.893
R03        36.000    23047373.031 5 123374337.32005      3104.215 5        34.067                                                                    23047354.449 6  95957766.89206      2413.995 6        37.009
C45        37.000                                                                                                                                    25172523.856 6 131079917.15406      2283.715 6        36.197                                                                    25172522.637 5 106513161.81605      1855.571 5        33.485
R12        38.000    19541945.834 7 104389459.13407       657.212 7        47.760                                                                    19541946.838 7  81192210.52707       511.157 7        44.378
C40        40.000                                                                                                                                    39584303.496 4 206125868.75904       272.630 4        26.599
R01        44.000    20273981.984 7 108376002.63307     -3370.208 7        43.653                                                                    20273984.376 6  84292495.05006     -2621.061 6        36.299
I02        46.000    38140359.671 5 149670973.80005         5.150 5        34.210
C09        47.000                                                                                                                                    40726900.094 4                     -1524.339 4        24.857
C19        48.000                                                                                                                                    23230468.120 5 120967184.98605     -3184.718 5        32.497                                                                    23230463.097 6  98295635.79606     -2587.913 6        40.999
C22        51.000                                                                                                                                    21954743.476 8 114324109.85308       -57.375 8        48.712                                                                    21954736.052 7  92897664.09107       -46.579 7        47.212
C21        55.000                                                                                                                                    25658573.408 7 133611020.68307      2205.855 7        43.160                                                                    25658568.210 6 108569791.80606      1792.568 6        40.665
> 2025 01 02 07 45 25.0000000  0 32
G13         1.000    20739799.359 6 108988567.14906       991.238 6        41.395                                    20739796.734 2  84926028.68002       772.389 2        17.132
G18         2.000    25124076.078 6 132027995.23906     -1036.866 6        36.227                                    25124066.167 1 102878858.50501      -807.959 1         9.143    25124073.917 6 102878877.53206      -807.858 6        37.603
G20         4.000    22286919.932 5 117118505.48505     -3727.857 5        30.158
G07         5.000    23280237.384 6 122338464.11106     -3397.079 6        37.236                                    23280229.695 2  95328691.42102     -2647.044 2        17.132
G30         7.000    20979594.911 7 110248474.28007     -2161.387 7        45.797                                    20979594.964 6  85907875.30106     -1684.200 6        40.319    20979594.416 6  85907944.29106     -1684.231 6        39.465
G14         8.000    21188708.675 6 111347312.45306       938.118 6        41.378                                    21188708.227 4  86764209.45404       731.002 4        27.473    21188708.039 7  86764243.45507       731.113 7        43.856
G15         9.000    23135452.831 5 121577626.33505      2602.235 5        31.630                                    23135470.136 1  94735874.04601      2027.776 1        10.370    23135506.323 4  94735937.14804      2027.558 4        24.541
E21        10.000                                                                                                                                    27578376.478 4 108223610.00904     -2505.285 4        24.857    27578408.993 4                     -2570.902 4        24.195
E06        11.000    23380089.904 8 122863194.57608      -756.766 8        49.303                                                                    23380091.825 8  91748530.69708      -565.140 8        51.495    23380091.091 8  94141907.55808      -579.908 8        50.253
E31        13.000    25088071.856 6 131838702.75706      1633.269 6        39.420                                                                    25088102.861 5  98451050.22505      1219.577 5        32.904    25088075.333 5 101019275.02505      1251.551 5        34.762
G05        14.000    21300086.133 7 111932769.00307     -1678.350 7        44.677                                    21300083.654 5  87220304.63905     -1307.806 5        35.267    21300084.197 6  87220262.64406     -1307.755 6        38.237
E04        17.000    23980872.117 7 126020338.64407     -2010.373 7        44.194                                                                    23980871.379 7  94106116.43607     -1501.299 7        44.146    23980872.339 8  96560989.67108     -1540.460 8        48.424
E05        18.000                                                                                                                                    26487481.960 5 103942530.30105      1306.878 5        31.291    26487483.820 5 106654079.97005      1341.036 5        35.076
E09        21.000    24158020.491 7 126951283.85307       402.509 7        42.804                                                                    24158021.613 7  94801238.11607       300.564 7        46.390    24158020.563 7  97274374.25407       308.379 7        45.716
E36        22.000                                                                                                                                    27707150.025 4 108728778.62004     -2439.699 4        29.052    27707144.537 4                     -2503.873 4        29.450
S23        24.000    38308832.439 6 201314237.05406      -849.659 6        39.018
E34        26.000    27623706.537 5                     -1211.772 5        30.423                                                                    27623722.761 6 108401342.68906      -904.729 6        37.735    27623711.458 5 111229215.85705      -928.387 5        31.570
R18        28.000    24450502.880 4                     -3780.299 4        28.332                                                                    24450480.971 4 101514269.88604     -2939.965 4        29.611
R19        29.000    23820967.252 4                     -1539.783 4        27.006                                                                    23820975.570 5  99109265.52805     -1197.214 5        34.671
R11        30.000    20811602.694 6 111210900.16706     -3869.553 6        37.361                                                                    20811604.758 7  86497604.01707     -3009.710 7        45.383
C10        33.000                                                                                                                                                                                                    39719291.281 6 159933101.03706       309.967 6        36.465
C36        34.000                                                                                                                                    21880892.129 8 113939552.99608       292.572 8        48.089                                                                    21880898.224 6  92585326.21606       237.632 6        41.535
R02        35.000    19568701.422 7 104422277.73607       566.896 7        47.817                                                                    19568702.328 7  81217524.12707       440.930 7        46.819
R03        36.000    23044476.532 5 123358819.15005      3103.940 5        32.952                                                                    23044455.904 6  95945697.22906      2413.707 6        38.408
C45        37.000                                                                                                                                    25170332.713 6 131068501.46106      2282.936 6        36.873                                                                    25170329.130 5 106503885.63305      1854.835 5        33.144
R12        38.000    19541332.381 7 104386182.30007       653.670 7        47.364                                                                    19541333.228 7  81189661.85907       508.417 7        44.048
C40        40.000                                                                                                                                    39584042.050 4 206124507.30804       271.633 4        25.398
R01        44.000    20277139.074 7 108392861.12807     -3372.954 7        44.856                                                                    20277139.682 5  84305607.20905     -2623.412 5        35.862
I02        46.000    38140352.906 5 149670950.01305         4.747 5        33.982
C19        48.000                                                                                                                                    23233526.931 6 120983113.22706     -3186.448 6        36.098                                                                    23233521.369 6  98308578.87806     -2589.016 6        39.300
C22        51.000                                                                                                                                    21954799.854 8 114324402.86108       -59.635 8        48.527                                                                    21954792.557 7  92897902.19507       -48.495 7        47.290
C21        55.000                                                                                                                                    25656455.923 7 133599993.05807      2205.488 7        43.291                                                                    25656450.814 6 108560830.96006      1792.002 6        40.749
> 2025 01 02 07 45 30.0000000  0 32
G13         1.000    20738856.492 6 108983616.22506       989.080 6        38.222                                    20738854.680 2  84922170.82302       770.717 2        15.810
G18         2.000    25125063.091 6 132033187.27106     -1040.007 6        36.556                                    25125054.588 1 102882904.24001      -810.354 1        10.296    25125061.880 6 102882923.27506      -810.626 6        37.924
G20         4.000    22290465.763 5 117137150.28005     -3729.906 5        33.347
G07         5.000    23283468.632 6 122355451.72706     -3398.025 6        38.997                                    23283461.752 2  95341928.47302     -2647.789 2        17.170
G30         7.000    20981652.762 7 110259286.42907     -2163.460 7        47.731                                    20981652.201 6  85916300.35006     -1685.812 6        40.374    20981651.415 6  85916369.34106     -1685.972 6        38.721
G14         8.000    21187818.036 6 111342628.67606       935.303 6        41.836                                    21187816.880 4  86760559.75404       728.812 4        27.293    21187816.689 7  86760593.76407       728.603 7        44.029
G15         9.000    23132977.472 4 121564618.68104      2601.076 4        27.114                                    23132995.276 1  94725738.14001      2026.885 1        10.148
E21        10.000                                                                                                                                                                                                    27581604.852 3                     -2570.710 3        23.371
E06        11.000    23380810.894 8 122866982.28408      -758.432 8        49.344                                                                    23380812.599 8  91751359.16708      -566.368 8        51.308    23380811.850 8  94144809.81408      -581.138 8        50.468
E31        13.000    25086518.454 6 131830540.47506      1631.405 6        39.210                                                                    25086550.361 5  98444954.94605      1218.382 5        32.719    25086522.101 5 101013020.78405      1249.963 5        33.647
G05        14.000    21301684.836 7 111941169.63907     -1682.048 7        44.658                                    21301682.018 5  87226850.58705     -1310.686 5        35.657    21301682.530 6  87226808.59606     -1310.725 6        37.592
E04        17.000    23982785.862 7 126030394.30807     -2011.935 7        44.066                                                                    23982784.873 7  94113625.50607     -1502.354 7        44.227    23982786.005 8  96568694.64608     -1541.659 8        48.762
E05        18.000                                                                                                                                    26485815.518 5 103935995.37905      1306.570 5        33.012    26485823.324 5 106647374.57905      1340.964 5        34.414
E09        21.000    24157638.485 7 126949274.37807       401.171 7        43.300                                                                    24157639.175 7  94799737.51507       299.616 7        46.458    24157638.151 7  97272834.50507       307.460 7        45.944
E36        22.000                                                                                                                                    27710258.850 5 108740981.55605     -2441.510 5        30.000    27710254.891 4                     -2504.664 4        29.611
S23        24.000    38309640.143 6 201318486.35506      -849.888 6        38.952
E34        26.000    27624857.743 5                     -1213.919 5        30.121                                                                    27624870.307 6 108405870.86406      -906.751 6        37.274    27624864.536 5 111233862.17205      -929.897 5        32.042
R18        28.000    24454045.429 4                     -3782.418 4        26.838                                                                    24454024.435 5 101528975.58605     -2942.186 5        31.841
R19        29.000    23822414.050 4                     -1542.708 4        28.322                                                                    23822416.575 5  99115259.43415     -1200.579 5        35.190
R11        30.000    20815225.967 6 111230254.60306     -3872.186 6        39.667                                                                    20815226.300 7  86512657.38507     -3011.837 7        44.334
C10        33.000                                                                                                                                                                                                    39718906.780 6 159931552.59006       309.338 6        36.174
C36        34.000                                                                                                                                    21880612.167 8 113938095.98908       290.094 8        48.353                                                                    21880618.239 7  92584142.27007       235.733 7        42.178
R02        35.000    19568171.399 7 104419451.66007       563.433 7        47.022                                                                    19568172.622 7  81215326.05607       438.224 7        46.689
R03        36.000    23041583.844 5 123343302.57505      3102.758 5        33.072                                                                    23041557.674 6  95933628.79306      2413.340 6        40.574
C45        37.000                                                                                                                                    25168141.031 6 131057089.34206      2281.687 6        36.975                                                                    25168136.707 5 106494612.30705      1854.185 5        32.084
R12        38.000    19540721.862 7 104382923.81707       649.646 7        46.762                                                                    19540722.935 7  81187127.48407       505.241 7        43.511
C40        40.000                                                                                                                                    39583782.278 4 206123149.76604       271.160 4        24.812
R01        44.000    20280297.050 7 108409733.82207     -3376.246 7        44.609                                                                    20280296.745 5  84318730.36705     -2625.804 5        35.681
I02        46.000    38140347.115 5 149670926.66605         4.352 5        33.575
C19        48.000                                                                                                                                    23236586.470 6 120999050.16406     -3188.504 6        39.153                                                                    23236581.510 6  98321528.99506     -2590.879 6        38.198
C22        51.000                                                                                                                                    21954857.958 7 114324707.25907       -62.241 7        47.937                                                                    21954851.181 7  92898149.52207       -50.642 7        47.623
C21        55.000                                                                                                                                    25654339.078 7 133588968.35407      2204.452 7        43.469                                                                    25654333.953 6 108551872.46206      1791.291 6        40.963
> 2025 01 02 07 45 35.0000000  0 33
G13         1.000    20737915.788 5 108978675.05405       987.456 5        33.108                                    20737914.315 2  84918320.55202       769.444 2        14.571
