     3.04           OBSERVATION DATA    M                   RINEX VERSION / TYPE
ssrcrin-15.6.1x                         20250102 220000 UTC PGM / RUN BY / DATE 
(00000000023479385599111004) Septentrio proprietary         COMMENT             
ract                                                        MARKER NAME         
01                                                          MARKER NUMBER       
geodetic                                                    MARKER TYPE         
NFB                 CLIMERS@TUW                             OBSERVER / AGENCY   
3296359             SEPT ASTERX SB3 PROB4.14.4              REC # / TYPE / VERS 
Unknown             Unknown                                 ANT # / TYPE        
  4127445.4435  1206915.3217  4695542.4133                  APPROX POSITION XYZ 
        0.0000        0.0000        0.0000                  ANTENNA: DELTA H/E/N
G   23 X1  C1C L1C D1C S1C C1W S1W C2W L2W D2W S2W C2L L2L  SYS / # / OBS TYPES 
       D2L S2L C5Q L5Q D5Q S5Q C1L L1L D1L S1L              SYS / # / OBS TYPES 
E   21 X1  C1C L1C D1C S1C C6C L6C D6C S6C C5Q L5Q D5Q S5Q  SYS / # / OBS TYPES 
       C7Q L7Q D7Q S7Q C8Q L8Q D8Q S8Q                      SYS / # / OBS TYPES 
S    9 X1  C1C L1C D1C S1C C5I L5I D5I S5I                  SYS / # / OBS TYPES 
R   17 X1  C1C L1C D1C S1C C2P L2P D2P S2P C2C L2C D2C S2C  SYS / # / OBS TYPES 
       C3Q L3Q D3Q S3Q                                      SYS / # / OBS TYPES 
C   25 X1  C1P L1P D1P S1P C5P L5P D5P S5P C2I L2I D2I S2I  SYS / # / OBS TYPES 
       C7I L7I D7I S7I C6I L6I D6I S6I C7D L7D D7D S7D      SYS / # / OBS TYPES 
J   17 X1  C1C L1C D1C S1C C2L L2L D2L S2L C5Q L5Q D5Q S5Q  SYS / # / OBS TYPES 
       C1L L1L D1L S1L                                      SYS / # / OBS TYPES 
I    5 X1  C5A L5A D5A S5A                                  SYS / # / OBS TYPES 
SEPTENTRIO RECEIVERS OUTPUT ALIGNED CARRIER PHASES.         COMMENT             
NO FURTHER PHASE SHIFT APPLIED IN THE RINEX ENCODER.        COMMENT             
G L1C                                                       SYS / PHASE SHIFT   
G L2W                                                       SYS / PHASE SHIFT   
G L2L  0.00000                                              SYS / PHASE SHIFT   
G L5Q  0.00000                                              SYS / PHASE SHIFT   
G L1L  0.00000                                              SYS / PHASE SHIFT   
E L1C  0.00000                                              SYS / PHASE SHIFT   
E L6C  0.00000                                              SYS / PHASE SHIFT   
E L5Q  0.00000                                              SYS / PHASE SHIFT   
E L7Q  0.00000                                              SYS / PHASE SHIFT   
E L8Q  0.00000                                              SYS / PHASE SHIFT   
S L1C                                                       SYS / PHASE SHIFT   
S L5I                                                       SYS / PHASE SHIFT   
R L1C                                                       SYS / PHASE SHIFT   
R L2P  0.00000                                              SYS / PHASE SHIFT   
R L2C                                                       SYS / PHASE SHIFT   
R L3Q  0.00000                                              SYS / PHASE SHIFT   
C L1P  0.00000                                              SYS / PHASE SHIFT   
C L5P  0.00000                                              SYS / PHASE SHIFT   
C L2I                                                       SYS / PHASE SHIFT   
C L7I                                                       SYS / PHASE SHIFT   
C L6I                                                       SYS / PHASE SHIFT   
C L7D                                                       SYS / PHASE SHIFT   
J L1C                                                       SYS / PHASE SHIFT   
J L2L  0.00000                                              SYS / PHASE SHIFT   
J L5Q  0.00000                                              SYS / PHASE SHIFT   
J L1L  0.00000                                              SYS / PHASE SHIFT   
I L5A                                                       SYS / PHASE SHIFT   
  2025     1     2    22     0    0.0000000     GPS         TIME OF FIRST OBS   
 C1C    0.000 C2C    0.000 C2P    0.000                     GLONASS COD/PHS/BIS 
DBHZ                                                        SIGNAL STRENGTH UNIT
    18                                                      LEAP SECONDS        
 24 R01  1 R02 -4 R03  5 R04  6 R05  1 R06 -4 R07  5 R08  6 GLONASS SLOT / FRQ #
    R09 -2 R10 -7 R11  0 R12 -1 R13 -2 R14 -7 R15  0 R16 -1 GLONASS SLOT / FRQ #
    R17  4 R18 -3 R19  3 R20  2 R21  4 R22 -3 R23  3 R24  2 GLONASS SLOT / FRQ #
                                                            END OF HEADER       
> 2025 01 02 22 00  0.0000000  0 39
G10         1.000    21694086.313 8 114003171.68908     -2867.273 8        49.057                                    21694083.328 7  88833647.87107     -2234.249 7        44.357    21694085.011 6  88833632.87006     -2234.301 6        38.808
G23         2.000    24651244.163 3                     -4314.088 3        21.024
G32         3.000    22488686.288 6 118178832.46706       876.044 6        38.177                                    22488678.739 2  92087370.03102       682.614 2        16.755    22488683.424 5  92087410.01305       682.268 5        30.174
G21         4.000    21112961.242 6 110949379.30006       232.091 6        40.598                                    21112958.009 4  86454034.61504       180.835 4        24.211
G08         5.000    20532752.215 8 107900394.08808     -1696.879 8        50.842                                    20532751.304 7  84078188.58307     -1322.245 7        46.833    20532751.740 7  84078170.58807     -1322.255 7        44.024
G02         6.000    22580091.122 6 118659194.09206      1340.779 6        41.664                                    22580080.727 2  92461656.27402      1044.742 2        16.717
G14         7.000    24498486.906 6                       862.998 6        36.673                                    24498482.651 2                       672.420 2        14.524    24498481.484 6 100317235.01406       672.625 6        37.807
E03         9.000    26366873.253 6 138558868.46306      1972.082 6        40.906                                                                    26366872.626 7 103469307.41907      1472.594 7        42.307    26366872.060 7 106168529.51007      1511.089 7        44.202
E05        11.000    24006948.337 5 126157397.50605      -187.416 5        31.698                                                                    24006946.653 6  94208439.56006      -140.262 6        37.100    24006956.607 6  96666035.03106      -143.793 6        37.357
E13        12.000                                                                                                                                    27309452.026 5                      1099.634 5        31.479    27309448.798 5 109963853.78705      1128.587 5        31.819
G27        13.000    21887500.160 7 115019576.01507     -3797.975 7        44.181                                    21887495.134 5  89625655.34105     -2959.439 5        35.967    21887498.625 6  89625637.24806     -2959.306 6        38.297
E27        14.000    25925593.151 6 136239992.17306     -2543.924 6        41.733                                                                    25925590.521 6 101737623.23706     -1899.640 6        39.180    25925590.189 6 104391658.04506     -1949.274 6        39.192
E21        15.000    27081483.529 7 142314195.64007        77.222 7        44.933                                                                    27081484.728 7 106273606.91307        57.848 7        42.038    27081483.335 7 109045977.25707        59.244 7        42.582
E15        16.000    23818462.278 6 125166961.69206       -28.520 6        40.543                                                                    23818461.890 7  93468760.34007       -21.283 7        45.688    23818461.570 7  95907091.57107       -21.978 7        42.216
S23        17.000    38327992.407 7 201414953.91307      -860.968 7        42.633
E09        18.000    27890962.735 4 146567965.71904     -2736.048 4        26.611                                                                    27890946.555 4 109450118.13204     -2043.393 4        26.958
E30        19.000    27846514.700 5 146334455.77705     -3954.612 5        31.260                                                                    27846511.263 5 109275684.57005     -2953.163 5        31.962    27846508.702 4 112126378.65204     -3030.441 4        27.162
R20        20.000    21398406.014 3                     -3450.080 3        19.821                                                                    21398413.992 6  88998713.88306     -2684.807 6        40.079
R06        24.000    20438160.656 5 109061935.55605      2030.797 5        34.638
R13        26.000    23588824.880 4 125962998.61004       467.656 4        24.842
R05        28.000    20721013.591 7 110765692.28407     -3047.627 7        44.059                                                                    20721014.006 7  86151076.59907     -2370.335 7        42.337
R12        30.000    22802911.286 5 121809055.26605     -2401.496 5        32.946                                                                    22802936.469 4                     -1867.565 4        25.368
E34        32.000    24502142.457 6 128759624.89506     -2287.190 6        41.044                                                                    24502142.253 6  96151687.31406     -1708.072 6        41.251    24502142.744 7  98660051.44907     -1752.546 7        45.071
R11        33.000                                                                                                                                    24296291.809 3                     -3722.200 3        20.333
R22        35.000    22466819.007 6 119929388.59706      2460.184 6        39.132                                                                    22466818.437 5  93278436.95105      1913.277 5        35.862
C08        36.000                                                                                                                                                                                                    40641247.179 3                     -1537.413 3        18.776
C33        37.000                                                                                                                                    23233264.951 7 120981741.34407      1588.883 7        44.050                                                                    23233280.055 6  98307580.72406      1291.263 6        41.838
C11        38.000                                                                                                                                    23916081.563 6 124537286.71406     -3326.455 6        38.243    23916076.595 7  96300137.16107     -2572.320 7        43.433    23916101.211 5 101196715.74405     -2703.277 5        31.841
R21        39.000    19603128.854 8 104900291.79408      -167.361 8        51.522                                                                    19603127.085 7  81589115.23807      -130.330 7        46.669
C27        41.000                                                                                                                                    25966662.451 3                      2181.696 3        22.057                                                                    25966614.336 5                      1774.336 5        34.248
C14        42.000                                                                                                                                    22305318.994 6 116149681.40006        66.561 6        40.191    22305315.429 7  89814239.68707        51.272 7        45.016    22305312.766 7  94381102.00207        53.969 7        45.357
C13        43.000                                                                                                                                                                                                    39920424.711 4                     -1423.828 4        26.204
C21        46.000                                                                                                                                    26142210.085 4                     -3911.713 4        25.293
C43        48.000                                                                                                                                    22462554.463 7 116968403.95507     -2575.166 7        45.538                                                                    22462551.297 7  95046394.73607     -2092.703 7        44.713
C42        50.000                                                                                                                                    22713567.242 7 118275528.45607     -1714.073 7        43.187                                                                    22713575.092 7  96108665.62507     -1392.796 7        46.337
I01        53.000   414710012.125 6 324270400.18306     -2383.438 6        36.295
C37        54.000                                                                                                                                    27262222.514 4                     -3362.354 4        24.827
C28        55.000                                                                                                                                    22470562.192 6 117010253.10406       909.783 6        41.998                                                                    22470570.637 5                       738.939 5        30.800
I06        58.000    38640828.102 5 151635043.18305      -542.486 5        34.300
> 2025 01 02 22 00  5.0000000  0 37
G10         1.000    21696815.460 8 114017513.26708     -2869.212 8        49.065                                    21696812.319 7  88844823.13607     -2235.755 7        44.239    21696814.383 6  88844808.12806     -2235.779 6        40.024
G23         2.000                                                                                                                                                                    24655330.535 3                     -3361.113 3        19.970
G32         3.000    22487853.139 5 118174460.64805       872.984 5        33.671                                    22487849.266 3  92083963.39803       680.248 3        19.970    22487855.570 6  92084003.42306       680.078 6        36.491
G21         4.000    21112742.349 7 110948224.19007       230.144 7        43.399                                    21112737.961 4  86453134.58804       179.348 4        24.632
G08         5.000    20534368.424 8 107908886.52208     -1699.999 8        51.458                                    20534367.568 7  84084806.05607     -1324.671 7        47.638    20534367.462 7  84084788.04007     -1324.681 7        44.826
G02         6.000    22578817.711 6 118652492.85306      1339.777 6        40.913                                    22578804.969 3  92456434.53703      1044.032 3        18.836
G14         7.000    24497666.244 6 128736095.23216       860.193 6        37.803                                    24497662.605 2 100313833.10212       670.272 2        15.667    24497662.081 6 100313878.18306       670.327 6        39.219
E03         9.000    26364996.495 6 138549010.88006      1970.839 6        39.622                                                                    26364997.065 7 103461946.23107      1471.779 7        42.411    26364996.061 7 106160976.28307      1510.229 7        45.082
E05        11.000                                                                                                                                    24007128.275 6  94209145.63606      -142.156 6        36.851    24007142.209 6  96666759.58806      -145.772 6        37.021
E13        12.000                                                                                                                                    27308047.172 4 107162654.83914      1099.474 4        29.033    27308045.354 5 109958211.46105      1128.447 5        33.581
G27        13.000    21891114.571 6 115038571.19606     -3800.092 6        41.335                                    21891109.640 5  89640456.73905     -2961.111 5        35.490    21891112.699 5  89640438.69205     -2960.935 5        35.224
E27        14.000    25928015.564 6 136252717.99406     -2546.230 6        40.548                                                                    25928013.001 6 101747126.25106     -1901.419 6        38.832    25928013.556 7 104401409.06007     -1950.972 7        43.263
E21        15.000    27081412.286 7 142313815.53707        74.774 7        45.558                                                                    27081411.807 7 106273323.11307        55.908 7        42.751    27081410.939 7 109045686.04707        57.332 7        42.123
E15        16.000    23818489.750 7 125167107.53407       -29.609 7        45.994                                                                    23818490.172 7  93468869.22807       -22.166 7        46.861    23818489.290 7  95907203.28007       -22.719 7        43.056
S23        17.000    38328819.156 7 201419258.85207      -861.018 7        42.021
E09        18.000                                                                                                                                    27893548.548 4 109460336.48104     -2043.546 4        26.719
E30        19.000    27850278.633 5 146354230.43605     -3954.986 5        30.785                                                                    27850274.219 5 109290451.34105     -2953.274 5        30.302    27850272.434 4 112141530.63604     -3030.371 4        26.431
R20        20.000    21401636.851 4                     -3453.355 4        24.511                                                                    21401639.135 5  89012141.93315     -2686.005 5        34.490
R06        24.000    20436257.131 5 109051790.07605      2027.340 5        30.777
R13        26.000    23588384.069 5 125960669.50805       463.983 5        31.200
R05        28.000    20723867.568 6 110780940.05606     -3051.627 6        41.459                                                                    20723866.369 6  86162935.89806     -2373.495 6        40.386
R12        30.000    22805150.460 6 121821072.34406     -2405.190 6        40.379                                                                    22805170.831 5                     -1870.850 5        35.057
E34        32.000    24504321.534 6 128771063.66806     -2288.150 6        41.476                                                                    24504319.352 7  96160229.37507     -1708.615 7        42.263    24504318.954 7  98668816.30207     -1753.293 7        44.938
R11        33.000                                                                                                                                    24300755.562 3                     -3726.029 3        20.119
R22        35.000    22464518.521 7 119917089.69607      2459.718 7        42.739                                                                    22464518.323 6  93268871.24606      1912.795 6        41.290
C33        37.000                                                                                                                                    23231741.803 6 120973802.35506      1586.701 6        39.895                                                                    23231755.261 6  98301129.59606      1289.342 6        40.365
C11        38.000                                                                                                                                    23919274.087 5 124553923.47405     -3328.073 5        35.543    23919271.715 7  96313001.83807     -2573.669 7        44.129    23919290.071 5                     -2704.196 5        32.413
R21        39.000    19603286.457 8 104901135.43908      -169.999 8        50.393                                                                    19603284.872 7  81589771.37807      -132.157 7        45.708
C27        41.000                                                                                                                                    25964565.153 4                      2183.339 4        27.593                                                                    25964514.881 5 109864350.17815      1773.584 5        31.668
C14        42.000                                                                                                                                    22305257.422 6 116149357.56506        63.402 6        40.164    22305252.867 7  89813989.27207        48.980 7        46.553    22305250.760 7  94380838.84207        51.376 7        43.168
C13        43.000                                                                                                                                    39922205.788 4                     -1840.964 4        28.303    39922195.764 4                     -1424.564 4        26.623
C43        48.000                                                                                                                                    22465028.139 7 116981285.88207     -2577.407 7        47.588                                                                    22465024.267 7  95056862.39307     -2094.357 7        46.053
C42        50.000                                                                                                                                    22715215.953 7 118284106.39907     -1716.937 7        45.768                                                                    22715222.733 8  96115635.90408     -1395.234 8        48.020
I01        53.000   414713050.999 6 324282318.35006     -2383.676 6        36.034
C37        54.000                                                                                                                                    27265434.172 4                     -3362.806 4        24.331
C28        55.000                                                                                                                                    22469690.252 7 117005708.67207       907.993 7        43.289                                                                    22469695.228 5                       738.238 5        31.653
I06        58.000    38641520.741 6 151637756.64306      -542.759 6        36.949
> 2025 01 02 22 00 10.0000000  0 37
G10         1.000    21699546.090 8 114031864.27608     -2870.958 8        50.269                                    21699542.468 7  88856005.74907     -2237.134 7        42.690    21699544.866 6  88855990.77006     -2237.052 6        38.574
G23         2.000    24659455.189 3                     -4317.756 3        22.533
G32         3.000    22487024.289 6 118170102.14706       870.270 6        38.030                                    22487021.090 3  92080567.17903       678.145 3        23.467    22487024.350 6  92080607.23306       678.221 6        36.779
G21         4.000    21112523.395 6 110947077.12706       228.563 6        39.216                                    21112519.495 4  86452240.72604       178.086 4        24.541
G08         5.000    20535987.223 8 107917394.21408     -1703.000 8        51.129                                    20535986.559 7  84091435.43207     -1327.011 7        46.233    20535985.311 7  84091417.40807     -1326.941 7        43.846
G02         6.000    22577538.836 7 118645796.48407      1338.960 7        42.231                                    22577531.272 3  92451216.58203      1043.337 3        19.642
G14         7.000    24496849.540 6 128731801.18106       857.510 6        37.898                                    24496845.049 2 100310487.12002       668.201 2        16.528    24496846.203 6 100310532.07206       668.337 6        40.043
E03         9.000    26363121.707 6 138539158.11206      1970.193 6        40.246                                                                    26363121.684 7 103454588.66607      1471.240 7        42.444    26363121.417 7 106153426.77007      1509.749 7        44.692
E05        11.000    24007321.173 4                      -192.365 4        27.234                                                                    24007308.285 6  94209860.85006      -143.706 6        38.898    24007323.579 6  96667493.43806      -147.601 6        38.294
E13        12.000    27306638.601 4                      1472.067 4        27.341                                                                    27306649.978 6 107157156.84406      1099.869 6        36.170    27306642.557 4 109952570.05104      1128.549 4        29.460
G27        13.000    21894731.004 7 115057576.31407     -3802.155 7        46.184                                    21894725.658 6  89655265.89206     -2962.720 6        36.491    21894728.315 6  89655247.88606     -2962.608 6        37.187
E27        14.000    25930438.916 7 136265453.84607     -2547.973 7        42.398                                                                    25930435.768 6 101756636.90206     -1902.909 6        37.837    25930437.383 6 104411167.74806     -1952.540 6        40.205
E21        15.000    27081340.730 7 142313447.31107        72.678 7        43.420                                                                    27081341.338 7 106273048.12007        54.280 7        43.746    27081340.570 6 109045403.91006        55.640 6        41.671
E15        16.000    23818517.767 7 125167258.29307       -30.611 7        43.208                                                                    23818518.804 7  93468981.81407       -22.743 7        45.238    23818518.011 7  95907318.77507       -23.283 7        43.234
S23        17.000    38329641.242 7 201423564.00607      -860.889 7        42.313
E09        18.000                                                                                                                                    27896157.638 4 109470562.10704     -2045.313 4        27.114
E30        19.000    27854041.354 5 146374005.89505     -3955.048 5        32.892                                                                    27854038.319 5 109305218.70405     -2953.210 5        31.306    27854037.057 4 112156683.20304     -3029.892 4        26.754
R20        20.000                                                                                                                                    21404873.545 6  89025576.98806     -2687.613 6        38.111
R06        24.000    20434359.533 5 109041661.91705      2023.827 5        32.287
R13        26.000    23587955.143 5 125958360.57505       459.836 5        34.938
R05        28.000    20726721.444 7 110796207.24107     -3055.254 7        43.046                                                                    20726721.536 6  86174810.41306     -2376.378 6        41.251
R12        30.000    22807403.872 5 121833108.81815     -2409.239 5        31.849
E34        32.000    24506498.755 7 128782506.81507     -2288.858 7        43.625                                                                    24506496.554 6  96168774.47506     -1709.101 6        40.434    24506495.829 7  98677584.36707     -1753.725 7        44.355
R22        35.000    22462216.990 7 119904793.36807      2459.264 7        44.096                                                                    22462214.877 6  93259307.34006      1912.911 6        38.796
C33        37.000                                                                                                                                    23230219.824 7 120965873.57507      1584.852 7        44.442                                                                    23230233.464 7  98294686.93707      1287.755 7        42.152
C11        38.000                                                                                                                                    23922473.956 6 124570566.37306     -3329.017 6        38.703    23922467.388 7  96325871.24407     -2574.190 7        43.678
R21        39.000    19603446.759 8 104901991.46608      -172.231 8        52.152                                                                    19603444.986 7  81590437.16507      -133.922 7        45.526
R04        40.000    24530270.248 3                     -5179.413 3        19.761
C27        41.000                                                                                                                                    25962464.291 5                      2182.927 5        32.928                                                                    25962420.710 4 109855480.48904      1773.811 4        28.284
C14        42.000                                                                                                                                    22305196.155 6 116149047.66006        60.769 6        40.708    22305193.052 7  89813749.63407        46.974 7        46.490    22305191.192 7  94380587.03607        49.419 7        42.159
C13        43.000                                                                                                                                    39923975.307 4                     -1841.684 4        26.575    39923976.029 4                     -1423.788 4        28.673
C21        46.000                                                                                                                                    26149700.947 3                     -3912.357 3        23.238                                                                    26149682.727 4                     -3179.845 4        26.072
C43        48.000                                                                                                                                    22467501.342 8 116994176.69608     -2578.838 8        48.938                                                                    22467500.364 7  95067337.23707     -2095.550 7        44.867
C42        50.000                                                                                                                                    22716865.728 7 118292697.90607     -1719.456 7        43.278                                                                    22716872.001 7  96122617.18307     -1397.212 7        47.224
I01        53.000   414716088.204 6 324294238.04506     -2383.994 6        38.979
C28        55.000                                                                                                                                                                                                                                                                    22468817.761 5  95072964.95815       736.943 5        35.609
I06        58.000    38642210.877 5 151640470.21505      -542.614 5        35.567
> 2025 01 02 22 00 15.0000000  0 38
G10         1.000    21702279.240 8 114046224.69408     -2872.993 8        49.591                                    21702274.982 7  88867195.71007     -2238.713 7        43.509    21702279.025 7  88867180.70407     -2238.637 7        42.121
G23         2.000    24663567.051 3                     -4315.178 3        19.642
G32         3.000    22486199.207 5 118165756.16115       867.639 5        35.338                                    22486194.386 3  92077205.34413       676.075 3        23.276    22486200.608 6  92077221.46706       676.202 6        38.294
G21         4.000    21112305.761 7 110945937.97107       227.043 7        42.603                                    21112302.881 4  86451353.08204       176.899 4        25.895
G08         5.000    20537608.753 8 107925917.07008     -1706.071 8        50.084                                    20537608.126 7  84098076.61007     -1329.395 7        45.315    20537606.286 7  84098058.58607     -1329.375 7        42.425
G02         6.000    22576263.260 5 118639104.83505      1337.746 5        30.060                                    22576258.031 2  92446002.28702      1042.410 2        16.830
G14         7.000    24496036.050 6 128727520.79706       854.716 6        36.760                                    24496030.632 2 100307151.72702       666.018 2        16.830    24496030.782 6 100307196.75706       665.914 6        38.084
E03         9.000    26361248.393 6 138529310.17506      1969.111 6        38.129                                                                    26361248.196 7 103447234.65507      1470.442 7        42.154    26361247.828 7 106145880.94107      1508.766 7        44.725
E05        11.000    24007496.541 6 126160259.90316      -195.355 6        36.560                                                                    24007491.099 6  94210585.13506      -145.807 6        40.248    24007501.236 6  96668236.50106      -149.424 6        38.730
E13        12.000    27305252.845 4                      1472.198 4        26.323                                                                    27305245.435 6 107151659.70506      1099.267 6        36.699    27305243.711 4 109946929.51004      1128.092 4        25.218
G27        13.000    21898349.378 7 115076591.20607     -3803.955 7        44.190                                    21898343.626 5  89670082.66905     -2964.113 5        35.414    21898347.082 6  89670064.65106     -2964.130 6        37.312
E27        14.000    25932863.875 7 136278199.73507     -2550.317 7        42.842                                                                    25932860.686 6 101766154.89406     -1904.273 6        39.108    25932862.131 6 104420934.05006     -1953.959 6        40.491
E21        15.000    27081273.821 7 142313090.84207        70.127 7        43.380                                                                    27081273.098 7 106272781.91707        52.397 7        43.429    27081273.030 7 109045130.75307        53.676 7        44.123
E15        16.000    23818548.216 6 125167413.83406       -31.721 6        40.026                                                                    23818548.236 7  93469097.98607       -23.534 7        45.776    23818548.979 7  95907438.01207       -24.225 7        42.603
S23        17.000    38330459.924 7 201427869.17007      -860.959 7        42.157
E09        18.000                                                                                                                                    27898763.272 4 109480794.79304     -2046.520 4        28.379
E30        19.000    27857803.535 5 146393782.08005     -3955.546 5        33.234                                                                    27857804.258 5 109319986.63905     -2953.569 5        32.838    27857799.848 4 112171836.38504     -3030.572 4        29.327
R20        20.000    21408106.135 3                     -3458.326 3        21.333                                                                    21408104.779 6  89039019.00706     -2688.889 6        36.314
R06        24.000    20432462.243 5 109031551.20605      2020.596 5        31.683
R13        26.000    23587526.874 5 125956071.99105       455.905 5        31.653
R05        28.000    20729581.624 7 110811493.79407     -3059.279 7        44.138                                                                    20729579.803 6  86186699.96906     -2379.527 6        38.967
R12        30.000    22809656.892 5 121845164.74015     -2413.121 5        33.389                                                                    22809665.720 5                     -1876.971 5        32.880
E34        32.000    24508675.244 6 128793954.03106     -2289.735 6        40.813                                                                    24508675.873 6  96177322.71606     -1710.137 6        37.849    24508675.607 7  98686355.60207     -1754.475 7        44.211
R11        33.000    24309728.013 3                     -4783.890 3        20.048
R22        35.000    22459912.313 6 119892499.47706      2458.538 6        40.212                                                                    22459907.155 5  93249745.38705      1911.939 5        35.362
C33        37.000                                                                                                                                    23228701.107 7 120957955.15007      1582.923 7        43.564                                                                    23228711.305 7  98288252.48207      1286.062 7        43.010
C11        38.000                                                                                                                                                                                                    23925666.253 7  96338745.28807     -2575.298 7        46.440    23925652.430 4                     -2706.299 4        28.882
R21        39.000    19603608.552 8 104902859.69108      -174.818 8        49.982                                                                    19603606.672 7  81591112.44407      -135.923 7        46.192
C27        41.000                                                                                                                                                                                                                                                                    25960329.501 5 109846611.34605      1773.419 5        30.060
C14        42.000                                                                                                                                    22305141.505 6 116148751.77206        58.168 6        40.617    22305135.834 7  89813520.79907        44.788 7        45.518    22305134.651 7  94380346.55607        47.179 7        42.555
C13        43.000                                                                                                                                    39925747.018 4                     -1841.035 4        26.754    39925740.102 3                     -1425.740 3        18.388
C21        46.000                                                                                                                                    26153459.695 4                     -3916.158 4        28.076
C43        48.000                                                                                                                                    22469977.654 7 117007076.30707     -2580.852 7        47.403                                                                    22469978.454 7  95077819.23607     -2097.180 7        46.249
C42        50.000                                                                                                                                    22718518.616 7 118301302.78207     -1722.325 7        46.296                                                                    22718525.221 7  96129609.35007     -1399.472 7        46.304
I01        53.000   414719125.849 6 324306159.31606     -2384.399 6        36.060
C37        54.000                                                                                                                                    27271903.201 4                     -3365.435 4        24.571
C28        55.000                                                                                                                                                                                                                                                                    22467950.884 6  95069283.96906       735.707 6        36.257
I06        58.000    38642903.845 6 151643183.72906      -542.514 6        38.508
> 2025 01 02 22 00 20.0000000  0 39
G10         1.000    21705013.633 8 114060594.39108     -2874.794 8        49.714                                    21705009.836 7  88878392.87307     -2240.132 7        43.492    21705013.108 7  88878377.87507     -2240.032 7        42.796
G23         2.000    24667667.923 3                     -4318.040 3        19.851
G32         3.000    22485365.545 3                       867.211 3        21.976                                                                                                    22485375.524 6  92073846.03606       674.055 6        36.775
G21         4.000    21112091.331 6 110944806.61006       225.606 6        39.273                                    21112087.438 3  86450471.50803       175.785 3        23.867
G08         5.000    20539233.893 8 107934454.97908     -1709.001 8        48.988                                    20539232.532 7  84104729.53007     -1331.679 7        45.395    20539232.109 7  84104711.49707     -1331.648 7        43.062
G02         6.000    22574994.361 6 118632417.60806      1337.204 6        40.508                                    22574985.590 2  92440791.43802      1041.953 2        17.623
G14         7.000    24495223.310 5 128723254.16405       851.860 5        35.310                                    24495218.393 2 100303827.08602       663.792 2        15.476    24495218.113 6 100303872.07006       663.984 6        39.069
E03         9.000    26359375.326 6 138519466.79506      1968.160 6        38.225                                                                    26359374.681 7 103439884.13507      1469.786 7        42.773    26359374.042 7 106138338.65307      1508.156 7        44.730
E05        11.000    24007683.819 5 126161241.69005      -197.504 5        35.481                                                                    24007678.995 6  94211318.37706      -147.448 6        40.119    24007680.978 6  96668988.88406      -151.221 6        36.945
E13        12.000                                                                                                                                    27303847.072 5 107146163.25205      1099.126 5        31.819
G27        13.000    21901969.036 6 115095615.85606     -3805.891 6        41.216                                    21901963.534 5  89684907.08905     -2965.625 5        34.257    21901966.932 6  89684889.04306     -2965.593 6        38.030
E27        14.000    25935290.628 6 136290955.49806     -2552.156 6        41.175                                                                    25935290.188 6 101775680.26206     -1905.683 6        40.701    25935289.709 6 104430707.95706     -1955.422 6        41.504
E21        15.000    27081208.096 7 142312745.95507        67.946 7        44.202                                                                    27081207.647 7 106272524.40207        50.664 7        42.591    27081207.523 7 109044866.54107        52.045 7        43.833
E15        16.000    23818577.364 6 125167574.10606       -32.439 6        41.559                                                                    23818579.242 7  93469217.60207       -24.183 7        46.262    23818579.143 7  95907560.75507       -24.807 7        44.316
S23        17.000    38331278.455 6 201432174.49406      -860.942 6        40.846
E09        18.000    27901383.467 3                     -2743.188 3        22.914                                                                    27901375.055 4 109491034.40304     -2048.646 4        29.668
E30        19.000    27861567.862 5 146413558.96505     -3955.287 5        30.672                                                                    27861568.566 5 109334755.01205     -2953.547 5        32.042    27861566.508 5 112186990.02305     -3030.702 5        31.336
R20        20.000    21411340.594 3                     -3460.848 3        20.619                                                                    21411335.553 6  89052467.88806     -2690.160 6        36.998
R06        24.000    20430574.317 4                      2017.114 4        26.575
R13        26.000    23587097.074 5 125953803.36305       451.899 5        35.338
R05        28.000    20732444.244 7 110826799.78607     -3063.186 7        42.212                                                                    20732444.912 6  86198604.62306     -2382.290 6        39.907
R12        30.000    22811911.108 6 121857239.59806     -2417.074 6        40.834                                                                    22811917.973 5  94777833.73815     -1880.015 5        33.144
E34        32.000    24510854.059 7 128805405.27107     -2290.582 7        42.227                                                                    24510851.508 5  96185873.93705     -1710.222 5        34.119    24510854.389 7  98695129.91607     -1755.049 7        42.891
R11        33.000                                                                                                                                    24314212.547 4                     -3723.643 4        26.240
R22        35.000    22457608.577 7 119880207.77007      2458.191 7        44.033                                                                    22457605.021 6  93240185.23606      1911.799 6        37.868
C08        36.000                                                                                                                                    40648877.254 3                     -1982.498 3        22.305
C33        37.000                                                                                                                                    23227181.722 7 120950046.84907      1580.562 7        45.342                                                                    23227192.945 7  98281826.35107      1284.336 7        43.678
C11        38.000                                                                                                                                    23928872.069 5 124603870.17705     -3331.378 5        35.810    23928865.104 7  96351623.92007     -2576.140 7        45.935
R21        39.000    19603772.262 8 104903740.12008      -177.213 8        50.244                                                                    19603771.642 7  81591797.23207      -137.886 7        45.764
C27        41.000                                                                                                                                                                                                                                                                    25958229.256 4 109837742.70504      1773.519 4        27.389
C14        42.000                                                                                                                                    22305086.398 6 116148469.65006        55.066 6        40.577    22305081.930 7  89813302.64207        42.667 7        46.306    22305080.922 7  94380117.33507        44.758 7        43.052
C13        43.000                                                                                                                                    39927517.794 3                     -1842.006 3        20.810    39927512.998 4                     -1423.752 4        27.964
C21        46.000                                                                                                                                    26157226.048 4                     -3915.304 4        29.507                                                                    26157200.141 3                     -3178.429 3        18.000
C43        48.000                                                                                                                                    22472457.772 7 117019984.73207     -2582.621 7        45.159                                                                    22472457.013 7  95088308.33907     -2098.596 7        46.249
C42        50.000                                                                                                                                    22720172.786 7 118309920.97207     -1724.944 7        47.736                                                                    22720180.093 7  96136612.42007     -1401.705 7        46.350
I01        53.000   414722163.630 5 324318082.18405     -2384.795 5        35.548
C37        54.000                                                                                                                                    27275136.036 4                     -3364.583 4        26.263
C28        55.000                                                                                                                                    22467076.902 6 116992118.64506       904.060 6        39.027                                                                    22467086.579 6  95065608.90506       734.521 6        38.922
I06        58.000    38643596.936 6 151645897.15806      -542.824 6        37.595
> 2025 01 02 22 00 25.0000000  0 36
G10         1.000    21707749.896 8 114074973.73108     -2876.826 8        49.575                                    21707746.666 7  88889597.55807     -2241.714 7        43.056    21707748.141 7  88889582.58407     -2241.645 7        42.241
G32         3.000    22484550.838 5 118157095.38215       862.191 5        30.347                                    22484543.731 4  92070443.29314       671.847 4        24.301    22484552.329 6  92070481.34006       672.102 6        38.559
G21         4.000    21111878.290 6 110943683.55106       223.820 6        39.294                                    21111873.493 4  86449596.37104       174.389 4        24.150
G08         5.000    20540861.715 8 107943008.39108     -1712.122 8        48.689                                    20540859.935 7  84111394.51207     -1334.115 7        45.464    20540859.946 7  84111376.48507     -1334.046 7        43.585
G02         6.000    22573721.822 6 118625735.47706      1336.000 6        38.793                                    22573714.930 3  92435584.58603      1040.986 3        18.239
G14         7.000    24494411.936 6 128719001.45806       849.137 6        39.486                                    24494408.913 2 100300513.29602       661.655 2        14.286    24494410.158 6 100300558.36506       661.736 6        36.790
E03         9.000    26357503.733 6 138509628.59806      1967.157 6        39.940                                                                    26357502.461 7 103432537.41007      1468.977 7        42.284    26357501.899 7 106130800.27807      1507.271 7        45.606
E05        11.000    24007873.494 5 126162236.07705      -200.081 5        34.790                                                                    24007870.403 6  94212060.92506      -149.463 6        38.967    24007866.793 6  96669750.81806      -153.264 6        36.318
E13        12.000                                                                                                                                    27302443.573 4 107140667.96404      1098.797 4        29.630
G27        13.000    21905590.973 6 115114650.61206     -3807.975 6        41.306                                    21905585.790 5  89699739.32605     -2967.262 5        35.214    21905590.104 6  89699721.32806     -2967.060 6        39.015
E27        14.000    25937721.094 7 136303721.46407     -2554.136 7        43.285                                                                    25937718.414 6 101785213.35906     -1907.413 6        39.886    25937718.032 6 104440489.71206     -1957.162 6        40.791
E21        15.000    27081145.012 7 142312413.14507        65.524 7        43.515                                                                    27081144.434 7 106272275.87807        48.776 7        42.586    27081144.966 7 109044611.54507        50.092 7        43.928
E15        16.000    23818608.941 6 125167739.42706       -33.657 6        37.558                                                                    23818610.832 7  93469341.07307       -24.994 7        46.483    23818610.371 7  95907687.43807       -25.676 7        44.054
S23        17.000    38332096.453 6 201436480.27006      -861.095 6        40.198
E09        18.000    27903994.251 5                     -2745.281 5        31.260                                                                    27903990.904 4 109501281.19904     -2049.746 4        28.701
E30        19.000    27865330.374 4 146433336.82204     -3955.457 4        27.868                                                                    27865329.861 5 109349524.12405     -2954.011 5        31.374    27865329.734 5 112202144.40305     -3030.962 5        32.689
R20        20.000    21414573.103 4                     -3460.944 4        25.383                                                                    21414572.732 6  89065923.75006     -2691.705 6        36.340
R06        24.000    20428684.014 4                      2012.703 4        26.156
R13        26.000    23586678.437 6 125951555.46206       447.637 6        36.363
R05        28.000    20735311.643 7 110842125.28807     -3066.933 7        43.198                                                                    20735312.622 6  86210524.48206     -2385.572 6        40.791
R12        30.000    22814175.225 7 121869333.90717     -2420.761 7        42.324
E34        32.000    24513033.632 6 128816860.98306     -2291.451 6        41.185                                                                    24513032.381 5  96194428.51905     -1711.347 5        34.852    24513034.060 7  98703907.69507     -1755.764 7        43.075
R11        33.000                                                                                                                                    24318689.308 3                     -3723.216 3        23.124
R22        35.000    22455307.919 7 119867918.94107      2457.526 7        43.526                                                                    22455306.752 6  93230627.23306      1911.520 6        39.342
C33        37.000                                                                                                                                    23225664.673 7 120942149.16407      1578.514 7        44.432                                                                    23225676.588 7  98275408.86907      1282.681 7        43.983
C11        38.000                                                                                                                                    23932069.874 6 124620531.36006     -3332.714 6        36.026    23932064.181 7  96364507.42407     -2577.147 7        45.238    23932070.125 3                     -2709.883 3        23.657
R21        39.000    19603939.971 8 104904633.07708      -179.717 8        49.971                                                                    19603937.993 7  81592491.74207      -139.928 7        45.723
C27        41.000                                                                                                                                    25956141.729 6                      2182.704 6        36.253                                                                    25956132.210 4 109828874.88004      1774.125 4        29.583
C14        42.000                                                                                                                                    22305034.354 6 116148201.78906        52.273 6        41.423    22305030.737 7  89813095.54407        40.352 7        45.723    22305029.449 7  94379899.70007        42.343 7        42.190
C13        43.000                                                                                                                                    39929280.141 4                     -1841.296 4        24.556
C21        46.000                                                                                                                                    26160990.667 3                     -3917.560 3        21.357                                                                    26160955.786 3                     -3183.521 3        23.067
C43        48.000                                                                                                                                    22474936.929 8 117032902.25508     -2584.365 8        48.243                                                                    22474937.624 7  95098804.89107     -2100.183 7        44.939
C42        50.000                                                                                                                                    22721829.304 7 118318552.93307     -1727.759 7        45.856                                                                    22721837.918 7  96143626.58907     -1403.997 7        46.496
I01        53.000   414725203.240 6 324330006.79406     -2385.095 6        37.890
C28        55.000                                                                                                                                    22466213.484 6 116987603.41706       902.495 6        40.226                                                                    22466209.157 6  95061939.81306       733.196 6        37.641
I06        58.000    38644286.106 5 151648610.75305      -542.854 5        34.800
> 2025 01 02 22 00 30.0000000  0 36
G10         1.000    21710487.856 8 114089362.34008     -2878.600 8        48.822                                    21710485.378 7  88900809.46507     -2243.074 7        42.950    21710486.949 6  88900794.42706     -2242.941 6        40.079
G23         2.000    24675893.481 4                     -4316.019 4        25.624
G32         3.000    22483733.542 5 118152790.64905       859.716 5        35.452                                    22483727.213 4  92067088.91004       669.868 4        24.045    22483733.068 6  92067126.99306       669.947 6        36.095
G21         4.000    21111665.975 6 110942568.25106       222.354 6        40.396                                    21111660.863 4  86448727.31504       173.247 4        25.398
G08         5.000    20542492.469 7 107951576.84507     -1715.139 7        47.855                                    20542490.351 7  84118071.21407     -1336.464 7        44.898    20542490.367 7  84118053.21207     -1336.528 7        44.176
G02         6.000    22572451.476 6 118619057.95406      1335.157 6        39.387                                    22572445.042 3  92430381.32903      1040.406 3        19.612
G14         7.000    24493606.737 6 128714762.55506       846.532 6        36.620                                    24493602.215 2 100297210.24402       659.620 2        14.095    24493602.919 5 100297255.26405       659.656 5        35.838
E03         9.000    26355631.864 6 138499795.06606      1966.218 6        38.198                                                                    26355631.387 7 103425194.21507      1468.288 7        42.258    26355631.223 7 106123265.50507      1506.676 7        44.477
E05        11.000    24008063.391 5 126163242.44005      -202.600 5        32.275                                                                    24008059.690 6  94212812.44006      -151.226 6        38.841    24008059.575 6  96670521.92006      -154.983 6        36.957
E13        12.000    27301037.862 5                      1471.511 5        32.635
G27        13.000    21909215.887 7 115133695.04207     -3809.777 7        42.722                                    21909210.004 5  89714579.12505     -2968.679 5        35.657    21909213.650 6  89714561.16306     -2968.677 6        37.777
E27        14.000    25940150.969 6 136316497.30206     -2556.043 6        40.353                                                                    25940151.319 6 101794753.77206     -1908.975 6        41.995    25940149.031 6 104450278.99806     -1958.448 6        40.675
