     3.04           OBSERVATION DATA    M                   RINEX VERSION / TYPE
ssrcrin-15.6.1x                         20250102 200000 UTC PGM / RUN BY / DATE 
(00000000023479385599111004) Septentrio proprietary         COMMENT             
ract                                                        MARKER NAME         
01                                                          MARKER NUMBER       
geodetic                                                    MARKER TYPE         
NFB                 CLIMERS@TUW                             OBSERVER / AGENCY   
3296359             SEPT ASTERX SB3 PROB4.14.4              REC # / TYPE / VERS 
Unknown             Unknown                                 ANT # / TYPE        
  4127446.5885  1206915.4248  4695542.7613                  APPROX POSITION XYZ 
        0.0000        0.0000        0.0000                  ANTENNA: DELTA H/E/N
G   23 X1  C1C L1C D1C S1C C1W S1W C2W L2W D2W S2W C2L L2L  SYS / # / OBS TYPES 
       D2L S2L C5Q L5Q D5Q S5Q C1L L1L D1L S1L              SYS / # / OBS TYPES 
E   21 X1  C1C L1C D1C S1C C6C L6C D6C S6C C5Q L5Q D5Q S5Q  SYS / # / OBS TYPES 
       C7Q L7Q D7Q S7Q C8Q L8Q D8Q S8Q                      SYS / # / OBS TYPES 
S    9 X1  C1C L1C D1C S1C C5I L5I D5I S5I                  SYS / # / OBS TYPES 
R   17 X1  C1C L1C D1C S1C C2P L2P D2P S2P C2C L2C D2C S2C  SYS / # / OBS TYPES 
       C3Q L3Q D3Q S3Q                                      SYS / # / OBS TYPES 
C   25 X1  C1P L1P D1P S1P C5P L5P D5P S5P C2I L2I D2I S2I  SYS / # / OBS TYPES 
       C7I L7I D7I S7I C6I L6I D6I S6I C7D L7D D7D S7D      SYS / # / OBS TYPES 
J   17 X1  C1C L1C D1C S1C C2L L2L D2L S2L C5Q L5Q D5Q S5Q  SYS / # / OBS TYPES 
       C1L L1L D1L S1L                                      SYS / # / OBS TYPES 
I    5 X1  C5A L5A D5A S5A                                  SYS / # / OBS TYPES 
SEPTENTRIO RECEIVERS OUTPUT ALIGNED CARRIER PHASES.         COMMENT             
NO FURTHER PHASE SHIFT APPLIED IN THE RINEX ENCODER.        COMMENT             
G L1C                                                       SYS / PHASE SHIFT   
G L2W                                                       SYS / PHASE SHIFT   
G L2L  0.00000                                              SYS / PHASE SHIFT   
G L5Q  0.00000                                              SYS / PHASE SHIFT   
G L1L  0.00000                                              SYS / PHASE SHIFT   
E L1C  0.00000                                              SYS / PHASE SHIFT   
E L6C  0.00000                                              SYS / PHASE SHIFT   
E L5Q  0.00000                                              SYS / PHASE SHIFT   
E L7Q  0.00000                                              SYS / PHASE SHIFT   
E L8Q  0.00000                                              SYS / PHASE SHIFT   
S L1C                                                       SYS / PHASE SHIFT   
S L5I                                                       SYS / PHASE SHIFT   
R L1C                                                       SYS / PHASE SHIFT   
R L2P  0.00000                                              SYS / PHASE SHIFT   
R L2C                                                       SYS / PHASE SHIFT   
R L3Q  0.00000                                              SYS / PHASE SHIFT   
C L1P  0.00000                                              SYS / PHASE SHIFT   
C L5P  0.00000                                              SYS / PHASE SHIFT   
C L2I                                                       SYS / PHASE SHIFT   
C L7I                                                       SYS / PHASE SHIFT   
C L6I                                                       SYS / PHASE SHIFT   
C L7D                                                       SYS / PHASE SHIFT   
J L1C                                                       SYS / PHASE SHIFT   
J L2L  0.00000                                              SYS / PHASE SHIFT   
J L5Q  0.00000                                              SYS / PHASE SHIFT   
J L1L  0.00000                                              SYS / PHASE SHIFT   
I L5A                                                       SYS / PHASE SHIFT   
  2025     1     2    20     0    0.0000000     GPS         TIME OF FIRST OBS   
 C1C    0.000 C2C    0.000 C2P    0.000                     GLONASS COD/PHS/BIS 
DBHZ                                                        SIGNAL STRENGTH UNIT
    18                                                      LEAP SECONDS        
 24 R01  1 R02 -4 R03  5 R04  6 R05  1 R06 -4 R07  5 R08  6 GLONASS SLOT / FRQ #
    R09 -2 R10 -7 R11  0 R12 -1 R13 -2 R14 -7 R15  0 R16 -1 GLONASS SLOT / FRQ #
    R17  4 R18 -3 R19  3 R20  2 R21  4 R22 -3 R23  3 R24  2 GLONASS SLOT / FRQ #
                                                            END OF HEADER       
> 2025 01 02 20 00  0.0000000  0 41
G10         1.000    21444866.335 7 112693686.80207       979.047 7        47.949                                    21444864.208 6  87813178.24306       762.887 6        41.640    21444864.619 6  87813129.23006       762.904 6        41.554
G23         2.000    21166440.859 7 111230405.47807     -1812.620 7        43.014                                    21166435.665 5  86673027.18305     -1412.432 5        30.091    21166436.188 7  86673087.19807     -1412.484 7        45.576
G15         3.000    23923056.039 3                     -1670.896 3        22.076
G21         4.000    24024082.243 4                      2137.390 4        26.491
G08         5.000    22115433.121 6 116217420.55506      1826.870 6        41.440                                                                                                    22115435.797 4                      1423.920 4        25.820
G18        12.000    23322419.761 6 122560152.41306     -3749.728 6        40.849                                                                                                    23322425.439 4                     -2921.767 4        26.024
G27        13.000    20355880.775 7 106970862.80807       -48.305 7        44.751                                    20355877.428 6  83353873.65206       -37.640 6        39.844    20355877.539 6  83353951.64106       -37.606 6        40.563
E27        14.000    25917377.894 7 136196806.04807       768.932 7        46.340                                                                    25917378.102 8 101705377.20908       574.187 8        49.021    25917377.836 8 104358602.14108       589.169 8        48.036
R03        15.000                                                                                                                                    23408115.473 4  97459976.68004     -2994.275 4        27.030
E15        16.000    25869976.035 6 135947622.96806      1261.605 6        36.650                                                                    25869974.894 6 101519353.70306       941.953 6        36.476    25869972.863 6 104167656.90606       966.685 6        38.144
G26        17.000                                                                                                                                                                    23910011.755 5  97907538.54805     -3448.551 5        30.717
E30        19.000    24576110.568 8 129148333.14208     -2041.283 8        49.156                                                                    24576110.438 8  96441978.54808     -1524.324 8        48.244    24576109.608 8  98957848.83908     -1564.033 8        48.980
R20        20.000    19766031.494 5 105697834.95505      -703.457 5        35.633                                                                    19766032.033 7  82209442.43807      -547.248 7        45.694
E02        21.000    26627796.746 6 139930024.88306     -3980.277 6        36.737                                                                    26627816.119 5 104493215.47305     -2972.552 5        34.500    26627800.530 5 107219126.08205     -3049.947 5        33.491
S23        22.000    38346472.121 6 201512094.29706      -862.228 6        40.796
R10        23.000    21713735.546 7 115746397.13807     -4148.524 7        42.463
E36        24.000    25606142.665 7 134561265.70907     -2990.587 7        45.378                                                                    25606141.232 6 100484185.29606     -2232.963 6        36.026    25606142.896 6 103105494.83106     -2291.610 6        40.088
S21        27.000    38619744.418 5 202948440.87305      -862.330 5        32.162
R05        28.000    22026821.632 6 117746251.22806      2792.516 6        38.054                                                                    22026819.124 6  91580200.42106      2171.747 6        36.930
R19        29.000    22526742.970 4                     -3869.596 4        26.108
S36        31.000    38389251.928 6 201736852.55306      -861.343 6        36.405
E34        32.000    23480279.669 7 123389694.61207      -830.134 7        46.845                                                                    23480279.955 8  92141678.17408      -619.887 8        48.843    23480280.344 8  94545433.45408      -636.056 8        50.907
R11        33.000                                                                                                                                    21315868.041 7  88593505.10907      -259.734 7        42.339
C08        36.000                                                                                                                                    38992181.452 5                     -2011.922 5        31.570    38992167.046 5 157005303.94005     -1556.156 5        34.700    38992164.044 4 164988631.63104     -1635.002 4        26.850
R09        37.000    24142043.163 3                     -5331.263 3        22.114                                                                    24142038.006 3                     -4148.180 3        22.552
C11        38.000                                                                                                                                    21837278.224 7 113712429.19607     -1373.218 7        42.061    21837274.785 8  87929718.02408     -1061.849 8        49.156    21837273.199 7  92400634.25207     -1115.896 7        46.420
R21        39.000    22307517.584 7 119372847.63207      2019.688 7        43.522                                                                    22307513.792 5  92845195.21305      1570.859 5        34.114
R04        40.000    21193781.795 7 113491716.50007      -545.822 7        47.224                                                                    21193779.969 6  88271398.76706      -424.634 6        41.831
C12        41.000                                                                                                                                    25074018.319 4                     -3398.610 4        28.616    25074047.175 4 100962711.31504     -2627.894 4        29.156
C14        42.000                                                                                                                                                                                                    25781168.189 5                      2019.849 5        31.502
C13        43.000                                                                                                                                    38542513.224 4 200701015.72804     -1766.200 4        25.654                                                                    38542521.196 6 163086085.41006     -1435.159 6        37.728
C38        44.000                                                                                                                                    40464729.255 4                     -2113.132 4        24.256
C21        46.000                                                                                                                                    23836828.643 7 124124598.83107      -654.291 7        42.627                                                                    23836827.002 7 100861387.98707      -531.763 7        44.384
C23        47.000                                                                                                                                    24929221.397 6 129813125.59906     -2991.021 6        40.207
C43        48.000                                                                                                                                    21842715.507 7 113740756.49107      -136.172 7        42.864                                                                    21842712.853 7  92423661.56107      -110.680 7        46.845
C42        50.000                                                                                                                                    24264977.306 6 126354188.47206      1943.118 6        40.472                                                                    24264982.523 6 102673099.12006      1578.892 6        41.054
C34        52.000                                                                                                                                    22622779.402 7 117802713.01107     -2582.615 7        42.082                                                                    22622774.479 6  95724500.25306     -2098.575 6        40.813
C37        54.000                                                                                                                                    25431936.711 7 132430881.97307      -487.278 7        44.692                                                                    25431940.591 7 107610852.66607      -396.027 7        42.051
C28        55.000                                                                                                                                                                                                                                                                    25826520.884 5 109280450.31905      1553.918 5        33.527
I06        58.000    38819261.604 6 152335244.06806      -574.177 6        39.018
I01        60.000   411952042.091 4 313447505.13904     -1935.569 4        28.493
> 2025 01 02 20 00  5.0000000  0 43
G10         1.000    21443936.012 7 112688798.03807       976.629 7        47.649                                    21443933.440 7  87809368.82707       761.008 7        42.178    21443933.946 6  87809319.80206       761.049 6        41.375
G23         2.000    21168166.609 7 111239476.04707     -1815.449 7        44.071                                    21168161.815 5  86680095.15605     -1414.642 5        30.528    21168162.148 7  86680155.16307     -1414.600 7        45.523
G15         3.000    23924644.833 4                     -1677.230 4        25.789
G21         4.000    24022045.285 4                      2136.218 4        26.742
G08         5.000    22113694.107 6 116208289.64306      1825.678 6        41.061                                                                                                    22113703.513 5                      1422.620 5        30.113
G18        12.000    23325990.508 6 122578902.80306     -3750.219 6        40.737                                                                                                    23325993.861 4                     -2922.570 4        24.902
G27        13.000    20355927.901 7 106971110.53807       -50.643 7        44.795                                    20355924.403 6  83354066.69406       -39.462 6        39.607    20355924.095 6  83354144.67506       -39.390 6        40.162
E27        14.000    25916647.137 7 136192965.78107       767.277 7        46.434                                                                    25916647.323 8 101702509.47708       572.996 8        49.119    25916647.048 8 104355659.60708       587.966 8        48.176
R03        15.000    23411716.948 5 125324926.82715     -3851.739 5        34.000
E15        16.000    25868777.001 5 135941317.47205      1260.877 5        35.714                                                                    25868774.757 6 101514645.07406       941.488 6        36.628    25868772.952 6 104162825.43906       966.128 6        37.478
G26        17.000    23914236.466 4                     -4425.475 4        26.934                                                                                                    23914222.432 4  97924780.88804     -3448.508 4        29.507
E30        19.000    24578053.875 8 129158544.73608     -2043.203 8        49.338                                                                    24578053.744 8  96449604.08408     -1525.790 8        48.304    24578052.915 8  98965673.30308     -1565.613 8        48.775
R20        20.000    19766686.502 5 105701357.52905      -705.193 5        35.162                                                                    19766690.559 7  82212182.21607      -548.494 7        45.630
E02        21.000    26631584.747 6 139949929.04306     -3980.782 6        37.894                                                                    26631604.219 5 104508079.01205     -2972.649 5        33.826    26631587.571 5 107234377.32505     -3050.072 5        32.856
S23        22.000    38347292.860 6 201516404.92206      -861.853 6        41.111
R10        23.000    21717626.733 6 115767146.71306     -4151.090 6        41.747
E36        24.000    25608988.362 7 134576219.53307     -2990.739 7        45.652                                                                    25608987.446 6 100495352.11906     -2233.214 6        36.284    25608988.132 6 103116952.95106     -2291.582 6        40.188
G16        26.000    21779927.547 5 114454311.85715     -3450.377 5        34.290                                    21779926.312 2  89185165.89712     -2688.623 2        14.143
S21        27.000    38620568.288 5 202952751.17405      -861.648 5        32.407
R05        28.000    22024211.703 6 117732294.59706      2790.466 6        36.870                                                                    22024210.082 6  91569345.23206      2170.361 6        37.890
R19        29.000    22530362.252 4                     -3870.850 4        26.874                                                                    22530358.730 4                     -3010.760 4        25.985
S36        31.000    38390074.970 6 201741158.56206      -860.906 6        36.295
E34        32.000    23481070.378 7 123393848.01507      -831.106 7        47.721                                                                    23481070.310 8  92144779.74308      -620.636 8        49.102    23481070.639 8  94548615.93208      -636.835 8        50.503
R11        33.000    21316168.958 5 113907124.70615      -337.959 5        35.105                                                                    21316183.038 7  88594812.34607      -263.021 7        42.279
C22        34.000                                                                                                                                    26053593.478 4                     -3270.443 4        24.195
C08        36.000                                                                                                                                    38994115.165 5                     -2012.344 5        31.796    38994099.286 5 157013083.96105     -1555.909 5        35.052    38994095.789 4 164996807.24504     -1634.573 4        26.551
R09        37.000    24147033.136 3                     -5332.705 3        23.371                                                                    24147034.525 3                     -4147.829 3        22.857
C11        38.000                                                                                                                                    21838597.537 6 113719298.47406     -1374.277 6        40.913    21838594.018 8  87935029.78108     -1062.696 8        48.952    21838592.335 7  92406216.08907     -1116.659 7        46.042
R21        39.000    22305633.881 7 119362751.03007      2019.097 7        42.931                                                                    22305626.200 6  92837342.33606      1570.295 6        37.285
R04        40.000    21194292.200 7 113494456.81407      -550.161 7        47.346                                                                    21194293.054 7  88273530.13907      -427.884 7        42.519
C12        41.000                                                                                                                                    25077278.261 4                     -3399.432 4        26.850    25077312.884 4 100975852.82704     -2628.259 4        29.867
C14        42.000                                                                                                                                                                                                    25778660.163 5                      2019.670 5        32.605
C13        43.000                                                                                                                                    38544208.684 4 200709847.48804     -1766.603 4        25.910    38544230.648 5                     -1365.669 5        34.267    38544217.025 6 163093261.86806     -1435.194 6        37.459
C38        44.000                                                                                                                                    40466758.106 4                     -2114.897 4        24.226
C21        46.000                                                                                                                                    23837458.480 7 124127877.55607      -656.944 7        42.737                                                                    23837456.330 7 100864052.22107      -533.912 7        44.170
C23        47.000                                                                                                                                    24932093.632 6 129828085.19606     -2992.716 6        39.417                                                                    24932121.784 4 105495897.14314     -2431.443 4        29.877
C43        48.000                                                                                                                                    21842847.183 6 113741440.55206      -137.302 6        41.895                                                                    21842844.255 7  92424217.38207      -111.579 7        47.021
C42        50.000                                                                                                                                    24263112.408 6 126344476.01906      1941.981 6        39.961                                                                    24263116.998 6 102665206.93706      1577.968 6        40.646
C34        52.000                                                                                                                                    22625258.361 7 117815628.41007     -2583.535 7        42.597                                                                    22625254.268 6  95734995.03406     -2099.177 6        40.725
C37        54.000                                                                                                                                    25432405.094 7 132433324.53107      -489.693 7        44.781                                                                    25432409.707 7 107612837.42907      -397.810 7        42.209
C28        55.000                                                                                                                                                                                                                                                                    25824688.928 5 109272679.82805      1554.180 5        33.102
I06        58.000    38819993.031 6 152338114.27306      -573.946 6        39.261
I01        60.000   411954508.553 4 313457183.92204     -1935.495 4        28.919
> 2025 01 02 20 00 10.0000000  0 43
G10         1.000    21443007.893 7 112683922.67907       973.773 7        47.494                                    21443005.355 7  87805569.85707       758.782 7        42.246    21443005.605 6  87805520.83006       758.760 6        41.142
G23         2.000    21169895.711 7 111248562.08507     -1818.598 7        44.631                                    21169890.826 5  86687175.18805     -1417.086 5        30.830    21169891.425 7  86687235.19207     -1417.109 7        45.520
G15         3.000    23926235.394 4                     -1680.803 4        28.227
G21         4.000    24020008.256 4                      2135.033 4        25.158
G08         5.000    22111957.812 6 116199165.50606      1824.319 6        40.670                                                                                                    22111971.211 5                      1421.398 5        32.210
G18        12.000    23329561.327 6 122597656.67206     -3750.970 6        40.703                                                                                                    23329560.802 3                     -2922.654 3        22.552
G27        13.000    20355977.190 7 106971370.79707       -53.171 7        45.199                                    20355973.622 6  83354269.49706       -41.433 6        38.913    20355973.081 6  83354347.49806       -41.502 6        39.808
E27        14.000    25915918.012 7 136189135.15507       765.232 7        46.207                                                                    25915918.291 8 101699648.95608       571.488 8        49.172    25915918.045 8 104352724.46908       586.389 8        48.555
R03        15.000    23415321.047 5 125344192.99805     -3854.846 5        31.955                                                                    23415336.355 4  97489934.43404     -2998.150 4        29.431
E15        16.000    25867577.832 5 135935016.23605      1259.962 5        35.714                                                                    25867575.816 6 101509939.60706       940.771 6        36.972    25867573.867 6 104157997.20606       965.333 6        37.183
G26        17.000    23918443.132 5                     -4426.340 5        30.974                                                                                                    23918432.684 4  97942025.62504     -3449.349 4        28.066
E30        19.000    24579999.251 8 129168767.48208     -2045.562 8        49.295                                                                    24579999.076 8  96457237.94808     -1527.549 8        48.370    24579998.362 8  98973506.31308     -1567.349 8        48.719
R20        20.000    19767348.971 5 105704889.99805      -707.304 5        34.733                                                                    19767351.200 7  82214929.70507      -550.230 7        45.929
E02        21.000    26635373.113 6 139969836.27706     -3981.550 6        38.763                                                                    26635392.619 5 104522944.81705     -2973.227 5        33.156    26635374.536 5 107249630.88105     -3050.768 5        32.323
S23        22.000    38348115.554 6 201520715.66606      -862.110 6        40.923
R10        23.000    21721522.064 6 115787910.00106     -4154.060 6        40.574
E36        24.000    25611834.224 7 134591175.77907     -2991.424 7        45.374                                                                    25611834.126 6 100506520.72506     -2233.584 6        36.870    25611833.711 6 103128412.92206     -2292.145 6        40.489
G16        26.000    21783216.769 6 114471569.76906     -3452.757 6        39.171                                    21783210.741 2  89198613.64002     -2690.470 2        17.057
S21        27.000    38621380.804 5 202957061.24205      -862.234 5        32.138
R05        28.000    22021601.740 5 117718349.34405      2787.937 5        33.533                                                                    22021604.625 6  91558498.82206      2168.468 6        38.162
R19        29.000    22533982.974 4                     -3871.586 4        27.665                                                                    22533983.691 4                     -3010.639 4        27.042
S36        31.000    38390893.796 6 201745465.37306      -861.164 6        36.503
E34        32.000    23481862.178 7 123398007.92107      -832.536 7        47.840                                                                    23481862.030 8  92147886.16508      -621.717 8        49.235    23481862.103 8  94551803.38908      -637.899 8        50.189
R11        33.000                                                                                                                                    21316500.335 6  88596137.38006      -266.738 6        41.430
C22        34.000                                                                                                                                    26056734.829 3                     -3275.164 3        21.667
C08        36.000                                                                                                                                    38996047.568 5                     -2012.467 5        31.992    38996031.665 5 157020865.04305     -1556.013 5        35.257    38996028.324 4 165004983.97504     -1636.207 4        25.955
R09        37.000    24152026.521 3                     -5331.422 3        22.781                                                                    24152026.314 3                     -4145.021 3        23.619
C11        38.000                                                                                                                                    21839917.222 6 113726174.64206     -1375.764 6        39.183    21839914.452 8  87940346.86308     -1063.861 8        48.866    21839912.858 7  92411803.54207     -1118.098 7        45.421
R21        39.000    22303745.487 7 119352658.67007      2018.129 7        44.296                                                                    22303741.121 6  92829492.75306      1569.646 6        39.090
R04        40.000    21194807.691 8 113497220.19008      -554.917 8        48.281                                                                    21194810.129 7  88275679.43907      -431.614 7        42.749
C12        41.000                                                                                                                                    25080540.381 3                     -3400.616 3        23.276    25080576.470 5 100988996.32005     -2628.279 5        30.536
C14        42.000                                                                                                                                                                                                    25776153.104 5                      2019.494 5        33.299
C13        43.000                                                                                                                                                                                                    38545922.621 5 155208473.30115     -1366.351 5        35.000    38545913.612 6 163100439.64906     -1435.755 6        37.456
C38        44.000                                                                                                                                    40468787.119 3                     -2115.299 3        23.200
C21        46.000                                                                                                                                    23838091.773 7 124131171.02507      -659.952 7        43.206                                                                    23838088.326 7 100866728.45107      -536.587 7        43.826
C23        47.000                                                                                                                                    24934967.448 6 129843053.78606     -2994.567 6        38.000                                                                    24934995.633 4 105508060.46704     -2433.442 4        28.872
C43        48.000                                                                                                                                    21842978.670 6 113742131.80106      -138.877 6        41.199                                                                    21842977.057 7  92424779.08407      -113.049 7        47.035
C42        50.000                                                                                                                                    24261246.377 6 126334771.34306      1940.181 6        38.763                                                                    24261253.135 6 102657321.06706      1576.431 6        40.114
C34        52.000                                                                                                                                    22627739.296 7 117828549.68907     -2584.840 7        43.177                                                                    22627735.284 6  95745494.63506     -2100.418 6        40.033
C37        54.000                                                                                                                                    25432876.805 7 132435780.72907      -492.545 7        45.539                                                                    25432881.628 7 107614833.31807      -400.356 7        42.364
C28        55.000                                                                                                                                    25822921.610 5 134466365.50615      1912.351 5        30.996                                                                    25822857.378 5 109264910.09005      1553.678 5        32.725
I06        58.000    38820724.219 6 152340984.26106      -573.786 6        38.973
I01        60.000   411956975.234 4 313466864.15504     -1936.561 4        29.299
> 2025 01 02 20 00 15.0000000  0 43
G10         1.000    21442082.385 7 112679060.32807       971.135 7        47.464                                    21442079.863 7  87801781.02207       756.726 7        42.356    21442080.660 6  87801732.00806       756.757 6        41.590
G23         2.000    21171627.169 7 111257663.20307     -1821.788 7        44.760                                    21171622.730 5  86694266.96605     -1419.568 5        31.140    21171623.236 7  86694326.95707     -1419.562 7        45.392
G15         3.000    23927837.751 5                     -1683.732 5        32.587
G21         4.000    24017978.331 3                      2135.270 3        21.857
G08         5.000    22110222.703 6 116190047.77106      1822.937 6        41.261                                                                                                    22110240.670 5                      1420.507 5        32.539
G07         8.000    25406059.788 4                     -1622.507 4        24.556
G18        12.000    23333130.643 6 122616413.62206     -3751.679 6        39.694                                                                                                    23333126.148 3                     -2925.260 3        19.642
G27        13.000    20356029.063 7 106971643.21407       -55.736 7        45.263                                    20356024.880 6  83354481.77306       -43.433 6        38.333    20356024.288 6  83354559.76406       -43.412 6        38.598
E27        14.000    25915190.672 7 136185313.79607       763.241 7        46.210                                                                    25915191.065 8 101696795.35408       569.922 8        49.234    25915190.902 8 104349796.42708       584.854 8        48.995
R03        15.000                                                                                                                                    23418938.601 4  97504930.73704     -3000.538 4        29.621
E15        16.000    25866379.665 6 135928718.83806      1258.889 6        37.089                                                                    25866377.727 6 101505236.99906       940.337 6        37.505    25866375.610 6 104153171.91306       964.670 6        36.828
G26        17.000    23922654.323 5                     -4426.856 5        32.449                                                                                                    23922645.477 4  97959272.30004     -3449.044 4        25.368
E30        19.000    24581946.469 8 129179000.98508     -2047.836 8        49.273                                                                    24581946.417 8  96464879.84908     -1529.261 8        48.505    24581945.811 8  98981347.56708     -1569.146 8        48.677
R20        20.000    19768011.225 5 105708431.88605      -709.170 5        34.424                                                                    19768013.835 7  82217684.50607      -551.738 7        46.503
E02        21.000    26639161.771 6 139989746.17406     -3982.391 6        39.538                                                                    26639181.420 5 104537812.66105     -2974.048 5        33.126    26639161.371 5 107264886.51705     -3051.504 5        31.396
S23        22.000    38348933.892 6 201525025.96206      -862.032 6        40.934
R10        23.000    21725421.540 6 115808686.62906     -4156.531 6        40.641
E36        24.000    25614680.671 7 134606134.02707     -2991.873 7        45.245                                                                    25614681.141 6 100517690.86406     -2234.271 6        37.512    25614679.691 6 103139874.43506     -2292.435 6        40.899
G16        26.000    21786504.069 6 114488839.35906     -3455.090 6        41.533                                    21786497.223 3  89212070.50503     -2692.277 3        18.985
S21        27.000    38622201.512 5 202961370.98205      -861.818 5        32.222
R05        28.000    22018988.229 4 117704415.17204      2785.478 4        28.540                                                                    22018998.614 6  91547661.09506      2166.707 6        37.603
R19        29.000    22537602.328 4                     -3872.323 4        27.569                                                                    22537607.275 4                     -3011.426 4        27.725
S36        31.000    38391711.861 6 201749771.51306      -860.961 6        36.620
E34        32.000    23482654.694 8 123402173.90808      -833.838 8        48.145                                                                    23482654.755 8  92150997.13108      -622.651 8        49.420    23482654.871 8  94554995.51608      -638.932 8        49.892
R11        33.000                                                                                                                                    21316821.891 6  88597479.89606      -270.372 6        40.315
C08        36.000                                                                                                                                    38997980.180 5                     -2012.571 5        32.251    38997964.490 5 157028646.77605     -1556.476 5        35.448    38997961.859 4 165013161.35204     -1635.488 4        26.012
R09        37.000    24157016.083 3                     -5331.055 3        23.352                                                                    24157018.621 3                     -4146.360 3        23.429
C11        38.000                                                                                                                                    21841237.364 6 113733057.30806     -1377.130 6        37.974    21841235.796 8  87945668.95808     -1064.997 8        48.992    21841234.445 7  92417396.23207     -1119.158 7        45.068
R21        39.000    22301862.136 7 119342570.01307      2017.324 7        44.665                                                                    22301857.198 6  92821646.01406      1569.165 6        39.363
R04        40.000    21195329.433 8 113500006.24208      -559.505 8        49.557                                                                    21195329.915 7  88277846.36307      -435.192 7        42.415
C12        41.000                                                                                                                                    25083804.160 3                     -3396.688 3        19.672    25083835.428 5 101002141.55205     -2629.209 5        32.174
C14        42.000                                                                                                                                                                                                    25773645.279 5 103779790.48315      2019.232 5        34.271
C13        43.000                                                                                                                                    38547602.449 4 200727515.24704     -1767.251 4        27.293    38547619.377 5 155215304.66905     -1366.655 5        35.529    38547610.069 6 163107618.35006     -1435.833 6        37.618
C38        44.000                                                                                                                                    40470811.337 4                     -2115.680 4        24.045
C21        46.000                                                                                                                                    23838727.629 7 124134478.84507      -663.014 7        43.903                                                                    23838723.129 7 100869416.31407      -538.887 7        43.898
C23        47.000                                                                                                                                    24937842.823 6 129858030.98206     -2996.394 6        37.312                                                                    24937868.419 4 105520230.76304     -2435.085 4        28.142
C43        48.000                                                                                                                                    21843112.832 6 113742829.83206      -140.398 6        41.690                                                                    21843111.205 7  92425346.26907      -114.125 7        47.286
C42        50.000                                                                                                                                    24259382.966 6 126325074.00106      1938.657 6        37.807                                                                    24259391.145 6 102649441.13806      1575.312 6        39.646
C34        52.000                                                                                                                                    22630221.389 7 117841476.48007     -2585.892 7        42.656                                                                    22630217.429 6  95755998.67406     -2101.323 6        39.640
C37        54.000                                                                                                                                    25433351.904 7 132438250.16907      -495.240 7        46.000                                                                    25433355.897 7 107616839.93707      -402.524 7        42.656
C28        55.000                                                                                                                                    25821085.060 5 134456804.04305      1912.252 5        30.362                                                                    25821024.986 5 109257140.67805      1553.764 5        31.366
I06        58.000    38821456.002 6 152343853.74806      -573.868 6        39.051
I01        60.000   411959441.586 4 313476545.27504     -1936.653 4        29.422
> 2025 01 02 20 00 20.0000000  0 42
G10         1.000    21441159.428 7 112674210.91807       968.540 7        47.570                                    21441156.893 7  87798002.27307       754.706 7        42.093    21441158.121 6  87797953.26806       754.721 6        41.850
G23         2.000    21173361.998 7 111266779.29707     -1824.691 7        44.811                                    21173357.505 5  86701370.41405     -1421.838 5        31.645    21173358.065 7  86701430.40307     -1421.846 7        45.392
G15         3.000    23929449.136 5 125750092.70415     -1687.077 5        34.024
G08         5.000    22108489.935 7 116180936.37007      1821.714 7        42.064                                                                                                    22108510.488 5                      1419.594 5        33.868
G07         8.000    25407611.231 4                     -1625.065 4        29.640                                                                                                    25407616.854 3                     -1267.327 3        20.714
G18        12.000    23336700.027 6 122635173.52806     -3752.177 6        38.793
G27        13.000    20356083.159 7 106971927.71007       -58.053 7        45.699                                    20356078.276 6  83354703.46606       -45.240 6        37.629    20356078.658 6  83354781.46406       -45.378 6        37.667
E27        14.000    25914465.379 7 136181501.63007       761.546 7        46.166                                                                    25914465.593 8 101693948.60708       568.705 8        49.325    25914465.431 8 104346875.42308       583.484 8        49.416
R03        15.000    23422547.202 4 125382769.68804     -3860.027 4        25.910
E15        16.000    25865181.703 6 135922425.14806      1258.280 6        38.520                                                                    25865180.290 6 101500537.19606       939.698 6        38.318    25865178.110 6 104148349.49706       964.226 6        36.299
G26        17.000    23926866.511 5                     -4427.351 5        33.754                                                                                                    23926857.033 3  97976520.87303     -3450.670 3        23.162
E30        19.000    24583895.669 8 129189245.16408     -2049.935 8        49.481                                                                    24583895.785 8  96472529.71808     -1530.764 8        48.632    24583895.333 8  98989197.00208     -1570.784 8        48.672
R20        20.000    19768675.270 5 105711983.18905      -710.767 5        33.976                                                                    19768678.563 7  82220446.64307      -553.167 7        46.757
E02        21.000    26642951.332 6 140009658.61806     -3982.657 6        40.284                                                                    26642970.525 5 104552682.39205     -2974.295 5        32.748    26642947.706 5 107280144.05805     -3051.686 5        30.875
S23        22.000    38349753.460 6 201529335.66806      -861.882 6        40.963
R10        23.000    21729323.397 6 115829476.60906     -4159.377 6        40.820
E36        24.000    25617527.614 7 134621094.21007     -2992.151 7        45.231                                                                    25617528.307 6 100528862.41306     -2234.381 6        38.006    25617526.222 6 103151337.43106     -2292.797 6        41.368
G16        26.000    21789791.535 7 114506120.55207     -3457.434 7        42.089                                    21789785.775 3  89225536.39003     -2694.108 3        21.381
S21        27.000    38623029.107 5 202965680.20005      -861.997 5        32.024
R05        28.000    22016385.070 4 117690491.93404      2783.792 4        28.332                                                                    22016393.401 6  91536831.91206      2164.997 6        36.983
R19        29.000    22541225.711 4                     -3872.146 4        27.653
S36        31.000    38392529.900 6 201754077.05806      -860.877 6        36.590
E34        32.000    23483448.649 8 123406345.91708      -835.022 8        48.460                                                                    23483448.756 8  92154112.59508      -623.512 8        49.582    23483448.752 8  94558192.24808      -639.759 8        49.436
R11        33.000                                                                                                                                    21317148.516 6  88598839.83906      -273.673 6        40.341
C08        36.000                                                                                                                                    38999913.241 5                     -2013.096 5        32.329    38999898.406 5 157036429.17905     -1556.653 5        35.414    38999894.656 4 165021339.45604     -1635.548 4        26.994
R09        37.000    24162010.134 3                     -5331.930 3        21.595                                                                    24162006.171 3                     -4145.404 3        23.886
C11        38.000                                                                                                                                    21842558.149 6 113739946.36006     -1378.462 6        39.532    21842559.045 8  87950996.01208     -1065.913 8        49.583    21842557.378 7  92422994.14207     -1119.988 7        44.969
R21        39.000    22299978.920 7 119332485.17007      2016.633 7        44.904                                                                    22299970.743 6  92813802.25306      1568.497 6        39.210
R04        40.000    21195854.983 8 113502814.90308      -563.965 8        50.124                                                                    21195854.286 6  88280030.85106      -438.579 6        41.747
C12        41.000                                                                                                                                                                                                    25087096.797 5 101015288.49105     -2629.963 5        34.000
C14        42.000                                                                                                                                                                                                    25771137.860 5 103769694.99505      2019.139 5        34.624
C13        43.000                                                                                                                                    38549303.413 4 200736350.75304     -1767.281 4        27.665    38549314.727 5 155222136.86605     -1366.544 5        35.867    38549306.759 6 163114797.93206     -1435.828 6        37.713
C38        44.000                                                                                                                                    40472838.632 4                     -2115.099 4        24.391
C21        46.000                                                                                                                                    23839366.463 7 124137800.94407      -665.800 7        45.020                                                                    23839361.020 7 100872115.78107      -540.862 7        43.814
C23        47.000                                                                                                                                    24940720.518 6 129873016.68106     -2998.033 6        37.270
C43        48.000                                                                                                                                    21843248.573 7 113743534.58907      -141.599 7        43.027                                                                    21843246.435 7  92425918.92907      -114.942 7        47.512
C42        50.000                                                                                                                                    24257522.192 6 126315383.93906      1937.302 6        38.820                                                                    24257530.573 6 102641567.15806      1574.178 6        39.282
C34        52.000                                                                                                                                    22632703.734 6 117854408.73706     -2586.862 6        40.944                                                                    22632700.724 6  95766507.14706     -2102.068 6        39.192
C37        54.000                                                                                                                                    25433828.741 7 132440732.79007      -497.780 7        46.526                                                                    25433832.776 7 107618857.27307      -404.384 7        43.185
C28        55.000                                                                                                                                                                                                                                                                    25819190.900 4 109249371.52704      1554.199 4        29.194
I06        58.000    38822186.800 6 152346722.67706      -573.786 6        39.060
I01        60.000   411961909.092 4 313486227.40204     -1936.730 4        28.521
> 2025 01 02 20 00 25.0000000  0 42
G10         1.000    21440238.651 7 112669374.81407       965.659 7        46.978                                    21440236.490 6  87794233.89106       752.455 6        41.521    21440238.002 7  87794184.89207       752.461 7        42.191
G23         2.000    21175100.028 7 111275910.71907     -1828.003 7        43.954                                    21175095.173 5  86708485.80505     -1424.415 5        31.940    21175095.776 7  86708545.81007     -1424.484 7        45.046
G15         3.000    23931056.639 5 125758537.13505     -1691.043 5        32.904
G08         5.000    22106757.993 6 116171831.68906      1819.945 6        41.597                                                                                                    22106773.839 5                      1418.262 5        33.240
G07         8.000    25409161.618 5                     -1627.714 5        32.210                                                                                                    25409167.568 3                     -1269.072 3        21.452
G18        12.000    23340271.440 6 122653936.77206     -3753.250 6        37.989
G27        13.000    20356139.701 7 106972224.63407       -60.892 7        45.895                                    20356133.876 6  83354934.84406       -47.452 6        36.983    20356135.009 6  83355012.83206       -47.362 6        36.435
E27        14.000    25913741.917 7 136177699.00707       759.323 7        46.056                                                                    25913741.882 8 101691108.99008       567.063 8        49.240    25913741.801 8 104343961.72408       581.825 8        49.633
R03        15.000    23426152.754 4                     -3863.396 4        24.451                                                                    23426128.179 5  97534957.97615     -3005.112 5        31.472
E15        16.000    25863985.697 6 135916135.56106      1257.183 6        38.859                                                                    25863984.268 6 101495840.46506       938.923 6        38.889    25863981.633 5 104143530.24905       963.195 5        35.967
G26        17.000    23931078.256 5 125758669.24215     -4428.206 5        35.000
E30        19.000    24585847.266 8 129199500.36108     -2052.301 8        49.370                                                                    24585847.297 8  96480187.81908     -1532.532 8        48.644    24585846.836 8  98997054.87508     -1572.533 8        48.460
R20        20.000    19769342.193 5 105715544.43905      -713.565 5        34.805                                                                    19769344.106 7  82223216.46107      -554.873 7        46.778
E02        21.000    26646741.397 6 140029573.98106     -3983.494 6        40.749                                                                    26646760.026 5 104567554.29405     -2974.592 5        32.988    26646735.602 4 107295403.88104     -3052.037 4        29.981
S23        22.000    38350573.667 6 201533644.92906      -862.060 6        40.989
R10        23.000    21733226.270 6 115850280.35006     -4162.429 6        40.100
E36        24.000    25620374.787 7 134636056.67507     -2992.864 7        45.145                                                                    25620375.590 6 100540035.68506     -2235.079 6        38.796    25620373.298 6 103162802.17906     -2293.345 6        41.430
G16        26.000    21793081.654 7 114523413.70807     -3460.064 7        42.133                                    21793076.612 3  89239011.60103     -2696.159 3        22.000
S21        27.000    38623843.246 5 202969989.36905      -861.920 5        32.431
R05        28.000    22013790.457 5 117676580.27405      2780.628 5        31.494                                                                    22013791.343 6  91526011.66806      2162.864 6        36.854
R19        29.000    22544853.100 3                     -3873.213 3        23.733
S36        31.000    38393352.079 6 201758382.13206      -861.106 6        36.389
E34        32.000    23484243.864 8 123410524.28408      -836.495 8        48.454                                                                    23484243.981 8  92157232.81008      -624.690 8        49.497    23484243.920 8  94561393.86308      -641.022 8        48.892
R11        33.000    21317539.343 6 113914073.65706      -356.955 6        37.459                                                                    21317484.690 6  88600217.48406      -277.384 6        40.677
C08        36.000                                                                                                                                    39001847.888 5                     -2013.504 5        32.204    39001830.217 5 157044212.41005     -1556.798 5        35.971    39001828.289 4 165029518.50204     -1636.862 4        26.120
R09        37.000    24166997.965 3                     -5329.642 3        22.229                                                                    24166997.879 3                     -4148.126 3        22.190
C11        38.000                                                                                                                                    21843885.285 7 113746842.20007     -1380.068 7        42.072    21843883.799 8  87956328.33508     -1067.156 8        50.125    21843881.626 7  92428597.60307     -1121.441 7        44.658
R21        39.000    22298094.142 7 119322404.35507      2015.500 7        44.829                                                                    22298085.348 6  92805961.59806      1567.584 6        38.135
R04        40.000    21196383.143 8 113505646.49408      -568.792 8        50.056                                                                    21196383.134 6  88282233.20306      -442.345 6        40.007
C12        41.000                                                                                                                                                                                                    25090364.744 5 101028437.33205     -2630.076 5        35.133
C14        42.000                                                                                                                                                                                                    25768630.577 5 103759600.61705      2018.884 5        34.743
