     3.04           OBSERVATION DATA    M                   RINEX VERSION / TYPE
ssrcrin-15.6.1x                         20250102 093000 UTC PGM / RUN BY / DATE 
(00000000023479385599111004) Septentrio proprietary         COMMENT             
ract                                                        MARKER NAME         
01                                                          MARKER NUMBER       
geodetic                                                    MARKER TYPE         
NFB                 CLIMERS@TUW                             OBSERVER / AGENCY   
3296359             SEPT ASTERX SB3 PROB4.14.4              REC # / TYPE / VERS 
Unknown             Unknown                                 ANT # / TYPE        
  4127445.9553  1206914.3839  4695543.2612                  APPROX POSITION XYZ 
        0.0000        0.0000        0.0000                  ANTENNA: DELTA H/E/N
G   23 X1  C1C L1C D1C S1C C1W S1W C2W L2W D2W S2W C2L L2L  SYS / # / OBS TYPES 
       D2L S2L C5Q L5Q D5Q S5Q C1L L1L D1L S1L              SYS / # / OBS TYPES 
E   21 X1  C1C L1C D1C S1C C6C L6C D6C S6C C5Q L5Q D5Q S5Q  SYS / # / OBS TYPES 
       C7Q L7Q D7Q S7Q C8Q L8Q D8Q S8Q                      SYS / # / OBS TYPES 
S    9 X1  C1C L1C D1C S1C C5I L5I D5I S5I                  SYS / # / OBS TYPES 
R   17 X1  C1C L1C D1C S1C C2P L2P D2P S2P C2C L2C D2C S2C  SYS / # / OBS TYPES 
       C3Q L3Q D3Q S3Q                                      SYS / # / OBS TYPES 
C   25 X1  C1P L1P D1P S1P C5P L5P D5P S5P C2I L2I D2I S2I  SYS / # / OBS TYPES 
       C7I L7I D7I S7I C6I L6I D6I S6I C7D L7D D7D S7D      SYS / # / OBS TYPES 
J   17 X1  C1C L1C D1C S1C C2L L2L D2L S2L C5Q L5Q D5Q S5Q  SYS / # / OBS TYPES 
       C1L L1L D1L S1L                                      SYS / # / OBS TYPES 
I    5 X1  C5A L5A D5A S5A                                  SYS / # / OBS TYPES 
SEPTENTRIO RECEIVERS OUTPUT ALIGNED CARRIER PHASES.         COMMENT             
NO FURTHER PHASE SHIFT APPLIED IN THE RINEX ENCODER.        COMMENT             
G L1C                                                       SYS / PHASE SHIFT   
G L2W                                                       SYS / PHASE SHIFT   
G L2L  0.00000                                              SYS / PHASE SHIFT   
G L5Q  0.00000                                              SYS / PHASE SHIFT   
G L1L  0.00000                                              SYS / PHASE SHIFT   
E L1C  0.00000                                              SYS / PHASE SHIFT   
E L6C  0.00000                                              SYS / PHASE SHIFT   
E L5Q  0.00000                                              SYS / PHASE SHIFT   
E L7Q  0.00000                                              SYS / PHASE SHIFT   
E L8Q  0.00000                                              SYS / PHASE SHIFT   
S L1C                                                       SYS / PHASE SHIFT   
S L5I                                                       SYS / PHASE SHIFT   
R L1C                                                       SYS / PHASE SHIFT   
R L2P  0.00000                                              SYS / PHASE SHIFT   
R L2C                                                       SYS / PHASE SHIFT   
R L3Q  0.00000                                              SYS / PHASE SHIFT   
C L1P  0.00000                                              SYS / PHASE SHIFT   
C L5P  0.00000                                              SYS / PHASE SHIFT   
C L2I                                                       SYS / PHASE SHIFT   
C L7I                                                       SYS / PHASE SHIFT   
C L6I                                                       SYS / PHASE SHIFT   
C L7D                                                       SYS / PHASE SHIFT   
J L1C                                                       SYS / PHASE SHIFT   
J L2L  0.00000                                              SYS / PHASE SHIFT   
J L5Q  0.00000                                              SYS / PHASE SHIFT   
J L1L  0.00000                                              SYS / PHASE SHIFT   
I L5A                                                       SYS / PHASE SHIFT   
  2025     1     2     9    30    0.0000000     GPS         TIME OF FIRST OBS   
 C1C    0.000 C2C    0.000 C2P    0.000                     GLONASS COD/PHS/BIS 
DBHZ                                                        SIGNAL STRENGTH UNIT
    18                                                      LEAP SECONDS        
 24 R01  1 R02 -4 R03  5 R04  6 R05  1 R06 -4 R07  5 R08  6 GLONASS SLOT / FRQ #
    R09 -2 R10 -7 R11  0 R12 -1 R13 -2 R14 -7 R15  0 R16 -1 GLONASS SLOT / FRQ #
    R17  4 R18 -3 R19  3 R20  2 R21  4 R22 -3 R23  3 R24  2 GLONASS SLOT / FRQ #
                                                            END OF HEADER       
> 2025 01 02 09 30  0.0000000  0 33
G13         1.000    20094552.683 7 105597566.75007     -2128.505 7        45.892                                    20094554.895 5  82283822.63705     -1658.579 5        31.841
G17         2.000    22602251.558 5 118775635.66905      1056.653 5        35.300                                    22602251.288 4  92552450.78304       823.363 4        26.946    22602249.938 5  92552449.74705       823.681 5        35.419
G19         4.000    24025292.659 5 126253793.22705      2495.268 5        35.948
G14         8.000    21103933.783 7 110901889.92707     -2698.260 7        45.973                                    21103929.671 4  86417049.82104     -2102.534 4        25.158    21103933.525 6  86417087.80506     -2102.522 6        37.456
G15         9.000    20208076.209 7 106194385.44207      -250.620 7        43.113                                    20208075.364 6  82748777.53306      -195.291 6        40.298    20208076.729 7  82748679.54107      -195.212 7        44.950
G23        10.000    23269695.843 6 122283066.38706       379.606 6        38.246                                    23269693.764 2  95285492.89802       295.794 2        17.132    23269694.920 5  95285507.88105       295.839 5        35.671
E06        11.000    24227923.308 7 127318580.16707     -2713.046 7        46.826                                                                    24227928.339 7  95075573.06307     -2025.999 7        47.689    24227927.239 8  97555743.60808     -2078.776 8        48.351
G24        12.000    22533276.293 6 118413359.50506      2166.265 6        40.892                                    22533380.751 1  92270420.16801      1688.034 1        11.852    22533280.842 5  92270018.85405      1688.036 5        33.509
E31        13.000    23361116.805 8 122763476.19808      -871.264 8        50.324                                                                    23361118.941 8  91674084.20508      -650.638 8        49.973    23361118.188 8  94065555.83908      -667.634 8        49.133
G05        14.000    24146514.940 5                     -4441.115 5        33.299                                                                                                    24146526.064 5  98875970.83105     -3460.059 5        30.619
E24        16.000    25476674.009 5 133880951.65905      1648.602 5        32.713                                                                                                                                    25476678.516 6 102584033.56006      1263.399 6        38.595
E04        17.000    26128216.584 6 137304715.52106     -3521.147 6        37.025                                                                    26128222.605 6 102532768.17006     -2629.458 6        39.180    26128221.450 6 105207534.29906     -2698.160 6        40.408
E05        18.000    23409873.032 7 123019805.38307      1152.276 7        43.769                                                                    23409876.477 7  91865529.16107       860.349 7        45.717    23409876.118 8  94262007.11808       882.827 8        49.347
S36        20.000    38195957.041 6 200721157.90006      -855.681 6        36.355
E09        21.000    23522694.377 8 123612697.42208     -1526.875 8        49.444                                                                    23522695.981 8  92308064.58908     -1140.204 8        50.800    23522695.185 8  94716161.96508     -1169.928 8        50.480
S23        24.000    38128669.992 6 200367514.02706      -856.423 6        36.601
R20        26.000                                                                                                                                    24173331.423 5                     -2286.413 5        31.366
R13        27.000    19338802.235 6 103268142.71506      -102.031 6        41.580
R21        28.000    23257035.239 4                        36.333 4        24.767                                                                    23257028.342 4  96796911.99204        28.320 4        29.403
R04        29.000    22497768.923 6 120474465.33606      3101.289 6        39.021                                                                    22497762.949 7  93702389.11107      2412.132 7        42.229
C07        32.000                                                                                                                                    38791077.524 6 201995303.06706      -878.564 6        39.937    38791073.837 6 156195560.22906      -679.341 6        39.312    38791071.382 6 164137709.94306      -714.079 6        36.696
C10        33.000                                                                                                                                    38563163.797 5 200808529.46205      -491.082 5        35.862    38563162.204 7 155277943.77707      -380.049 7        44.519    38563156.695 5 163173344.81005      -399.326 5        34.995
C36        34.000                                                                                                                                    21933887.054 8 114215497.34508     -2197.984 8        51.743                                                                    21933895.135 7  92809551.14107     -1786.178 7        45.231
R02        35.000    20450499.893 7 109127696.45907     -4092.675 7        43.869                                                                    20450505.793 6  84877400.30606     -3183.184 6        40.246
R03        36.000    19476459.254 7 104259224.97507       103.546 7        45.839                                                                    19476460.948 7  81090431.54607        80.560 7        42.940
C45        37.000                                                                                                                                    22160067.704 7 115393273.85707       557.529 7        46.071                                                                    22160060.616 6  93766513.18706       452.852 6        41.228
R12        38.000    20195858.242 8 107882806.48108     -3373.972 8        51.932                                                                    20195861.035 7  83908717.15407     -2624.330 7        43.786
C40        40.000                                                                                                                                    38808350.066 4 202085136.50004      -969.904 4        28.341                                                                    38808379.982 3                      -790.340 3        20.929
C42        45.000                                                                                                                                    26095493.546 5 135886180.87705      2101.727 5        35.448                                                                    26095504.753 5 110418646.14205      1707.625 5        34.919
C22        51.000                                                                                                                                    22809158.736 6 118773247.61606     -3274.225 6        37.879                                                                    22809153.751 7  96512923.78707     -2660.666 7        42.637
I06        53.000    38126216.256 4 149615469.27304      -731.221 4        26.982
C21        55.000                                                                                                                                    22932241.797 7 119414238.19007      -127.398 7        44.561                                                                    22932238.625 6  97033810.25906      -103.531 6        40.975
I02        59.000    37172686.397 6 145873620.92106      -303.817 6        37.743
> 2025 01 02 09 30  5.0000000  0 33
G13         1.000    20096579.917 7 105608216.15207     -2131.302 7        46.886                                    20096581.207 5  82292120.88905     -1660.755 5        31.977
G17         2.000    22601248.877 6 118770357.42306      1054.331 6        37.180                                    22601246.022 4  92548337.86204       821.552 4        27.557    22601246.054 5  92548336.84205       821.545 5        34.605
G19         4.000    24022919.312 6 126241318.16406      2494.664 6        36.321
G14         8.000    21106501.354 7 110915387.57807     -2700.711 7        44.333                                    21106498.690 4  86427567.46304     -2104.449 4        24.677    21106501.848 6  86427605.45706     -2104.416 6        39.141
G15         9.000    20208316.648 7 106195647.10507      -254.048 7        43.215                                    20208315.741 6  82749760.64706      -197.959 6        40.400    20208317.001 7  82749662.66207      -197.920 7        44.775
G23        10.000    23269335.065 5 122281176.80205       376.215 5        35.843                                    23269334.174 2  95284020.52602       293.164 2        16.604    23269334.424 5  95284035.48905       293.373 5        34.257
E06        11.000    24230505.224 7 127332149.24807     -2714.571 7        47.010                                                                    24230510.296 7  95085705.82007     -2027.059 7        47.560    24230509.154 8  97566140.69208     -2079.974 8        48.464
G24        12.000    22531215.239 6 118402531.00406      2165.119 6        40.453                                    22531320.187 1  92261982.33801      1687.063 1        10.889    22531219.177 5  92261581.05005      1687.251 5        34.348
E31        13.000    23361946.740 8 122767838.33108      -873.439 8        50.419                                                                    23361948.918 8  91677341.63908      -652.278 8        49.797    23361948.046 8  94068898.24308      -669.298 8        48.741
G05        14.000    24150740.709 5                     -4441.592 5        34.781                                                                                                    24150751.345 5  98893274.30305     -3461.077 5        31.932
E24        16.000    25475103.832 5 133872712.16905      1646.879 5        31.170                                                                                                                                    25475110.240 6 102577720.26406      1262.089 6        38.420
E04        17.000    26131567.467 6 137322324.81206     -3522.335 6        37.853                                                                    26131573.043 6 102545917.94006     -2630.391 6        38.547    26131572.191 6 105221027.07406     -2698.928 6        40.286
E05        18.000    23408777.324 7 123014047.50707      1150.953 7        43.992                                                                    23408780.589 7  91861229.43707       859.575 7        45.555    23408780.288 8  94257595.22408       881.919 8        49.143
S36        20.000    38196763.789 5 200725435.67705      -855.329 5        35.029
E09        21.000    23524148.102 8 123620336.78808     -1528.862 8        49.956                                                                    23524149.804 8  92313769.30408     -1141.616 8        51.058    23524148.976 8  94722015.51108     -1171.473 8        50.333
S23        24.000    38129486.846 6 200371796.39206      -856.292 6        36.541
R20        26.000                                                                                                                                    24176086.609 5                     -2289.045 5        31.766
R13        27.000    19338899.187 7 103268660.81307      -105.133 7        42.444
R21        28.000    23257002.336 4                        33.679 4        27.293                                                                    23257004.789 4  96796776.37904        25.237 4        28.844
R04        29.000    22494871.944 6 120458962.93606      3099.696 6        39.144                                                                    22494868.190 7  93690331.68807      2410.917 7        42.087
C07        32.000                                                                                                                                    38791921.333 6 201999697.92406      -879.540 6        39.087    38791918.321 6 156198958.60506      -679.909 6        39.523    38791915.001 6 164141281.10506      -714.457 6        36.476
C10        33.000                                                                                                                                    38563635.999 5 200810988.78605      -492.427 5        35.862    38563634.649 7 155279845.45107      -380.568 7        44.864    38563629.120 5 163175343.19405      -399.905 5        34.629
C36        34.000                                                                                                                                    21935998.070 8 114226491.49508     -2199.578 8        51.062                                                                    21936006.491 7  92818484.79107     -1787.317 7        45.789
R02        35.000    20454340.503 7 109148168.00207     -4095.763 7        42.781                                                                    20454343.642 6  84893322.61706     -3185.526 6        40.853
R03        36.000    19476365.178 7 104258718.70407        99.077 7        46.075                                                                    19476366.370 7  81090037.76507        77.052 7        42.552
C45        37.000                                                                                                                                    22159533.759 7 115390490.96907       555.806 7        45.877                                                                    22159526.371 6  93764251.87206       451.576 6        41.819
R12        38.000    20199017.063 8 107899681.64208     -3375.979 8        52.528                                                                    20199018.829 7  83921842.25107     -2625.757 7        43.287
C40        40.000                                                                                                                                    38809267.902 5 202089988.57805      -971.169 5        30.747                                                                    38809318.848 3                      -789.582 3        18.537
C42        45.000                                                                                                                                    26093472.817 5 135875676.17305      2100.354 5        35.429                                                                    26093487.426 5 110410110.18705      1706.563 5        34.243
C22        51.000                                                                                                                                    22812303.920 6 118789624.13906     -3276.347 6        38.658                                                                    22812299.841 7  96526231.05007     -2662.114 7        43.833
I06        53.000    38127148.518 4 149619126.67604      -731.148 4        25.128
C21        55.000                                                                                                                                    22932364.792 7 119414882.23107      -130.228 7        44.838                                                                    22932362.411 7  97034333.59807      -105.782 7        42.004
I02        59.000    37173074.071 6 145875142.18306      -304.606 6        37.618
> 2025 01 02 09 30 10.0000000  0 35
G13         1.000    20098609.384 7 105618879.72507     -2134.227 7        46.608                                    20098610.089 5  82300430.17805     -1663.038 5        32.024
G17         2.000    22600247.574 6 118765091.56206      1051.847 6        40.951                                    22600242.832 4  92544234.58704       819.629 4        28.114    22600243.705 5  92544233.57205       819.516 5        33.934
G19         4.000    24020544.301 5 126228846.11105      2494.266 5        35.995
G30         6.000    23408383.914 5 123012016.12815     -3681.928 5        35.148                                                                                                    23408391.689 3                     -2868.640 3        21.619
G14         8.000    21109072.649 7 110928897.13707     -2703.247 7        42.231                                    21109070.575 4  86438094.37704     -2106.434 4        24.361    21109072.941 6  86438132.38506     -2106.336 6        41.070
G15         9.000    20208559.370 6 106196926.11706      -257.590 6        41.688                                    20208559.422 6  82750757.28106      -200.720 6        40.207    20208560.012 7  82750659.30407      -200.803 7        44.564
G23        10.000    23268981.011 6 122279303.58706       372.901 6        36.374                                    23268977.683 2  95282560.85702       290.585 2        15.190    23268978.645 5  95282575.84305       290.753 5        31.615
E06        11.000    24233089.013 7 127345726.43007     -2716.265 7        47.126                                                                    24233093.742 7  95095844.63007     -2028.428 7        47.501    24233092.811 8  97576543.98408     -2081.346 8        48.301
G24        12.000    22529156.411 6 118391708.29006      2163.835 6        41.018                                    22529260.567 1  92253549.01201      1686.061 1         9.143    22529159.961 5  92253147.80205      1686.132 5        34.419
E31        13.000    23362779.125 8 122772211.20708      -875.727 8        50.634                                                                    23362781.008 8  91680607.10608      -653.996 8        49.425    23362780.027 8  94072248.89608      -671.010 8        48.399
G05        14.000    24154970.375 5 126935207.94215     -4442.304 5        35.529                                                                                                    24154976.686 5  98910579.92505     -3461.225 5        32.359
E24        16.000    25473537.558 5 133864479.45505      1646.155 5        32.174                                                                                                                                    25473542.528 6 102571412.11906      1261.006 6        37.985
E04        17.000    26134920.106 6 137339939.13106     -3523.487 6        38.652                                                                    26134924.403 6 102559071.44306     -2630.983 6        37.384    26134924.277 6 105234523.73406     -2699.898 6        40.465
E05        18.000    23407682.815 7 123008295.66207      1149.660 7        44.068                                                                    23407686.144 7  91856934.23507       858.534 7        45.889    23407685.612 8  94253187.97708       880.865 8        49.131
S36        20.000    38197562.935 5 200729713.51305      -855.614 5        34.162
E09        21.000    23525603.542 8 123627985.96008     -1530.915 8        50.390                                                                    23525605.426 8  92319481.34708     -1143.199 8        50.932    23525604.592 8  94727876.56608     -1173.043 8        50.323
R14        23.000    23095399.215 4                      2738.256 4        27.341
S23        24.000    38130306.101 6 200376079.09906      -856.744 6        38.102
R20        26.000                                                                                                                                    24178841.585 4                     -2292.117 4        28.938
R13        27.000    19339000.512 7 103269194.50107      -108.412 7        42.576
R21        28.000                                                                                                                                    23256977.810 4  96796657.16114        22.285 4        28.825
R04        29.000    22491981.544 6 120443468.59206      3097.952 6        38.559                                                                    22491974.261 7  93678280.56007      2409.490 7        42.165
C07        32.000                                                                                                                                    38792765.349 6 202004096.83406      -880.306 6        38.931    38792763.139 6 156202360.10906      -680.518 6        39.991    38792760.024 6 164144855.57406      -715.045 6        36.541
C10        33.000                                                                                                                                    38564108.287 5 200813451.98405      -493.193 5        35.048    38564107.490 7 155281750.19007      -381.277 7        44.775    38564101.975 5 163177344.78205      -400.637 5        34.543
C36        34.000                                                                                                                                    21938110.936 8 114237493.36708     -2201.255 8        50.785                                                                    21938119.300 7  92827424.68507     -1788.626 7        46.190
R02        35.000    20458180.763 7 109168655.31907     -4099.055 7        43.754                                                                    20458184.032 7  84909257.18607     -3188.206 7        42.554
R03        36.000    19476275.077 7 104258234.18207        94.713 7        46.181                                                                    19476276.196 7  81089660.90807        73.728 7        42.893
C45        37.000                                                                                                                                    22159001.608 7 115387716.73207       553.859 7        46.267                                                                    22158993.780 7  93761997.56607       450.096 7        42.104
R12        38.000    20202178.124 8 107916566.72508     -3378.019 8        53.242                                                                    20202180.038 7  83934975.08807     -2627.404 7        43.039
C40        40.000                                                                                                                                    38810206.777 5 202094845.60505      -972.048 5        32.617
C42        45.000                                                                                                                                    26091458.849 5 135865177.83205      2099.200 5        35.014                                                                    26091471.718 5 110401579.39205      1705.686 5        33.503
C22        51.000                                                                                                                                    22815451.093 6 118806011.44206     -3278.663 6        40.715                                                                    22815447.611 7  96539547.05607     -2664.122 7        44.229
I06        53.000    38128080.122 4 149622784.54704      -731.960 4        24.481
C21        55.000                                                                                                                                    22932491.272 7 119415540.68107      -133.284 7        44.906                                                                    22932488.668 7  97034868.62907      -108.315 7        42.428
I02        59.000    37173462.474 6 145876664.86306      -304.776 6        37.323
> 2025 01 02 09 30 15.0000000  0 33
G13         1.000    20100641.265 7 105629557.44107     -2136.881 7        46.096                                    20100641.664 5  82308750.48305     -1665.101 5        31.977
G17         2.000    22599249.055 7 118759838.07407      1049.459 7        42.396                                    22599242.083 4  92540140.96004       817.765 4        28.133    22599244.519 5  92540139.95605       817.340 5        31.155
G19         4.000    24018170.320 5 126216377.05605      2493.487 5        34.548
G30         6.000    23411894.774 5 123030427.00405     -3682.399 5        34.095                                    23411898.121 1  95867811.21111     -2869.397 1         7.500    23411899.064 3                     -2868.434 3        20.357
G14         8.000    21111646.442 6 110942418.53106     -2705.422 6        41.275                                    21111644.874 4  86448630.51604     -2108.115 4        24.451    21111645.741 6  86448668.53006     -2108.108 6        41.990
G15         9.000    20208805.114 6 106198222.49806      -260.847 6        40.396                                    20208806.389 6  82751767.44106      -203.261 6        39.967    20208806.600 7  82751669.47407      -203.343 7        44.972
G23        10.000    23268627.753 6 122277446.73306       369.814 6        38.462                                    23268624.205 2  95281113.99102       288.198 2        13.879    23268625.131 5  95281128.95305       288.308 5        30.377
E06        11.000    24235674.311 7 127359311.65207     -2717.831 7        46.991                                                                    24235678.962 7  95105989.44407     -2029.586 7        47.365    24235678.092 8  97586953.44408     -2082.497 8        48.020
G24        12.000    22527098.914 6 118380891.27006      2162.917 6        41.149                                    22527201.966 1  92245120.20501      1685.431 1        10.074    22527100.905 5  92244718.95605      1685.529 5        34.695
E31        13.000    23363613.314 8 122776594.78708      -877.752 8        50.474                                                                    23363615.262 8  91683880.56408      -655.505 8        49.372    23363614.158 8  94075607.74008      -672.580 8        48.195
G05        14.000    24159196.671 5 126957419.69005     -4442.708 5        34.795                                                                                                    24159202.030 5  98927887.68105     -3461.790 5        33.228
E24        16.000    25471974.442 5 133856253.44605      1644.312 5        31.811                                                                                                                                    25471976.931 6 102565109.14306      1260.090 6        38.078
E04        17.000    26138273.886 6 137357558.43206     -3524.607 6        38.622                                                                    26138277.060 6 102572228.65106     -2631.761 6        36.786    26138277.317 6 105248024.18806     -2700.460 6        40.932
E05        18.000    23406589.563 7 123002549.84707      1148.581 7        44.072                                                                    23406592.656 7  91852643.53507       857.738 7        45.920    23406592.243 8  94248785.33508       880.073 8        49.211
S36        20.000    38198379.829 5 200733992.11805      -855.484 5        31.970
E09        21.000    23527060.925 8 123635644.89708     -1532.765 8        50.379                                                                    23527062.904 8  92325200.68408     -1144.617 8        51.012    23527062.139 8  94733745.10308     -1174.435 8        50.250
S23        24.000    38131120.401 6 200380361.98706      -856.620 6        37.800
R13        27.000    19339103.410 7 103269743.43707      -111.355 7        42.794
R21        28.000                                                                                                                                    23256949.041 4  96796554.39904        18.609 4        28.133
R04        29.000    22489091.601 6 120427982.22406      3096.485 6        39.787                                                                    22489082.085 7  93666235.60907      2408.328 7        42.063
C07        32.000                                                                                                                                    38793610.341 6 202008499.69506      -880.970 6        38.550    38793608.157 6 156205764.68506      -681.240 6        40.002    38793605.465 6 164148433.27906      -716.090 6        36.684
C10        33.000                                                                                                                                    38564579.285 5 200815919.17105      -493.783 5        34.238    38564581.347 7 155283657.98407      -381.811 7        44.932    38564575.178 5 163179349.58405      -401.179 5        34.348
C36        34.000                                                                                                                                    21940225.291 8 114248502.90408     -2202.677 8        50.674                                                                    21940233.583 7  92836370.84907     -1789.870 7        46.442
R02        35.000    20462023.346 7 109189158.26007     -4102.186 7        43.120                                                                    20462026.528 7  84925203.92407     -3190.589 7        43.113
R03        36.000    19476186.941 7 104257771.15907        90.485 7        45.836                                                                    19476190.160 7  81089300.80207        70.355 7        43.805
C45        37.000                                                                                                                                    22158470.360 7 115384951.10807       552.277 7        45.785                                                                    22158462.885 7  93759750.28907       448.738 7        42.434
R12        38.000    20205341.639 9 107933461.63509     -3379.941 9        54.090                                                                    20205342.814 7  83948115.54707     -2628.872 7        42.859
C40        40.000                                                                                                                                    38811144.829 5 202099707.56305      -972.591 5        31.623
C42        45.000                                                                                                                                    26089446.514 5 135854685.85705      2097.715 5        34.552                                                                    26089456.585 5 110393053.82805      1704.569 5        32.826
C22        51.000                                                                                                                                    22818600.446 6 118822409.44206     -3280.863 6        40.219                                                                    22818596.806 7  96552871.76507     -2665.796 7        44.748
I06        53.000    38129012.452 4 149626442.75404      -731.814 4        26.719
C21        55.000                                                                                                                                    22932620.508 7 119416213.49607      -135.884 7        45.093                                                                    22932618.276 7  97035415.36307      -110.502 7        43.077
I02        59.000    37173851.068 6 145878189.28806      -305.185 6        37.508
> 2025 01 02 09 30 20.0000000  0 35
G13         1.000    20102675.375 7 105640248.91007     -2139.779 7        45.890                                    20102675.979 5  82317081.49005     -1667.357 5        31.585
G17         2.000    22598250.901 7 118754596.59107      1046.921 7        42.857                                    22598243.641 4  92536056.68904       815.780 4        27.916    22598245.743 4  92536055.70904       816.812 4        25.504
G19         4.000    24015798.587 5 126203910.64405      2492.920 5        33.186
G30         6.000    23415398.348 5 123048841.49705     -3683.343 5        32.144                                    23415402.393 1  95882160.16401     -2870.159 1         7.125    23415405.134 3                     -2869.949 3        22.762
G14         8.000    21114222.828 6 110955951.41006     -2707.900 6        41.123                                    21114221.213 4  86459175.61104     -2110.054 4        24.647    21114220.415 6  86459213.62706     -2110.082 6        41.051
G15         9.000    20209055.569 6 106199535.90406      -264.567 6        40.934                                    20209056.545 6  82752790.88106      -206.167 6        39.712    20209056.796 7  82752692.90907      -206.067 7        44.807
G23        10.000    23268277.883 6 122275605.89306       366.466 6        38.009                                    23268273.831 2  95279679.58202       285.541 2        14.762    23268273.925 5  95279694.59205       285.713 5        30.423
E06        11.000    24238261.146 7 127372904.56607     -2719.523 7        46.852                                                                    24238265.529 7  95116139.99507     -2030.791 7        47.084    24238264.684 7  97597368.79107     -2083.754 7        47.983
G24        12.000    22525041.423 6 118370079.65006      2161.601 6        41.583                                    22525144.501 1  92236695.60801      1684.355 1        10.222    22525042.503 5  92236294.36705      1684.335 5        35.024
E31        13.000    23364449.155 8 122780988.70308      -879.924 8        50.679                                                                    23364451.404 8  91687161.74408      -657.088 8        49.454    23364450.133 7  94078974.50207      -674.204 7        47.784
G05        14.000    24163424.794 5 126979633.77505     -4443.334 5        35.738                                                                                                    24163429.138 5  98945197.30205     -3462.449 5        33.527
E24        16.000    25470412.913 5 133848033.82905      1642.895 5        33.605                                                                    25470414.084 5  99951375.33515      1226.981 5        34.214    25470413.814 6 102558811.10006      1258.934 6        39.162
E04        17.000    26141627.430 6 137375182.31906     -3525.389 6        39.069                                                                    26141629.956 6 102585389.31506     -2632.421 6        36.034    26141631.086 6 105261528.18306     -2701.219 6        40.887
E05        18.000    23405497.579 7 122996809.67907      1147.371 7        44.384                                                                    23405500.213 7  91848357.06207       856.781 7        45.813    23405500.105 8  94244387.04108       879.126 8        49.111
S36        20.000    38199197.192 5 200738270.33205      -855.489 5        32.581
E09        21.000    23528520.367 8 123643313.23308     -1534.736 8        50.434                                                                    23528522.062 8  92330927.03608     -1146.057 8        50.881    23528521.594 8  94739620.85508     -1175.976 8        50.233
R14        23.000                                                                                                                                    23090325.090 4                      2127.874 4        27.329
S23        24.000    38131936.875 6 200384644.83406      -856.788 6        37.955
R20        26.000                                                                                                                                    24184337.133 4                     -2297.404 4        28.038
R13        27.000    19339209.664 7 103270307.77407      -114.573 7        43.384
R21        28.000                                                                                                                                    23256933.143 4  96796467.71214        15.128 4        26.862
R04        29.000    22486201.595 6 120412503.58206      3094.826 6        38.793                                                                    22486191.584 6  93654196.67206      2406.981 6        41.785
C07        32.000                                                                                                                                    38794456.161 6 202012906.19406      -881.746 6        38.628    38794454.590 6 156209172.06006      -681.730 6        39.886    38794451.717 5 164152013.88005      -716.273 5        35.843
C10        33.000                                                                                                                                    38565052.574 5 200818389.86705      -494.531 5        33.898    38565055.841 7 155285568.46507      -382.458 7        45.520    38565049.717 5 163181357.22105      -401.814 5        34.352
C36        34.000                                                                                                                                    21942341.293 8 114259519.74808     -2204.238 8        50.323                                                                    21942349.353 7  92845322.91907     -1791.096 7        47.449
R02        35.000    20465868.828 7 109209676.45907     -4105.295 7        42.918                                                                    20465870.955 7  84941162.51507     -3192.944 7        42.408
R03        36.000    19476104.536 7 104257329.41007        86.102 7        45.464                                                                    19476107.899 7  81088957.23807        66.877 7        44.497
C45        37.000                                                                                                                                    22157941.160 7 115382193.74807       550.579 7        44.876                                                                    22157933.450 7  93757509.68907       447.298 7        43.117
R12        38.000    20208506.083 8 107950365.99808     -3381.982 8        53.386                                                                    20208507.066 6  83961263.34906     -2630.375 6        41.442
C40        40.000                                                                                                                                    38812084.429 5 202104574.14905      -973.747 5        32.341
C42        45.000                                                                                                                                    26087432.344 5 135844199.80805      2096.625 5        34.762                                                                    26087443.402 5 110384533.04105      1703.791 5        32.329
C22        51.000                                                                                                                                    22821750.648 6 118838817.76106     -3282.799 6        39.985                                                                    22821747.372 7  96566204.83007     -2667.528 7        44.906
I06        53.000    38129945.233 4 149630101.00404      -731.455 4        29.763
C21        55.000                                                                                                                                    22932752.883 7 119416900.34407      -138.912 7        46.082                                                                    22932750.214 7  97035973.46507      -112.865 7        44.129
I02        59.000    37174239.027 6 145879714.92106      -305.398 6        37.414
> 2025 01 02 09 30 25.0000000  0 34
G13         1.000    20104712.797 7 105650954.25507     -2142.395 7        45.675                                    20104712.794 5  82325423.31605     -1669.389 5        30.717
G17         2.000    22597255.322 6 118749367.26906      1044.734 6        41.704                                    22597247.578 4  92531981.88404       814.074 4        27.257    22597248.723 4  92531980.90704       814.215 4        25.489
G19         4.000    24013426.930 5 126191447.00905      2492.670 5        32.784
G30         6.000    23418902.580 5 123067259.66405     -3684.175 5        32.216                                    23418908.444 1  95896511.91801     -2870.789 1        10.074    23418915.375 4                     -2871.152 4        25.098
G14         8.000    21116800.259 6 110969495.81606     -2709.910 6        39.700                                    21116799.645 4  86469729.69304     -2111.621 4        24.962    21116798.159 7  86469767.71507     -2111.694 7        42.068
G15         9.000    20209309.434 6 106200866.44906      -267.702 6        41.039                                    20209309.854 6  82753827.67806      -208.603 6        39.405    20209309.449 7  82753729.69007      -208.612 7        44.652
G23        10.000    23267927.818 6 122273781.31906       363.447 6        39.778                                    23267926.771 2  95278257.80902       283.194 2        15.476    23267927.066 4  95278272.74604       283.278 4        28.825
E06        11.000    24240849.319 7 127386505.26307     -2720.924 7        46.967                                                                    24240853.814 7  95126296.35607     -2031.803 7        47.188    24240852.681 7  97607790.10307     -2084.805 7        47.781
G24        12.000    22522985.552 6 118359273.49606      2160.781 6        40.906                                    22523088.118 1  92228275.24501      1683.738 1        11.185    22522985.839 5  92227873.99605      1684.010 5        35.367
E31        13.000    23365286.959 8 122785393.05908      -881.867 8        50.403                                                                    23365289.535 8  91690450.71408      -658.536 8        49.642    23365288.316 8  94082349.27208      -675.727 8        48.071
G05        14.000    24167653.646 5 127001850.32405     -4443.520 5        34.405                                                                                                    24167657.574 5  98962508.81605     -3462.062 5        34.090
E24        16.000    25468850.853 5 133839820.65605      1642.072 5        30.008                                                                    25468850.728 5  99945242.18005      1226.295 5        34.324    25468851.098 6 102552517.98906      1258.171 6        39.580
E04        17.000    26144982.766 6 137392810.96606     -3526.058 6        39.961                                                                    26144984.425 5 102598553.51305     -2633.158 5        35.762    26144985.136 6 105275035.80106     -2701.840 6        41.070
E05        18.000    23404405.885 7 122991075.30407      1146.435 7        44.849                                                                    23404409.213 7  91844074.89207       856.084 7        45.986    23404408.928 8  94239993.16508       878.357 8        48.936
S36        20.000    38199990.212 5 200742549.40705      -855.551 5        32.383
E09        21.000    23529981.572 8 123650991.08708     -1536.470 8        50.060                                                                    23529983.127 8  92336660.49608     -1147.364 8        50.960    23529982.748 8  94745503.88708     -1177.291 8        50.196
R14        23.000    23087762.309 5                      2734.601 5        32.251                                                                    23087765.833 4                      2127.022 4        25.504
S23        24.000    38132760.932 6 200388927.70206      -856.424 6        38.468
R20        26.000                                                                                                                                    24187099.876 4                     -2300.314 4        25.173
R13        27.000    19339317.895 7 103270887.08507      -117.364 7        43.306
R04        29.000                                                                                                                                    22483301.964 6  93642163.78106      2406.042 6        40.868
C07        32.000                                                                                                                                    38795303.521 6 202017316.39406      -882.396 6        37.577    38795302.456 6 156212582.28806      -682.136 6        40.358    38795298.219 5 164155597.54905      -717.123 5        35.781
C10        33.000                                                                                                                                    38565528.080 5 200820864.22705      -495.050 5        30.725    38565530.748 7 155287481.81807      -382.930 7        45.391    38565525.618 5 163183367.85905      -402.378 5        34.276
C36        34.000                                                                                                                                    21944458.594 8 114270544.01708     -2205.490 8        49.676                                                                    21944466.631 7  92854281.04607     -1792.219 7        47.554
R02        35.000    20469715.407 7 109230210.07107     -4108.186 7        43.454                                                                    20469718.986 6  84957133.09706     -3195.189 6        41.695
R03        36.000    19476026.615 7 104256909.16207        82.005 7        46.023                                                                    19476029.560 7  81088630.36907        63.749 7        45.067
C45        37.000                                                                                                                                    22157413.061 7 115379444.71507       549.097 7        44.956                                                                    22157405.441 7  93755275.88507       446.084 7        43.562
R12        38.000    20211671.890 8 107967279.91608     -3383.661 8        52.986                                                                    20211673.614 7  83974418.62007     -2631.739 7        42.078
C40        40.000                                                                                                                                    38813022.110 5 202109445.45805      -975.021 5        32.461
C42        45.000                                                                                                                                    26085421.850 5 135833719.92905      2095.256 5        35.081                                                                    26085432.281 5 110376017.29305      1702.475 5        32.335
C22        51.000                                                                                                                                    22824904.748 7 118855236.46607     -3284.625 7        42.343                                                                    22824899.261 7  96579546.37307     -2669.054 7        44.194
I06        53.000    38130876.915 4 149633759.42804      -731.703 4        28.910
C21        55.000                                                                                                                                    22932888.937 7 119417601.33007      -141.501 7        46.351                                                                    22932884.886 7  97036543.08307      -115.015 7        44.454
I02        59.000    37174629.027 6 145881241.85106      -305.363 6        37.297
> 2025 01 02 09 30 30.0000000  0 36
G13         1.000    20106752.988 7 105661673.17907     -2145.039 7        46.642                                    20106752.180 5  82333775.71205     -1671.454 5        30.725
G17         2.000    22596261.811 6 118744149.80406      1042.198 6        39.075                                    22596254.077 4  92527916.33204       812.100 4        26.443    22596257.713 4  92527915.25704       812.409 4        26.695
G19         4.000    24011056.204 5 126178985.85105      2492.055 5        31.064
G30         6.000    23422406.595 5 123085681.13905     -3684.540 5        31.977                                    23422414.371 1  95910866.27801     -2871.078 1         9.714    23422421.208 4                     -2870.998 4        25.910
G14         8.000    21119380.770 6 110983051.47606     -2712.058 6        41.261                                    21119380.187 4  86480292.51904     -2113.292 4        25.594    21119377.876 6  86480330.58106     -2113.142 6        41.356
G15         9.000    20209565.471 6 106202213.77406      -270.952 6        41.037                                    20209566.288 6  82754877.54106      -211.127 6        39.228    20209565.566 7  82754779.55007      -211.209 7        44.372
G23        10.000    23267583.563 6 122271972.51606       360.262 6        40.942                                    23267582.496 2  95276848.31602       280.756 2        16.075    23267586.542 5  95276863.32105       280.732 5        34.362
E06        11.000    24243438.619 7 127400113.44707     -2722.327 7        46.879                                                                    24243443.725 7  95136458.31507     -2032.882 7        47.382    24243442.074 7  97618217.15907     -2085.902 7        47.200
G24        12.000    22520927.782 6 118348472.54306      2159.663 6        39.562                                    22521032.603 1  92219858.75701      1682.926 1         7.250    22520931.061 5  92219457.71705      1682.890 5        35.348
E31        13.000    23366126.852 8 122789807.55108      -883.845 8        49.938                                                                    23366129.623 8  91693747.25308      -660.003 8        49.416    23366128.395 7  94085731.80407      -677.206 7        47.754
G05        14.000    24171881.262 6 127024069.00706     -4443.969 6        36.287                                                                                                    24171885.054 5  98979821.99905     -3462.759 5        33.527
E15        15.000    28654585.052 4 150580861.20914     -1972.465 4        29.640                                                                    28654587.625 5 112446758.05215     -1472.673 5        31.985
E24        16.000    25467288.257 5 133831613.86505      1640.895 5        34.981                                                                    25467289.552 5  99939113.71105      1225.496 5        34.200    25467289.329 6 102546229.66806      1257.146 6        39.676
E04        17.000    26148339.127 6 137410444.01506     -3527.032 6        39.943                                                                    26148339.850 5 102611721.00405     -2633.653 5        35.543    26148340.785 6 105288546.81406     -2702.415 6        40.861
E05        18.000    23403316.026 7 122985346.42107      1145.316 7        46.035                                                                    23403318.667 7  91839796.83207       855.332 7        45.491    23403318.314 8  94235603.49808       877.582 8        48.928
S36        20.000    38200825.802 5 200746828.42005      -855.761 5        33.868
E09        21.000    23531444.362 8 123658678.17308     -1538.272 8        50.021                                                                    23531446.116 8  92342400.84308     -1148.693 8        50.761    23531445.628 8  94751393.98208     -1178.618 8        50.233
R14        23.000    23085202.681 4 123057068.54414      2733.555 4        29.754                                                                    23085202.274 5                      2126.234 5        30.234
S23        24.000    38133572.223 6 200393210.36606      -856.568 6        39.225
R20        26.000                                                                                                                                    24189872.045 4                     -2302.734 4        29.915
R13        27.000    19339428.933 7 103271481.32707      -120.354 7        42.419
R21        28.000    23256967.395 5                        11.856 5        31.215
R04        29.000    22480404.348 5 120381569.21905      3091.901 5        32.287                                                                    22480414.780 6  93630136.64706      2404.868 6        41.049
C07        32.000                                                                                                                                    38796149.667 6 202021730.01306      -883.009 6        36.435    38796149.559 6 156215995.18606      -682.751 6        40.043    38796146.452 5 164159183.94105      -717.424 5        35.690
C10        33.000                                                                                                                                    38566004.585 5 200823341.96805      -495.708 5        32.653    38566006.189 7 155289397.75207      -383.408 7        45.035    38566001.024 5 163185381.22105      -402.733 5        34.633
C36        34.000                                                                                                                                    21946577.651 8 114281575.39508     -2206.900 8        49.485                                                                    21946584.587 7  92863244.92307     -1793.104 7        47.172
R02        35.000    20473566.068 6 109250758.90306     -4111.219 6        40.181                                                                    20473569.903 6  84973115.47306     -3197.538 6        40.908
R03        36.000    19475952.507 7 104256509.78807        77.932 7        47.193                                                                    19475955.401 7  81088319.74807        60.584 7        44.921
C45        37.000                                                                                                                                    22156885.673 7 115376703.76207       547.552 7        43.850                                                                    22156878.911 7  93753048.63107       444.991 7        43.278
R12        38.000    20214839.810 8 107984203.09508     -3385.481 8        52.476                                                                    20214841.887 7  83987581.06607     -2633.016 7        42.171
C40        40.000                                                                                                                                    38813955.785 5 202114321.04705      -975.721 5        34.238
C42        45.000                                                                                                                                    26083412.211 6 135823245.86306      2094.105 6        36.374                                                                    26083421.876 5 110367506.26405      1702.063 5        33.000
C22        51.000                                                                                                                                    22828059.895 7 118871665.27707     -3286.615 7        43.308                                                                    22828053.901 7  96592896.12007     -2670.553 7        43.729
I06        53.000    38131808.950 4 149637417.91204      -731.719 4        29.630
