     3.04           OBSERVATION DATA    M                   RINEX VERSION / TYPE
ssrcrin-15.6.1x                         20250102 004500 UTC PGM / RUN BY / DATE 
(00000000023479385599111004) Septentrio proprietary         COMMENT             
ract                                                        MARKER NAME         
01                                                          MARKER NUMBER       
geodetic                                                    MARKER TYPE         
NFB                 CLIMERS@TUW                             OBSERVER / AGENCY   
3296359             SEPT ASTERX SB3 PROB4.14.4              REC # / TYPE / VERS 
Unknown             Unknown                                 ANT # / TYPE        
  4127446.8965  1206914.9374  4695543.4795                  APPROX POSITION XYZ 
        0.0000        0.0000        0.0000                  ANTENNA: DELTA H/E/N
G   23 X1  C1C L1C D1C S1C C1W S1W C2W L2W D2W S2W C2L L2L  SYS / # / OBS TYPES 
       D2L S2L C5Q L5Q D5Q S5Q C1L L1L D1L S1L              SYS / # / OBS TYPES 
E   21 X1  C1C L1C D1C S1C C6C L6C D6C S6C C5Q L5Q D5Q S5Q  SYS / # / OBS TYPES 
       C7Q L7Q D7Q S7Q C8Q L8Q D8Q S8Q                      SYS / # / OBS TYPES 
S    9 X1  C1C L1C D1C S1C C5I L5I D5I S5I                  SYS / # / OBS TYPES 
R   17 X1  C1C L1C D1C S1C C2P L2P D2P S2P C2C L2C D2C S2C  SYS / # / OBS TYPES 
       C3Q L3Q D3Q S3Q                                      SYS / # / OBS TYPES 
C   25 X1  C1P L1P D1P S1P C5P L5P D5P S5P C2I L2I D2I S2I  SYS / # / OBS TYPES 
       C7I L7I D7I S7I C6I L6I D6I S6I C7D L7D D7D S7D      SYS / # / OBS TYPES 
J   17 X1  C1C L1C D1C S1C C2L L2L D2L S2L C5Q L5Q D5Q S5Q  SYS / # / OBS TYPES 
       C1L L1L D1L S1L                                      SYS / # / OBS TYPES 
I    5 X1  C5A L5A D5A S5A                                  SYS / # / OBS TYPES 
SEPTENTRIO RECEIVERS OUTPUT ALIGNED CARRIER PHASES.         COMMENT             
NO FURTHER PHASE SHIFT APPLIED IN THE RINEX ENCODER.        COMMENT             
G L1C                                                       SYS / PHASE SHIFT   
G L2W                                                       SYS / PHASE SHIFT   
G L2L  0.00000                                              SYS / PHASE SHIFT   
G L5Q  0.00000                                              SYS / PHASE SHIFT   
G L1L  0.00000                                              SYS / PHASE SHIFT   
E L1C  0.00000                                              SYS / PHASE SHIFT   
E L6C  0.00000                                              SYS / PHASE SHIFT   
E L5Q  0.00000                                              SYS / PHASE SHIFT   
E L7Q  0.00000                                              SYS / PHASE SHIFT   
E L8Q  0.00000                                              SYS / PHASE SHIFT   
S L1C                                                       SYS / PHASE SHIFT   
S L5I                                                       SYS / PHASE SHIFT   
R L1C                                                       SYS / PHASE SHIFT   
R L2P  0.00000                                              SYS / PHASE SHIFT   
R L2C                                                       SYS / PHASE SHIFT   
R L3Q  0.00000                                              SYS / PHASE SHIFT   
C L1P  0.00000                                              SYS / PHASE SHIFT   
C L5P  0.00000                                              SYS / PHASE SHIFT   
C L2I                                                       SYS / PHASE SHIFT   
C L7I                                                       SYS / PHASE SHIFT   
C L6I                                                       SYS / PHASE SHIFT   
C L7D                                                       SYS / PHASE SHIFT   
J L1C                                                       SYS / PHASE SHIFT   
J L2L  0.00000                                              SYS / PHASE SHIFT   
J L5Q  0.00000                                              SYS / PHASE SHIFT   
J L1L  0.00000                                              SYS / PHASE SHIFT   
I L5A                                                       SYS / PHASE SHIFT   
  2025     1     2     0    45    0.0000000     GPS         TIME OF FIRST OBS   
 C1C    0.000 C2C    0.000 C2P    0.000                     GLONASS COD/PHS/BIS 
DBHZ                                                        SIGNAL STRENGTH UNIT
    18                                                      LEAP SECONDS        
 24 R01  1 R02 -4 R03  5 R04  6 R05  1 R06 -4 R07  5 R08  6 GLONASS SLOT / FRQ #
    R09 -2 R10 -7 R11  0 R12 -1 R13 -2 R14 -7 R15  0 R16 -1 GLONASS SLOT / FRQ #
    R17  4 R18 -3 R19  3 R20  2 R21  4 R22 -3 R23  3 R24  2 GLONASS SLOT / FRQ #
                                                            END OF HEADER       
> 2025 01 02 00 45  0.0000000  0 40
G03         1.000    20149777.439 7 105887951.14107       171.350 7        43.877                                    20149773.368 6  82509934.88906       133.516 6        37.153    20149774.143 6  82510069.90506       133.605 6        40.796
G19         2.000    23508115.669 5                      1931.622 5        32.377
G32         3.000    24212078.801 5 127235343.93905     -4038.203 5        31.834
E25         4.000    28452172.964 4                      -897.180 4        28.654                                                                    28452182.616 3                      -668.040 3        22.343    28452177.729 4                      -687.721 4        25.534
E07         5.000    25411056.509 5 133536003.48705     -2865.048 5        35.148                                                                    25411055.807 7  99718572.38507     -2139.324 7        43.450    25411050.816 6 102319788.44606     -2194.914 6        36.193
G28         7.000    23238785.237 5 122120709.90105        70.370 5        32.653                                                                                                    23238800.591 4                        54.411 4        29.213
G21         8.000    21965057.758 6 115427136.32006     -3099.000 6        41.790                                    21965052.566 3  89943181.69703     -2414.802 3        23.962
G02         9.000    20894015.661 7 109798788.27007     -1923.228 7        45.117                                    20894009.015 6  85557440.00206     -1498.622 6        37.077
G31        10.000    23276810.496 5 122320430.22505      1682.863 5        35.214                                    23276811.847 1  95314669.74001      1311.330 1         6.875
G17        11.000    22311067.412 6 117245434.82106       -39.444 6        40.374                                    22311063.261 4  91360020.66004       -30.732 4        28.673    22311069.727 5  91360079.57405       -30.706 5        33.635
G04        12.000    22607439.834 6 118802916.80006      2535.555 6        37.698                                    22607433.667 2  92573678.25602      1975.727 2        12.242    22607432.325 6  92573654.23006      1975.742 6        36.866
E12        13.000    25968788.158 6 136466943.49506      1489.310 6        36.873                                                                    25968784.528 7 101907096.40707      1112.040 7        43.327    25968784.437 6 104565615.82306      1141.020 6        39.183
E29        14.000    23582859.260 8 123928811.45308        -5.041 8        49.200                                                                    23582856.131 7  92544206.56207        -3.821 7        47.690    23582856.508 7  94958372.60807        -3.946 7        46.281
E24        15.000                                                                                                                                                                                                    28696272.338 4 115548063.28104     -2150.709 4        26.479
E26        19.000    25396622.727 4 133460146.37604     -3101.652 4        28.512                                                                    25396621.647 6  99661787.16506     -2316.358 6        36.631    25396622.992 5 102261700.86405     -2376.884 5        34.405
E19        20.000    25309358.081 5 133001595.16005      1970.031 5        32.587                                                                    25309364.438 5  99319357.94005      1471.379 5        32.228    25309359.855 4                      1509.446 4        27.844
R06        21.000    19169537.431 6 102292319.92406     -1186.458 6        37.176
S36        23.000    38188164.492 6 200680114.54106      -853.521 6        37.206
S23        24.000    38138506.283 6 200419174.71606      -850.056 6        40.820
R20        26.000                                                                                                                                    22971256.013 4                     -3923.963 4        28.085
R05        27.000    22588824.009 5 120750176.45105     -4767.849 5        35.548                                                                    22588812.271 5                     -3708.589 5        32.904
E33        28.000    23176550.825 7 121793587.24807      -898.003 7        46.978                                                                    23176548.965 8  90949803.83508      -670.535 8        49.381    23176548.783 8  93322361.89408      -688.071 8        52.260
E10        29.000    27921350.835 4                      1908.809 4        26.826                                                                    27921341.100 5 109569399.09505      1425.199 5        32.305    27921338.100 5 112427672.31905      1462.421 5        31.668
R21        30.000    19425286.072 8 103948624.69408     -2461.030 8        50.169                                                                    19425284.171 7  80848920.09307     -1914.161 7        44.468
C20        31.000                                                                                                                                    25304823.785 5 131769240.03105      2092.072 5        34.581                                                                    25304815.165 5 107072971.46305      1699.603 5        31.200
R14        32.000    23752483.292 5                      -925.045 5        31.140                                                                    23752485.249 5                      -719.709 5        30.513
R07        34.000    20876861.247 8                      2128.732 8        49.459
R22        35.000    20403888.098 8 108917749.09008      1892.542 8        49.104                                                                    20403886.911 8  84713515.40808      1471.949 8        48.791
C32        36.000                                                                                                                                    21867851.909 8 113871607.65308      -168.143 8        51.508                                                                    21867851.894 8  92530057.44508      -136.718 8        49.067
C30        38.000                                                                                                                                    21949273.343 8 114295636.79208     -1346.139 8        48.139                                                                    21949275.257 8  92874583.08408     -1093.898 8        50.911
I06        44.000    38194730.992 5 149884345.86005      -536.675 5        32.539
C16        45.000                                                                                                                                    38952637.176 5 202836608.23405      -159.344 5        32.760    38952635.891 6 156846146.60906      -123.187 6        36.064    38952633.658 5 164821350.76305      -129.771 5        35.252
C39        46.000                                                                                                                                    38895449.462 5 202538873.86805      -606.805 5        35.905
C09        47.000                                                                                                                                    39334436.349 6 204824708.41406       387.202 6        38.255    39334430.750 6 158383605.30606       299.328 6        36.635    39334429.058 5 166436856.43105       314.623 5        32.886
C41        49.000                                                                                                                                    23379921.165 7 121745479.00107     -3104.413 7        42.415                                                                    23379929.251 7  98928168.67407     -2522.674 7        43.143
C06        50.000                                                                                                                                    38578567.868 5 200888714.44105       -36.289 5        33.952    38578564.223 5 155340013.32905       -28.060 5        34.786    38578560.858 5 163238507.24805       -29.498 5        34.419
C27        52.000                                                                                                                                    23573184.496 5                     -3842.434 5        34.881                                                                    23573190.815 6  99745886.60106     -3122.456 6        37.471
C29        54.000                                                                                                                                    24302172.419 7 126547795.17407      1699.115 7        45.932                                                                    24302167.841 6 102830484.21106      1380.452 6        38.105
I01        59.000   375277359.188 4 169528158.98904     -2826.019 4        28.986
I09        60.000    37103119.271 6 145600604.37606      -678.013 6        41.309
> 2025 01 02 00 45  5.0000000  0 41
G03         1.000    20149614.627 7 105887100.93107       168.977 7        45.026                                    20149611.879 6  82509272.38206       131.667 6        37.561    20149611.530 6  82509407.39906       131.668 6        40.615
G19         2.000    23506274.295 5                      1929.128 5        34.619
G32         3.000    24215921.794 5 127255538.79205     -4039.680 5        31.223
E25         4.000    28453031.905 5                      -899.740 5        30.015                                                                    28453046.229 3                      -672.651 3        21.238    28453031.568 4                      -689.288 4        24.286
E07         5.000    25413782.459 5 133550332.35905     -2866.531 5        33.838                                                                    25413782.272 7  99729272.54207     -2140.579 7        43.625    25413777.925 6 102330767.74806     -2196.494 6        36.563
G28         7.000    23238722.174 5 122120367.18905        66.857 5        31.547
G21         8.000    21968007.640 7 115442637.14007     -3100.863 7        42.252                                    21968002.031 3  89955260.25803     -2416.261 3        23.543
G02         9.000    20895845.970 7 109808411.23007     -1925.787 7        44.012                                    20895840.296 6  85564938.41906     -1500.618 6        36.306
G31        10.000    23275213.737 5 122312023.31605      1680.027 5        34.243                                    23275210.805 1  95308118.91701      1309.129 1         7.875
G17        11.000    22311108.630 6 117245641.17006       -42.834 6        40.746                                    22311103.354 4  91360181.46104       -33.380 4        28.806    22311109.824 5  91360240.38405       -33.295 5        35.329
G04        12.000    22605026.268 5 118790243.35705      2533.872 5        34.576                                    22605021.925 2  92563802.80702      1974.451 2        13.515    22605020.839 6  92563778.78206      1974.569 6        37.070
E12        13.000    25967372.636 6 136459500.11306      1488.471 6        36.386                                                                    25967368.155 7 101901538.02307      1111.453 7        43.422    25967367.957 6 104559912.43506      1140.377 6        39.072
E29        14.000    23582865.297 8 123928843.40108        -7.563 8        49.390                                                                    23582862.392 8  92544230.41608        -5.622 8        48.002    23582862.232 7  94958397.08407        -5.816 7        46.204
E24        15.000    28698965.284 3                     -2808.183 3        23.543                                                                                                                                    28698944.991 4 115558819.87704     -2152.348 4        26.766
E26        19.000                                                                                                                                    25399574.837 6  99673372.47006     -2317.658 6        37.146    25399576.876 5 102273588.37505     -2377.979 5        35.005
E19        20.000    25307485.137 5 132991748.44105      1968.958 5        33.120                                                                    25307493.837 5  99312004.85905      1470.379 5        32.766    25307489.255 4                      1508.466 4        29.810
R06        21.000    19170650.952 6 102298262.27406     -1190.216 6        38.420
S36        23.000    38188979.808 6 200684383.37106      -853.887 6        37.679
S23        24.000    38139321.191 6 200423426.84606      -850.503 6        41.085
R20        26.000    22975901.546 3                     -5043.442 3        20.738                                                                    22975967.735 4                     -3924.553 4        25.143
R05        27.000    22593284.069 5 120774018.55505     -4768.909 5        35.100                                                                    22593273.984 5                     -3708.854 5        33.964
E33        28.000    23177406.571 7 121798082.43107      -899.951 7        47.402                                                                    23177404.277 8  90953160.63108      -672.027 8        49.378    23177404.098 8  93325806.25408      -689.577 8        52.214
E10        29.000    27919533.733 4                      1908.177 4        26.970                                                                    27919525.117 5 109562274.03405      1425.187 5        31.789    27919523.138 5 112420361.42905      1461.979 5        30.679
R21        30.000    19427588.186 8 103960941.25908     -2465.295 8        50.234                                                                    19427586.104 7  80858499.64507     -1917.517 7        44.470
C20        31.000                                                                                                                                    25302816.671 5 131758783.84105      2090.865 5        33.359                                                                    25302806.790 5 107064474.89105      1698.829 5        30.483
R14        32.000    23753354.578 5 126618901.81515      -929.420 5        33.048                                                                    23753352.842 4                      -722.355 4        27.413
R23        33.000    24368679.823 3                      3458.300 3        22.705
R07        34.000    20874873.413 8 111744920.18518      2126.004 8        50.100                                                                    20874873.985 5  86912647.52615      1653.586 5        35.167
R22        35.000    20402116.756 8 108908293.96708      1889.603 8        48.814                                                                    20402115.747 8  84706161.41408      1469.721 8        49.084
C32        36.000                                                                                                                                    21868014.766 8 113872454.60108      -170.503 8        51.364                                                                    21868014.445 8  92530745.67208      -138.559 8        49.126
C30        38.000                                                                                                                                    21950567.633 7 114302375.12207     -1349.086 7        47.880                                                                    21950569.391 8  92880058.54908     -1096.322 8        51.047
I06        44.000    38195415.093 5 149887030.77205      -536.860 5        32.395
C16        45.000                                                                                                                                    38952790.791 5 202837409.18605      -160.951 5        31.819    38952789.933 5 156846765.97005      -124.527 5        35.905    38952787.439 5 164822001.61805      -130.523 5        35.195
C39        46.000                                                                                                                                    38896031.240 6 202541910.73706      -608.171 6        36.121
C09        47.000                                                                                                                                    39334065.109 6 204822775.37906       386.144 6        38.414    39334059.684 6 158382110.56706       298.697 6        36.348    39334057.548 5 166435285.69605       313.631 5        32.281
C41        49.000                                                                                                                                    23382902.351 7 121761005.10207     -3105.827 7        42.028                                                                    23382910.774 7  98940784.91307     -2523.892 7        42.885
C06        50.000                                                                                                                                    38578603.297 5 200888899.27905       -37.650 5        33.982    38578599.316 5 155340156.23405       -28.878 5        34.448    38578596.241 5 163238657.46405       -30.602 5        34.171
C27        52.000                                                                                                                                    23576876.076 6 122770974.73616     -3844.149 6        36.068                                                                    23576883.195 5  99761502.20805     -3123.755 5        35.286
C29        54.000                                                                                                                                    24300542.436 7 126539304.94507      1697.172 7        45.439                                                                    24300537.465 6 102823585.21406      1379.141 6        38.652
I01        59.000   375280960.574 4 169542290.53904     -2826.383 4        29.573
I09        60.000    37103983.310 6 145603995.30406      -678.303 6        41.354
> 2025 01 02 00 45 10.0000000  0 41
G03         1.000    20149453.605 7 105886260.91007       167.005 7        45.812                                    20149452.095 6  82508617.82506       130.131 6        37.955    20149451.834 6  82508752.86106       129.911 6        40.543
G19         2.000    23504436.005 5 123516684.58615      1926.545 5        35.624                                    23504431.542 2  96246719.41212      1501.177 2        13.151
G32         3.000    24219768.709 4 127275738.87004     -4040.712 4        29.716
E25         4.000    28453891.033 5                      -902.153 5        31.758                                                                                                                                    28453888.858 4                      -690.843 4        24.556
E07         5.000    25416505.194 5 133564668.96205     -2868.485 5        32.479                                                                    25416510.251 7  99739978.42607     -2141.923 7        43.786    25416506.172 6 102341752.90306     -2197.474 6        36.798
G28         7.000    23238657.069 5 122120039.81005        63.959 5        30.121                                                                                                    23238695.208 5                        49.963 5        31.924
G21         8.000    21970958.976 7 115458145.87407     -3102.668 7        42.938                                    21970952.720 3  89967344.99603     -2417.659 3        23.467
G02         9.000    20897679.596 7 109818045.83607     -1928.050 7        42.307                                    20897673.742 5  85572445.90805     -1502.366 5        35.352
G31        10.000    23273614.423 5 122303627.05605      1678.003 5        33.760                                    23273612.710 1  95301576.35301      1307.546 1        10.370
G17        11.000    22311151.609 6 117245862.48706       -45.852 6        41.633                                    22311146.326 4  91360353.93404       -35.723 4        29.592    22311151.236 6  91360412.86506       -35.725 6        36.166
G04        12.000    22602613.524 5 118777576.91905      2532.609 5        32.467                                    22602611.528 2  92553932.82102      1973.501 2        14.190    22602610.263 6  92553908.81906      1973.450 6        36.892
E12        13.000    25965957.319 5 136452059.89605      1487.846 5        35.914                                                                    25965952.386 7 101895982.01007      1110.932 7        43.547    25965952.037 6 104554211.49406      1139.953 6        39.336
E29        14.000    23582873.135 8 123928886.35308        -9.716 8        49.221                                                                    23582870.763 8  92544262.49908        -7.273 8        48.067    23582869.932 7  94958429.99907        -7.497 7        46.213
E24        15.000    28701637.673 4                     -2809.530 4        24.752                                                                                                                                    28701620.414 4 115569581.94304     -2152.292 4        26.228
E26        19.000    25402543.861 5 133491180.67305     -3104.857 5        33.491                                                                    25402528.125 6  99684961.99406     -2318.359 6        38.267    25402529.765 5 102285480.30905     -2379.235 5        35.381
E19        20.000    25305611.690 5 132981907.27705      1967.514 5        33.407                                                                    25305621.593 5  99304655.93705      1469.173 5        32.515    25305616.942 5                      1507.825 5        30.679
R06        21.000    19171768.378 6 102304221.72306     -1193.766 6        39.195
S36        23.000    38189789.153 6 200688652.55106      -854.151 6        37.338
S23        24.000    38140129.205 6 200427678.99006      -850.587 6        40.882
R20        26.000    22980623.360 3                     -5046.625 3        22.248                                                                    22980673.040 3                     -3926.565 3        19.224
R05        27.000    22597742.952 5 120797863.71005     -4769.665 5        34.443                                                                    22597736.158 5                     -3709.411 5        33.503
E33        28.000    23178263.677 7 121802586.03707      -901.589 7        47.649                                                                    23178261.305 8  90956523.70808      -673.247 8        49.266    23178261.040 8  93329257.06308      -690.843 8        52.242
E10        29.000    27917717.319 4                      1908.369 4        28.825                                                                    27917708.715 5 109555149.14805      1424.962 5        31.125    27917708.030 5 112413050.67305      1461.846 5        30.928
R21        30.000    19429893.027 8 103973277.52308     -2469.285 8        50.320                                                                    19429891.296 7  80868094.51707     -1920.491 7        44.548
C20        31.000                                                                                                                                    25300810.293 5 131748332.01805      2089.972 5        32.928                                                                    25300799.563 5 107055981.90005      1697.910 5        30.294
R14        32.000    23754228.681 5 126623559.81315      -933.776 5        35.619                                                                    23754228.676 4                      -726.358 4        24.030
R23        33.000    24365439.015 4                      3458.262 4        27.473
R07        34.000    20872887.846 8 111734296.03108      2123.551 8        50.125                                                                    20872889.852 6  86904384.19406      1651.737 6        38.102
R22        35.000    20400349.131 8 108898852.43408      1886.904 8        49.156                                                                    20400346.875 8  84698818.01008      1467.494 8        49.359
C32        36.000                                                                                                                                    21868179.201 8 113873311.84108      -172.534 8        51.101                                                                    21868179.040 8  92531442.22808      -140.174 8        49.111
C30        38.000                                                                                                                                    21951865.539 8 114309127.29108     -1351.902 8        48.635                                                                    21951866.211 8  92885545.22008     -1098.489 8        51.265
I06        44.000    38196099.811 5 149889715.84505      -536.866 5        32.263
C16        45.000                                                                                                                                    38952944.887 5 202838214.91205      -161.851 5        30.974    38952944.782 5 156847388.99405      -125.147 5        35.171    38952942.221 5 164822656.32605      -131.340 5        34.919
C39        46.000                                                                                                                                    38896614.688 6 202544952.60606      -608.965 6        36.064
C09        47.000                                                                                                                                    39333693.616 6 204820846.28906       385.275 6        38.216    39333688.887 6 158380618.86906       297.989 6        36.563    39333687.491 5 166433718.13105       312.934 5        31.721
C41        49.000                                                                                                                                    23385885.597 6 121776536.79006     -3106.943 6        41.847                                                                    23385893.497 7  98953405.66007     -2524.588 7        42.863
C06        50.000                                                                                                                                    38578639.683 5 200889088.81705       -38.390 5        34.176    38578635.410 5 155340302.80605       -29.802 5        34.014    38578632.492 5 163238811.47505       -30.974 5        33.910
C27        52.000                                                                                                                                    23580568.998 6 122790198.97706     -3845.688 6        36.820                                                                    23580578.288 5  99777123.49305     -3125.083 5        32.539
C29        54.000                                                                                                                                    24298913.696 7 126530822.90007      1695.518 7        44.733                                                                    24298908.868 6 102816692.82406      1377.779 6        39.102
I01        59.000   375284562.860 5 169556422.90605     -2826.819 5        30.211
I09        60.000    37104847.605 6 145607387.22906      -678.513 6        41.325
> 2025 01 02 00 45 15.0000000  0 41
G03         1.000    20149295.151 7 105885430.46807       165.110 7        45.848                                    20149293.809 6  82507970.73806       128.652 6        38.225    20149293.985 6  82508105.73206       128.912 6        40.212
G19         2.000    23502601.956 5 123507055.13905      1924.866 5        35.286                                    23502598.110 2  96239215.95502      1499.892 2        15.048
G32         3.000    24223612.418 4 127295943.52004     -4041.052 4        28.322
E25         4.000    28454749.719 5                      -904.265 5        32.593                                                                                                                                    28454746.900 3                      -693.377 3        23.848
E07         5.000    25419233.321 5 133579012.55005     -2869.294 5        30.106                                                                    25419239.760 7  99750689.51907     -2142.711 7        43.427    25419235.858 6 102352743.43406     -2198.665 6        36.786
G28         7.000    23238597.935 4 122119727.20204        60.915 4        27.581                                                                                                    23238635.695 5                        47.569 5        32.904
G21         8.000    21973911.164 7 115473661.85807     -3103.878 7        42.847                                    21973904.961 3  89979435.37903     -2418.620 3        23.410
G02         9.000    20899514.608 6 109827691.42406     -1930.204 6        41.538                                    20899509.218 5  85579961.95405     -1504.053 5        33.826
G31        10.000    23272014.681 5 122295240.75805      1676.522 5        34.581                                    23272016.823 1  95295041.51201      1306.356 1        10.000
G17        11.000    22311196.739 7 117246098.11307       -48.573 7        42.741                                    22311192.245 5  91360537.53905       -37.843 5        30.491    22311194.113 6  91360596.47706       -37.813 6        36.896
G04        12.000    22600205.720 5 118764916.89005      2531.453 5        32.228                                    22600202.365 2  92544067.82902      1972.583 2        14.095    22600201.884 6  92544043.83606      1972.485 6        36.896
E12        13.000    25964541.904 6 136444622.23706      1487.210 6        36.378                                                                    25964537.112 7 101890427.88907      1110.622 7        43.465    25964536.839 6 104548512.47806      1139.568 6        39.198
E29        14.000    23582882.808 8 123928939.69908       -11.723 8        49.236                                                                    23582880.971 7  92544302.33207        -8.725 7        47.927    23582879.801 7  94958470.87707        -9.043 7        46.012
E24        15.000    28704314.838 4                     -2810.774 4        24.331                                                                                                                                    28704289.997 4 115580349.04904     -2153.316 4        25.143
E26        19.000    25405497.428 5 133506705.63305     -3105.508 5        35.338                                                                    25405482.357 6  99696555.31106     -2319.110 6        38.622    25405480.692 5 102297376.06705     -2379.592 5        35.719
E19        20.000    25303739.579 5 132972070.89905      1966.778 5        34.224                                                                    25303749.932 5  99297310.56105      1468.634 5        31.970    25303742.617 5                      1507.117 5        30.000
R06        21.000    19172888.142 6 102310197.56906     -1196.890 6        39.237
S36        23.000    38190601.942 6 200692921.19106      -853.835 6        37.493
S23        24.000    38140940.429 6 200431930.68106      -850.334 6        40.963
R20        26.000    22985342.755 3                     -5047.340 3        22.419
R05        27.000    22602202.665 5 120821711.16305     -4769.713 5        32.096                                                                    22602194.424 5                     -3709.714 5        32.725
E33        28.000    23179122.005 8 121807097.41008      -902.980 8        48.119                                                                    23179119.686 8  90959892.59908      -674.314 8        48.926    23179119.530 8  93332713.82908      -691.941 8        51.989
E10        29.000    27915903.978 4                      1908.316 4        29.867                                                                    27915892.238 5 109548023.88405      1425.146 5        30.325    27915892.781 5 112405739.49105      1462.186 5        30.279
R21        30.000    19432202.292 8 103985632.77308     -2472.945 8        50.564                                                                    19432200.190 7  80877704.15207     -1923.443 7        44.310
C20        31.000                                                                                                                                    25298803.141 5 131737883.98305      2089.271 5        32.898                                                                    25298793.432 4 107047491.94504      1697.790 4        29.308
R14        32.000    23755108.000 5 126628237.49615      -937.638 5        35.281                                                                    23755103.223 4                      -729.673 4        27.952
R23        33.000    24362203.407 5                      3458.572 5        30.083
R07        34.000    20870905.137 8 111723683.52708      2121.399 8        50.518                                                                    20870907.310 6  86896130.05606      1649.906 6        40.153
R22        35.000    20398583.158 8 108889423.85308      1884.428 8        49.690                                                                    20398580.671 8  84691484.67008      1465.637 8        49.300
C32        36.000                                                                                                                                    21868345.682 8 113874178.76108      -174.348 8        50.508                                                                    21868345.454 8  92532146.65308      -141.547 8        49.178
C30        38.000                                                                                                                                    21953165.893 8 114315892.66908     -1354.378 8        48.875                                                                    21953165.530 8  92891042.63508     -1100.436 8        51.483
I06        44.000    38196783.738 5 149892400.58905      -537.077 5        31.902
C16        45.000                                                                                                                                    38953100.969 5 202839024.74405      -162.278 5        30.181    38953099.812 5 156848015.22605      -125.644 5        35.367    38953097.958 5 164823314.38805      -131.971 5        35.105
C39        46.000                                                                                                                                    38897199.232 5 202547998.85705      -609.647 5        35.919
C09        47.000                                                                                                                                    39333323.802 6 204818920.43406       384.933 6        38.315    39333319.400 5 158379129.69105       297.648 5        35.976    39333317.338 5 166432153.25705       312.413 5        31.502
C41        49.000                                                                                                                                    23388870.390 6 121792073.43306     -3107.918 6        41.659                                                                    23388877.262 7  98966030.44207     -2525.259 7        42.809
C06        50.000                                                                                                                                    38578676.891 5 200889282.51905       -39.011 5        33.850    38578672.920 5 155340452.62005       -30.281 5        33.665    38578669.888 5 163238968.85305       -31.506 5        34.100
C27        52.000                                                                                                                                    23584262.250 6 122809429.55306     -3846.849 6        37.720                                                                    23584276.522 4  99792749.95904     -3125.538 4        29.886
C29        54.000                                                                                                                                    24297285.863 7 126522348.38907      1694.202 7        43.518                                                                    24297281.363 6 102809806.56906      1376.739 6        39.598
I01        59.000   375288162.885 5 169570555.66805     -2826.610 5        30.045
I09        60.000    37105712.429 6 145610779.68006      -678.510 6        41.323
> 2025 01 02 00 45 20.0000000  0 41
G03         1.000    20149139.068 7 105884610.41107       163.010 7        45.705                                    20149137.235 6  82507331.74606       127.022 6        38.048    20149137.727 6  82507466.74606       127.002 6        39.033
G19         2.000    23500769.826 5 123497437.79905      1922.417 5        33.245                                    23500766.940 2  96231721.89902      1497.997 2        14.667
G32         3.000    24227458.810 4 127316153.61004     -4042.425 4        27.581
E25         4.000    28455612.263 5                      -906.766 5        32.695                                                                    28455689.132 3                      -676.812 3        23.771    28455608.175 4                      -695.265 4        24.256
E07         5.000    25421964.109 4 133593363.93104     -2871.218 4        26.766                                                                    25421970.662 7  99761406.44407     -2143.950 7        43.416    25421967.160 6 102363739.94706     -2200.103 6        36.900
G28         7.000    23238540.854 4 122119430.18704        57.403 4        24.496
G21         8.000    21976865.476 7 115489185.87107     -3105.571 7        42.927                                    21976859.014 3  89991532.01503     -2419.929 3        23.486
G02         9.000    20901352.589 6 109837348.77506     -1932.526 6        40.327                                    20901346.854 5  85587487.17105     -1505.860 5        32.204
G31        10.000    23270426.483 5 122286865.28105      1674.077 5        35.210                                    23270423.526 1  95288515.14601      1304.501 1        10.148
G17        11.000    22311244.361 7 117246348.86507       -51.621 7        43.003                                    22311241.004 5  91360732.93805       -40.217 5        31.540    22311242.390 6  91360791.89106       -40.309 6        36.854
G04        12.000    22597798.968 5 118752264.01105      2529.846 5        32.808                                    22597794.571 2  92534208.45102      1971.318 2        14.048    22597794.806 6  92534184.45106      1971.396 6        36.238
E12        13.000    25963126.263 6 136437187.90206      1486.485 6        36.836                                                                    25963122.440 7 101884876.26607      1110.086 7        43.524    25963121.936 6 104542816.04006      1139.028 6        39.706
E29        14.000    23582894.810 8 123929004.21608       -13.934 8        48.747                                                                    23582893.394 7  92544350.51407       -10.452 7        47.833    23582891.872 7  94958520.30607       -10.679 7        46.060
E24        15.000    28706989.449 3                     -2811.081 3        22.514
E26        19.000    25408451.289 6 133522236.41606     -3106.742 6        36.287                                                                    25408438.016 6  99708152.95806     -2319.977 6        38.733    25408435.163 6 102309276.25306     -2380.467 6        36.847
E19        20.000    25301868.470 5 132962240.21405      1965.795 5        34.638                                                                    25301880.565 5  99289969.44405      1467.657 5        31.306    25301868.908 4                      1506.115 4        29.867
R06        21.000    19174011.577 6 102316190.75506     -1200.290 6        39.658
S36        23.000    38191414.280 6 200697189.68406      -853.517 6        37.474
S23        24.000    38141745.924 6 200436182.71106      -850.520 6        41.116
R20        26.000    22990061.779 3                     -5051.454 3        21.667
R05        27.000    22606662.725 4 120845561.68804     -4770.617 4        28.559                                                                    22606655.064 5                     -3710.346 5        32.138
E33        28.000    23179982.173 8 121811617.37308      -904.827 8        48.273                                                                    23179979.740 8  90963267.89608      -675.685 8        48.677    23179979.611 8  93336177.17408      -693.251 8        51.885
E10        29.000    27914087.699 5                      1908.420 5        30.340                                                                    27914076.221 4 109540898.84804      1424.786 4        29.649    27914077.901 5 112398428.55105      1462.431 5        31.306
R21        30.000    19434515.092 8 103998007.88308     -2476.984 8        50.500                                                                    19434512.782 7  80887329.23907     -1926.545 7        43.956
C20        31.000                                                                                                                                    25296798.137 5 131727440.47605      2088.212 5        34.433                                                                    25296787.676 4 107039005.78504      1696.734 4        29.621
R14        32.000    23755988.988 5 126632936.02515      -941.772 5        35.738                                                                    23755985.827 4                      -732.237 4        29.128
R23        33.000    24358970.540 5                      3458.067 5        31.525
R07        34.000    20868924.868 8 111713083.29808      2118.825 8        50.143                                                                    20868926.758 6  86887885.45106      1647.972 6        41.015
R22        35.000    20396819.453 8 108880009.05808      1881.648 8        50.301                                                                    20396816.799 8  84684162.04608      1463.507 8        49.554
C32        36.000                                                                                                                                    21868514.486 8 113875056.11808      -176.482 8        50.627                                                                    21868513.864 8  92532859.61108      -143.389 8        49.216
C30        38.000                                                                                                                                    21954467.799 8 114322672.03908     -1357.256 8        49.110                                                                    21954467.464 8  92896551.46408     -1102.857 8        51.542
I06        44.000    38197466.027 5 149895085.57405      -536.837 5        31.857
C16        45.000                                                                                                                                    38953256.077 4 202839839.48904      -163.337 4        28.986    38953256.538 5 156848645.24905      -126.287 5        35.543    38953254.545 5 164823976.48105      -132.800 5        35.033
C39        46.000                                                                                                                                    38897784.696 6 202551050.25006      -610.569 6        36.026
C09        47.000                                                                                                                                    39332955.723 6 204816998.72506       383.897 6        38.832    39332950.772 5 158377643.71805       296.874 5        35.910    39332948.113 5 166430591.69505       312.245 5        30.800
C41        49.000                                                                                                                                    23391855.865 6 121807615.80906     -3109.017 6        41.418                                                                    23391862.097 7  98978659.92307     -2526.251 7        42.900
C06        50.000                                                                                                                                    38578715.689 5 200889481.21505       -40.338 5        33.737    38578711.368 5 155340606.22905       -31.057 5        33.509    38578707.760 5 163239130.35005       -32.659 5        34.262
C27        52.000                                                                                                                                    23587956.275 6 122828667.24406     -3848.029 6        37.648
C29        54.000                                                                                                                                    24295658.868 7 126513882.23607      1692.443 7        42.639                                                                    24295655.366 6 102802927.14106      1375.164 6        40.002
I01        59.000   375291764.605 5 169584689.33905     -2826.807 5        30.498
I09        60.000    37106577.027 6 145614173.23006      -678.755 6        41.359
> 2025 01 02 00 45 25.0000000  0 41
G03         1.000    20148984.874 7 105883800.73307       161.049 7        43.947                                    20148982.624 6  82506700.83806       125.493 6        37.777    20148983.474 6  82506835.82806       125.497 6        37.546
G19         2.000    23498942.511 5 123487832.49105      1920.230 5        31.291                                    23498938.842 2  96224237.25202      1496.349 2        13.879
G32         3.000    24231310.644 4 127336369.08504     -4043.440 4        25.880
E25         4.000    28456477.361 5                      -909.170 5        33.539                                                                    28456549.571 3                      -678.387 3        22.819    28456471.659 3                      -697.325 3        23.981
E07         5.000    25424697.515 4 133607723.09204     -2872.047 4        25.549                                                                    25424703.200 7  99772129.20507     -2144.924 7        43.543    25424699.691 6 102374742.41606     -2200.894 6        36.779
G28         7.000    23238480.368 4 122119148.59504        55.024 4        27.629
G21         8.000    21979821.129 7 115504717.98407     -3107.095 7        42.747                                    21979814.564 3  90003634.96403     -2421.125 3        23.048
G02         9.000    20903192.298 6 109847017.97606     -1934.829 6        39.102                                    20903186.716 5  85595021.59205     -1507.659 5        30.913
G31        10.000    23268842.106 5 122278500.67105      1671.936 5        35.133                                    23268832.402 1  95281997.18701      1302.857 1        10.296
G17        11.000    22311294.762 7 117246614.75307       -54.545 7        43.757                                    22311292.410 5  91360940.11605       -42.500 5        32.545    22311293.504 6  91360999.06606       -42.483 6        37.633
G04        12.000    22595391.764 5 118739618.38405      2528.667 5        34.029                                    22595388.078 2  92524354.70402      1970.398 2        13.091    22595388.188 5  92524330.69305      1970.570 5        35.624
E12        13.000    25961711.740 6 136429756.88406      1486.055 6        38.201                                                                    25961708.485 7 101879327.14307      1109.727 7        43.583    25961707.688 6 104537122.15906      1138.754 6        39.754
E29        14.000    23582909.033 8 123929079.93008       -16.070 8        48.473                                                                    23582907.773 7  92544407.05707       -12.026 7        47.773    23582906.309 7  94958578.32707       -12.295 7        46.106
E24        15.000    28709669.083 3                     -2813.654 3        22.419                                                                                                                                    28709636.671 3                     -2155.345 3        20.595
E26        19.000    25411406.526 6 133537773.03406     -3107.666 6        36.257                                                                    25411394.693 6  99719755.00206     -2320.808 6        39.201    25411392.218 6 102321180.95706     -2381.252 6        37.093
E19        20.000    25299998.918 5 132952415.19605      1964.484 5        35.390                                                                    25300013.146 5  99282632.55105      1467.004 5        30.611    25299997.226 5                      1505.448 5        30.121
R06        21.000    19175137.515 6 102322201.16306     -1203.710 6        39.108
S36        23.000    38192227.118 6 200701458.60306      -853.877 6        37.331
S23        24.000    38142556.097 6 200440434.89906      -850.323 6        41.161
R20        26.000    22994785.941 3                     -5049.540 3        20.833                                                                    22994791.164 3                     -3929.540 3        22.857
R05        27.000    22611120.024 4 120869415.40004     -4770.525 4        25.474                                                                    22611115.776 5                     -3710.761 5        31.774
E33        28.000    23180843.944 8 121816145.92708      -906.376 8        48.766                                                                    23180841.377 8  90966649.61408      -676.848 8        48.512    23180841.257 8  93339647.10908      -694.512 8        51.525
E10        29.000    27912271.903 5                      1907.958 5        31.849                                                                    27912259.809 4 109533774.03404      1424.932 4        29.232    27912262.866 5 112391117.88605      1461.925 5        31.562
R21        30.000    19436831.505 8 104010402.84008     -2480.848 8        50.919                                                                    19436829.713 7  80896969.76007     -1929.528 7        43.627
C20        31.000                                                                                                                                    25294794.348 6 131717001.55206      2087.592 6        36.212                                                                    25294783.530 4 107030523.26104      1696.397 4        29.441
R14        32.000    23756876.661 6 126637655.17016      -945.637 6        36.011                                                                    23756876.226 5                      -735.350 5        30.211
R23        33.000    24355731.619 5                      3458.034 5        31.751
R07        34.000    20866946.583 8 111702495.57508      2116.475 8        50.143                                                                    20866947.730 6  86879650.57206      1646.142 6        41.361
R22        35.000    20395058.766 8 108870608.11308      1878.957 8        50.760                                                                    20395055.604 8  84676850.19408      1461.413 8        49.443
C32        36.000                                                                                                                                    21868685.384 8 113875943.96108      -178.442 8        50.807                                                                    21868684.340 8  92533581.05008      -145.075 8        49.208
C30        38.000                                                                                                                                    21955771.626 8 114329465.44608     -1359.916 8        48.944                                                                    21955772.052 8  92902071.65008     -1105.093 8        51.776
I06        44.000    38198151.104 5 149897770.89505      -536.810 5        31.879
C16        45.000                                                                                                                                    38953412.949 4 202840659.19604      -164.404 4        27.748    38953414.271 5 156849279.16405      -127.291 5        35.662    38953411.910 5 164824642.57605      -133.687 5        35.171
C39        46.000                                                                                                                                    38898370.401 6 202554106.85406      -611.627 6        36.170
C09        47.000                                                                                                                                    39332587.402 6 204815081.10006       383.429 6        38.802    39332582.710 5 158376160.90605       296.462 5        35.910    39332579.544 4 166429033.49404       311.336 4        29.810
C41        49.000                                                                                                                                    23394841.854 6 121823163.95006     -3110.020 6        41.020                                                                    23394848.027 7  98991294.04707     -2527.239 7        43.060
C06        50.000                                                                                                                                    38578754.313 5 200889684.81905       -41.249 5        33.467    38578749.088 5 155340763.70705       -31.869 5        33.234    38578747.103 5 163239295.78405       -33.306 5        34.157
C27        52.000                                                                                                                                    23591651.254 6 122847912.14706     -3849.583 6        36.597                                                                    23591679.038 5  99824020.56105     -3128.277 5        31.268
C29        54.000                                                                                                                                    24294033.415 6 126505424.44306      1690.813 6        41.623                                                                    24294031.220 6 102796054.43806      1374.040 6        40.191
I01        59.000   375295366.304 5 169598824.04005     -2826.916 5        30.506
I09        60.000    37107442.330 6 145617567.93306      -678.935 6        41.447
> 2025 01 02 00 45 30.0000000  0 41
G03         1.000    20148832.314 7 105883001.03607       159.050 7        43.922                                    20148829.994 6  82506077.69906       123.936 6        37.433    20148832.193 6  82506212.71006       123.978 6        36.174
G19         2.000    23497123.218 5 123478238.86705      1917.468 5        30.838                                    23497112.891 1  96216761.71701      1494.151 1        10.593
