     3.04           OBSERVATION DATA    M                   RINEX VERSION / TYPE
ssrcrin-15.6.1x                         20250102 083000 UTC PGM / RUN BY / DATE 
(00000000023479385599111004) Septentrio proprietary         COMMENT             
ract                                                        MARKER NAME         
01                                                          MARKER NUMBER       
geodetic                                                    MARKER TYPE         
NFB                 CLIMERS@TUW                             OBSERVER / AGENCY   
3296359             SEPT ASTERX SB3 PROB4.14.4              REC # / TYPE / VERS 
Unknown             Unknown                                 ANT # / TYPE        
  4127446.7640  1206914.6277  4695542.4702                  APPROX POSITION XYZ 
        0.0000        0.0000        0.0000                  ANTENNA: DELTA H/E/N
G   23 X1  C1C L1C D1C S1C C1W S1W C2W L2W D2W S2W C2L L2L  SYS / # / OBS TYPES 
       D2L S2L C5Q L5Q D5Q S5Q C1L L1L D1L S1L              SYS / # / OBS TYPES 
E   21 X1  C1C L1C D1C S1C C6C L6C D6C S6C C5Q L5Q D5Q S5Q  SYS / # / OBS TYPES 
       C7Q L7Q D7Q S7Q C8Q L8Q D8Q S8Q                      SYS / # / OBS TYPES 
S    9 X1  C1C L1C D1C S1C C5I L5I D5I S5I                  SYS / # / OBS TYPES 
R   17 X1  C1C L1C D1C S1C C2P L2P D2P S2P C2C L2C D2C S2C  SYS / # / OBS TYPES 
       C3Q L3Q D3Q S3Q                                      SYS / # / OBS TYPES 
C   25 X1  C1P L1P D1P S1P C5P L5P D5P S5P C2I L2I D2I S2I  SYS / # / OBS TYPES 
       C7I L7I D7I S7I C6I L6I D6I S6I C7D L7D D7D S7D      SYS / # / OBS TYPES 
J   17 X1  C1C L1C D1C S1C C2L L2L D2L S2L C5Q L5Q D5Q S5Q  SYS / # / OBS TYPES 
       C1L L1L D1L S1L                                      SYS / # / OBS TYPES 
I    5 X1  C5A L5A D5A S5A                                  SYS / # / OBS TYPES 
SEPTENTRIO RECEIVERS OUTPUT ALIGNED CARRIER PHASES.         COMMENT             
NO FURTHER PHASE SHIFT APPLIED IN THE RINEX ENCODER.        COMMENT             
G L1C                                                       SYS / PHASE SHIFT   
G L2W                                                       SYS / PHASE SHIFT   
G L2L  0.00000                                              SYS / PHASE SHIFT   
G L5Q  0.00000                                              SYS / PHASE SHIFT   
G L1L  0.00000                                              SYS / PHASE SHIFT   
E L1C  0.00000                                              SYS / PHASE SHIFT   
E L6C  0.00000                                              SYS / PHASE SHIFT   
E L5Q  0.00000                                              SYS / PHASE SHIFT   
E L7Q  0.00000                                              SYS / PHASE SHIFT   
E L8Q  0.00000                                              SYS / PHASE SHIFT   
S L1C                                                       SYS / PHASE SHIFT   
S L5I                                                       SYS / PHASE SHIFT   
R L1C                                                       SYS / PHASE SHIFT   
R L2P  0.00000                                              SYS / PHASE SHIFT   
R L2C                                                       SYS / PHASE SHIFT   
R L3Q  0.00000                                              SYS / PHASE SHIFT   
C L1P  0.00000                                              SYS / PHASE SHIFT   
C L5P  0.00000                                              SYS / PHASE SHIFT   
C L2I                                                       SYS / PHASE SHIFT   
C L7I                                                       SYS / PHASE SHIFT   
C L6I                                                       SYS / PHASE SHIFT   
C L7D                                                       SYS / PHASE SHIFT   
J L1C                                                       SYS / PHASE SHIFT   
J L2L  0.00000                                              SYS / PHASE SHIFT   
J L5Q  0.00000                                              SYS / PHASE SHIFT   
J L1L  0.00000                                              SYS / PHASE SHIFT   
I L5A                                                       SYS / PHASE SHIFT   
  2025     1     2     8    30    0.0000000     GPS         TIME OF FIRST OBS   
 C1C    0.000 C2C    0.000 C2P    0.000                     GLONASS COD/PHS/BIS 
DBHZ                                                        SIGNAL STRENGTH UNIT
    18                                                      LEAP SECONDS        
 24 R01  1 R02 -4 R03  5 R04  6 R05  1 R06 -4 R07  5 R08  6 GLONASS SLOT / FRQ #
    R09 -2 R10 -7 R11  0 R12 -1 R13 -2 R14 -7 R15  0 R16 -1 GLONASS SLOT / FRQ #
    R17  4 R18 -3 R19  3 R20  2 R21  4 R22 -3 R23  3 R24  2 GLONASS SLOT / FRQ #
                                                            END OF HEADER       
> 2025 01 02 08 30  0.0000000  0 34
G13         1.000    19917043.019 7 104664931.00907      -174.196 7        47.302                                    19917037.596 4  81556959.93804      -135.740 4        28.607
G18         2.000    25445955.235 5 133719324.80605     -2513.595 5        35.576                                                                                                    25445940.717 3                     -1958.735 3        22.438
G20         4.000    23792915.676 6 125032600.06306     -4414.582 6        39.003
G30         6.000    21699096.127 7 114029486.19707     -2975.485 7        43.663                                    21699095.203 6  88854123.79106     -2318.560 6        37.206    21699095.655 6  88854142.75506     -2318.628 6        38.135
G14         8.000    20513942.651 8 107801683.81208      -675.210 8        48.470                                    20513941.830 6  84001202.04106      -526.139 6        38.372    20513941.510 8  84001182.04108      -526.147 8        48.583
G15         9.000    21390594.220 6 112408333.52706      1792.730 6        38.529                                    21390594.875 3  87590922.87403      1396.927 3        22.971    21390592.520 5  87590894.87505      1397.111 5        31.917
G23        10.000                                                                                                                                                                    24822553.163 5 101644189.22805      1733.488 5        34.124
E06        11.000    23363904.266 6 122778114.94306     -1555.319 6        40.975                                                                    23363905.091 7  91684993.09507     -1161.425 7        44.229    23363903.878 7  94076712.85007     -1191.847 7        42.772
E31        13.000    23891045.815 7 125548344.05107       664.762 7        43.543                                                                    23891049.333 7  93753635.38507       496.485 7        42.000    23891046.273 6  96199356.30306       509.534 6        37.210
G05        14.000    21997660.307 6 115598666.95906     -3333.875 6        36.794                                    21997652.927 4  90076619.72904     -2597.814 4        25.594    21997653.681 5  90076721.74705     -2597.874 5        35.443
G24        15.000    24821377.753 3                      2680.893 3        23.619
E24        16.000    27462626.703 5 144317085.11105      2301.874 5        35.062                                                                    27462638.587 3                      1720.020 3        20.024    27462634.293 6 110580648.28406      1763.959 6        36.594
E04        17.000    24581517.002 6 129176720.82906     -2704.148 6        41.905                                                                    24581517.658 6  96463143.40206     -2019.375 6        40.076    24581518.975 7  98979510.32607     -2072.075 7        45.127
E05        18.000    25008872.651 5 131422589.04505      1670.052 5        32.820                                                                    25008872.431 4  98140335.06204      1247.249 4        28.872    25008876.377 4 100700503.72704      1279.650 4        28.417
E09        21.000    23518454.104 7 123590424.30307      -284.306 7        44.870                                                                    23518456.265 7  92291434.27407      -212.295 7        44.448    23518454.247 7  94699097.53707      -217.753 7        43.151
S23        24.000    38142584.179 6 200440607.29006      -853.327 6        37.822
S36        25.000    38209849.863 5 200794162.14705      -854.305 5        33.551
E34        26.000    27961532.119 4                     -2424.170 4        28.957                                                                    27961501.507 5 109726939.30505     -1810.445 5        33.407    27961519.616 5 112589383.75705     -1858.031 5        30.106
R13        27.000    20604137.879 6 110024935.32106      2030.810 6        36.820
R19        29.000    24507457.205 3                     -3483.819 3        23.714                                                                    24507441.466 3                     -2710.462 3        21.476
R11        30.000    22400389.525 6                     -4724.891 6        41.468                                                                    22400419.330 4                     -3674.635 4        26.048
C07        32.000                                                                                                                                    38975042.449 5 202953315.65505      -314.516 5        32.317    38975038.233 5 156936361.27205      -243.385 5        33.958    38975034.534 5                      -255.264 5        30.755
C10        33.000                                                                                                                                    39005188.868 5                        35.945 5        33.587    39005189.405 6 157057798.46906        27.788 6        36.673    39005188.175 5 165043730.47405        29.494 5        31.940
C36        34.000                                                                                                                                    21438389.974 8 111635320.10108      -892.410 8        48.817                                                                    21438396.326 8  90712946.82808      -725.143 8        49.631
R02        35.000    19158640.158 7 102234092.84807     -1400.198 7        45.071                                                                    19158641.109 7  79515599.18507     -1089.076 7        43.977
R03        36.000    21022424.126 8 112534769.59408      2444.200 8        48.881                                                                    21022426.781 7  87526966.95707      1901.018 7        46.815
C45        37.000                                                                                                                                    23542912.214 5 122594096.59405      1673.610 5        34.633
R12        38.000    19127970.344 7 102178083.80507     -1373.643 7        46.354                                                                    19127971.416 7  79472250.43907     -1068.253 7        42.110
C40        40.000                                                                                                                                    38979345.176 5 202975660.06805      -259.037 5        33.874                                                                    38979348.062 6 164934369.66306      -210.430 6        37.312
R01        44.000    21727718.319 5                     -4726.531 5        31.200                                                                    21727730.780 4                     -3675.921 4        29.583
C19        48.000                                                                                                                                    24501315.231 7 127584874.30807     -4020.553 7        44.188                                                                    24501314.032 6 103673059.59906     -3266.907 6        41.228
C22        51.000                                                                                                                                    21740948.828 8 113210815.22408     -1470.446 8        48.082                                                                    21740942.994 8  91993017.87008     -1194.886 8        48.677
I02        54.000    37578639.907 6 147466636.16706      -119.525 6        36.605
C21        55.000                                                                                                                                    24069459.686 8 125336079.00908      1549.862 8        49.293                                                                    24069456.573 7 101845720.53807      1259.370 7        47.366
> 2025 01 02 08 30  5.0000000  0 35
G13         1.000    19917209.423 7 104665806.55407      -176.416 7        47.204                                    19917204.097 4  81557642.18004      -137.467 4        28.578
G18         2.000    25448348.292 5 133731897.56605     -2515.744 5        32.240
G20         4.000    23797115.732 6 125054672.63406     -4414.781 6        38.808
G07         5.000    24486063.298 3                     -3653.521 3        20.452
G30         6.000    21701926.771 7 114044365.01507     -2976.436 7        44.160                                    21701925.968 6  88865717.66406     -2319.296 6        37.066    21701926.602 6  88865736.60506     -2319.072 6        36.964
G14         8.000    20514586.137 7 107805066.27107      -678.089 7        47.904                                    20514585.583 6  84003837.71806      -528.379 6        37.985    20514584.821 8  84003817.72708      -528.373 8        48.662
G15         9.000    21388889.847 6 112399373.89006      1790.755 6        38.372                                    21388888.348 3  87583941.33903      1395.399 3        22.895    21388891.149 5  87583913.37605      1395.430 5        33.647
G23        10.000    24820434.229 4                      2223.616 4        24.316                                                                                                    24820438.731 5 101635525.30505      1731.968 5        33.305
E06        11.000    23365384.210 7 122785894.57207     -1556.767 7        42.262                                                                    23365385.545 7  91690802.53407     -1162.550 7        44.173    23365384.350 7  94082673.83907     -1192.903 7        43.247
E31        13.000    23890414.133 7 125545024.28307       662.809 7        44.009                                                                    23890417.789 7  93751156.33507       494.951 7        42.214    23890414.933 6  96196812.59006       508.059 6        36.076
G05        14.000    22000834.403 5 115615340.93005     -3336.091 5        33.425                                    22000825.910 3  90089612.38803     -2599.561 3        23.790    22000827.104 5  90089714.39305     -2599.479 5        34.338
G24        15.000    24818830.752 3                      2678.011 3        21.714
E24        16.000    27460436.629 5 144305576.13105      2301.749 5        35.781                                                                    27460453.305 3                      1715.879 3        20.119    27460444.001 6 110571829.75006      1763.534 6        36.079
E04        17.000    24584090.352 6 129190243.80806     -2705.298 6        41.862                                                                    24584090.731 6  96473241.69306     -2020.190 6        39.384    24584091.936 7  98989872.05507     -2072.916 7        44.420
E05        18.000    25007283.734 5 131414237.67305      1670.178 5        31.660                                                                    25007284.575 4  98134098.66804      1246.910 4        29.223    25007287.461 4 100694104.67304      1279.456 4        28.626
E09        21.000    23518724.700 7 123591847.85107      -285.509 7        44.858                                                                    23518726.880 7  92292497.31607      -213.222 7        44.071    23518725.038 7  94700188.31907      -218.873 7        42.777
S23        24.000    38143393.096 6 200444872.66406      -853.132 6        37.527
S36        25.000    38210673.800 5 200798431.14705      -853.367 5        34.138
E34        26.000    27963835.801 4                     -2426.086 4        28.825                                                                    27963808.680 5 109735994.25705     -1811.771 5        33.048    27963822.424 4 112598674.86804     -1859.224 4        29.014
R13        27.000    20602234.063 5 110014785.64905      2028.448 5        33.844
R19        29.000                                                                                                                                    24510703.761 3                     -2710.528 3        22.667
R11        30.000    22404812.550 6 119724641.21116     -4725.332 6        40.398                                                                    22404839.449 3                     -3676.159 3        22.114
C07        32.000                                                                                                                                    38975343.691 5 202954888.83905      -314.925 5        32.287    38975340.018 5 156937577.73005      -243.390 5        33.443    38975336.141 5                      -256.115 5        30.211
C10        33.000                                                                                                                                    39005155.143 5                        35.407 5        34.048    39005155.045 6 157057660.20206        27.125 6        36.775    39005153.247 5 165043585.20205        28.884 5        32.216
C36        34.000                                                                                                                                    21439248.157 8 111639786.09108      -894.309 8        49.117                                                                    21439253.989 8  90716575.81608      -726.663 8        49.786
R02        35.000    19159953.661 7 102241102.63507     -1404.045 7        44.743                                                                    19159954.274 7  79521051.22707     -1092.034 7        42.813
R03        36.000    21020142.846 8 112522552.43008      2442.344 8        48.829                                                                    21020145.132 7  87517464.71007      1899.523 7        46.843
C45        37.000                                                                                                                                    23541304.267 5 122585730.52105      1672.390 5        32.401                                                                    23541316.775 6  99610959.41016      1358.848 6        37.709
R12        38.000    19129258.181 7 102184959.11707     -1376.832 7        46.643                                                                    19129258.819 6  79477597.89706     -1070.829 6        41.566
C40        40.000                                                                                                                                    38979594.196 5 202976956.33205      -259.984 5        33.359                                                                    38979596.722 6 164935422.99806      -211.163 6        37.410
R01        44.000    21732144.465 5                     -4728.249 5        34.038                                                                    21732152.074 5                     -3677.529 5        30.860
C19        48.000                                                                                                                                    24505175.298 7 127604978.70607     -4021.607 7        44.543                                                                    24505174.811 6 103689396.04306     -3267.736 6        41.573
C22        51.000                                                                                                                                    21742361.110 7 113218173.29607     -1473.025 7        47.941                                                                    21742355.926 8  91998996.91608     -1196.941 8        48.694
I02        54.000    37578792.177 6 147467233.47406      -119.706 6        36.854
C21        55.000                                                                                                                                    24067971.655 8 125328332.66208      1548.357 8        49.774                                                                    24067968.952 7 101839426.00807      1258.159 7        47.566
> 2025 01 02 08 30 10.0000000  0 33
G13         1.000    19917378.105 7 104666694.45407      -178.934 7        46.398                                    19917372.927 4  81558334.04904      -139.427 4        28.626
G18         2.000    25450741.452 4 133744481.65904     -2518.220 4        29.299
G20         4.000    23801316.418 6 125076747.81106     -4415.420 6        38.360
G30         6.000    21704759.046 7 114059250.04707     -2977.681 7        45.243                                    21704758.039 6  88877316.36406     -2320.260 6        37.440    21704759.087 6  88877335.32506     -2320.434 6        36.665
G14         8.000    20515232.717 7 107808464.20207      -681.240 7        47.736                                    20515232.215 6  84006485.44706      -530.835 6        37.698    20515231.359 8  84006465.45408      -530.827 8        48.231
G15         9.000    21387187.905 6 112390424.70106      1788.723 6        40.124                                    21387183.783 3  87576967.93003      1393.810 3        22.571    21387189.516 5  87576939.96605      1394.351 5        32.210
G23        10.000    24818320.735 4                      2219.302 4        24.015                                                                                                    24818327.358 5 101626868.05405      1730.770 5        31.577
E06        11.000    23366865.765 7 122793682.00707     -1558.507 7        42.584                                                                    23366867.441 7  91696617.80807     -1163.712 7        44.110    23366866.207 7  94088640.80807     -1194.112 7        43.501
E31        13.000    23889784.472 7 125541714.63307       660.839 7        44.761                                                                    23889788.121 7  93748684.84907       493.522 7        42.584    23889785.295 5  96194276.65705       506.273 5        34.957
G05        14.000                                                                                                                                                                    22004002.295 5  90102716.89105     -2601.692 5        33.599
E24        16.000    27458247.325 5 144294069.45005      2300.978 5        35.905                                                                    27458262.398 3                      1719.984 3        20.429    27458254.274 5 110563012.92305      1763.254 5        35.624
E04        17.000    24586664.719 6 129203773.03206     -2706.631 6        41.831                                                                    24586665.083 6  96483344.66606     -2021.332 6        38.613    24586666.054 7  99000238.56507     -2073.719 7        43.342
E05        18.000    25005694.493 5 131405887.89105      1669.924 5        30.989                                                                    25005696.615 5  98127863.47905      1246.488 5        30.415    25005698.300 4 100687706.80904      1279.526 4        28.199
E09        21.000    23518997.053 7 123593278.77807      -286.943 7        44.283                                                                    23518999.048 7  92293565.86207      -214.382 7        43.494    23518997.404 7  94701284.73007      -219.945 7        42.521
S23        24.000    38144212.480 6 200449137.89906      -853.192 6        37.841
S36        25.000    38211479.555 5 200802699.45105      -853.694 5        33.563
E34        26.000    27966136.236 4                     -2428.091 4        27.162                                                                    27966117.153 5 109745056.44005     -1812.983 5        31.630    27966124.002 4 112607973.44104     -1860.417 4        28.474
R13        27.000    20600329.538 5 110004649.06205      2025.993 5        30.792
R19        29.000    24513984.035 3                     -3491.992 3        20.500                                                                    24513964.848 4                     -2713.051 4        25.023
R11        30.000    22409235.242 6 119748269.70206     -4726.121 6        38.889
C07        32.000                                                                                                                                    38975645.432 5 202956465.95705      -315.789 5        31.419    38975643.193 5 156938797.21905      -244.538 5        33.186    38975638.856 5                      -256.484 5        30.121
C10        33.000                                                                                                                                    39005122.377 5 203109901.73115        34.496 5        34.057    39005121.253 6 157057524.66706        26.662 6        37.051    39005119.446 5 165043442.71305        28.417 5        32.683
C36        34.000                                                                                                                                    21440108.039 8 111644262.49608      -896.420 8        49.388                                                                    21440113.723 8  90720213.24008      -728.227 8        49.915
R02        35.000    19161270.676 7 102248132.42507     -1408.017 7        42.893                                                                    19161270.792 6  79526518.82306     -1094.980 6        41.237
R03        36.000    21017863.476 8 112510345.51108      2440.277 8        49.382                                                                    21017864.141 7  87507970.42207      1897.981 7        46.363
C45        37.000                                                                                                                                    23539699.366 4 122577371.19104      1670.302 4        29.659                                                                    23539704.593 6  99604166.62206      1358.338 6        38.495
R12        38.000    19130549.237 7 102191852.07707     -1380.407 7        47.047                                                                    19130549.536 6  79482959.06506     -1073.655 6        41.874
C40        40.000                                                                                                                                    38979845.028 5 202978257.53305      -260.618 5        32.904                                                                    38979846.666 6 164936480.33406      -211.815 6        37.648
R01        44.000    21736569.973 5 116194412.85815     -4730.332 5        35.181                                                                    21736576.065 5                     -3679.018 5        31.758
C19        48.000                                                                                                                                    24509036.320 7 127625088.84107     -4022.639 7        44.618                                                                    24509036.910 6 103705737.13506     -3268.560 6        41.850
C22        51.000                                                                                                                                    21743776.210 8 113225544.92808     -1475.794 8        48.038                                                                    21743771.540 8  92004986.94208     -1198.980 8        48.635
I02        54.000    37578945.176 6 147467832.14706      -119.844 6        36.752
C21        55.000                                                                                                                                    24066485.344 8 125320594.82808      1546.668 8        50.063                                                                    24066482.859 7 101833138.36407      1256.938 7        47.644
> 2025 01 02 08 30 15.0000000  0 33
G13         1.000    19917548.999 7 104667594.19607      -181.247 7        45.923                                    19917544.168 4  81559035.14504      -141.230 4        28.540
G18         2.000    25453136.968 4 133757076.47504     -2520.055 4        28.227
G20         4.000    23805517.140 6 125098825.06906     -4415.603 6        37.864
G30         6.000    21707592.762 7 114074140.75407     -2978.803 7        46.093                                    21707591.322 6  88888919.48906     -2321.135 6        38.021    21707593.227 6  88888938.45606     -2321.220 6        36.469
G14         8.000    20515882.240 8 107811877.07108      -684.136 8        48.020                                    20515881.629 6  84009144.82106      -533.094 6        37.671    20515880.710 7  84009124.83307      -533.079 7        47.878
G15         9.000    21385487.010 6 112381485.48306      1786.712 6        40.951                                    21385481.097 3  87570002.30703      1392.238 3        22.286    21385483.767 4  87569974.41904      1392.269 4        29.782
G23        10.000    24816209.512 4                      2218.894 4        25.474                                                                                                    24816217.043 4 101618217.18004      1729.524 4        29.431
E06        11.000    23368348.813 7 122801476.73707     -1559.682 7        43.064                                                                    23368350.652 7  91702438.52807     -1164.765 7        43.867    23368349.304 7  94094613.40507     -1195.134 7        43.973
E31        13.000    23889156.845 7 125538414.61707       658.946 7        45.658                                                                    23889160.474 7  93746220.55107       491.999 7        42.737    23889157.592 5  96191748.07705       504.781 5        34.157
G05        14.000    22007170.013 5 115648725.76505     -3340.799 5        32.976                                    22007179.540 2  90115626.73702     -2603.260 2        15.524    22007180.604 5  90115728.79805     -2603.259 5        33.455
E24        16.000    27456058.174 6 144282564.58306      2300.620 6        37.093                                                                    27456074.679 3                      1718.474 3        22.381    27456064.480 5 110554197.49405      1763.087 5        34.990
E04        17.000    24589240.755 7 129217307.95107     -2707.471 7        42.174                                                                    24589240.654 6  96493451.88506     -2021.951 6        37.561    24589241.334 7  99010609.45207     -2074.636 7        42.626
E05        18.000    25004105.944 5 131397539.26305      1669.822 5        32.371                                                                    25004108.626 5  98121629.10105      1246.676 5        31.291    25004109.250 4 100681309.78204      1279.309 4        28.938
E09        21.000    23519270.979 7 123594716.56607      -288.348 7        44.169                                                                    23519272.154 7  92294639.53107      -215.210 7        42.483    23519271.040 7  94702386.38807      -220.798 7        42.243
S23        24.000    38145021.330 6 200453402.73606      -852.852 6        37.686
S36        25.000    38212291.843 5 200806966.66405      -853.513 5        33.413
E34        26.000                                                                                                                                    27968428.121 5 109754125.41405     -1814.336 5        30.340    27968430.185 4 112617279.02204     -1862.251 4        27.952
R13        27.000    20598431.829 5 109994525.03305      2023.112 5        31.042
R19        29.000    24517246.915 3                     -3491.247 3        20.857                                                                    24517227.049 4                     -2715.752 4        25.338
R11        30.000    22413654.005 6 119771901.50706     -4726.658 6        36.370
C07        32.000                                                                                                                                    38975947.672 5 202958046.49305      -316.395 5        31.011    38975946.338 5 156940019.38005      -244.761 5        32.970    38975942.694 5                      -257.128 5        30.415
C10        33.000                                                                                                                                    39005090.115 5 203109729.40905        34.165 5        33.635    39005088.066 6 157057391.38606        26.476 6        37.017    39005086.413 5 165043302.71105        27.840 5        32.455
C36        34.000                                                                                                                                    21440969.444 8 111648748.82808      -898.309 8        49.487                                                                    21440975.250 8  90723858.77308      -729.964 8        49.838
R02        35.000    19162592.574 7 102255181.59807     -1411.827 7        42.354                                                                    19162591.621 6  79532001.51506     -1098.068 6        40.381
R03        36.000    21015586.373 8 112498148.52108      2438.362 8        50.296                                                                    21015585.451 7  87498483.85407      1896.475 7        45.618
C45        37.000                                                                                                                                    23538095.842 4 122569017.99504      1670.626 4        26.695                                                                    23538090.560 6  99597379.03406      1356.844 6        39.958
R12        38.000    19131842.648 7 102198762.07207     -1383.736 7        46.693                                                                    19131842.997 7  79488333.50807     -1076.156 7        42.038
C40        40.000                                                                                                                                    38980097.572 5 202979563.23605      -261.411 5        33.491                                                                    38980097.839 6 164937541.32806      -212.648 6        37.713
R01        44.000    21740994.389 6 116218068.20906     -4732.117 6        37.724                                                                    21741001.111 5                     -3680.406 5        33.042
C19        48.000                                                                                                                                    24512898.954 7 127645204.21407     -4023.610 7        44.203                                                                    24512900.051 7 103722082.51307     -3269.553 7        42.106
C22        51.000                                                                                                                                    21745194.707 8 113232929.61808     -1478.269 8        48.106                                                                    21745189.689 8  92010987.63908     -1201.278 8        48.598
I02        54.000    37579097.958 6 147468431.05606      -120.061 6        36.280
C21        55.000                                                                                                                                    24065000.756 8 125312865.01508      1545.105 8        50.235                                                                    24064998.283 7 101826857.29407      1255.445 7        47.456
> 2025 01 02 08 30 20.0000000  0 32
G13         1.000    19917722.596 7 104668506.56907      -183.920 7        45.442                                    19917717.815 4  81559746.07604      -143.309 4        28.133
G18         2.000    25455532.805 4 133769682.84904     -2522.804 4        25.970
G20         4.000    23809718.255 6 125120905.13206     -4416.275 6        36.957
G30         6.000    21710427.560 7 114089037.93007     -2980.245 7        46.744                                    21710425.915 6  88900527.64906     -2322.260 6        38.541    21710428.039 6  88900546.61206     -2322.205 6        37.233
G14         8.000    20516534.776 7 107815305.66907      -687.371 7        47.546                                    20516533.990 6  84011816.44506      -535.612 6        37.690    20516532.986 7  84011796.46507      -535.698 7        47.540
G15         9.000    21383786.610 6 112372556.91206      1784.583 6        40.894                                    21383780.552 3  87563045.00303      1390.572 3        22.152    21383779.686 4  87563017.02904      1390.779 4        27.042
G23        10.000    24814097.529 4                      2217.881 4        26.275
E06        11.000    23369833.605 7 122809279.57607     -1561.553 7        42.542                                                                    23369835.423 7  91708265.29207     -1166.016 7        43.744    23369833.936 7  94100592.17207     -1196.458 7        44.158
E31        13.000    23888530.754 7 125535124.97807       656.733 7        46.448                                                                    23888534.661 7  93743763.99807       490.396 7        43.058    23888532.105 5  96189227.44005       503.293 5        34.405
G05        14.000                                                                                                                                                                    22010360.739 5  90128750.66505     -2605.505 5        35.462
E24        16.000    27453869.694 6 144271062.23906      2300.007 6        37.633                                                                    27453892.536 3                      1717.967 3        23.505    27453875.539 5 110545384.04105      1762.268 5        34.100
E04        17.000    24591818.259 7 129230849.37707     -2709.127 7        42.730                                                                    24591817.432 6  96503563.96406     -2023.127 6        36.941    24591817.825 6  99020985.33206     -2075.859 6        41.819
E05        18.000    25002517.628 5 131389192.57705      1668.762 5        32.802                                                                    25002521.080 5  98115396.10505      1246.395 5        32.341    25002520.705 4 100674914.25004      1278.986 4        28.360
E09        21.000    23519546.114 7 123596161.97007      -289.995 7        44.009                                                                    23519547.030 6  92295718.89506      -216.575 6        41.771    23519546.231 7  94703493.89607      -222.110 7        42.146
S23        24.000    38145830.041 6 200457667.80106      -853.215 6        37.584
S36        25.000    38213104.819 5 200811233.93105      -853.794 5        33.132
E34        26.000    27970744.122 4                     -2431.756 4        29.365                                                                    27970741.371 5 109763201.79705     -1816.347 5        30.023    27970741.419 4 112626592.15404     -1863.583 4        27.976
R19        29.000    24520507.148 3                     -3494.360 3        19.403                                                                    24520493.748 4                     -2717.884 4        25.729
R11        30.000    22418070.297 5 119795537.43105     -4727.756 5        35.576                                                                    22418066.562 3                     -3675.977 3        23.029
C07        32.000                                                                                                                                    38976254.165 5 202959631.23605      -317.316 5        31.411    38976251.003 5 156941244.81305      -245.485 5        33.000    38976247.006 5                      -257.618 5        30.506
C10        33.000                                                                                                                                    39005056.179 5 203109560.79805        33.546 5        33.449    39005055.584 6 157057261.05706        25.826 6        37.543    39005053.663 5 165043165.74905        27.000 5        31.698
C36        34.000                                                                                                                                    21441833.134 8 111653245.83808      -900.609 8        49.449                                                                    21441838.810 8  90727512.95908      -731.878 8        49.856
R02        35.000    19163917.565 7 102262250.77407     -1415.988 7        42.229                                                                    19163916.695 6  79537499.77706     -1101.435 6        40.462
R03        36.000    21013310.516 8 112485962.16608      2436.051 8        51.212                                                                    21013309.242 7  87489005.55207      1894.660 7        45.117
C45        37.000                                                                                                                                    23536496.924 4 122560671.83904      1668.194 4        27.701                                                                    23536488.602 6  99590597.13306      1355.603 6        41.471
R12        38.000    19133138.982 7 102205689.93107     -1387.458 7        46.439                                                                    19133140.951 7  79493721.84307     -1079.203 7        42.417
C40        40.000                                                                                                                                    38980351.971 5 202980874.14505      -263.054 5        34.076                                                                    38980349.806 6 164938606.54106      -213.617 6        37.924
R01        44.000    21745423.866 6                     -4734.197 6        38.796                                                                    21745431.018 5                     -3681.956 5        32.772
C19        48.000                                                                                                                                    24516762.737 7 127665325.59007     -4024.989 7        44.014                                                                    24516764.243 6 103738432.74806     -3270.756 6        41.836
C22        51.000                                                                                                                                    21746615.990 8 113240328.11808     -1481.171 8        48.315                                                                    21746610.515 8  92016999.51908     -1203.644 8        48.577
I02        54.000    37579250.043 6 147469031.59806      -120.255 6        36.359
C21        55.000                                                                                                                                    24063518.378 8 125305143.98108      1543.153 8        50.465                                                                    24063515.469 7 101820583.33407      1253.921 7        47.188
> 2025 01 02 08 30 25.0000000  0 34
G13         1.000    19917898.730 7 104669431.76507      -186.351 7        45.514                                    19917893.997 4  81560467.00504      -145.209 4        27.461
G18         2.000    25457927.381 3                     -2524.430 3        22.210                                                                                                    25457917.922 3                     -1967.053 3        20.310
G20         4.000    23813919.738 6 125142988.19006     -4416.873 6        36.401
G07         5.000    24499995.515 3                     -3649.492 3        20.071
G30         6.000    21713263.536 7 114103941.75807     -2981.469 7        46.846                                    21713261.845 6  88912140.99206     -2323.214 6        38.940    21713264.268 6  88912159.97806     -2323.281 6        37.686
G14         8.000    20517190.432 7 107818750.18807      -690.551 7        47.333                                    20517189.328 6  84014500.48106      -538.089 6        37.403    20517188.595 7  84014480.50007      -538.117 7        47.531
G15         9.000    21382090.034 6 112363639.27906      1782.321 6        41.201                                    21382082.802 3  87556096.21103      1388.817 3        22.171    21382086.558 4  87556068.25104      1388.549 4        29.488
G23        10.000    24811986.565 4                      2215.895 4        26.946                                                                                                    24811984.595 3 101600936.32403      1725.463 3        23.219
E06        11.000    23371318.969 6 122817090.67306     -1563.080 6        41.809                                                                    23371321.911 7  91714098.24407     -1167.299 7        43.719    23371320.179 7  94106577.28807     -1197.676 7        44.200
E31        13.000    23887906.473 7 125531845.94007       654.673 7        46.642                                                                    23887910.711 7  93741315.36107       488.927 7        42.806    23887908.193 5  96186714.97205       501.742 5        34.757
G05        14.000                                                                                                                                                                    22013544.139 6  90141782.63306     -2607.474 6        38.150
E24        16.000    27451681.186 6 144259562.67006      2299.549 6        38.180                                                                    27451705.385 3                      1717.037 3        23.695    27451687.300 5 110536572.69205      1761.852 5        33.635
E04        17.000    24594396.727 7 129244397.48907     -2710.232 7        43.014                                                                    24594395.524 6  96513681.03006     -2023.807 6        36.238    24594395.812 6  99031366.32206     -2076.749 6        40.965
E05        18.000    25000929.168 5 131380847.91705      1668.545 5        33.210                                                                    25000933.533 5  98109164.71605      1246.307 5        33.251    25000932.410 4 100668520.29504      1277.784 4        28.427
E09        21.000    23519822.675 7 123597615.20107      -291.462 7        44.299                                                                    23519823.438 6  92296804.09706      -217.663 6        41.254    23519822.920 7  94704607.40907      -223.222 7        42.180
S23        24.000    38146644.542 6 200461933.32906      -853.273 6        37.955
S36        25.000    38213913.781 5 200815501.92705      -854.006 5        33.491
E34        26.000    27973062.694 4                     -2434.074 4        27.461                                                                    27973056.677 4 109772285.69104     -1817.578 4        28.882    27973057.863 4 112635912.99204     -1864.987 4        28.095
R13        27.000    20594662.212 5 109974317.72105      2017.958 5        30.000
R19        29.000                                                                                                                                    24523762.821 4                     -2720.276 4        26.335
R11        30.000    22422492.193 5 119819177.55405     -4728.248 5        34.490
C07        32.000                                                                                                                                    38976561.264 5 202961220.35305      -318.154 5        30.672    38976556.149 5 156942473.59005      -246.234 5        33.018    38976552.172 5                      -258.493 5        30.309
C10        33.000                                                                                                                                    39005023.515 5 203109396.22305        32.488 5        32.838    39005023.805 6 157057133.76306        24.993 6        37.142    39005021.880 5 165043031.96305        26.423 5        31.826
C36        34.000                                                                                                                                    21442699.012 8 111657753.70708      -902.679 8        50.094                                                                    21442704.440 8  90731175.96308      -733.461 8        49.525
R02        35.000    19165246.120 6 102269340.52406     -1420.001 6        41.628                                                                    19165245.197 6  79543013.98906     -1104.416 6        39.856
R03        36.000    21011036.375 8 112473786.58208      2434.007 8        51.960                                                                    21011035.098 7  87479535.64807      1893.159 7        44.844
C45        37.000                                                                                                                                    23534893.943 4 122552332.86804      1667.011 4        26.838                                                                    23534889.499 7  99583821.04907      1354.702 7        42.391
R12        38.000    19134438.420 7 102212635.88307     -1390.969 7        45.831                                                                    19134440.571 7  79499124.25307     -1081.844 7        42.663
C40        40.000                                                                                                                                    38980604.726 5 202982190.43405      -263.802 5        33.838                                                                    38980602.294 6 164939676.14806      -214.277 6        37.905
R01        44.000    21749853.701 6 116265408.60216     -4736.063 6        38.129                                                                    21749856.842 5                     -3683.743 5        30.204
C19        48.000                                                                                                                                    24520627.659 7 127685453.13407     -4026.213 7        43.774                                                                    24520629.502 6 103754787.99506     -3271.684 6        41.633
C22        51.000                                                                                                                                    21748039.356 7 113247740.66007     -1483.993 7        47.571                                                                    21748034.150 8  92023022.78808     -1205.774 8        48.549
I02        54.000    37579404.260 6 147469633.63706      -120.409 6        36.261
C21        55.000                                                                                                                                    24062037.991 8 125297431.94908      1541.439 8        50.553                                                                    24062034.378 7 101814316.68007      1252.564 7        46.888
> 2025 01 02 08 30 30.0000000  0 32
G13         1.000    19918076.872 7 104670370.00807      -188.940 7        44.670                                    19918072.602 4  81561198.08904      -147.216 4        27.102
G20         4.000    23818122.507 5 125165074.44805     -4417.303 5        35.481
G07         5.000    24503474.491 3                     -3650.263 3        19.881
G30         6.000    21716100.428 7 114118852.44007     -2982.799 7        46.340                                    21716099.170 6  88923759.66906     -2324.253 6        39.429    21716100.924 6  88923778.64506     -2323.954 6        38.108
G14         8.000    20517849.475 7 107822210.83407      -693.739 7        47.578                                    20517847.632 6  84017197.08806      -540.573 6        37.376    20517847.074 7  84017177.11707      -540.570 7        46.952
G15         9.000    21380397.033 6 112354732.86706      1780.063 6        39.315                                    21380387.699 3  87549156.11003      1387.069 3        21.500    21380395.303 5  87549128.12905      1387.301 5        33.108
G23        10.000    24809878.767 4                      2214.037 4        29.403                                                                                                    24809874.589 3                      1724.052 3        22.343
E06        11.000    23372806.266 6 122824910.28806     -1564.719 6        40.505                                                                    23372810.014 7  91719937.53907     -1168.510 7        44.066    23372808.140 7  94112568.92807     -1198.932 7        44.214
E31        13.000    23887284.357 7 125528577.72607       652.577 7        46.067                                                                    23887288.555 7  93738874.80807       487.270 7        42.739    23887285.945 5  96184210.75805       500.148 5        34.400
G05        14.000    22016747.258 6 115698899.15106     -3348.810 6        38.288                                    22016728.225 3  90154722.93203     -2609.458 3        21.619    22016730.139 6  90154824.92606     -2609.464 6        39.054
E24        16.000    27449493.113 6 144248066.09606      2298.960 6        38.234                                                                    27449517.224 4                      1717.438 4        24.331    27449499.595 5 110527763.61705      1761.553 5        33.539
E04        17.000    24596976.902 7 129257952.51407     -2711.721 7        43.372                                                                    24596974.048 5  96523803.29305     -2024.856 5        35.143    24596975.304 6  99041752.61906     -2077.837 6        40.543
E05        18.000    24999340.089 5 131372505.58505      1668.128 5        34.148                                                                    24999345.547 5  98102935.06305      1245.776 5        34.205    24999343.901 4 100662128.06704      1278.250 4        28.294
E09        21.000    23520100.779 7 123599076.47507      -293.023 7        44.545                                                                    23520101.465 6  92297895.32806      -218.838 6        40.648    23520101.073 7  94705727.09707      -224.509 7        42.123
S23        24.000    38147456.200 6 200466199.17606      -853.225 6        38.150
S36        25.000    38214729.087 5 200819770.68205      -854.010 5        33.467
E34        26.000    27975383.413 4                     -2436.017 4        27.401                                                                    27975373.110 4 109781377.29604     -1819.150 4        27.377    27975372.829 4 112645241.72804     -1866.428 4        28.332
R19        29.000                                                                                                                                    24527038.330 4                     -2722.608 4        27.401
R11        30.000    22426917.268 5 119842822.21005     -4729.514 5        33.263                                                                    22426928.499 4                     -3677.653 4        24.331
C07        32.000                                                                                                                                    38976868.748 5 202962814.07105      -319.407 5        30.189    38976863.296 5 156943705.95205      -246.713 5        32.898    38976857.695 5                      -259.222 5        30.581
C10        33.000                                                                                                                                    39004993.130 5 203109235.67905        32.098 5        32.641    39004992.693 6 157057009.63706        24.555 6        36.975    39004991.101 5 165042901.53105        25.677 5        31.683
C36        34.000                                                                                                                                    21443567.139 8 111662272.67408      -904.875 8        50.486                                                                    21443572.165 8  90734847.98908      -735.238 8        49.272
R02        35.000    19166578.183 6 102276450.72106     -1424.090 6        37.826                                                                    19166576.526 6  79548544.17206     -1107.708 6        37.380
R03        36.000    21008763.690 8 112461621.93708      2431.845 8        52.046                                                                    21008762.368 7  87470074.25407      1891.421 7        44.840
C45        37.000                                                                                                                                                                                                                                                                    23533289.616 7  99577051.00807      1353.414 7        43.003
R12        38.000    19135741.849 7 102219600.11007     -1394.715 7        45.803                                                                    19135744.467 7  79504540.86407     -1084.749 7        42.906
C40        40.000                                                                                                                                    38980858.975 5 202983512.37005      -264.929 5        33.922                                                                    38980856.199 6 164940750.34106      -215.182 6        38.003
R01        44.000    21754283.804 6                     -4738.116 6        37.645                                                                    21754283.400 4                     -3684.898 4        26.970
C19        48.000                                                                                                                                    24524494.270 7 127705587.05907     -4027.349 7        43.331                                                                    24524495.833 6 103771148.42206     -3272.579 6        40.689
C22        51.000                                                                                                                                    21749464.880 7 113255167.45207     -1486.813 7        46.275                                                                    21749460.438 8  92029057.63508     -1208.094 8        48.729
I02        54.000    37579558.421 6 147470237.42206      -121.054 6        36.397
C21        55.000                                                                                                                                    24060559.505 8 125289729.15308      1539.626 8        50.719                                                                    24060555.143 7 101808057.52807      1251.088 7        46.635
> 2025 01 02 08 30 35.0000000  0 32
G13         1.000    19918257.829 7 104671320.49807      -191.282 7        44.843                                    19918253.560 4  81561938.71704      -149.049 4        26.850
G18         2.000    25462729.094 4                     -2529.487 4        27.162
G20         4.000    23822326.674 5 125187163.17205     -4418.026 5        34.929
G30         6.000    21718938.931 7 114133769.19807     -2983.832 7        46.114                                    21718937.782 6  88935383.08906     -2325.060 6        39.661    21718939.511 6  88935402.07606     -2325.034 6        38.919
