     3.04           OBSERVATION DATA    M                   RINEX VERSION / TYPE
ssrcrin-15.6.1x                         20250102 003000 UTC PGM / RUN BY / DATE 
(00000000023479385599111004) Septentrio proprietary         COMMENT             
ract                                                        MARKER NAME         
01                                                          MARKER NUMBER       
geodetic                                                    MARKER TYPE         
NFB                 CLIMERS@TUW                             OBSERVER / AGENCY   
3296359             SEPT ASTERX SB3 PROB4.14.4              REC # / TYPE / VERS 
Unknown             Unknown                                 ANT # / TYPE        
  4127446.7702  1206913.8044  4695542.5767                  APPROX POSITION XYZ 
        0.0000        0.0000        0.0000                  ANTENNA: DELTA H/E/N
G   23 X1  C1C L1C D1C S1C C1W S1W C2W L2W D2W S2W C2L L2L  SYS / # / OBS TYPES 
       D2L S2L C5Q L5Q D5Q S5Q C1L L1L D1L S1L              SYS / # / OBS TYPES 
E   21 X1  C1C L1C D1C S1C C6C L6C D6C S6C C5Q L5Q D5Q S5Q  SYS / # / OBS TYPES 
       C7Q L7Q D7Q S7Q C8Q L8Q D8Q S8Q                      SYS / # / OBS TYPES 
S    9 X1  C1C L1C D1C S1C C5I L5I D5I S5I                  SYS / # / OBS TYPES 
R   17 X1  C1C L1C D1C S1C C2P L2P D2P S2P C2C L2C D2C S2C  SYS / # / OBS TYPES 
       C3Q L3Q D3Q S3Q                                      SYS / # / OBS TYPES 
C   25 X1  C1P L1P D1P S1P C5P L5P D5P S5P C2I L2I D2I S2I  SYS / # / OBS TYPES 
       C7I L7I D7I S7I C6I L6I D6I S6I C7D L7D D7D S7D      SYS / # / OBS TYPES 
J   17 X1  C1C L1C D1C S1C C2L L2L D2L S2L C5Q L5Q D5Q S5Q  SYS / # / OBS TYPES 
       C1L L1L D1L S1L                                      SYS / # / OBS TYPES 
I    5 X1  C5A L5A D5A S5A                                  SYS / # / OBS TYPES 
SEPTENTRIO RECEIVERS OUTPUT ALIGNED CARRIER PHASES.         COMMENT             
NO FURTHER PHASE SHIFT APPLIED IN THE RINEX ENCODER.        COMMENT             
G L1C                                                       SYS / PHASE SHIFT   
G L2W                                                       SYS / PHASE SHIFT   
G L2L  0.00000                                              SYS / PHASE SHIFT   
G L5Q  0.00000                                              SYS / PHASE SHIFT   
G L1L  0.00000                                              SYS / PHASE SHIFT   
E L1C  0.00000                                              SYS / PHASE SHIFT   
E L6C  0.00000                                              SYS / PHASE SHIFT   
E L5Q  0.00000                                              SYS / PHASE SHIFT   
E L7Q  0.00000                                              SYS / PHASE SHIFT   
E L8Q  0.00000                                              SYS / PHASE SHIFT   
S L1C                                                       SYS / PHASE SHIFT   
S L5I                                                       SYS / PHASE SHIFT   
R L1C                                                       SYS / PHASE SHIFT   
R L2P  0.00000                                              SYS / PHASE SHIFT   
R L2C                                                       SYS / PHASE SHIFT   
R L3Q  0.00000                                              SYS / PHASE SHIFT   
C L1P  0.00000                                              SYS / PHASE SHIFT   
C L5P  0.00000                                              SYS / PHASE SHIFT   
C L2I                                                       SYS / PHASE SHIFT   
C L7I                                                       SYS / PHASE SHIFT   
C L6I                                                       SYS / PHASE SHIFT   
C L7D                                                       SYS / PHASE SHIFT   
J L1C                                                       SYS / PHASE SHIFT   
J L2L  0.00000                                              SYS / PHASE SHIFT   
J L5Q  0.00000                                              SYS / PHASE SHIFT   
J L1L  0.00000                                              SYS / PHASE SHIFT   
I L5A                                                       SYS / PHASE SHIFT   
  2025     1     2     0    30    0.0000000     GPS         TIME OF FIRST OBS   
 C1C    0.000 C2C    0.000 C2P    0.000                     GLONASS COD/PHS/BIS 
DBHZ                                                        SIGNAL STRENGTH UNIT
    18                                                      LEAP SECONDS        
 24 R01  1 R02 -4 R03  5 R04  6 R05  1 R06 -4 R07  5 R08  6 GLONASS SLOT / FRQ #
    R09 -2 R10 -7 R11  0 R12 -1 R13 -2 R14 -7 R15  0 R16 -1 GLONASS SLOT / FRQ #
    R17  4 R18 -3 R19  3 R20  2 R21  4 R22 -3 R23  3 R24  2 GLONASS SLOT / FRQ #
                                                            END OF HEADER       
> 2025 01 02 00 30  0.0000000  0 39
G03         1.000    20509713.343 5 107779442.87805       531.065 5        35.000                                    20509712.237 5  83983824.64705       413.819 5        33.635    20509713.345 6  83983959.61606       413.928 6        41.843
G19         2.000    24172355.259 5 127026583.91405      2310.897 5        32.437                                    24172346.198 1  98981704.26101      1800.655 1         9.714
G32         3.000                                                                                                                                                                    23837928.866 4                     -2976.537 4        26.683
E25         4.000    28634323.353 4                      -476.360 4        27.078                                                                    28634314.827 4 112367248.43204      -355.330 4        25.383    28634305.658 3                      -363.551 3        21.905
E07         5.000    25244611.343 6 132661384.40806     -2571.290 6        37.108                                                                    25244611.094 6  99065414.00706     -1920.072 6        41.533    25244610.672 7 101649589.20307     -1970.189 7        45.127
G28         7.000    23596145.222 4                       593.374 4        26.192
G21         8.000    21758531.863 6 114341861.22806     -2809.050 6        39.171
G02         9.000    20899750.712 7 109828933.30407     -1510.224 7        42.087                                    20899744.897 4  85580929.70204     -1176.798 4        26.024
G17        11.000    22648856.964 6 119020505.72006       478.712 6        37.342                                    22648859.295 2  92743157.34502       373.023 2        14.524
G04        12.000    23360756.935 5 122761583.84105      2751.024 5        32.431                                    23360744.291 1  95658371.66401      2143.635 1         5.000    23360746.723 5                      2143.092 5        30.913
E12        13.000    26531916.105 5 139426205.52605      1581.766 5        35.843                                                                    26531914.474 6 104116935.75806      1181.102 6        38.429    26531913.486 5 106833102.17505      1211.830 5        35.333
E29        14.000    23915022.246 8 125674346.81408       382.490 8        49.273                                                                    23915020.740 8  93847690.67008       285.639 8        50.213    23915019.638 7  96295860.62607       293.104 7        46.727
E24        15.000    28538713.364 5 149971978.01405     -2524.832 5        31.683                                                                    28538702.320 6 111991954.02506     -1885.385 6        36.669
E26        19.000    25182469.735 4 132334807.86904     -2896.784 4        29.678                                                                    25182463.074 5  98821388.80605     -2163.610 5        35.286    25182462.452 6 101399381.06206     -2219.975 6        39.258
E19        20.000    25961798.097 5 136430168.36205      2142.387 5        31.298                                                                    25961796.102 5 101879690.06005      1600.034 5        34.910    25961794.320 5 104537417.08105      1641.160 5        30.023
R06        21.000    19321824.343 5 103104954.97005      -555.549 5        32.683
S36        23.000    38341626.617 6 201486552.26206      -854.307 6        37.055
S23        24.000    38292513.945 6 201228484.67806      -851.247 6        41.299
R20        26.000    22442898.707 5 120012264.90705     -4781.894 5        31.260                                                                    22442900.763 6  93342893.88806     -3719.326 6        38.652
R05        27.000    22096827.269 5 118120165.66505     -4621.560 5        34.348                                                                    22096821.464 5  91871290.41805     -3594.740 5        35.419
E33        28.000    23347392.136 7 122691363.00907      -610.437 7        46.325                                                                    23347389.808 7  91620220.71307      -455.924 7        45.195    23347390.246 7  94010267.91607      -467.699 7        47.449
E10        29.000                                                                                                                                                                                                    28547227.727 4                      1452.333 4        28.768
R21        30.000    19370780.239 7 103656950.47007     -1748.900 7        47.714                                                                    19370779.523 6  80622106.55406     -1360.219 6        36.170
R13        31.000    24721069.145 4                     -3338.354 4        27.329
R14        32.000    23957806.999 6 127708601.17506      -196.082 6        36.707
R07        34.000    21569548.150 5                      2537.385 5        35.214
R22        35.000    21060477.125 7 112422666.01507      2323.126 7        46.111                                                                    21060475.366 7  87439561.96407      1806.795 7        44.524
C32        36.000                                                                                                                                    22170346.482 8 115446775.67908       201.336 8        51.193                                                                    22170346.757 7  93810010.49007       163.531 7        47.310
C30        38.000                                                                                                                                    22058938.923 7 114866696.80107      -853.805 7        45.196                                                                    22058940.233 7  93338616.11907      -693.899 7        42.933
C20        39.000                                                                                                                                    25978611.060 4                      2232.784 4        26.826
C16        45.000                                                                                                                                    39239128.233 5 204328466.67905         6.229 5        32.275    39239129.406 6 157999697.49606         4.875 6        37.482
C39        46.000                                                                                                                                    39105537.564 5 203632788.09305      -429.904 5        35.109                                                                    39105529.329 4 165468289.41604      -349.335 4        29.640
C09        47.000                                                                                                                                                                                                    39712642.547 6 159906366.29806       401.702 6        36.397
C41        49.000                                                                                                                                    23161382.775 7 120607468.25907     -2884.971 7        44.311                                                                    23161386.486 7  98003441.88707     -2344.308 7        45.324
C06        50.000                                                                                                                                    38886334.435 4 202491384.46304       128.547 4        28.483
C27        52.000                                                                                                                                    23231615.256 7 120973403.71507     -3569.623 7        42.563
C29        54.000                                                                                                                                    24918718.694 7 129758320.46407      1957.172 7        43.892                                                                    24918716.545 7 105439298.40607      1590.228 7        44.518
I01        59.000   374932088.017 6 168173235.46706     -2797.987 6        36.673
I09        60.000    37251105.167 6 146181334.09806      -644.809 6        36.968
> 2025 01 02 00 30  5.0000000  0 40
G03         1.000    20509209.204 5 107776793.97805       528.780 5        35.076                                    20509208.330 5  83981760.55505       412.051 5        34.457    20509209.755 7  83981895.52207       411.965 7        42.184
G19         2.000    24170156.875 5 127015034.21405      2309.249 5        31.004                                    24170148.467 1  98972704.48801      1799.222 1         9.238
G32         3.000                                                                                                                                                                    23841565.557 4                     -2977.549 4        27.844
E25         4.000    28634784.190 4                      -478.358 4        28.863                                                                    28634767.070 3 112369030.36903      -357.524 3        23.124    28634760.274 4                      -366.529 4        24.226
E07         5.000    25247059.267 6 132674246.29606     -2573.126 6        37.894                                                                    25247058.676 7  99075018.66507     -1921.474 7        42.070    25247058.350 7 101659444.41707     -1971.617 7        45.384
G28         7.000    23595576.727 4                       590.450 4        25.955
G21         8.000    21761204.635 6 114355911.62806     -2810.766 6        40.529
G02         9.000    20901189.619 6 109836491.50806     -1512.690 6        41.661                                    20901182.792 4  85586819.23604     -1178.720 4        26.216
G31        10.000    23892313.217 5                      2009.461 5        32.174
G17        11.000    22648400.641 5 119018120.40505       476.003 5        35.129                                    22648405.063 2  92741298.60402       370.922 2        15.571
G04        12.000    23358138.159 4 122747834.23604      2749.516 4        26.647                                    23358127.703 1  95647657.46901      2142.450 1         2.800    23358128.633 5                      2142.521 5        31.668
E12        13.000    26530411.547 5 139418299.25005      1581.123 5        35.743                                                                    26530409.974 6 104111031.72306      1180.933 6        38.501    26530409.306 5 106827044.14605      1211.545 5        35.857
E29        14.000    23914659.601 8 125672440.83508       380.228 8        48.912                                                                    23914658.068 8  93846267.37408       283.940 8        50.260    23914657.013 7  96294400.19307       291.393 7        46.931
E24        15.000    28541116.244 4 149984607.06304     -2526.708 4        28.417                                                                    28541104.568 6 112001384.78506     -1886.912 6        36.072    28541088.185 5                     -1935.949 5        31.404
E26        19.000    25185225.962 4 132349297.37204     -2898.543 4        28.891                                                                    25185219.154 5  98832208.89205     -2164.434 5        33.461    25185219.995 6 101410483.42506     -2220.895 6        39.667
E19        20.000    25959759.802 5 136419459.55605      2141.984 5        31.909                                                                    25959758.530 5 101871693.25105      1599.090 5        34.657    25959757.340 5 104529211.62605      1641.182 5        30.249
R06        21.000    19322347.866 5 103107742.14005      -559.073 5        33.575
S36        23.000    38342435.815 6 201490824.48906      -854.397 6        36.900
S23        24.000    38293322.898 6 201232741.85106      -851.312 6        41.240
R20        26.000    22447370.634 5 120036179.73005     -4783.917 5        30.075                                                                    22447373.044 6  93361494.25706     -3720.522 6        38.213
R05        27.000    22101151.579 5 118143278.25705     -4623.156 5        31.962                                                                    22101147.765 5  91889266.88905     -3595.551 5        35.210
E33        28.000    23347973.966 7 122694420.02807      -612.093 7        46.999                                                                    23347971.620 7  91622503.55307      -457.091 7        45.099    23347971.993 7  94012610.31107      -469.010 7        47.836
E10        29.000                                                                                                                                    28545385.641 5                      1415.932 5        30.106    28545422.806 4                      1452.873 4        28.607
R21        30.000    19372415.602 7 103665705.99407     -1753.017 7        46.726                                                                    19372415.588 5  80628916.40705     -1363.081 5        35.900
R13        31.000    24724192.368 4                     -3341.260 4        26.934
R14        32.000    23957993.787 6 127709593.09306      -200.109 6        36.737                                                                    23958001.103 4                      -156.089 4        27.006
R07        34.000    21567182.142 6 115450793.54116      2535.041 6        40.536                                                                    21567246.699 3                      1972.924 3        20.333
R22        35.000    21058301.939 7 112411056.85507      2320.825 7        45.904                                                                    21058300.539 7  87430532.62707      1805.030 7        43.846
C32        36.000                                                                                                                                    22170154.090 8 115445775.10808       199.165 8        51.309                                                                    22170154.567 7  93809197.44307       161.925 7        47.254
C30        38.000                                                                                                                                    22059759.949 7 114870973.76107      -856.614 7        43.446                                                                    22059761.624 7  93342091.49907      -695.992 7        42.900
C20        39.000                                                                                                                                    25976467.320 4                      2231.617 4        28.645
C16        45.000                                                                                                                                    39239124.190 5 204328439.20205         5.526 5        32.784    39239125.869 6 157999676.29706         3.874 6        37.539
C39        46.000                                                                                                                                    39105950.448 5 203634940.66305      -431.002 5        34.686                                                                    39105943.212 4 165470038.54104      -350.085 4        29.346
C09        47.000                                                                                                                                    39712184.069 3                       518.647 3        21.167    39712144.125 6 159904359.27706       401.297 6        36.397
C41        49.000                                                                                                                                    23164154.373 7 120621897.37007     -2886.407 7        44.474                                                                    23164157.375 7  98015166.72907     -2345.455 7        45.081
C06        50.000                                                                                                                                    38886214.884 4 202490743.13904       127.377 4        28.445
C27        52.000                                                                                                                                    23235043.317 6 120991257.50606     -3571.473 6        41.878                                                                    23235047.214 6  98315117.98116     -2902.214 6        38.195
C29        54.000                                                                                                                                    24916840.017 7 129748539.01907      1955.793 7        43.934                                                                    24916838.063 7 105431350.19607      1589.278 7        44.355
I01        59.000   374935654.604 6 168187226.92406     -2798.007 6        36.522
I09        60.000    37251926.267 6 146184559.43206      -645.065 6        36.828
> 2025 01 02 00 30 10.0000000  0 37
G03         1.000    20508710.333 6 107774154.53206       526.704 6        40.858                                    20508706.216 5  83979703.84905       410.423 5        35.162    20508706.381 6  83979838.84806       410.441 6        41.511
G19         2.000    24167959.931 5 127003493.51405      2307.217 5        31.208                                    24167952.507 1  98963711.76901      1797.772 1         7.625
G32         3.000    23845164.995 4                     -3820.936 4        24.180                                                                                                    23845199.769 4                     -2978.627 4        28.502
E25         4.000    28635250.477 4                      -480.850 4        27.689                                                                                                                                    28635217.556 3                      -369.558 3        22.229
E07         5.000    25249509.335 6 132687116.62606     -2575.067 6        39.006                                                                    25249507.807 7  99084629.63007     -1922.955 7        42.286    25249507.577 7 101669306.10007     -1973.149 7        45.669
G28         7.000                                                                                                                                                                    23594995.084 4                       458.546 4        26.168
G21         8.000    21763879.888 6 114369970.07506     -2812.621 6        41.187
G02         9.000    20902628.052 6 109844060.83506     -1515.097 6        40.787                                    20902622.883 4  85592717.40304     -1180.599 4        26.695
G17        11.000    22647947.895 5 119015748.62905       473.222 5        32.886                                    22647952.740 2  92739450.44902       368.753 2        16.528    22647941.060 4                       368.092 4        26.970
G04        12.000                                                                                                                                                                    23355514.724 5                      2141.441 5        31.079
E12        13.000    26528908.515 5 139410394.81505      1580.473 5        35.157                                                                    26528905.940 6 104105129.07906      1180.193 6        38.538    26528905.090 6 106820987.49406      1211.023 6        36.386
E29        14.000    23914298.690 8 125670545.12908       378.031 8        48.477                                                                    23914297.355 8  93844851.74408       282.314 8        50.378    23914296.297 7  96292947.63007       289.698 7        47.125
E24        15.000    28543522.761 4 149997244.37104     -2529.014 4        28.161                                                                    28543509.091 5 112010821.68805     -1888.081 5        34.714    28543496.592 5                     -1937.162 5        32.952
E26        19.000    25187983.608 4 132363792.36504     -2899.724 4        29.810                                                                    25187975.958 5  98843033.06505     -2165.166 5        31.540    25187979.002 6 101421589.98606     -2221.781 6        40.536
E19        20.000    25957722.770 5 136408754.66905      2140.423 5        32.341                                                                    25957721.181 5 101863699.30505      1598.410 5        34.343    25957721.827 5 104521009.14905      1640.390 5        30.943
R06        21.000    19322872.592 5 103110546.91005      -562.730 5        33.778
S36        23.000    38343249.091 6 201495096.29506      -854.487 6        37.070
S23        24.000    38294132.288 6 201236998.57506      -851.503 6        41.521
R20        26.000    22451842.818 4 120060102.43604     -4785.334 4        28.578                                                                    22451846.277 6  93380100.86206     -3721.872 6        37.720
R05        27.000    22105481.946 4 118166395.51504     -4624.098 4        28.360                                                                    22105472.237 5  91907247.04005     -3596.706 5        35.648
E33        28.000    23348557.338 7 122697484.41507      -613.721 7        47.837                                                                    23348554.813 7  91624791.89307      -458.283 7        44.983    23348555.038 8  94014958.35008      -470.252 8        48.241
E10        29.000                                                                                                                                    28543585.732 5                      1416.147 5        30.075    28543616.221 4                      1453.562 4        26.934
R21        30.000    19374056.419 7 103674481.15907     -1757.080 7        47.660                                                                    19374055.350 5  80635741.54105     -1366.556 5        35.205
R07        34.000    21564817.820 7                      2532.970 7        43.151
R22        35.000    21056129.795 7 112399457.85407      2318.763 7        46.067                                                                    21056127.574 7  87421511.18207      1803.375 7        43.090
C32        36.000                                                                                                                                    22169963.897 8 115444784.53708       196.994 8        51.286                                                                    22169964.224 7  93808392.51607       160.182 7        47.205
C30        38.000                                                                                                                                    22060583.778 6 114875263.97006      -859.440 6        41.630                                                                    22060585.714 7  93345577.61607      -698.296 7        43.221
C20        39.000                                                                                                                                    25974332.710 5                      2231.065 5        31.857
C16        45.000                                                                                                                                    39239120.014 5 204328416.03705         4.373 5        33.365    39239123.244 6 157999658.36606         3.305 6        37.788
C39        46.000                                                                                                                                    39106364.703 5 203637097.87005      -432.330 5        33.964                                                                    39106357.114 4 165471791.40104      -350.589 4        29.346
C09        47.000                                                                                                                                    39711686.119 3                       517.600 3        22.609    39711646.062 6 159902354.72906       400.850 6        36.336
C41        49.000                                                                                                                                    23166926.570 7 120636332.86207     -2887.894 7        45.023                                                                    23166929.521 7  98026896.73707     -2346.466 7        44.990
C06        50.000                                                                                                                                    38886092.464 4 202490105.89504       127.375 4        28.218
C27        52.000                                                                                                                                    23238473.556 6 121009119.20806     -3573.274 6        41.757                                                                    23238480.106 6  98329632.04906     -2903.434 6        40.234
C29        54.000                                                                                                                                    24914961.988 7 129738763.56507      1954.351 7        44.223                                                                    24914960.613 7 105423406.84207      1588.259 7        44.160
I01        59.000   374939220.142 6 168201218.96706     -2798.711 6        36.786
I09        60.000    37252748.758 6 146187785.47606      -645.325 6        37.142
> 2025 01 02 00 30 15.0000000  0 39
G03         1.000    20508211.687 7 107771525.08307       524.971 7        42.842                                    20508205.962 5  83977654.93705       409.066 5        35.986    20508205.771 6  83977789.95406       409.146 6        40.210
G19         2.000    24165766.592 5 126991962.31905      2305.374 5        31.283                                    24165758.371 1  98954726.42801      1796.407 1         8.667
G32         3.000    23848795.398 4                     -3824.207 4        26.671
E25         4.000                                                                                                                                    28635677.890 3                      -362.885 3        20.452    28635675.351 3                      -369.088 3        20.833
E07         5.000    25251959.640 6 132699995.79606     -2576.670 6        39.580                                                                    25251958.616 7  99094247.19007     -1924.042 7        42.591    25251958.466 7 101679174.56007     -1974.243 7        45.931
G28         7.000                                                                                                                                                                    23594435.241 4                       455.911 4        29.270
G21         8.000    21766556.329 6 114384036.91906     -2814.168 6        40.801
G02         9.000    20904072.102 6 109851641.66306     -1517.179 6        40.710                                    20904065.339 4  85598624.53904     -1182.218 4        27.581
G17        11.000    22647499.206 5 119013390.95905       470.385 5        31.147                                    22647502.913 2  92737613.25502       366.553 2        17.170    22647494.743 5                       366.461 5        30.966
G04        12.000    23352897.588 3                      2747.272 3        23.524                                                                                                    23352898.445 5                      2141.039 5        31.011
E12        13.000    26527405.441 5 139402492.61805      1580.151 5        35.424                                                                    26527402.327 6 104099228.06906      1180.058 6        38.838    26527401.704 6 106814932.55606      1210.834 6        36.938
E29        14.000    23913939.814 8 125668660.13208       376.007 8        48.432                                                                    23913938.769 8  93843444.11008       280.778 8        50.559    23913937.442 7  96291503.27107       288.108 7        47.151
E24        15.000    28545929.495 4 150009890.15404     -2529.835 4        27.964                                                                    28545915.800 5 112020265.01805     -1889.209 5        32.880    28545904.507 5                     -1938.550 5        33.323
E26        19.000    25190744.072 5 132378293.27305     -2900.653 5        32.090                                                                    25190733.529 5  98853861.69105     -2166.223 5        30.091    25190738.646 6 101432701.08406     -2222.510 6        40.858
E19        20.000    25955686.618 5 136398054.15005      2139.716 5        33.353                                                                    25955684.527 5 101855708.66905      1597.809 5        33.647    25955686.493 5 104512810.10805      1639.399 5        31.547
R06        21.000    19323401.945 5 103113369.82105      -566.279 5        33.731
S36        23.000    38344063.137 6 201499368.11706      -854.334 6        37.206
S23        24.000    38294939.935 6 201241255.49706      -851.327 6        41.063
R20        26.000    22456318.815 4 120084033.54304     -4786.947 4        27.784                                                                    22456321.028 6  93398713.94506     -3723.036 6        37.248
R05        27.000                                                                                                                                    22109796.609 6  91925231.46606     -3597.126 6        36.181
E33        28.000    23349142.296 8 122700556.59208      -615.177 8        48.498                                                                    23349139.251 7  91627086.04907      -459.309 7        44.984    23349139.531 8  94017312.35508      -471.340 8        48.417
E10        29.000    28541792.780 4 149988134.86814      1896.889 4        27.928                                                                    28541780.878 4                      1416.185 4        29.716    28541808.930 4                      1453.196 4        24.827
R21        30.000    19375701.888 8 103683276.27208     -1760.945 8        48.821                                                                    19375699.037 5  80642582.17805     -1369.537 5        35.000
R13        31.000    24730444.237 3                     -3347.310 3        22.476
R14        32.000    23958360.308 5 127711636.07415      -208.218 5        33.401                                                                    23958360.147 4                      -161.750 4        28.853
R07        34.000    21562456.032 7 115425463.72217      2530.852 7        42.942                                                                    21562474.901 4                      1968.391 4        28.654
R22        35.000    21053959.215 7 112387869.47507      2316.687 7        46.368                                                                    21053957.596 7  87412497.97007      1801.879 7        42.900
C32        36.000                                                                                                                                    22169775.867 8 115443804.37908       195.089 8        51.107                                                                    22169775.920 7  93807596.05407       158.561 7        47.200
C30        38.000                                                                                                                                    22061411.194 6 114879567.84906      -862.127 6        40.072                                                                    22061412.537 7  93349074.85207      -700.390 7        43.689
C20        39.000                                                                                                                                    25972207.285 5 135244089.30315      2230.284 5        34.343
C16        45.000                                                                                                                                    39239118.020 5 204328397.50605         2.996 5        33.473    39239122.583 6 157999644.03606         2.613 6        37.784
C39        46.000                                                                                                                                    39106780.676 5 203639260.07705      -432.942 5        33.257                                                                    39106772.879 4 165473548.39304      -352.011 4        28.995
C09        47.000                                                                                                                                    39711183.146 3                       518.020 3        23.771    39711149.166 6 159900353.01906       400.284 6        36.329
C41        49.000                                                                                                                                    23169698.868 7 120650775.17807     -2889.086 7        44.993                                                                    23169702.983 7  98038632.31407     -2347.563 7        44.557
C06        50.000                                                                                                                                    38885971.314 4 202489473.37304       125.736 4        28.028
C27        52.000                                                                                                                                    23241905.865 6 121026989.23906     -3574.740 6        41.225                                                                    23241911.660 6  98344152.92606     -2904.785 6        41.294
C29        54.000                                                                                                                                    24913085.865 7 129728994.54607      1953.219 7        44.748                                                                    24913084.408 7 105415468.73407      1587.189 7        43.884
I01        59.000   374942785.491 6 168215211.85806     -2798.557 6        36.991
I09        60.000    37253571.803 6 146191012.53906      -645.520 6        37.410
> 2025 01 02 00 30 20.0000000  0 40
G03         1.000    20507712.313 7 107768905.74007       522.764 7        43.691                                    20507707.385 6  83975613.88506       407.347 6        36.367    20507706.992 6  83975748.89406       407.271 6        38.922
G19         2.000    24163575.729 5 126980440.68705      2303.314 5        33.814                                    24163566.046 1  98945748.55701      1794.788 1        10.222
G32         3.000    23852439.216 4                     -3825.540 4        29.583                                                                                                    23852447.764 4                     -2980.712 4        27.868
E25         4.000                                                                                                                                    28636134.170 3                      -363.872 3        20.595    28636135.414 3                      -372.378 3        22.895
E07         5.000    25254412.062 6 132712883.88106     -2578.486 6        39.904                                                                    25254411.130 7  99103871.41807     -1925.565 7        42.895    25254410.893 7 101689049.85907     -1975.847 7        45.908
G28         7.000    23593947.456 5                       582.278 5        32.347                                                                                                    23593880.898 5                       453.503 5        30.491
G21         8.000    21769234.279 6 114398112.20306     -2815.957 6        40.358
G02         9.000    20905518.782 6 109859234.07106     -1519.600 6        41.826                                    20905510.124 4  85604540.70604     -1184.099 4        28.047
G31        10.000    23886580.338 5 125524834.20715      2004.785 5        34.181
G17        11.000    22647054.330 5 119011047.35405       467.222 5        30.219                                    22647055.603 3  92735787.03403       364.105 3        18.358    22647050.563 5                       364.023 5        32.671
G04        12.000    23350288.248 4                      2746.297 4        26.922                                                                                                    23350285.081 5                      2139.933 5        30.574
E12        13.000    26525903.204 5 139394592.75805      1579.727 5        35.400                                                                    26525898.731 6 104093328.81006      1179.620 6        38.694    26525898.363 6 106808879.38906      1210.291 6        37.233
E29        14.000    23913583.118 8 125666785.90708       373.683 8        48.440                                                                    23913582.226 8  93842044.52508       279.030 8        50.737    23913580.745 7  96290067.16807       286.336 7        47.047
E24        15.000    28548337.783 4 150022544.81104     -2532.084 4        29.469                                                                    28548323.937 5 112029714.87205     -1890.656 5        30.091    28548311.479 5                     -1939.859 5        33.186
E26        19.000    25193505.758 5 132392800.22705     -2902.235 5        33.808                                                                    25193492.110 4  98864694.82504     -2167.269 4        28.180    25193499.595 6 101443816.76606     -2223.599 6        41.404
E19        20.000    25953650.960 5 136387358.00205      2138.757 5        33.269                                                                    25953649.187 5 101847721.27005      1597.257 5        33.006    25953651.506 5 104504614.34505      1638.641 5        32.353
R06        21.000    19323933.769 5 103116210.91805      -569.995 5        33.976
S36        23.000    38344877.008 6 201503639.65206      -854.263 6        37.516
S23        24.000    38295751.570 6 201245512.59806      -851.541 6        40.906
R20        26.000    22460792.309 4 120107973.31904     -4789.200 4        26.275                                                                    22460796.846 6  93417333.66506     -3724.558 6        37.055
R05        27.000                                                                                                                                    22114124.899 6  91943220.13106     -3598.337 6        36.401
E33        28.000    23349728.320 8 122703636.63108      -616.814 8        48.674                                                                    23349725.343 7  91629386.08307      -460.679 7        44.912    23349725.502 8  94019672.38008      -472.611 8        48.473
E10        29.000    28539984.366 4 149978652.47904      1896.500 4        25.579                                                                    28539975.098 4                      1416.215 4        29.403    28540000.838 3                      1451.998 3        22.552
R21        30.000    19377349.890 8 103692091.39108     -1765.156 8        49.240                                                                    19377347.735 6  80649438.36706     -1372.849 6        36.359
R13        31.000    24733585.941 3                     -3349.884 3        22.324
R14        32.000    23958558.038 5                      -212.656 5        32.647                                                                    23958567.081 5                      -165.370 5        30.513
R07        34.000    21560089.929 7 115412814.90117      2528.527 7        42.074                                                                    21560117.502 4                      1966.704 4        28.853
R22        35.000    21051790.452 7 112376291.79507      2314.329 7        46.277                                                                    21051789.332 7  87403493.10607      1800.082 7        43.716
C32        36.000                                                                                                                                    22169589.582 8 115442834.71908       192.814 8        51.185                                                                    22169589.694 7  93806808.13707       156.878 7        47.109
C30        38.000                                                                                                                                    22062240.432 6 114883885.41906      -864.829 6        40.689                                                                    22062241.919 7  93352583.27807      -702.678 7        43.900
C20        39.000                                                                                                                                    25970070.002 5 135232940.08205      2229.169 5        34.362
C16        45.000                                                                                                                                    39239115.332 5 204328383.70005         2.201 5        32.234    39239120.830 6 157999633.37206         1.728 6        37.433
C39        46.000                                                                                                                                    39107196.348 5 203641427.42005      -434.032 5        32.473                                                                    39107188.815 5 165475309.49905      -352.296 5        30.053
C09        47.000                                                                                                                                    39710677.951 4                       516.698 4        26.563    39710651.413 5 159898354.21605       399.621 5        35.981
C41        49.000                                                                                                                                    23172472.268 7 120665224.39507     -2890.627 7        45.238                                                                    23172477.492 7  98050373.49007     -2348.701 7        43.943
C06        50.000                                                                                                                                    38885849.854 4 202488845.47504       124.949 4        27.066
C27        52.000                                                                                                                                    23245339.512 6 121044867.67006     -3576.630 6        40.737                                                                    23245344.139 6  98358680.61906     -2906.037 6        41.900
C29        54.000                                                                                                                                    24911211.110 7 129719232.02907      1951.736 7        45.144                                                                    24911209.554 7 105407535.90907      1586.147 7        43.594
I01        59.000   374946351.364 6 168229205.71006     -2799.083 6        36.692
I09        60.000    37254393.947 6 146194240.67706      -645.604 6        37.164
> 2025 01 02 00 30 25.0000000  0 40
G03         1.000    20507213.733 7 107766296.29207       521.036 7        43.846                                    20507210.463 6  83973580.55006       405.996 6        36.469    20507210.738 6  83973715.57806       405.811 6        38.168
G19         2.000    24161386.391 5 126968928.46905      2301.518 5        35.329                                    24161375.600 1  98936777.96801      1793.392 1        11.259
G32         3.000    23856086.446 5                     -3826.787 5        30.958                                                                                                    23856091.775 4                     -2981.470 4        27.832
E25         4.000    28636654.781 3                      -486.197 3        21.857                                                                    28636597.305 3                      -362.047 3        20.857    28636598.759 3                      -372.502 3        23.867
E07         5.000    25256865.510 6 132725780.72806     -2580.150 6        40.167                                                                    25256865.181 7  99113502.19007     -1926.670 7        42.902    25256865.019 7 101698931.86107     -1976.948 7        45.845
G28         7.000    23593382.278 5                       579.912 5        34.381                                                                                                    23593332.351 5                       451.431 5        31.902
G21         8.000    21771914.369 6 114412195.85906     -2817.374 6        40.255
G02         9.000    20906966.128 7 109866837.89707     -1521.715 7        43.299                                    20906957.128 4  85610465.75804     -1185.748 4        28.417
G31        10.000    23884669.892 5 125514815.00205      2002.967 5        32.365
G17        11.000    22646609.488 4 119008717.61304       464.570 4        29.725                                    22646610.641 2  92733971.63502       362.049 2        17.472    22646604.644 5                       361.770 5        31.577
G04        12.000    23347677.071 5                      2745.368 5        31.940                                                                                                    23347672.701 4                      2139.468 4        29.365
E12        13.000    26524400.458 6 139386695.03806      1579.544 6        36.098                                                                    26524395.753 6 104087431.17306      1179.417 6        38.255    26524395.106 6 106802827.88606      1210.265 6        37.342
E29        14.000    23913228.745 8 125664922.29908       371.742 8        48.443                                                                    23913227.687 8  93840652.87108       277.634 8        50.736    23913225.948 7  96288639.21207       284.915 7        47.030
E24        15.000    28550748.179 5 150035207.84305     -2532.980 5        30.906                                                                                                                                    28550719.948 5                     -1941.213 5        32.719
E26        19.000    25196268.524 5 132407312.94705     -2902.931 5        35.219                                                                    25196252.109 4  98875532.17804     -2167.774 4        27.473    25196261.666 6 101454936.89506     -2224.347 6        41.959
E19        20.000    25951616.346 5 136376666.09705      2138.175 5        33.988                                                                    25951614.247 5 101839737.05705      1596.739 5        32.395    25951616.660 5 104496421.85105      1638.252 5        32.928
R06        21.000    19324470.171 5 103119069.86305      -573.204 5        34.176
S36        23.000    38345687.248 6 201507912.00906      -854.180 6        37.478
S23        24.000    38296559.735 6 201249769.80506      -851.252 6        40.839
R20        26.000    22465270.719 4 120131921.22504     -4790.003 4        26.036                                                                    22465275.654 6  93435959.91606     -3725.841 6        36.798
R05        27.000                                                                                                                                    22118452.016 6  91961212.86906     -3598.888 6        36.495
E33        28.000    23350315.986 8 122706724.38708      -618.135 8        49.123                                                                    23350312.794 7  91631691.86707      -461.691 7        44.692    23350312.950 8  94022038.32208      -473.730 8        48.509
E10        29.000    28538174.786 3                      1895.768 3        19.045                                                                    28538168.107 4                      1416.349 4        29.507    28538190.439 3                      1454.843 3        21.786
R21        30.000    19378999.789 8 103700926.40908     -1768.899 8        49.105                                                                    19378997.275 5  80656310.03605     -1375.592 5        35.410
R13        31.000    24736726.943 3                     -3352.049 3        23.314
R14        32.000                                                                                                                                    23958777.457 5                      -168.226 5        31.223
R07        34.000    21557722.956 7 115400176.79107      2526.656 7        42.195                                                                    21557762.831 4                      1964.947 4        26.072
R22        35.000    21049623.440 7 112364724.64807      2312.635 7        46.785                                                                    21049622.150 7  87394496.44907      1798.553 7        44.232
C32        36.000                                                                                                                                    22169405.639 8 115441875.37808       190.943 8        51.403                                                                    22169405.524 7  93806028.60007       155.058 7        47.095
C30        38.000                                                                                                                                    22063072.302 7 114888216.58407      -867.505 7        42.643                                                                    22063073.966 7  93356102.73107      -705.009 7        44.334
C20        39.000                                                                                                                                    25967931.082 5 135221794.51605      2229.014 5        32.934
C16        45.000                                                                                                                                    39239115.122 5 204328374.45205         1.559 5        32.096    39239119.131 6 157999626.24106         1.246 6        37.391
C39        46.000                                                                                                                                    39107613.093 5 203643599.71005      -434.541 5        30.732                                                                    39107605.628 5 165477074.64205      -353.190 5        30.143
C09        47.000                                                                                                                                                                                                    39710154.498 5 159896358.12705       399.069 5        35.724
C41        49.000                                                                                                                                    23175247.469 7 120679680.32007     -2891.761 7        45.543                                                                    23175253.621 7  98062120.10607     -2349.882 7        43.429
C06        50.000                                                                                                                                    38885731.521 4 202488222.12304       124.193 4        27.844
C27        52.000                                                                                                                                    23248774.861 6 121062754.35806     -3577.969 6        40.148                                                                    23248778.966 7  98373215.02107     -2907.561 7        42.373
C29        54.000                                                                                                                                    24909338.165 7 129709475.87407      1950.706 7        45.941                                                                    24909335.783 7 105399608.24607      1585.036 7        43.297
I01        59.000   374949917.670 6 168243200.37606     -2798.883 6        37.093
I09        60.000    37255216.413 6 146197469.75906      -645.872 6        37.009
> 2025 01 02 00 30 30.0000000  0 40
G03         1.000    20506717.872 7 107763696.79307       518.771 7        42.671                                    20506715.231 5  83971554.97405       404.229 5        35.943    20506715.719 6  83971689.96806       404.290 6        37.637
G19         2.000    24159198.612 6 126957425.69306      2299.464 6        36.756                                    24159186.946 1  98927814.76801      1791.759 1        11.481
G32         3.000    23859729.155 4                     -3828.132 4        27.964                                                                                                    23859736.576 4                     -2983.573 4        26.216
E25         4.000                                                                                                                                    28637064.285 3                      -366.054 3        20.833    28637064.568 3                      -375.932 3        21.929
E07         5.000    25259320.697 6 132738686.37306     -2582.292 6        40.088                                                                    25259320.922 7  99123139.52307     -1928.140 7        42.918    25259320.642 7 101708820.60607     -1978.529 7        45.511
G28         7.000                                                                                                                                                                    23592788.164 5                       449.587 5        30.966
G21         8.000    21774596.195 6 114426287.91906     -2819.215 6        40.110
G02         9.000    20908415.061 7 109874453.17607     -1524.225 7        44.623                                    20908406.341 4  85616399.73404     -1187.708 4        28.815
G31        10.000    23882763.298 5 125504803.70005      2001.616 5        30.853
G17        11.000    22646167.947 5 119006401.86005       461.670 5        34.514                                    22646168.648 2  92732167.16402       359.719 2        15.714    22646163.966 5                       359.866 5        30.279
G04        12.000    23345067.231 5                      2744.360 5        34.581                                                                                                    23345060.330 4                      2138.484 4        26.407
E12        13.000    26522897.711 6 139378799.51706      1578.943 6        36.163                                                                    26522892.902 6 104081535.17606      1178.763 6        37.558    26522892.267 6 106796778.09006      1209.718 6        37.452
E29        14.000    23912876.127 8 125663069.36408       369.390 8        48.452                                                                    23912875.138 8  93839269.18908       275.879 8        50.728    23912873.166 7  96287219.43007       283.031 7        46.903
