     3.04           OBSERVATION DATA    M                   RINEX VERSION / TYPE
ssrcrin-15.6.1x                         20250102 140000 UTC PGM / RUN BY / DATE 
(00000000023479385599111004) Septentrio proprietary         COMMENT             
ract                                                        MARKER NAME         
01                                                          MARKER NUMBER       
geodetic                                                    MARKER TYPE         
NFB                 CLIMERS@TUW                             OBSERVER / AGENCY   
3296359             SEPT ASTERX SB3 PROB4.14.4              REC # / TYPE / VERS 
Unknown             Unknown                                 ANT # / TYPE        
  4127446.6933  1206914.7410  4695542.7624                  APPROX POSITION XYZ 
        0.0000        0.0000        0.0000                  ANTENNA: DELTA H/E/N
G   23 X1  C1C L1C D1C S1C C1W S1W C2W L2W D2W S2W C2L L2L  SYS / # / OBS TYPES 
       D2L S2L C5Q L5Q D5Q S5Q C1L L1L D1L S1L              SYS / # / OBS TYPES 
E   21 X1  C1C L1C D1C S1C C6C L6C D6C S6C C5Q L5Q D5Q S5Q  SYS / # / OBS TYPES 
       C7Q L7Q D7Q S7Q C8Q L8Q D8Q S8Q                      SYS / # / OBS TYPES 
S    9 X1  C1C L1C D1C S1C C5I L5I D5I S5I                  SYS / # / OBS TYPES 
R   17 X1  C1C L1C D1C S1C C2P L2P D2P S2P C2C L2C D2C S2C  SYS / # / OBS TYPES 
       C3Q L3Q D3Q S3Q                                      SYS / # / OBS TYPES 
C   25 X1  C1P L1P D1P S1P C5P L5P D5P S5P C2I L2I D2I S2I  SYS / # / OBS TYPES 
       C7I L7I D7I S7I C6I L6I D6I S6I C7D L7D D7D S7D      SYS / # / OBS TYPES 
J   17 X1  C1C L1C D1C S1C C2L L2L D2L S2L C5Q L5Q D5Q S5Q  SYS / # / OBS TYPES 
       C1L L1L D1L S1L                                      SYS / # / OBS TYPES 
I    5 X1  C5A L5A D5A S5A                                  SYS / # / OBS TYPES 
SEPTENTRIO RECEIVERS OUTPUT ALIGNED CARRIER PHASES.         COMMENT             
NO FURTHER PHASE SHIFT APPLIED IN THE RINEX ENCODER.        COMMENT             
G L1C                                                       SYS / PHASE SHIFT   
G L2W                                                       SYS / PHASE SHIFT   
G L2L  0.00000                                              SYS / PHASE SHIFT   
G L5Q  0.00000                                              SYS / PHASE SHIFT   
G L1L  0.00000                                              SYS / PHASE SHIFT   
E L1C  0.00000                                              SYS / PHASE SHIFT   
E L6C  0.00000                                              SYS / PHASE SHIFT   
E L5Q  0.00000                                              SYS / PHASE SHIFT   
E L7Q  0.00000                                              SYS / PHASE SHIFT   
E L8Q  0.00000                                              SYS / PHASE SHIFT   
S L1C                                                       SYS / PHASE SHIFT   
S L5I                                                       SYS / PHASE SHIFT   
R L1C                                                       SYS / PHASE SHIFT   
R L2P  0.00000                                              SYS / PHASE SHIFT   
R L2C                                                       SYS / PHASE SHIFT   
R L3Q  0.00000                                              SYS / PHASE SHIFT   
C L1P  0.00000                                              SYS / PHASE SHIFT   
C L5P  0.00000                                              SYS / PHASE SHIFT   
C L2I                                                       SYS / PHASE SHIFT   
C L7I                                                       SYS / PHASE SHIFT   
C L6I                                                       SYS / PHASE SHIFT   
C L7D                                                       SYS / PHASE SHIFT   
J L1C                                                       SYS / PHASE SHIFT   
J L2L  0.00000                                              SYS / PHASE SHIFT   
J L5Q  0.00000                                              SYS / PHASE SHIFT   
J L1L  0.00000                                              SYS / PHASE SHIFT   
I L5A                                                       SYS / PHASE SHIFT   
  2025     1     2    14     0    0.0000000     GPS         TIME OF FIRST OBS   
 C1C    0.000 C2C    0.000 C2P    0.000                     GLONASS COD/PHS/BIS 
DBHZ                                                        SIGNAL STRENGTH UNIT
    18                                                      LEAP SECONDS        
 24 R01  1 R02 -4 R03  5 R04  6 R05  1 R06 -4 R07  5 R08  6 GLONASS SLOT / FRQ #
    R09 -2 R10 -7 R11  0 R12 -1 R13 -2 R14 -7 R15  0 R16 -1 GLONASS SLOT / FRQ #
    R17  4 R18 -3 R19  3 R20  2 R21  4 R22 -3 R23  3 R24  2 GLONASS SLOT / FRQ #
                                                            END OF HEADER       
> 2025 01 02 14 00  0.0000000  0 42
G06         1.000    23275204.411 4 122311979.71404     -2561.143 4        27.701                                    23275207.728 1  95308111.03301     -1995.613 1         7.250    23275204.293 4                     -1996.061 4        29.801
G11         2.000    22365122.824 6                      -130.646 6        36.132                                                                                                    22365116.901 5  91581541.62305      -101.518 5        35.757
G25         3.000    19910708.129 7 104631418.16307        78.730 7        47.828                                    19910701.770 4  81531047.81604        61.344 4        25.970    19910705.987 3                        60.661 3        22.095
E25         6.000    23327212.214 7 122585357.96007      -301.809 7        44.500                                                                    23327215.895 7  91541139.29507      -225.374 7        46.018    23327215.495 7  93929065.21507      -231.377 7        46.271
G31         7.000    25143727.576 6 132131177.72006      2818.889 6        36.397                                    25143735.916 1 102959393.47501      2196.579 1        10.889    25143759.008 5                      2196.523 5        30.626
G28         8.000    23023692.127 6 120990444.88506      2154.434 6        38.754                                    23023693.771 3  94278181.35403      1678.747 3        19.134    23023696.283 6  94278240.37806      1678.676 6        41.335
G29         9.000    22096263.805 6 116116594.99906      2040.032 6        36.839                                    22096262.981 3  90480519.36203      1589.645 3        22.895    22096264.940 5  90480520.33905      1589.723 5        35.167
E11        10.000    25952448.992 4                      1958.429 4        26.024                                                                    25952444.290 3 101843028.21503      1462.242 3        23.105    25952452.961 5 104499763.77805      1500.207 5        34.633
E10        11.000    25327719.575 6 133098108.15506       867.843 6        41.378                                                                    25327724.943 7  99391484.85207       648.031 7        43.791    25327724.175 5 101984292.39905       665.171 5        35.690
G24        12.000    23498691.529 5 123486435.35605     -4594.119 5        35.348                                    23498719.520 3  96223209.42703     -3579.837 3        19.881    23498706.901 5                     -3579.746 5        33.138
E12        13.000    25638827.340 6 134732944.35306      -414.471 6        37.429                                                                    25638829.730 7 100612312.51607      -309.495 7        42.095    25638828.213 6 103236973.21706      -317.568 6        39.306
E33        14.000                                                                                                                                    27784574.042 3                     -2247.923 3        21.167    27784574.683 4                     -2305.090 4        24.782
G12        15.000    20671537.183 7 108629579.46607     -2437.527 7        47.676                                    20671535.497 7  84646458.30207     -1899.375 7        42.552    20671536.969 7  84646479.31707     -1899.449 7        43.287
E24        16.000    24933844.529 6 131028276.62806     -2548.916 6        38.703                                                                    24933853.725 6  97845792.93806     -1903.506 6        40.148    24933846.619 6 100398267.82806     -1952.961 6        38.892
G32        17.000    23044505.540 5 121099675.20005     -2175.632 5        35.290                                    23044512.277 4  94363399.09304     -1695.300 4        25.880    23044512.423 5  94363425.09705     -1695.234 5        34.810
E05        18.000    26235157.427 4                     -3986.581 4        28.199                                                                                                                                    26235169.745 3                     -3055.269 3        23.905
E08        20.000    26403576.024 6 138751757.07706      -313.963 6        41.700                                                                    26403583.941 7 103613446.24007      -234.479 7        45.776    26403581.411 7 106316413.37707      -240.603 7        43.587
E02        21.000    26367680.811 6 138563049.89306      1408.458 6        38.973                                                                    26367687.497 5 103472597.55105      1052.032 5        33.856    26367686.224 5 106171862.83405      1079.152 5        35.271
S23        22.000    38085747.737 5 200142046.32905      -865.308 5        35.176
R14        23.000    20876122.483 6 111281574.82206     -3438.907 6        39.613                                                                    20876122.883 6  86552336.25806     -2674.703 6        38.757
R06        24.000    22676183.954 5 121004469.28305     -1879.592 5        33.269
E03        26.000    25666114.566 5 134876303.25305     -2831.256 5        32.713                                                                    25666115.403 5 100719389.34605     -2114.410 5        34.033    25666113.659 6 103346832.91106     -2169.470 6        39.883
S21        27.000    38371295.054 5 201642580.20505      -860.181 5        35.352
R15        30.000    19280475.487 8 103029294.10408      -132.655 8        48.332                                                                    19280476.943 6  80133693.11906      -103.082 6        39.474
S36        31.000    38142557.850 6 200440536.18906      -860.691 6        36.420
C10        33.000                                                                                                                                    39792822.491 4                     -1583.028 4        24.541                                                                    39792783.585 3                     -1290.901 3        18.955
R16        34.000    22173895.652 8 118449457.26808      2526.514 8        48.104                                                                    22173899.067 6  92127021.41206      1965.027 6        39.982
C44        35.000                                                                                                                                    23365068.596 6 121668061.38506      2108.754 6        39.084
R17        36.000    19969408.453 5 106860438.87105      1728.714 5        31.079                                                                    19969411.106 6  83113617.06406      1344.436 6        39.781
C45        37.000                                                                                                                                    25206571.281 5                     -3776.558 5        32.054
R24        38.000    20362823.217 7 108889466.86707     -2718.008 7        44.969                                                                    20362814.739 5  84691544.51805     -2113.855 5        31.434
C33        39.000                                                                                                                                    26633384.934 4                     -3056.833 4        29.867                                                                    26633399.241 3                     -2481.276 3        20.190
C05        40.000                                                                                                                                                                                                    39390518.437 5 158609294.28405      -645.669 5        34.329
C12        41.000                                                                                                                                                                                                    25703611.209 5 103497781.71305      2062.019 5        34.233    25703586.776 5                      2166.271 5        30.777
C35        42.000                                                                                                                                    21828818.505 7 113668349.03707      -335.003 7        46.483                                                                    21828821.641 6  92364880.77706      -272.413 6        37.996
R05        44.000                                                                                                                                    23666969.707 3                     -3710.229 3        23.067
C29        46.000                                                                                                                                    24462504.771 4 127382575.78204     -3512.103 4        27.988                                                                    24462481.809 5                     -2853.597 5        34.314
C26        48.000                                                                                                                                    21724449.521 7 113124938.70807     -1684.443 7        45.765                                                                    21724450.893 6  91923290.87106     -1368.562 6        40.689
C41        49.000                                                                                                                                    26680257.126 5 138931021.73505     -1079.034 5        32.503                                                                    26680242.697 6 112892861.08106      -876.760 6        36.684
C24        51.000                                                                                                                                    22408993.298 6 116689412.19206      1129.402 6        41.030                                                                    22408979.616 6  94819761.58706       917.587 6        41.166
I02        55.000    37175577.951 6 145884958.16806      -917.839 6        38.661
I06        58.000    38503635.354 6 151096547.17906      -732.410 6        41.151
> 2025 01 02 14 00  5.0000000  0 42
G06         1.000    23277642.812 4 122324795.24404     -2564.631 4        27.389                                    23277646.381 1  95318097.09901     -1998.333 1         6.375    23277642.920 4                     -1998.643 4        29.498
G11         2.000    22365249.393 6 117530168.57316      -133.519 6        39.297                                    22365252.767 1  91581971.43711      -104.056 1        10.222    22365242.546 6  91582056.42606      -104.159 6        36.813
G25         3.000    19910634.665 7 104631030.08007        76.642 7        47.895                                    19910628.516 4  81530745.42404        59.733 4        27.138    19910631.906 4                        59.775 4        25.820
E25         6.000    23327500.187 7 122586869.76407      -302.717 7        44.906                                                                    23327503.569 7  91542268.23307      -226.084 7        46.002    23327503.130 7  93930223.59707      -231.948 7        46.705
G31         7.000    25141044.813 5 132117083.85505      2818.632 5        34.910                                    25141053.980 2 102948411.29902      2196.339 2        13.212    25141075.372 5                      2196.363 5        31.721
G28         8.000    23021643.920 6 120979677.46206      2152.983 6        36.828                                    23021645.276 2  94269791.19502      1677.631 2        17.811    23021643.922 6  94269850.21406      1677.484 6        41.640
G29         9.000    22094322.541 5 116106399.25105      2038.269 5        35.381                                    22094323.750 3  90472574.60603      1588.271 3        23.333    22094325.196 5  90472575.57105      1588.365 5        35.005
E11        10.000    25950587.800 4                      1957.162 4        25.429                                                                    25950577.097 3                      1463.970 3        22.438    25950590.786 5 104492263.73105      1499.674 5        34.790
E10        11.000    25326895.107 6 133093774.05406       865.911 6        41.087                                                                    25326900.486 7  99388248.36107       646.567 7        44.345    25326899.894 6 101980971.50906       663.423 6        36.389
G24        12.000    23503062.014 5 123509407.39405     -4594.646 5        35.914                                    23503090.120 3  96241109.77503     -3580.248 3        19.224    23503068.419 5  96241142.87815     -3580.363 5        34.433
E12        13.000    25639222.440 6 134735023.09806      -416.690 6        37.732                                                                    25639225.070 6 100613864.84006      -311.322 6        41.366    25639223.721 6 103238566.03806      -319.466 6        39.384
E33        14.000                                                                                                                                    27787438.774 3                     -2248.190 3        20.476    27787437.670 4                     -2306.229 4        24.526
G12        15.000    20673857.554 7 108641771.94307     -2439.274 7        47.210                                    20673856.493 7  84655958.94107     -1900.735 7        42.622    20673857.266 7  84655979.94807     -1900.762 7        43.405
E24        16.000    24936270.908 6 131041023.15906     -2549.634 6        38.844                                                                    24936280.041 6  97855311.43706     -1903.777 6        40.153    24936272.620 6 100408034.63306     -1953.609 6        39.868
G32        17.000    23046576.215 5 121110559.58705     -2178.029 5        34.495                                    23046584.217 4  94371880.44604     -1697.171 4        26.407    23046585.320 5  94371906.42905     -1697.071 5        35.467
E05        18.000    26238950.499 4                     -3986.279 4        28.161                                                                                                                                    26238963.443 3                     -3056.305 3        23.657
E08        20.000    26403875.309 6 138753333.10806      -316.392 6        41.066                                                                    26403883.598 7 103614623.15507      -236.211 7        45.679    26403881.291 7 106317620.98307      -242.320 7        43.532
E02        21.000    26366341.491 6 138556008.89106      1408.224 6        39.811                                                                    26366347.695 5 103467339.72905      1051.448 5        33.449    26366345.723 5 106166467.81505      1079.128 5        34.633
S23        22.000    38086572.273 5 200146372.94605      -865.315 5        35.176
R14        23.000    20879349.192 6 111298774.02406     -3440.842 6        36.843                                                                    20879347.718 6  86565713.38906     -2676.112 6        36.896
R06        24.000    22677947.534 5 121013878.47005     -1883.933 5        32.012
E03        26.000    25668812.124 5 134890464.25105     -2833.042 5        35.200                                                                    25668810.496 5 100729964.10905     -2115.514 5        34.019    25668808.135 6 103357683.54206     -2170.772 6        40.174
S21        27.000    38372113.433 5 201646880.59905      -859.944 5        35.205
R07        29.000                                                                                                                                    23754763.005 4                       971.649 4        26.036
R15        30.000    19280600.986 8 103029963.59208      -134.975 8        48.451                                                                    19280602.888 6  80134213.86406      -104.823 6        39.444
S36        31.000    38143376.908 6 200444839.58706      -860.713 6        36.571
C10        33.000                                                                                                                                    39794340.003 3                     -1581.696 3        23.543    39794352.924 5                     -1224.029 5        30.725    39794312.647 3                     -1288.078 3        21.857
R16        34.000    22171530.865 8 118436826.06108      2526.101 8        48.411                                                                    22171534.563 6  92117197.20806      1964.765 6        40.727
C44        35.000                                                                                                                                    23363044.421 6 121657521.34406      2107.405 6        41.588
R17        36.000    19967803.945 6 106851805.33406      1724.900 6        36.147                                                                    19967798.526 6  83106902.03106      1341.705 6        38.592
C45        37.000                                                                                                                                    25210200.155 5                     -3777.105 5        33.060
R24        38.000    20365366.396 7 108903066.99207     -2721.849 7        44.695                                                                    20365360.414 5  84702122.43805     -2117.230 5        34.224
C33        39.000                                                                                                                                    26636325.755 5                     -3058.157 5        31.449                                                                    26636334.503 3                     -2479.612 3        20.857
C05        40.000                                                                                                                                                                                                    39391320.458 5 158612522.83905      -645.512 5        34.086
C12        41.000                                                                                                                                                                                                    25701051.205 5 103487474.09905      2061.432 5        32.940    25701026.848 4                      2166.232 4        29.848
C35        42.000                                                                                                                                    21829141.977 7 113670031.52707      -337.755 7        46.412                                                                    21829143.817 6  92366247.91806      -274.704 6        38.171
C29        46.000                                                                                                                                    24465870.901 4 127400137.96504     -3512.830 4        29.791                                                                    24465851.609 5 103523035.90315     -2854.806 5        35.471
C26        48.000                                                                                                                                    21726068.065 7 113133365.66507     -1686.282 7        45.381                                                                    21726069.398 6  91930138.49906     -1370.359 6        40.677
C41        49.000                                                                                                                                    26681299.325 5 138936422.86205     -1081.351 5        31.223                                                                    26681280.390 6 112897249.96906      -878.737 6        36.631
C24        51.000                                                                                                                                    22407909.878 6 116683769.02406      1128.209 6        41.383                                                                    22407895.972 6  94815176.09606       916.621 6        41.533
I02        55.000    37176747.802 6 145889547.04706      -917.881 6        38.489
I06        58.000    38504568.455 6 151100209.76706      -732.416 6        41.154
> 2025 01 02 14 00 10.0000000  0 42
G06         1.000    23280085.476 4 122337625.26904     -2566.520 4        27.234                                    23280087.766 1  95328094.53101     -1999.765 1         4.714    23280078.724 4                     -2000.462 4        28.389
G11         2.000    22365379.137 6 117530844.87106      -136.747 6        41.826                                    22365379.113 2  91582498.43502      -106.547 2        13.636    22365371.312 6  91582583.40806      -106.288 6        36.125
G25         3.000    19910562.309 7 104630652.28207        74.760 7        47.238                                    19910557.033 4  81530451.04404        58.257 4        27.808    19910567.421 4                        58.368 4        27.641
E25         6.000    23327788.520 7 122588386.26207      -303.644 7        45.412                                                                    23327791.958 7  91543400.68507      -226.745 7        45.621    23327791.637 7  93931385.59407      -232.678 7        47.057
G31         7.000    25138363.829 5 132102991.86505      2818.370 5        32.832                                    25138372.773 2 102937430.57802      2196.097 2        12.727    25138389.461 5                      2196.071 5        32.371
G28         8.000    23019596.895 5 120968917.40805      2151.317 5        35.681                                    23019597.980 2  94261406.75802      1676.318 2        16.604    23019596.389 6  94261465.78706      1676.366 6        41.628
G29         9.000    22092383.436 5 116096211.94105      2036.995 5        33.317                                    22092385.919 3  90464636.43403      1587.272 3        23.333    22092385.211 5  90464637.41805      1586.893 5        34.581
E11        10.000    25948728.871 4                      1956.152 4        24.481                                                                    25948715.945 3                      1459.272 3        21.714    25948729.200 5 104484767.66405      1499.010 5        35.357
E10        11.000    25326072.306 6 133089450.05706       863.967 6        40.870                                                                    25326077.994 7  99385019.43207       645.094 7        44.799    25326077.233 6 101977658.33506       661.916 6        37.365
G24        12.000    23507433.733 5 123532383.17005     -4595.266 5        35.810                                    23507460.898 3  96259013.02203     -3580.740 3        19.433    23507437.103 5  96259046.12805     -3580.924 5        35.305
E12        13.000    25639620.477 6 134737114.14306      -419.242 6        38.372                                                                    25639623.070 6 100615426.34606      -313.172 6        40.751    25639621.780 6 103240168.28006      -321.326 6        39.411
E33        14.000                                                                                                                                    27790305.450 3                     -2250.352 3        21.905    27790301.020 3                     -2308.742 3        23.048
G12        15.000    20676180.362 7 108653973.22307     -2441.000 7        46.467                                    20676179.004 7  84665466.43807     -1902.078 7        42.510    20676178.646 7  84665487.44407     -1902.009 7        43.300
E24        16.000    24938697.446 6 131053772.89706     -2550.207 6        39.213                                                                    24938707.012 6  97864832.37006     -1904.297 6        39.952    24938699.053 6 100417803.92106     -1953.961 6        40.424
G32        17.000    23048649.769 5 121121457.54205     -2180.608 5        33.952                                    23048658.858 4  94380372.37504     -1699.187 4        26.958    23048658.408 5  94380398.35105     -1699.166 5        35.038
E05        18.000    26242742.649 4                     -3986.091 4        29.081                                                                                                                                    26242755.960 4                     -3055.434 4        24.346
E08        20.000    26404177.998 6 138754920.82706      -318.454 6        39.844                                                                    26404185.716 7 103615808.81007      -237.912 7        45.427    26404183.384 7 106318837.56007      -244.198 7        43.558
E02        21.000    26365003.412 6 138548969.07306      1408.050 6        40.715                                                                    26365008.080 5 103462082.77105      1051.091 5        33.144    26365005.247 5 106161073.74005      1078.718 5        34.067
S23        22.000    38087397.980 5 200150698.98105      -864.956 5        35.552
R14        23.000    20882574.345 5 111315982.31305     -3442.407 5        33.497                                                                    20882574.599 5  86579097.59905     -2677.325 5        34.867
R06        24.000    22679715.602 4 121023307.73304     -1887.791 4        29.479
E03        26.000    25671510.267 6 134904633.68206     -2834.578 6        36.367                                                                    25671506.724 5 100740545.14305     -2116.892 5        33.958    25671503.963 6 103368540.59906     -2172.029 6        39.916
S21        27.000    38372929.106 5 201651180.35005      -859.689 5        35.724
R07        29.000                                                                                                                                    23753593.197 4                       968.856 4        28.000
R15        30.000    19280728.771 8 103030644.91708      -137.372 8        48.378                                                                    19280730.158 6  80134743.78406      -106.863 6        40.510
S36        31.000    38144193.033 6 200449142.44506      -860.379 6        36.352
C10        33.000                                                                                                                                    39795851.206 3                     -1583.761 3        22.267    39795864.193 5                     -1223.987 5        31.170    39795844.858 3                     -1285.461 3        22.400
R16        34.000    22169166.577 8 118424196.85708      2525.799 8        48.126                                                                    22169170.902 6  92107374.53506      1964.478 6        40.715
C44        35.000                                                                                                                                    23361022.443 7 121646987.91807      2106.167 7        43.412
R17        36.000    19966194.072 6 106843189.97306      1721.617 6        36.257                                                                    19966189.739 6  83100201.13606      1338.915 6        37.077
C45        37.000                                                                                                                                    25213828.425 5                     -3777.821 5        32.329
R24        38.000    20367911.443 7 108916686.76507     -2725.768 7        43.003                                                                    20367909.447 6  84712715.58006     -2120.131 6        36.749
C33        39.000                                                                                                                                    26639270.784 5                     -3059.557 5        31.955                                                                    26639277.144 3                     -2487.916 3        20.905
C05        40.000                                                                                                                                                                                                    39392121.894 5 158615750.94505      -645.603 5        34.076
C12        41.000                                                                                                                                                                                                    25698491.165 5 103477167.70605      2061.520 5        32.467    25698467.036 4                      2166.117 4        29.450
C35        42.000                                                                                                                                    21829468.223 7 113671727.26207      -340.331 7        46.292                                                                    21829468.805 6  92367625.83006      -276.517 6        38.619
C29        46.000                                                                                                                                    24469237.304 5 127417706.95005     -3514.504 5        31.275                                                                    24469225.761 6 103537312.08806     -2855.886 6        36.801
C26        48.000                                                                                                                                    21727687.940 7 113141802.04707     -1688.098 7        44.770                                                                    21727689.639 6  91936993.76206     -1371.696 6        40.477
C41        49.000                                                                                                                                    26682342.075 4 138941836.89604     -1084.260 4        26.527                                                                    26682321.136 6 112901649.34306      -880.790 6        37.157
C24        51.000                                                                                                                                    22406826.037 6 116678131.93406      1126.883 6        40.872                                                                    22406813.462 7  94810595.54007       915.585 7        42.116
I02        55.000    37177917.524 6 145894136.36206      -917.898 6        38.435
I06        58.000    38505501.843 6 151103871.85706      -732.250 6        41.175
> 2025 01 02 14 00 15.0000000  0 42
G06         1.000                                                                                                                                                                    23282519.577 4                     -2003.162 4        27.245
G11         2.000    22365511.345 7 117531537.21207      -140.222 7        43.100                                    22365509.286 2  91583037.93902      -109.269 2        16.075    22365503.272 5  91583122.92705      -109.582 5        35.719
G25         3.000    19910491.799 7 104630285.14307        72.231 7        47.026                                    19910487.553 4  81530164.97704        56.288 4        27.904    19910494.806 4                        56.230 4        29.033
E25         6.000    23328078.086 7 122589907.79507      -304.946 7        45.412                                                                    23328081.533 7  91544536.88807      -227.715 7        45.473    23328081.112 7  93932551.44007      -233.677 7        47.182
G31         7.000    25135682.012 5 132088902.08305      2817.869 5        30.317                                    25135691.668 1 102926451.55901      2195.725 1        11.185    25135706.152 5                      2195.572 5        33.036
G28         8.000    23017551.842 5 120958165.11205      2149.371 5        34.348                                    23017552.177 2  94253028.36902      1674.837 2        15.000    23017551.114 6  94253087.39306      1674.877 6        41.430
G29         9.000    22090445.030 5 116086033.46605      2034.767 5        30.792                                    22090449.872 3  90456705.14803      1585.529 3        23.162    22090447.197 5  90456706.14005      1585.564 5        34.500
E11        10.000                                                                                                                                    25946855.423 3                      1459.771 3        20.833    25946868.640 5 104477275.83205      1497.822 5        35.833
E10        11.000    25325251.619 6 133085136.54006       861.465 6        40.846                                                                    25325257.499 7  99381798.30707       643.252 7        45.094    25325256.204 6 101974353.19206       660.101 6        38.033
G24        12.000    23511806.363 5 123555363.00905     -4596.767 5        35.214                                    23511831.869 3  96276919.43603     -3581.900 3        20.167    23511810.319 6  96276952.48606     -3581.851 6        36.745
E12        13.000    25640020.954 6 134739217.79906      -422.284 6        38.610                                                                    25640023.466 6 100616997.27106      -315.224 6        39.892    25640022.266 6 103241780.16706      -323.385 6        39.679
E33        14.000                                                                                                                                    27793176.406 3                     -2251.084 3        21.976    27793166.838 3                     -2310.039 3        22.400
G12        15.000    20678503.911 7 108666183.62007     -2443.145 7        46.133                                    20678503.059 7  84674981.03507     -1903.750 7        42.222    20678502.366 7  84675002.04107     -1903.723 7        43.264
E24        16.000    24941124.401 6 131066526.24006     -2551.231 6        39.547                                                                    24941134.478 6  97874355.98206     -1905.068 6        39.979    24941125.985 6 100427575.95506     -1954.909 6        40.634
G32        17.000    23050726.261 5 121132369.36605     -2184.017 5        35.643                                    23050735.922 4  94388875.11904     -1701.825 4        27.162    23050734.228 5  94388901.08705     -1701.954 5        34.686
E05        18.000    26246534.997 4                     -3985.779 4        28.986                                                                                                                                    26246549.765 4                     -3054.464 4        25.233
E08        20.000    26404483.303 6 138756520.58406      -321.303 6        38.649                                                                    26404490.170 7 103617003.45207      -239.964 7        45.217    26404487.638 7 106320063.35407      -246.162 7        43.350
E02        21.000    26363664.602 6 138541930.79906      1407.343 6        41.104                                                                    26363668.578 5 103456826.93105      1051.201 5        33.000    26363665.549 5 106155680.81005      1078.265 5        33.443
S23        22.000    38088219.985 5 200155025.02505      -865.379 5        35.652
R14        23.000    20885804.664 5 111333200.18205     -3444.593 5        32.838                                                                    20885804.131 5  86592489.23305     -2679.170 5        34.390
R06        24.000    22681483.830 4 121032757.50704     -1891.933 4        28.976
E03        26.000    25674205.744 6 134918811.89306     -2836.747 6        36.454                                                                    25674203.523 5 100751132.69005     -2118.060 5        33.048    25674201.639 6 103379404.35206     -2173.522 6        39.796
S21        27.000    38373750.816 5 201655479.94205      -860.064 5        35.576
R15        30.000    19280858.624 7 103031338.39007      -140.103 7        47.554                                                                    19280860.297 6  80135283.18506      -109.008 6        41.635
S36        31.000    38145012.498 6 200453444.68506      -860.699 6        36.344
C10        33.000                                                                                                                                                                                                    39797375.495 5                     -1223.984 5        31.155    39797370.338 3                     -1286.678 3        23.600
R16        34.000    22166800.756 7 118411569.85307      2525.010 7        46.518                                                                    22166806.100 6  92097553.59306      1963.909 6        40.141
C44        35.000                                                                                                                                    23359003.340 7 121636461.47307      2104.469 7        44.164
R17        36.000    19964585.578 5 106834593.20905      1717.151 5        35.876                                                                    19964583.853 6  83093514.76306      1335.681 6        37.497
C45        37.000                                                                                                                                    25217452.120 5                     -3778.509 5        30.845
R24        38.000    20370454.979 6 108930326.48706     -2730.062 6        40.887                                                                    20370459.862 6  84723324.25906     -2123.382 6        37.989
C33        39.000                                                                                                                                                                                                                                                                    26642220.867 3                     -2487.454 3        22.781
C05        40.000                                                                                                                                                                                                    39392923.866 5 158618978.81005      -645.562 5        33.844
C12        41.000                                                                                                                                                                                                    25695932.145 5 103466862.85605      2060.704 5        31.585    25695907.658 4                      2165.669 4        29.289
C35        42.000                                                                                                                                    21829796.464 7 113673436.60607      -343.363 7        46.236                                                                    21829796.898 6  92369014.78006      -279.108 6        39.664
R05        44.000    23680272.956 4                     -4772.768 4        26.299
C29        46.000                                                                                                                                    24472607.575 5 127435283.05905     -3516.503 5        32.048                                                                    24472601.331 6 103551594.08206     -2856.957 6        36.938
C26        48.000                                                                                                                                    21729309.066 7 113150248.21207     -1690.397 7        43.674                                                                    21729312.058 6  91943856.94606     -1373.574 6        40.620
C41        49.000                                                                                                                                                                                                                                                                    26683364.448 6 112906059.42406      -883.234 6        37.508
C24        51.000                                                                                                                                    22405743.789 6 116672501.25906      1125.329 6        40.269                                                                    22405731.971 7  94806020.16207       914.379 7        42.286
I02        55.000    37179086.433 6 145898726.19406      -918.027 6        38.042
I06        58.000    38506434.984 6 151107533.69006      -732.372 6        41.120
> 2025 01 02 14 00 20.0000000  0 42
G06         1.000                                                                                                                                                                    23284961.150 4                     -2004.611 4        25.744
G11         2.000    22365645.547 7 117532245.89207      -143.315 7        43.661                                    22365642.420 2  91583590.17302      -111.666 2        17.321    22365640.152 5  91583675.09905      -111.848 5        35.757
G25         3.000    19910423.989 7 104629928.94807        70.279 7        45.914                                    19910420.112 4  81529887.42504        54.753 4        27.844    19910426.640 4                        54.976 4        28.967
E25         6.000    23328368.514 7 122591434.66507      -305.829 7        45.601                                                                    23328372.116 7  91545677.06707      -228.333 7        45.571    23328371.635 7  93933721.37107      -234.393 7        47.381
G31         7.000    25133001.274 4 132074814.96604      2816.782 4        25.699                                    25133011.230 1 102915474.60601      2194.865 1        10.667    25133024.963 5                      2195.331 5        33.503
G28         8.000    23015505.691 5 120947420.83805      2147.671 5        31.215                                    23015507.921 2  94244656.24202      1673.437 2        14.048    23015505.635 6  94244715.24006      1673.848 6        40.806
G29         9.000    22088509.837 4 116075864.13504      2032.961 4        29.829                                    22088515.336 3  90448780.99203      1584.108 3        23.829    22088513.362 5  90448782.02605      1584.261 5        33.946
E11        10.000                                                                                                                                    25944994.616 3                      1459.240 3        20.333    25945008.989 6 104469788.43706      1497.041 6        36.234
E10        11.000    25324433.256 6 133080833.80706       859.548 6        40.272                                                                    25324438.820 7  99378585.23707       641.807 7        45.222    25324437.014 6 101971056.29906       658.503 6        38.631
G24        12.000    23516179.785 5 123578347.17405     -4597.327 5        33.802                                    23516203.077 3  96294829.20903     -3582.338 3        20.476    23516184.872 6  96294862.22206     -3582.053 6        37.350
E12        13.000    25640424.200 6 134741334.37906      -424.617 6        38.520                                                                    25640426.279 6 100618577.84906      -317.010 6        39.066    25640425.337 6 103243401.97206      -325.317 6        39.408
E33        14.000                                                                                                                                    27796050.819 3                     -2252.040 3        23.943    27796033.475 3                     -2311.729 3        22.133
G12        15.000    20680829.634 7 108678403.47907     -2444.863 7        45.707                                    20680828.642 7  84684503.00907     -1905.089 7        42.106    20680826.746 7  84684524.01707     -1904.978 7        42.582
E24        16.000    24943552.378 6 131079283.44906     -2551.819 6        40.215                                                                    24943562.380 6  97883882.48806     -1905.613 6        39.991    24943553.272 6 100437350.97206     -1955.376 6        40.620
G32        17.000    23052807.819 6 121143295.35406     -2186.544 6        38.667                                    23052815.244 4  94397388.89604     -1703.800 4        27.605    23052812.375 5  94397414.83005     -1703.807 5        34.371
E05        18.000    26250325.967 4                     -3985.717 4        28.948                                                                                                                                    26250342.685 4                     -3054.354 4        24.917
E08        20.000    26404789.837 6 138758132.70006      -323.589 6        38.096                                                                    26404796.974 7 103618207.30707      -241.604 7        45.136    26404794.529 7 106321298.61907      -247.937 7        43.209
E02        21.000    26362324.819 6 138534894.35606      1407.057 6        41.549                                                                    26362331.361 5 103451572.51305      1050.875 5        33.269    26362326.458 5 106150289.30505      1078.066 5        32.617
S23        22.000    38089042.464 5 200159351.17305      -865.100 5        35.319
R14        23.000                                                                                                                                    20889040.139 6  86605888.52406     -2680.807 6        37.803
R06        24.000    22683260.286 4 121042227.95504     -1896.277 4        28.938
E03        26.000                                                                                                                                    25676900.302 5 100761726.99705     -2119.373 5        32.719    25676901.490 6 103390275.03306     -2174.778 6        39.288
S21        27.000    38374570.442 5 201659779.71305      -859.964 5        35.476
R07        29.000    23751271.384 4                      1239.094 4        26.994                                                                    23751289.632 4                       963.532 4        29.640
R15        30.000    19280990.990 7 103032044.38607      -142.416 7        47.467                                                                    19280991.842 6  80135832.31606      -110.760 6        41.456
S36        31.000    38145835.299 6 200457747.38106      -860.503 6        36.503
C10        33.000                                                                                                                                                                                                    39798894.715 5                     -1223.878 5        31.230    39798886.227 3                     -1286.787 3        22.686
R16        34.000    22164434.710 7 118398945.40307      2524.670 7        45.403                                                                    22164442.973 6  92087734.63306      1963.594 6        39.012
C44        35.000                                                                                                                                    23356984.299 7 121625942.29107      2103.204 7        44.092
R17        36.000    19962986.167 5 106826015.33105      1713.582 5        34.400                                                                    19962980.091 6  83086843.15006      1332.861 6        39.303
C45        37.000                                                                                                                                    25221074.099 4                     -3779.089 4        29.706
R24        38.000    20373005.569 7 108943986.38007     -2733.895 7        42.036                                                                    20373014.640 6  84733948.65906     -2126.416 6        40.110
C33        39.000                                                                                                                                                                                                                                                                    26645163.561 3                     -2487.461 3        22.762
C05        40.000                                                                                                                                                                                                    39393724.993 5 158622206.67905      -645.336 5        34.109
C12        41.000                                                                                                                                                                                                    25693372.718 5 103456559.66405      2060.605 5        31.079    25693349.407 4                      2165.483 4        28.967
C35        42.000                                                                                                                                    21830126.544 7 113675159.83807      -345.941 7        46.281                                                                    21830128.340 6  92370415.04906      -281.116 6        40.453
C29        46.000                                                                                                                                    24475980.337 5 127452866.66405     -3517.615 5        30.785                                                                    24475978.166 6 103565882.18706     -2858.053 6        38.024
C26        48.000                                                                                                                                    21730932.338 7 113158704.44007     -1692.205 7        42.112                                                                    21730936.083 6  91950728.34206     -1375.031 6        40.660
C41        49.000                                                                                                                                                                                                                                                                    26684410.108 6 112910480.44206      -885.095 6        38.156
C24        51.000                                                                                                                                    22404664.777 6 116666877.29606      1124.039 6        39.868                                                                    22404651.962 7  94801450.25107       913.522 7        42.205
I02        55.000    37180256.167 6 145903316.57806      -918.073 6        38.030
I06        58.000    38507368.197 6 151111195.51606      -732.290 6        41.261
> 2025 01 02 14 00 25.0000000  0 43
G06         1.000    23287410.448 4                     -2576.578 4        28.948                                                                                                    23287412.472 4                     -2007.446 4        26.946
G11         2.000    22365781.141 7 117532970.62607      -146.560 7        42.931                                    22365779.525 3  91584154.88703      -114.199 3        19.104    22365778.289 5  91584239.83305      -114.372 5        35.690
G25         3.000    19910358.087 7 104629583.45807        68.011 7        44.828                                    19910354.822 4  81529618.20804        52.998 4        27.725    19910358.703 4                        52.812 4        26.551
E25         6.000    23328660.177 7 122592966.57607      -306.883 7        45.782                                                                    23328663.622 7  91546821.03107      -229.187 7        45.622    23328663.149 7  93934895.16907      -235.178 7        47.551
G31         7.000    25130325.598 3                      2818.327 3        19.164                                                                                                    25130345.258 5 102904559.31915      2195.068 5        33.922
G28         8.000    23013461.762 4 120936684.35004      2146.030 4        26.599                                    23013465.033 1  94236290.15801      1672.240 1        10.889    23013461.875 6  94236349.14906      1672.752 6        39.435
G29         9.000    22086577.444 5 116065703.68905      2031.219 5        32.521                                    22086582.410 4  90440863.76504      1582.777 4        24.286    22086579.217 5  90440864.74705      1582.882 5        32.958
E11        10.000                                                                                                                                    25943138.843 3                      1456.673 3        19.582    25943150.619 6 104462305.28906      1496.230 6        36.541
E10        11.000    25323616.269 6 133076541.56306       857.245 6        39.550                                                                    25323621.934 7  99375380.00307       640.250 7        45.121    25323620.147 6 101967767.45306       656.882 6        39.480
G24        12.000    23520554.288 5 123601335.34905     -4597.965 5        32.323                                    23520575.036 3  96312742.09003     -3582.827 3        21.286    23520559.243 6  96312775.11306     -3582.815 6        37.580
E12        13.000    25640829.328 6 134743463.60206      -427.128 6        38.721                                                                    25640831.378 6 100620167.85906      -318.897 6        38.264    25640830.660 6 103245033.46006      -327.242 6        39.387
E33        14.000                                                                                                                                    27798927.852 4                     -2253.546 4        24.361    27798903.273 3                     -2312.625 3        22.286
G12        15.000    20683157.397 7 108690632.50607     -2446.708 7        46.149                                    20683155.706 6  84694032.12706     -1906.525 6        41.800    20683153.914 7  84694053.14307     -1906.535 7        42.188
E24        16.000    24945980.935 6 131092044.26106     -2552.491 6        40.565                                                                    24945990.686 6  97893411.65506     -1906.150 6        39.787    24945981.089 6 100447128.71806     -1955.801 6        40.150
G32        17.000    23054889.648 6 121154235.20506     -2189.485 6        40.779                                    23054896.566 4  94405913.46304     -1706.101 4        28.038    23054893.662 5  94405939.36505     -1705.895 5        33.826
E05        18.000    26254118.381 4                     -3985.747 4        28.626                                                                                                                                    26254135.050 4                     -3054.633 4        25.414
E08        20.000    26405098.289 6 138759756.85706      -325.991 6        37.800                                                                    26405106.091 7 103619420.16507      -243.540 7        44.919    26405103.652 7 106322543.10107      -249.801 7        42.885
E02        21.000    26360983.954 7 138527859.44807      1406.874 7        42.201                                                                                                                                    26360987.767 5 106144898.97105      1077.724 5        32.072
