     3.04           OBSERVATION DATA    M                   RINEX VERSION / TYPE
ssrcrin-15.6.1x                         20250102 223000 UTC PGM / RUN BY / DATE 
(00000000023479385599111004) Septentrio proprietary         COMMENT             
ract                                                        MARKER NAME         
01                                                          MARKER NUMBER       
geodetic                                                    MARKER TYPE         
NFB                 CLIMERS@TUW                             OBSERVER / AGENCY   
3296359             SEPT ASTERX SB3 PROB4.14.4              REC # / TYPE / VERS 
Unknown             Unknown                                 ANT # / TYPE        
  4127447.2578  1206914.6061  4695542.6016                  APPROX POSITION XYZ 
        0.0000        0.0000        0.0000                  ANTENNA: DELTA H/E/N
G   23 X1  C1C L1C D1C S1C C1W S1W C2W L2W D2W S2W C2L L2L  SYS / # / OBS TYPES 
       D2L S2L C5Q L5Q D5Q S5Q C1L L1L D1L S1L              SYS / # / OBS TYPES 
E   21 X1  C1C L1C D1C S1C C6C L6C D6C S6C C5Q L5Q D5Q S5Q  SYS / # / OBS TYPES 
       C7Q L7Q D7Q S7Q C8Q L8Q D8Q S8Q                      SYS / # / OBS TYPES 
S    9 X1  C1C L1C D1C S1C C5I L5I D5I S5I                  SYS / # / OBS TYPES 
R   17 X1  C1C L1C D1C S1C C2P L2P D2P S2P C2C L2C D2C S2C  SYS / # / OBS TYPES 
       C3Q L3Q D3Q S3Q                                      SYS / # / OBS TYPES 
C   25 X1  C1P L1P D1P S1P C5P L5P D5P S5P C2I L2I D2I S2I  SYS / # / OBS TYPES 
       C7I L7I D7I S7I C6I L6I D6I S6I C7D L7D D7D S7D      SYS / # / OBS TYPES 
J   17 X1  C1C L1C D1C S1C C2L L2L D2L S2L C5Q L5Q D5Q S5Q  SYS / # / OBS TYPES 
       C1L L1L D1L S1L                                      SYS / # / OBS TYPES 
I    5 X1  C5A L5A D5A S5A                                  SYS / # / OBS TYPES 
SEPTENTRIO RECEIVERS OUTPUT ALIGNED CARRIER PHASES.         COMMENT             
NO FURTHER PHASE SHIFT APPLIED IN THE RINEX ENCODER.        COMMENT             
G L1C                                                       SYS / PHASE SHIFT   
G L2W                                                       SYS / PHASE SHIFT   
G L2L  0.00000                                              SYS / PHASE SHIFT   
G L5Q  0.00000                                              SYS / PHASE SHIFT   
G L1L  0.00000                                              SYS / PHASE SHIFT   
E L1C  0.00000                                              SYS / PHASE SHIFT   
E L6C  0.00000                                              SYS / PHASE SHIFT   
E L5Q  0.00000                                              SYS / PHASE SHIFT   
E L7Q  0.00000                                              SYS / PHASE SHIFT   
E L8Q  0.00000                                              SYS / PHASE SHIFT   
S L1C                                                       SYS / PHASE SHIFT   
S L5I                                                       SYS / PHASE SHIFT   
R L1C                                                       SYS / PHASE SHIFT   
R L2P  0.00000                                              SYS / PHASE SHIFT   
R L2C                                                       SYS / PHASE SHIFT   
R L3Q  0.00000                                              SYS / PHASE SHIFT   
C L1P  0.00000                                              SYS / PHASE SHIFT   
C L5P  0.00000                                              SYS / PHASE SHIFT   
C L2I                                                       SYS / PHASE SHIFT   
C L7I                                                       SYS / PHASE SHIFT   
C L6I                                                       SYS / PHASE SHIFT   
C L7D                                                       SYS / PHASE SHIFT   
J L1C                                                       SYS / PHASE SHIFT   
J L2L  0.00000                                              SYS / PHASE SHIFT   
J L5Q  0.00000                                              SYS / PHASE SHIFT   
J L1L  0.00000                                              SYS / PHASE SHIFT   
I L5A                                                       SYS / PHASE SHIFT   
  2025     1     2    22    30    0.0000000     GPS         TIME OF FIRST OBS   
 C1C    0.000 C2C    0.000 C2P    0.000                     GLONASS COD/PHS/BIS 
DBHZ                                                        SIGNAL STRENGTH UNIT
    18                                                      LEAP SECONDS        
 24 R01  1 R02 -4 R03  5 R04  6 R05  1 R06 -4 R07  5 R08  6 GLONASS SLOT / FRQ #
    R09 -2 R10 -7 R11  0 R12 -1 R13 -2 R14 -7 R15  0 R16 -1 GLONASS SLOT / FRQ #
    R17  4 R18 -3 R19  3 R20  2 R21  4 R22 -3 R23  3 R24  2 GLONASS SLOT / FRQ #
                                                            END OF HEADER       
> 2025 01 02 22 30  0.0000000  0 35
G10         1.000    22478118.029 5 118123346.42605     -3423.210 5        33.994                                    22478118.975 5  92044170.10905     -2667.458 5        30.845    22478117.201 6  92044142.14806     -2667.543 6        41.478
G03         2.000    23963239.605 4 125927654.27404      2683.861 4        28.038
G32         3.000    22064245.582 6 115948382.16106      -176.120 6        41.135                                    22064249.908 5  90349378.78605      -137.239 5        32.611    22064250.580 7  90349478.77607      -137.096 7        42.861
G21         4.000    20832354.654 6 109474806.32406      -350.127 6        39.583                                    20832349.593 4  85305010.78004      -272.823 4        27.904
G08         5.000    20995582.907 7 110332676.93507     -2736.893 7        46.985                                    20995580.414 6  85973419.63906     -2132.651 6        36.510    20995580.844 6  85973401.65806     -2132.645 6        38.637
G02         6.000    21882270.552 6 114992008.67606       968.409 6        40.577                                    21882250.129 2  89604140.24002       754.607 2        15.238
G14         7.000    24080763.272 6 126545435.75706      -195.268 6        39.937                                                                                                    24080798.512 3                      -151.749 3        22.114
E03         9.000    25462042.070 6 133803931.34806      1524.092 6        36.087                                                                    25462043.040 6  99918561.75406      1138.084 6        37.474    25462045.887 5 102525109.53505      1167.440 5        34.510
E05        11.000    23922467.984 6 125713432.43406     -1072.619 6        38.997                                                                    23922467.643 7  93876930.02507      -800.892 7        47.904    23922466.330 7  96325862.31007      -821.857 7        46.906
E13        12.000    26518752.362 6 139357152.54906      1389.656 6        39.655                                                                    26518803.540 4 104065281.54804      1037.692 4        24.286    26518755.439 6 106780023.80106      1064.743 6        38.811
G27        13.000    22994933.144 6 120839178.11606     -4376.131 6        40.133                                    22994930.862 4  94160420.15004     -3409.969 4        26.731    22994931.914 5  94160415.16905     -3410.306 5        35.829
E27        14.000    26608293.303 4 139827545.89804     -3157.690 4        28.844                                                                    26608297.276 5 104416673.86605     -2358.302 5        33.892    26608301.885 6 107140649.85706     -2419.892 6        40.791
E21        15.000    26902706.987 6 141374718.55006      -790.932 6        40.040                                                                    26902706.334 6 105572049.90406      -590.714 6        36.136    26902705.216 6 108326118.69706      -606.040 6        38.580
E15        16.000    23587891.752 7 123955312.15307      -380.388 7        46.267                                                                    23587892.669 8  92563957.57008      -283.983 8        52.505    23587891.889 8  94978685.16908      -291.428 8        52.330
S23        17.000    38322874.979 7 201388008.69307      -859.417 7        42.178
R20        20.000    22362208.656 4                     -4040.883 4        28.341                                                                    22362202.737 5  93007256.51205     -3143.260 5        33.024
S36        23.000    38366264.631 6 201616063.10306      -860.695 6        37.686
R06        25.000    19682071.298 6 105027332.99606       628.053 6        38.279
R07        27.000    22357087.285 6                      3395.765 6        40.615
R05        28.000    21658053.626 7 115774689.47507     -4223.157 7        42.218                                                                    21658046.947 3                     -3283.100 3        23.543
C41        29.000                                                                                                                                    25762952.000 4                      2554.528 4        26.024                                                                    25762961.988 6 109011521.77406      2075.382 6        38.060
R12        30.000    23523362.181 6 125657554.81106     -3584.127 6        36.556
E34        32.000    25035061.671 4 131560011.35804     -2572.913 4        28.427                                                                    25035044.113 6  98242882.98506     -1921.282 6        38.453    25035040.455 6 100805806.40506     -1971.325 6        37.195
R22        35.000    21377144.509 7 114112630.56907      2187.737 7        45.210                                                                    21377140.974 7  88754294.02107      1701.513 7        44.215
C33        37.000                                                                                                                                    22520423.004 7 117269766.68307       776.371 7        42.775                                                                    22520432.515 8  95291298.09508       630.943 8        48.020
C11        38.000                                                                                                                                    24836009.198 4                     -3716.397 4        29.185    24836006.763 4 100004392.56704     -2873.534 4        27.162    24836011.468 6 105089320.41606     -3019.882 6        38.910
R21        39.000    19516297.191 7 104435650.26007     -1124.766 7        43.763                                                                    19516298.175 6  81227727.71706      -874.896 6        37.932
C27        41.000                                                                                                                                    24926587.906 6 129799487.06206      2075.184 6        41.688                                                                    24926590.446 6 105472566.41406      1686.299 6        36.087
C14        42.000                                                                                                                                    22156060.786 8 115372448.24008      -935.095 8        49.728    22156055.215 8  89213233.16008      -723.082 8        49.953    22156054.474 7  93749536.76807      -759.845 7        47.048
C13        43.000                                                                                                                                    40246315.358 4                     -1775.070 4        25.789    40246269.508 4                     -1373.622 4        24.737
C43        48.000                                                                                                                                    23158568.449 5 120592782.56605     -3174.904 5        35.519                                                                    23158607.385 3                     -2583.066 3        18.030
C42        50.000                                                                                                                                    23163229.339 5 120617029.27805     -2591.551 5        35.600                                                                    23163236.412 7  98011326.86507     -2105.847 7        46.161
I01        53.000   415528008.513 7 327480395.35207     -2488.767 7        42.554
C28        55.000                                                                                                                                    21954198.975 5 114321207.66605       316.560 5        32.617                                                                    21954190.309 6  92895361.65306       257.368 6        38.991
I06        58.000    38588869.971 5 151431152.64505      -537.898 5        35.319
> 2025 01 02 22 30  5.0000000  0 33
G10         1.000    22481373.212 5 118140466.15405     -3424.030 5        33.299                                    22481376.775 4  92057510.15904     -2668.064 4        25.128    22481374.210 6  92057482.16706     -2668.165 6        39.643
G32         3.000    22064419.742 7 115949270.91707      -179.103 7        42.921                                    22064418.828 5  90350071.32005      -139.565 5        35.290    22064419.605 7  90350171.32407      -139.518 7        43.232
G21         4.000    20832688.934 6 109476561.68406      -351.734 6        40.937                                    20832683.485 4  85306378.59004      -274.081 4        27.880
G08         5.000    20998188.835 7 110346368.35207     -2739.362 7        47.435                                    20998186.149 6  85984088.27706     -2134.569 6        37.240    20998186.179 6  85984070.27406     -2134.622 6        38.940
G14         7.000    24080951.013 6 126546420.89706      -198.297 6        40.350                                                                                                    24080993.524 3                      -152.793 3        23.943
E03         9.000    25460592.950 5 133796315.66405      1522.558 5        35.719                                                                    25460593.886 6  99912874.74506      1137.015 6        38.480    25460595.812 5 102519274.15505      1166.614 5        34.924
E05        11.000    23923489.201 6 125718801.78806     -1075.032 6        37.951                                                                    23923489.395 7  93880939.61007      -802.664 7        47.542    23923488.120 7  96329976.48207      -823.622 7        47.163
E13        12.000    26517430.454 6 139350205.66606      1389.424 6        39.441                                                                                                                                    26517434.296 6 106774700.86206      1064.748 6        38.970
G27        13.000    22999097.020 6 120861062.21306     -4377.303 6        41.356                                    22999095.847 4  94177472.70604     -3410.897 4        28.227    22999096.706 5  94177467.71805     -3410.783 5        35.448
E27        14.000    26611296.601 4 139843340.09004     -3158.763 4        27.964                                                                    26611303.134 5 104428468.21305     -2359.157 5        33.587    26611307.091 6 107152751.89006     -2420.674 6        40.169
E21        15.000    26903461.256 6 141378679.79906      -793.060 6        39.039                                                                    26903460.184 5 105575007.98205      -592.346 5        35.857    26903458.973 6 108329153.94206      -607.757 6        38.258
E15        16.000    23588254.271 7 123957217.01807      -381.302 7        46.882                                                                    23588255.105 8  92565380.04008      -284.712 8        52.552    23588254.271 8  94980144.74308      -292.118 8        52.107
S23        17.000    38323692.544 7 201392305.47507      -859.142 7        42.237
R20        20.000    22365986.282 4                     -4042.427 4        25.744                                                                    22365982.193 5  93022973.87015     -3144.152 5        32.156
S36        23.000    38367076.664 6 201620367.29506      -860.538 6        38.114
R06        25.000    19681483.981 6 105024204.09906       623.890 6        38.267
R07        27.000    22353915.345 7 119662236.72117      3394.412 7        42.102
R05        28.000    21662004.810 6                     -4225.688 6        41.392                                                                    21662001.092 4                     -3286.529 4        27.808
C41        29.000                                                                                                                                    25760500.572 4                      2553.140 4        25.805                                                                    25760510.178 6 109001147.75406      2074.485 6        38.114
R12        30.000    23526723.066 6 125675482.39506     -3586.653 6        39.135
E34        32.000    25037511.302 4                     -2573.276 4        24.872                                                                    25037492.562 6  98252491.12106     -1921.597 6        39.757    25037487.992 5 100815665.16605     -1971.758 5        35.433
R22        35.000    21375096.064 7 114101695.66007      2186.724 7        44.008                                                                    21375092.538 7  88745789.07507      1700.805 7        43.632
C33        37.000                                                                                                                                    22519677.915 7 117265891.04807       774.113 7        43.261                                                                    22519688.229 7  95288148.85007       628.972 7        47.754
C11        38.000                                                                                                                                    24839575.804 4                     -3717.361 4        28.853    24839575.963 4 100018763.55404     -2873.845 4        24.992    24839580.439 6 105104422.27006     -3020.605 6        39.306
R21        39.000    19517348.612 7 104441281.92507     -1127.442 7        42.969                                                                    19517350.269 6  81232107.92406      -876.914 6        38.048
C27        41.000                                                                                                                                    24924595.594 6 129789113.60506      2074.652 6        41.721                                                                    24924598.450 6 105464137.15306      1685.948 6        36.662
C14        42.000                                                                                                                                    22156959.419 8 115377131.08608      -937.752 8        48.638    22156953.858 8  89216854.22908      -725.174 8        49.708    22156953.662 7  93753341.98807      -762.099 7        46.573
C13        43.000                                                                                                                                    40248016.287 3                     -1776.760 3        22.152    40247970.791 3                     -1371.000 3        23.924
C43        48.000                                                                                                                                    23161618.496 6 120608660.88606     -3176.321 6        37.198
C42        50.000                                                                                                                                    23165722.863 6 120629993.42606     -2593.739 6        36.019                                                                    23165725.828 7  98021861.29007     -2107.665 7        45.749
I01        53.000   415531180.255 7 327492840.66307     -2488.946 7        42.768
C28        55.000                                                                                                                                    21953894.524 6 114319629.34606       314.755 6        37.539                                                                    21953887.243 6  92894079.21506       255.664 6        38.387
I06        58.000    38589555.866 5 151433843.14305      -537.940 5        35.262
> 2025 01 02 22 30 10.0000000  0 35
G10         1.000    22484634.108 5 118157591.63105     -3425.870 5        32.132                                    22484635.542 2  92070854.66502     -2669.533 2        17.208    22484632.626 6  92070826.67106     -2669.183 6        38.324
G03         2.000    23958114.920 4                      2681.031 4        24.256
G32         3.000    22064594.110 7 115950174.90007      -182.208 7        42.252                                    22064590.628 6  90350775.70506      -141.983 6        37.051    22064591.239 7  90350875.70907      -142.061 7        42.825
G21         4.000    20833024.566 6 109478324.95106      -353.415 6        41.006                                    20833018.740 4  85307752.57204      -275.391 4        27.533
G08         5.000    21000796.437 7 110360072.85007     -2742.209 7        47.614                                    21000794.339 6  85994767.10406     -2136.785 6        38.021    21000794.335 6  85994749.10506     -2136.788 6        39.261
G02         6.000    21880410.744 6 114982337.82106       965.915 6        38.526                                    21880411.120 3  89596604.49603       752.671 3        18.478
G14         7.000    24081147.533 6 126547421.00306      -201.294 6        37.282
E03         9.000    25459143.704 5 133788707.28805      1521.017 5        35.143                                                                    25459145.852 6  99907193.18806      1135.835 6        38.994    25459146.112 5 102513444.38505      1165.568 5        35.929
E05        11.000    23924512.466 6 125724183.00806     -1077.074 6        37.025                                                                    23924513.405 7  93884958.05307      -804.489 7        47.077    23924512.186 7  96334099.75107      -825.440 7        47.565
E13        12.000    26516109.256 6 139343259.68506      1389.281 6        39.775                                                                                                                                    26516113.008 6 106769378.62406      1064.417 6        40.167
G27        13.000    23003261.382 6 120882952.08906     -4378.498 6        41.962                                    23003261.817 4  94194529.75904     -3411.816 4        28.919    23003261.634 6  94194524.77406     -3411.812 6        36.038
E27        14.000    26614305.574 4 139859141.00604     -3161.489 4        27.222                                                                    26614310.500 5 104440267.49905     -2360.378 5        33.156    26614313.503 6 107164859.01206     -2421.834 6        39.378
E21        15.000    26904217.368 6 141382652.89806      -795.659 6        38.751                                                                    26904215.844 5 105577974.88405      -594.285 5        35.471    26904215.200 6 108332198.24706      -609.706 6        38.360
E15        16.000    23588617.612 7 123959126.57307      -382.294 7        47.562                                                                    23588618.320 8  92566806.00708      -285.505 8        52.326    23588617.459 8  94981607.90708      -292.910 8        51.940
S23        17.000    38324510.574 7 201396601.83107      -859.132 7        42.500
R20        20.000    22369760.354 4                     -4043.958 4        27.677                                                                    22369762.709 5                     -3145.010 5        33.120
S36        23.000    38367894.126 6 201624670.26406      -860.488 6        37.750
R06        25.000    19680902.588 6 105021095.88706       619.782 6        39.237
R07        27.000    22350743.671 7 119645268.88317      3392.942 7        42.171
R05        28.000    21665959.372 6 115816948.85916     -4228.214 6        39.246                                                                    21665964.577 5                     -3288.790 5        31.253
C41        29.000                                                                                                                                    25758049.049 3                      2553.227 3        20.976                                                                    25758059.332 6 108990776.03206      2074.288 6        38.303
R12        30.000    23530085.132 6 125693422.76606     -3589.290 6        38.856
E34        32.000    25039957.544 4                     -2574.634 4        29.602                                                                    25039941.916 6  98262101.86806     -1922.367 6        40.133    25039936.217 5 100825526.64205     -1972.650 5        33.748
R22        35.000    21373047.359 7 114090765.75307      2185.553 7        44.506                                                                    21373044.835 7  88737288.05807      1699.819 7        42.408
C33        37.000                                                                                                                                    22518935.058 7 117262027.19307       771.739 7        42.957                                                                    22518946.237 7  95285009.13307       627.055 7        47.730
C11        38.000                                                                                                                                    24843145.550 4                     -3718.175 4        27.353    24843140.293 3                     -2873.657 3        22.762    24843150.114 6 105119527.63006     -3021.272 6        39.417
R21        39.000    19518403.432 7 104446927.50207     -1130.459 7        42.591                                                                    19518405.029 6  81236498.89806      -879.159 6        38.447
C27        41.000                                                                                                                                    24922603.506 7 129778742.28607      2074.073 7        42.059                                                                    24922606.079 6 105455709.60806      1685.331 6        36.684
C14        42.000                                                                                                                                    22157860.467 7 115381827.18107      -940.433 7        47.918    22157855.858 8  89220485.54008      -727.196 8        49.669    22157855.199 7  93757157.92907      -764.235 7        46.218
C13        43.000                                                                                                                                    40249726.017 4                     -1774.219 4        25.564    40249675.767 4                     -1372.982 4        24.541
C43        48.000                                                                                                                                    23164670.464 6 120624546.59406     -3177.738 6        39.021
C42        50.000                                                                                                                                    23168217.242 6 120642967.94406     -2595.939 6        37.800                                                                    23168217.219 7  98032404.13807     -2109.395 7        45.460
I01        53.000   415534351.942 7 327505287.04207     -2489.291 7        42.851
C28        55.000                                                                                                                                    21953598.516 6 114318059.95506       313.055 6        39.141                                                                    21953585.688 6  92892803.98106       254.326 6        37.981
I06        58.000    38590242.174 5 151436533.23405      -537.757 5        35.681
> 2025 01 02 22 30 15.0000000  0 35
G10         1.000    22487892.226 4 118174723.25804     -3426.504 4        29.839                                    22487895.891 1  92084204.24801     -2670.210 1        10.444    22487892.131 6  92084176.06906     -2670.520 6        36.265
G03         2.000    23955565.576 3                      2682.519 3        23.790
G32         3.000    22064769.004 6 115951094.60506      -185.666 6        41.583                                    22064765.580 6  90351492.36406      -144.674 6        38.159    22064766.368 7  90351592.35607      -144.724 7        42.523
G21         4.000    20833360.943 6 109480096.69606      -355.301 6        40.973                                    20833355.664 4  85309133.14104      -276.856 4        27.449
G08         5.000    21003406.978 7 110373790.97207     -2745.094 7        47.772                                    21003405.087 6  86005456.55006     -2139.027 6        39.141    21003405.155 6  86005438.53306     -2139.088 6        39.664
G02         6.000    21879496.056 6 114977511.05406       964.684 6        38.462                                    21879492.985 3  89592843.36503       751.718 3        19.194
G14         7.000    24081349.840 5 126548436.53305      -204.721 5        35.086
E03         9.000    25457697.849 5 133781106.79205      1519.291 5        35.424                                                                    25457699.245 6  99901517.51306      1134.344 6        39.150    25457699.654 6 102507620.65506      1164.010 6        36.450
E05        11.000    23925538.469 6 125729576.70006     -1080.105 6        37.871                                                                    23925539.549 7  93888985.79807      -806.530 7        46.767    23925538.649 7  96338232.56407      -827.597 7        47.662
E13        12.000    26514787.437 6 139336315.19206      1388.625 6        39.691                                                                                                                                    26514791.899 6 106764057.53306      1064.010 6        40.458
G27        13.000    23007428.175 6 120904848.28606     -4379.934 6        41.688                                    23007428.626 5  94211591.74405     -3412.938 5        30.189    23007427.745 5  94211586.76105     -3413.283 5        35.738
E27        14.000    26617318.293 4 139874948.86104     -3162.440 4        27.186                                                                    26617319.296 5 104452072.12905     -2361.660 5        33.754    26617321.342 6 107176971.58906     -2423.074 6        38.492
E21        15.000    26904975.249 6 141386638.33506      -798.561 6        38.372                                                                    26904974.241 5 105580951.04105      -596.427 5        35.671    26904973.932 6 108335252.03006      -611.907 6        38.225
E15        16.000    23588982.134 8 123961041.36008      -383.680 8        48.292                                                                    23588982.645 8  92568235.89208      -286.484 8        52.257    23588981.665 8  94983075.08908      -293.972 8        51.652
S23        17.000    38325322.991 7 201400898.15507      -859.358 7        42.368
R20        20.000    22373546.329 4                     -4045.021 4        27.581                                                                    22373548.478 5                     -3146.474 5        35.657
S36        23.000    38368716.238 6 201628973.82806      -861.142 6        37.233
R06        25.000    19680324.503 6 105018009.06706       615.258 6        39.150
R07        27.000    22347574.094 6 119628308.73706      3391.086 6        41.809
R05        28.000    21669916.555 6 115838098.09006     -4231.238 6        38.348                                                                    21669933.379 5  90096391.49815     -3290.709 5        33.401
C41        29.000                                                                                                                                                                                                                                                                    25755608.358 6 108980407.15206      2073.346 6        38.369
R12        30.000    23533447.390 6 125711376.57906     -3592.098 6        38.036
E34        32.000                                                                                                                                    25042390.954 6  98271715.62006     -1923.178 6        40.334    25042385.636 5 100835391.17305     -1973.493 5        31.924
R22        35.000    21371000.677 7 114079841.42907      2184.188 7        44.916                                                                    21370998.797 6  88728791.37606      1698.773 6        41.998
C33        37.000                                                                                                                                    22518194.572 7 117258175.69207       768.946 7        43.484                                                                    22518206.574 7  95281879.46307       624.838 7        47.947
C11        38.000                                                                                                                                    24846713.462 4                     -3719.393 4        26.012    24846710.495 4                     -2876.711 4        25.218    24846720.503 6 105134637.01806     -3022.520 6        39.144
R21        39.000    19519461.427 7 104452587.50907     -1133.588 7        43.545                                                                    19519461.707 6  81240901.09806      -881.612 6        38.868
C27        41.000                                                                                                                                    24920611.863 7 129768373.69107      2073.313 7        42.459                                                                    24920615.807 6 105447284.29006      1684.775 6        36.537
C14        42.000                                                                                                                                    22158764.033 7 115386537.08907      -943.493 7        47.048    22158760.903 8  89224127.54608      -729.640 8        49.980    22158759.248 7  93760985.11607      -766.753 7        45.678
C13        43.000                                                                                                                                    40251432.853 4                     -1774.741 4        24.962    40251382.742 4                     -1372.538 4        24.872
C43        48.000                                                                                                                                    23167721.859 6 120640440.28506     -3179.600 6        38.796
C42        50.000                                                                                                                                    23170711.884 6 120655953.35506     -2598.239 6        39.228                                                                    23170710.738 7  98042955.90107     -2111.373 7        45.082
I01        53.000   415537524.227 7 327517734.91607     -2489.790 7        42.906
C28        55.000                                                                                                                                    21953307.265 6 114316500.11106       310.952 6        38.739                                                                    21953286.051 6  92891536.47306       252.747 6        37.452
I06        58.000    38590926.751 5 151439223.40905      -538.145 5        35.638
> 2025 01 02 22 30 20.0000000  0 36
G10         1.000    22491151.587 5 118191861.75205     -3428.121 5        32.000                                    22491157.376 1  92097558.78401     -2671.172 1         6.500    22491153.315 5  92097530.68605     -2671.125 5        33.150
G03         2.000    23953022.824 4                      2679.085 4        24.271
G32         3.000    22064946.237 7 115952030.53907      -188.607 7        42.309                                    22064943.779 6  90352221.66206      -146.971 6        38.042    22064944.354 7  90352321.69107      -146.969 7        42.548
G21         4.000    20833699.086 6 109481877.43506      -356.805 6        41.385                                    20833694.259 4  85310520.73904      -278.028 4        27.102
G08         5.000    21006019.989 8 110387523.21208     -2747.562 8        48.886                                    21006018.344 6  86016156.98706     -2140.956 6        39.997    21006018.451 6  86016138.97006     -2141.058 6        39.444
G02         6.000    21878580.578 6 114972690.81206       963.688 6        37.709                                    21878575.931 3  89589087.30403       750.940 3        19.761
G14         7.000    24081547.624 5 126549468.20005      -207.776 5        34.448                                    24081516.664 1  98609785.10611      -161.918 1         9.619    24081523.094 4                      -162.242 4        28.076
E03         9.000    25456253.332 6 133773514.66406      1517.978 6        36.968                                                                    25456254.456 6  99895848.09106      1133.387 6        39.099    25456255.999 6 102501803.31506      1163.221 6        36.975
E05        11.000    23926568.067 6 125734983.31106     -1082.362 6        38.234                                                                    23926568.214 7  93893023.20307      -808.263 7        46.383    23926567.584 8  96342375.28808      -829.316 8        48.090
E13        12.000    26513466.564 6 139329372.67406      1388.521 6        40.381                                                                                                                                    26513471.182 6 106758737.95606      1064.019 6        40.253
G27        13.000    23011596.487 6 120926751.31806     -4380.981 6        41.697                                    23011596.688 5  94228659.05005     -3413.749 5        30.702    23011596.201 5  94228654.03205     -3413.549 5        35.233
E27        14.000    26620329.329 4 139890764.39504     -3163.717 4        26.623                                                                    26620329.544 5 104463882.43505     -2362.480 5        34.133    26620329.141 6 107189090.06106     -2424.137 6        37.274
E21        15.000    26905735.823 6 141390636.65906      -800.690 6        37.845                                                                    26905735.846 6 105583936.79306      -598.072 6        36.957    26905734.868 6 108338315.66406      -613.298 6        38.141
E15        16.000    23589347.768 8 123962961.91208      -384.422 8        48.718                                                                    23589348.027 8  92569670.06908      -287.047 8        52.256    23589347.043 8  94984546.67608      -294.547 8        51.383
S23        17.000    38326141.817 7 201405195.09907      -859.199 7        42.273
R20        20.000    22377333.494 4                     -4046.896 4        26.072                                                                    22377331.069 6                     -3147.507 6        36.159
S36        23.000    38369534.407 6 201633277.97206      -860.677 6        36.340
R06        25.000    19679750.361 6 105014944.03306       610.977 6        38.829
R13        26.000    23387229.582 4 124886536.76614     -1056.371 4        28.370
R07        27.000    22344406.359 6 119611356.90216      3389.738 6        41.683                                                                    22344363.961 5                      2636.437 5        30.325
R05        28.000    21673875.876 6 115859261.09106     -4233.648 6        38.694                                                                    21673888.779 5  90112851.62305     -3292.953 5        34.167
C41        29.000                                                                                                                                                                                                                                                                    25753158.289 6 108970041.48306      2073.019 6        38.090
R12        30.000    23536805.695 6 125729344.25306     -3594.614 6        37.837                                                                    23536833.036 5                     -2795.980 5        34.133
E34        32.000    25044835.985 5                     -2576.008 5        32.228                                                                    25044840.835 6  98281332.75906     -1923.547 6        40.265    25044835.031 5 100845259.16305     -1973.689 5        30.181
R22        35.000    21368956.438 7 114068923.23607      2183.322 7        44.956                                                                    21368954.355 7  88720299.44907      1698.166 7        42.150
C33        37.000                                                                                                                                    22517457.942 7 117254337.01307       766.778 7        43.755                                                                    22517469.595 8  95278760.21408       622.925 8        48.084
C11        38.000                                                                                                                                    24850285.586 4                     -3720.460 4        28.389    24850279.069 4                     -2876.476 4        26.299    24850292.086 6 105149750.76906     -3023.075 6        38.498
R21        39.000    19520522.805 7 104458262.50407     -1136.141 7        43.812                                                                    19520521.794 6  81245314.99106      -883.784 6        39.318
C27        41.000                                                                                                                                    24918620.971 7 129758008.32507      2073.084 7        42.301                                                                    24918625.115 6 105438861.59206      1684.265 6        37.875
C14        42.000                                                                                                                                    22159670.624 7 115391261.26507      -946.022 7        46.155    22159668.435 8  89227780.58508      -731.483 8        50.644    22159666.200 7  93764823.87107      -768.792 7        45.511
C13        43.000                                                                                                                                    40253135.861 3                     -1774.373 3        23.295    40253087.843 4                     -1372.082 4        24.767
C43        48.000                                                                                                                                    23170772.852 6 120656342.43206     -3181.045 6        37.191
C42        50.000                                                                                                                                    23173206.384 6 120668950.22706     -2600.204 6        41.673                                                                    23173206.642 7  98053516.95507     -2113.071 7        45.217
I01        53.000   415540696.631 7 327530184.64007     -2489.881 7        42.557
C28        55.000                                                                                                                                    21953010.098 6 114314950.23906       309.302 6        37.826                                                                    21952988.319 6  92890277.07706       251.332 6        37.353
I06        58.000    38591612.684 5 151441913.97605      -538.031 5        35.676
> 2025 01 02 22 30 25.0000000  0 35
G10         1.000    22494416.811 5 118209006.14805     -3429.727 5        30.091                                    22494419.702 2  92110918.01902     -2672.510 2        12.727    22494415.058 5  92110889.88305     -2672.082 5        31.260
G32         3.000    22065127.534 7 115952981.81307      -191.784 7        42.438                                    22065124.969 6  90352962.93006      -149.443 6        36.873    22065126.072 7  90353062.95207      -149.422 7        43.435
G21         4.000    20834039.682 6 109483666.21706      -358.512 6        41.008                                    20834034.425 4  85311914.58704      -279.357 4        26.611
G08         5.000    21008635.888 8 110401268.62208     -2750.393 8        49.913                                    21008633.930 6  86026867.69506     -2143.165 6        40.872    21008634.183 6  86026849.66506     -2143.178 6        39.598
G02         6.000    21877665.667 6 114967876.09906       962.379 6        39.027                                    21877659.830 3  89585335.58403       749.920 3        20.286
G14         7.000                                                                                                                                                                    24081725.811 5                      -164.184 5        32.443
E03         9.000    25454810.515 6 133765929.98506      1516.411 6        38.120                                                                    25454811.280 6  99890184.22406      1132.259 6        38.838    25454810.305 6 102495991.73006      1161.750 6        38.465
E05        11.000    23927600.492 6 125740401.94306     -1084.752 6        39.634                                                                    23927598.884 7  93897069.55907      -810.095 7        46.093    23927598.781 8  96346527.21108      -831.230 8        48.271
E13        12.000    26512145.758 6 139322431.20206      1388.222 6        39.961                                                                                                                                    26512150.395 6 106753419.18406      1063.800 6        40.543
G27        13.000    23015765.792 6 120948660.21706     -4382.261 6        41.237                                    23015765.533 5  94245730.92705     -3414.745 5        30.785    23015765.621 5  94245725.91305     -3414.797 5        34.771
E27        14.000    26623341.794 5 139906586.73605     -3165.300 5        30.913                                                                    26623342.347 5 104475697.74205     -2363.226 5        34.914    26623337.481 6 107201213.62706     -2425.198 6        36.185
E21        15.000    26906499.647 6 141394646.89506      -803.235 6        36.764                                                                    26906500.177 6 105586931.48406      -599.730 6        37.032    26906497.256 6 108341388.46106      -615.555 6        36.911
E15        16.000    23589714.138 8 123964887.25508      -385.521 8        48.939                                                                    23589714.350 8  92571107.83708      -287.864 8        52.155    23589713.410 8  94986021.94808      -295.412 8        51.220
S23        17.000    38326962.655 7 201409491.83907      -859.256 7        42.370
R20        20.000    22381111.796 3                     -4047.072 3        23.714                                                                    22381115.785 6  93085901.55316     -3148.625 6        37.040
S36        23.000    38370351.444 5 201637581.96605      -860.528 5        35.876
R06        25.000    19679180.143 6 105011899.94406       606.732 6        39.868
R13        26.000    23388226.119 4                     -1060.774 4        25.474
R07        27.000    22341241.894 7 119594412.42417      3388.139 7        42.290
R05        28.000    21677837.360 6 115880436.70306     -4236.260 6        39.835                                                                    21677844.862 5  90129321.47505     -3294.540 5        33.257
C41        29.000                                                                                                                                    25750718.490 5                      2550.488 5        30.951                                                                    25750708.728 6 108959678.33006      2072.369 6        37.138
R12        30.000    23540173.106 6 125747324.84406     -3597.353 6        39.249                                                                    23540198.868 5  97803622.24915     -2797.725 5        33.150
E34        32.000    25047291.291 5 131624401.21915     -2577.021 5        35.014                                                                    25047291.756 6  98290952.58806     -1924.225 6        40.942    25047281.476 4 100855129.89004     -1974.214 4        26.383
R22        35.000    21366911.770 7 114058010.17307      2182.116 7        44.138                                                                    21366910.643 6  88711811.51906      1697.193 6        41.726
C33        37.000                                                                                                                                    22516723.497 7 117250510.25607       764.273 7        43.716                                                                    22516734.708 8  95275650.68708       621.002 8        48.118
C11        38.000                                                                                                                                    24853866.564 5                     -3721.239 5        32.060    24853855.987 4                     -2877.166 4        27.114    24853864.644 6 105164868.18706     -3023.776 6        36.972
R21        39.000    19521586.714 7 104463951.49507     -1139.138 7        44.638                                                                    19521585.089 6  81249739.73606      -886.015 6        39.093
C27        41.000                                                                                                                                    24916630.893 7 129747645.27907      2072.438 7        42.171                                                                    24916633.686 6 105430440.78206      1683.883 6        36.227
C14        42.000                                                                                                                                    22160580.871 7 115395998.85307      -948.846 7        45.962    22160578.460 8  89231444.00508      -733.727 8        51.025    22160576.074 7  93768673.57007      -770.947 7        45.533
C13        43.000                                                                                                                                    40254843.055 3                     -1775.161 3        22.686    40254784.166 3                     -1367.422 3        21.286
C43        48.000                                                                                                                                    23173828.747 6 120672252.06506     -3182.785 6        36.110
C42        50.000                                                                                                                                    23175702.683 7 120681957.64407     -2602.541 7        42.042                                                                    23175704.645 7  98064086.58907     -2114.833 7        45.053
I01        53.000   415543869.505 7 327542635.55007     -2490.361 7        42.284
C28        55.000                                                                                                                                                                                                                                                                    21952692.263 6  92889025.08206       249.537 6        36.919
I06        58.000    38592297.969 5 151444604.24405      -537.963 5        35.557
> 2025 01 02 22 30 30.0000000  0 35
G10         1.000    22497685.486 5 118226156.28305     -3430.395 5        33.216                                    22497682.681 3  92124281.81803     -2673.047 3        18.149    22497680.608 5  92124253.77905     -2672.749 5        32.497
G32         3.000    22065311.339 6 115953948.54706      -194.715 6        41.461                                    22065308.990 5  90353716.24605      -151.724 5        35.543    22065309.326 7  90353816.26507      -151.724 7        43.562
G21         4.000    20834382.039 6 109485463.21106      -360.024 6        40.517                                    20834376.428 4  85313314.84004      -280.534 4        26.156
G08         5.000    21011253.929 8 110415027.33908     -2752.850 8        49.649                                    21011251.837 6  86037588.76806     -2145.076 6        41.142    21011251.180 6  86037570.73806     -2145.178 6        38.069
G02         6.000    21876751.506 6 114963067.05506       961.633 6        40.601                                    21876744.703 3  89581588.26203       749.329 3        20.405
G14         7.000                                                                                                                                                                    24081930.776 5  98611475.43315      -166.456 5        33.317
E03         9.000    25453368.733 6 133758352.92606      1514.989 6        37.618                                                                    25453369.145 6  99884526.02806      1131.297 6        38.201    25453368.762 6 102490185.95306      1160.823 6        39.685
E05        11.000    23928634.633 6 125745832.70206     -1087.248 6        40.434                                                                    23928632.407 7  93901124.99607      -811.853 7        46.050    23928632.116 8  96350688.44708      -833.011 8        48.126
E13        12.000    26510825.317 6 139315490.92806      1388.200 6        39.000                                                                                                                                    26510828.801 6 106748101.30806      1063.676 6        40.524
G27        13.000    23019936.705 6 120970575.13806     -4383.156 6        40.219                                    23019935.433 5  94262807.49105     -3415.438 5        30.430    23019936.512 5  94262802.48305     -3415.489 5        34.524
E27        14.000    26626354.375 5 139922415.84705     -3166.346 5        32.168                                                                    26626354.431 5 104487518.19505     -2364.526 5        35.024    26626350.086 5 107213342.44405     -2426.115 5        35.162
E21        15.000    26907265.278 6 141398669.22006      -805.558 6        37.172                                                                    26907267.075 6 105589935.20106      -601.524 6        36.359    26907262.656 6 108344470.48406      -616.934 6        36.537
E15        16.000    23590081.338 8 123966817.57608      -386.348 8        48.880                                                                    23590081.547 8  92572549.31608      -288.493 8        51.735    23590080.768 8  94987501.02608      -296.028 8        51.182
S23        17.000    38327777.545 6 201413788.43206      -859.037 6        41.962
R20        20.000    22384901.206 3                     -4050.715 3        20.429                                                                    22384901.209 6  93101648.01606     -3149.557 6        36.060
S36        23.000    38371174.177 5 201641886.07505      -860.911 5        35.957
R06        25.000    19678613.691 6 105008876.87006       602.740 6        39.204
R13        26.000    23389227.427 4                     -1064.896 4        26.982
R07        27.000    22338078.266 7 119577475.33207      3386.877 7        42.157
R05        28.000    21681799.233 6 115901625.14806     -4238.713 6        38.066                                                                    21681800.276 5  90145801.38405     -3296.831 5        35.281
C41        29.000                                                                                                                                    25748266.874 5                      2549.967 5        31.758                                                                    25748259.327 6 108949317.76206      2072.237 6        36.858
R12        30.000    23543540.764 5 125765318.53305     -3599.859 5        33.275
E34        32.000    25049743.904 6 131637287.30106     -2577.388 6        38.658                                                                    25049743.850 6  98300575.22006     -1924.749 6        40.539    25049729.743 4 100865003.65104     -1975.710 4        24.872
R22        35.000    21364866.853 7 114047102.47907      2181.302 7        42.457                                                                    21364867.332 7  88703327.75407      1696.594 7        42.190
C33        37.000                                                                                                                                    22515991.038 7 117246695.61807       761.887 7        43.911                                                                    22516002.432 8  95272550.95008       619.399 8        48.839
C11        38.000                                                                                                                                    24857444.252 5                     -3722.309 5        31.570    24857429.032 4                     -2878.333 4        26.275    24857438.598 5 105179989.36205     -3024.275 5        35.205
R21        39.000    19522653.046 7 104469654.61707     -1141.789 7        44.811                                                                    19522652.055 6  81254175.48906      -888.032 6        40.548
C27        41.000                                                                                                                                    24914640.087 6 129737284.73006      2072.150 6        41.609                                                                    24914642.645 5 105422021.94605      1683.982 5        35.800
C14        42.000                                                                                                                                    22161493.779 7 115400749.96807      -951.319 7        45.837    22161491.054 8  89235117.86708      -735.607 8        51.667    22161489.057 7  93772534.24807      -772.867 7        45.369
C13        43.000                                                                                                                                    40256543.850 3                     -1769.947 3        19.254    40256484.876 3                     -1371.286 3        21.738
C43        48.000                                                                                                                                    23176887.614 5 120688169.19805     -3183.951 5        33.748
C42        50.000                                                                                                                                    23178203.761 7 120694975.70607     -2604.516 7        42.925                                                                    23178204.698 7  98074664.83907     -2116.142 7        44.427
I01        53.000   415547042.299 6 327555087.72406     -2490.333 6        41.771
C28        55.000                                                                                                                                    21952402.323 5 114311877.83805       305.545 5        35.852                                                                    21952398.981 6  92887780.55706       248.477 6        37.312
I06        58.000    38592983.646 5 151447294.38705      -538.021 5        35.048
> 2025 01 02 22 30 35.0000000  0 34
