     3.04           OBSERVATION DATA    M                   RINEX VERSION / TYPE
ssrcrin-15.6.1x                         20250102 183000 UTC PGM / RUN BY / DATE 
(00000000023479385599111004) Septentrio proprietary         COMMENT             
ract                                                        MARKER NAME         
01                                                          MARKER NUMBER       
geodetic                                                    MARKER TYPE         
NFB                 CLIMERS@TUW                             OBSERVER / AGENCY   
3296359             SEPT ASTERX SB3 PROB4.14.4              REC # / TYPE / VERS 
Unknown             Unknown                                 ANT # / TYPE        
  4127448.2220  1206915.0406  4695543.5562                  APPROX POSITION XYZ 
        0.0000        0.0000        0.0000                  ANTENNA: DELTA H/E/N
G   23 X1  C1C L1C D1C S1C C1W S1W C2W L2W D2W S2W C2L L2L  SYS / # / OBS TYPES 
       D2L S2L C5Q L5Q D5Q S5Q C1L L1L D1L S1L              SYS / # / OBS TYPES 
E   21 X1  C1C L1C D1C S1C C6C L6C D6C S6C C5Q L5Q D5Q S5Q  SYS / # / OBS TYPES 
       C7Q L7Q D7Q S7Q C8Q L8Q D8Q S8Q                      SYS / # / OBS TYPES 
S    9 X1  C1C L1C D1C S1C C5I L5I D5I S5I                  SYS / # / OBS TYPES 
R   17 X1  C1C L1C D1C S1C C2P L2P D2P S2P C2C L2C D2C S2C  SYS / # / OBS TYPES 
       C3Q L3Q D3Q S3Q                                      SYS / # / OBS TYPES 
C   25 X1  C1P L1P D1P S1P C5P L5P D5P S5P C2I L2I D2I S2I  SYS / # / OBS TYPES 
       C7I L7I D7I S7I C6I L6I D6I S6I C7D L7D D7D S7D      SYS / # / OBS TYPES 
J   17 X1  C1C L1C D1C S1C C2L L2L D2L S2L C5Q L5Q D5Q S5Q  SYS / # / OBS TYPES 
       C1L L1L D1L S1L                                      SYS / # / OBS TYPES 
I    5 X1  C5A L5A D5A S5A                                  SYS / # / OBS TYPES 
SEPTENTRIO RECEIVERS OUTPUT ALIGNED CARRIER PHASES.         COMMENT             
NO FURTHER PHASE SHIFT APPLIED IN THE RINEX ENCODER.        COMMENT             
G L1C                                                       SYS / PHASE SHIFT   
G L2W                                                       SYS / PHASE SHIFT   
G L2L  0.00000                                              SYS / PHASE SHIFT   
G L5Q  0.00000                                              SYS / PHASE SHIFT   
G L1L  0.00000                                              SYS / PHASE SHIFT   
E L1C  0.00000                                              SYS / PHASE SHIFT   
E L6C  0.00000                                              SYS / PHASE SHIFT   
E L5Q  0.00000                                              SYS / PHASE SHIFT   
E L7Q  0.00000                                              SYS / PHASE SHIFT   
E L8Q  0.00000                                              SYS / PHASE SHIFT   
S L1C                                                       SYS / PHASE SHIFT   
S L5I                                                       SYS / PHASE SHIFT   
R L1C                                                       SYS / PHASE SHIFT   
R L2P  0.00000                                              SYS / PHASE SHIFT   
R L2C                                                       SYS / PHASE SHIFT   
R L3Q  0.00000                                              SYS / PHASE SHIFT   
C L1P  0.00000                                              SYS / PHASE SHIFT   
C L5P  0.00000                                              SYS / PHASE SHIFT   
C L2I                                                       SYS / PHASE SHIFT   
C L7I                                                       SYS / PHASE SHIFT   
C L6I                                                       SYS / PHASE SHIFT   
C L7D                                                       SYS / PHASE SHIFT   
J L1C                                                       SYS / PHASE SHIFT   
J L2L  0.00000                                              SYS / PHASE SHIFT   
J L5Q  0.00000                                              SYS / PHASE SHIFT   
J L1L  0.00000                                              SYS / PHASE SHIFT   
I L5A                                                       SYS / PHASE SHIFT   
  2025     1     2    18    30    0.0000000     GPS         TIME OF FIRST OBS   
 C1C    0.000 C2C    0.000 C2P    0.000                     GLONASS COD/PHS/BIS 
DBHZ                                                        SIGNAL STRENGTH UNIT
    18                                                      LEAP SECONDS        
 24 R01  1 R02 -4 R03  5 R04  6 R05  1 R06 -4 R07  5 R08  6 GLONASS SLOT / FRQ #
    R09 -2 R10 -7 R11  0 R12 -1 R13 -2 R14 -7 R15  0 R16 -1 GLONASS SLOT / FRQ #
    R17  4 R18 -3 R19  3 R20  2 R21  4 R22 -3 R23  3 R24  2 GLONASS SLOT / FRQ #
                                                            END OF HEADER       
> 2025 01 02 18 30  0.0000000  0 40
G10         1.000    24181549.847 5 127074941.92905      2757.786 5        33.138
G23         2.000    21692245.333 7 113993532.85607      1548.535 7        42.133                                    21692239.718 3  88826097.42003      1206.655 3        19.254    21692244.503 6  88826122.33906      1206.469 6        36.457
G05         4.000    24465017.684 5                     -3966.433 5        32.269                                                                                                    24465025.709 3                     -3091.421 3        21.929
G08         5.000    25057267.269 4                      2493.111 4        26.539
G29         9.000                                                                                                                                                                    23483867.187 4                     -2991.383 4        29.687
G18        12.000    20726089.539 7 108916565.65707     -2181.970 7        45.825                                    20726084.712 5  84869929.81405     -1700.240 5        30.438    20726084.628 7  84870129.82507     -1700.279 7        42.688
G27        13.000    22056208.394 6 115906151.29306      1936.473 6        37.327                                    22056211.168 4  90316480.32904      1508.947 4        26.204    22056209.500 6  90316519.30906      1508.957 6        39.562
E27        14.000    28098447.877 6 147658354.64606      2023.722 6        37.123                                                                    28098447.109 6 110264350.26806      1511.142 6        37.127    28098443.823 5 113140792.86205      1550.563 5        30.385
R03        15.000                                                                                                                                    22253039.622 5  92650652.43705       425.419 5        34.333
G26        17.000    20773189.146 7 109163892.87907     -2423.968 7        46.159                                    20773188.410 7  85063172.64807     -1888.806 7        42.476    20773189.033 7  85062746.65007     -1888.729 7        42.011
R02        18.000                                                                                                                                    23457415.193 5  97356971.01105     -2146.699 5        32.413
E30        19.000    24345911.849 6 127938623.57606       355.916 6        38.847                                                                    24345922.459 4  95538757.06004       265.915 4        24.195    24345942.144 4  98031015.22904       273.031 4        28.692
R20        20.000    20771707.906 6 111075604.34006      1514.069 6        38.087                                                                    20771700.528 7  86392213.98607      1177.751 7        43.596
E02        21.000    23758150.128 7 124850180.84507     -2544.156 7        45.816                                                                    23758149.177 8  93232186.08808     -1899.933 8        48.109    23758147.587 7  95664337.97007     -1949.432 7        44.602
S23        22.000    38057226.110 6 199992109.56206      -865.279 6        40.155
R10        23.000    20214495.473 6 107754637.51506       308.079 6        38.706
E36        24.000    23581658.823 7 123922476.42107     -1921.593 7        44.488                                                                    23581657.069 6  92539678.91506     -1434.740 6        37.917    23581657.815 7  94953739.27007     -1472.321 7        44.378
R18        25.000    22355765.146 3                     -4260.757 3        21.452                                                                    22355797.060 4                     -3314.503 4        26.395
G16        26.000    20502522.540 8 107741485.99508       -53.215 8        48.375                                    20502517.650 5  83954392.78105       -41.465 5        31.087
S21        27.000    38331301.515 5 201432614.94705      -863.762 5        34.005
C22        28.000                                                                                                                                    24634796.779 6 128280143.14206      -443.858 6        36.495                                                                    24634805.190 5                      -360.680 5        34.767
R19        29.000    19759940.349 5 105702359.73505     -2549.003 5        31.072                                                                    19759939.204 7  82212935.95307     -1982.205 7        42.262
S36        31.000    38101679.565 6 200225677.09306      -863.253 6        36.431
E34        32.000    24035771.592 7 126308844.24607       795.829 7        46.736                                                                    24035772.752 7  94321544.05407       594.339 7        44.555    24035772.425 6  96782165.42906       609.844 6        40.317
R11        33.000    23673315.860 5 126503054.32005      3216.768 5        35.829                                                                    23673316.657 5  98391221.81405      2501.931 5        34.081
R16        34.000    23548780.525 3                     -5525.919 3        22.552
C44        35.000                                                                                                                                    23939925.892 5 124661284.18005     -3382.966 5        33.868                                                                    23939900.991 5 101297541.80505     -2749.227 5        34.609
C08        36.000                                                                                                                                    37764055.278 5 196647338.62605     -1408.119 5        31.268    37764052.618 6 152060212.80006     -1088.856 6        40.460    37764052.978 5 159792161.83705     -1144.322 5        32.778
R09        37.000    19973017.609 7 106654894.47807     -3354.493 7        43.022                                                                    19973016.166 6  82953798.42506     -2609.074 6        37.187
C11        38.000                                                                                                                                    21796791.825 5 113501664.52805       150.705 5        35.233    21796791.658 8  87766799.08908       116.369 8        51.746    21796788.461 7  92229375.41207       122.212 7        43.865
C12        41.000                                                                                                                                    22528472.029 7 117311649.08107     -2573.911 7        45.889    22528468.749 8  90712902.33708     -1990.286 8        49.790    22528467.816 8  95325404.40208     -2091.613 8        50.233
C13        43.000                                                                                                                                    37590712.135 5 195744719.61505     -1133.906 5        33.234    37590713.822 6 151362228.72806      -877.107 6        38.982    37590712.043 5 159058621.99205      -921.700 5        34.376
C38        44.000                                                                                                                                    39004137.004 4 203104880.20104     -1763.799 4        29.877                                                                    39004133.837 5 165039294.42805     -1432.547 5        32.251
C25        45.000                                                                                                                                    23152221.462 7 120559644.23207     -3191.867 7        43.386                                                                    23152197.287 6  97964761.46306     -2593.664 6        38.994
C21        46.000                                                                                                                                    25217269.940 5                      1846.220 5        31.736                                                                    25217235.771 4 106702388.86204      1499.909 4        28.512
C23        47.000                                                                                                                                    23758530.862 7 123716959.89107      -240.286 7        42.800                                                                    23758518.561 4 100530162.10704      -195.374 4        27.281
C43        48.000                                                                                                                                    23034106.764 6 119944717.96606      1209.047 6        40.691                                                                    23034106.797 7  97464871.72007       982.241 7        44.476
C34        52.000                                                                                                                                    21272609.172 6 110772122.70806     -1114.496 6        36.945                                                                    21272606.280 6  90011506.40906      -905.747 6        38.099
I01        56.000   410062529.373 6 306032633.44306     -1708.667 6        40.808
I06        58.000    38601476.761 7 151480610.08207      -613.657 7        43.433
> 2025 01 02 18 30  5.0000000  0 42
G10         1.000    24178924.631 5 127061157.11405      2756.861 5        31.834
G23         2.000    21690774.504 7 113985798.21707      1545.874 7        42.605                                    21690767.973 3  88820070.44403      1204.576 3        20.286    21690770.960 6  88820095.38906      1204.324 6        38.048
G05         4.000    24468791.859 5                     -3968.437 5        31.924                                                                                                    24468801.530 3                     -3091.645 3        21.810
G08         5.000    25054896.325 3                      2492.704 3        22.362
G31         7.000    24841002.599 4                     -4219.627 4        27.102
G07         8.000    25782732.776 5                      1127.259 5        32.784
G29         9.000                                                                                                                                                                    23487525.158 4                     -2992.598 4        28.692
G18        12.000    20728167.016 7 108927482.59507     -2184.388 7        46.239                                    20728162.062 5  84878436.51205     -1702.118 5        30.370    20728162.413 7  84878636.52207     -1702.135 7        42.997
G27        13.000    22054365.218 5 115896473.31405      1935.043 5        35.743                                    22054369.713 4  90308939.02804      1507.834 4        25.068    22054367.039 6  90308977.99706      1507.908 6        39.754
E27        14.000    28096523.893 6 147648238.53506      2023.167 6        37.856                                                                    28096522.506 6 110256796.03706      1510.668 6        37.890    28096517.885 5 113133041.59005      1550.275 5        30.091
R03        15.000    22252546.093 4                       543.814 4        29.185                                                                    22252529.550 5  92648534.21615       422.356 5        33.192
G26        17.000    20775497.105 7 109176021.30307     -2427.042 7        46.819                                    20775496.353 7  85072623.36807     -1891.199 7        42.258    20775496.644 7  85072197.37107     -1891.121 7        42.282
R02        18.000    23460014.776 5 125187017.67915     -2764.120 5        31.472                                                                    23460007.596 5  97367713.99205     -2149.570 5        30.943
E30        19.000    24345574.561 6 127936850.09006       353.947 6        39.180                                                                    24345582.739 3                       264.081 3        22.686    24345603.425 4  98029656.44504       271.453 4        28.000
R20        20.000    20770297.875 6 111068039.77406      1511.994 6        37.989                                                                    20770284.999 7  86386330.42607      1176.035 7        42.804
E02        21.000    23760572.058 7 124862908.02707     -2546.237 7        47.078                                                                    23760571.196 8  93241690.14608     -1901.411 8        48.128    23760569.532 7  95674089.96507     -1951.031 7        44.843
S23        22.000    38058047.882 6 199996437.69506      -865.493 6        40.281
R10        23.000    20214210.000 6 107753109.37706       303.608 6        40.307
E36        24.000    23583488.318 7 123932089.43307     -1923.264 7        44.932                                                                    23583486.677 6  92546857.46606     -1436.203 6        37.917    23583487.020 7  94961105.08807     -1473.705 7        44.566
R18        25.000    22359744.389 3                     -4266.199 3        20.810                                                                    22359791.681 4                     -3315.008 4        27.760
G16        26.000    20502574.217 7 107741761.65907       -56.688 7        47.188                                    20502569.932 5  83954607.58605       -44.170 5        30.709
S21        27.000    38332123.703 5 201436935.22805      -863.898 5        33.934
C22        28.000                                                                                                                                    24635225.666 5 128282370.73905      -446.922 5        35.010                                                                    24635232.050 5 104239728.30315      -363.082 5        34.971
R19        29.000    19762322.144 5 105715109.03405     -2550.456 5        31.947                                                                    19762322.511 7  82222852.17607     -1983.926 7        42.531
S36        31.000    38102500.693 6 200229993.95806      -863.396 6        36.352
E34        32.000    24035015.556 7 126304870.64207       794.049 7        46.214                                                                    24035016.465 7  94318576.74907       593.034 7        44.778    24035015.188 6  96779120.71006       608.361 6        40.203
R11        33.000    23670309.555 6 126486975.30306      3214.982 6        36.026                                                                    23670309.249 5  98378715.86605      2500.925 5        33.245
R16        34.000    23553948.209 3                     -5525.821 3        23.219
C44        35.000                                                                                                                                                                                                                                                                    23943150.184 5 101311289.10105     -2749.383 5        33.994
C08        36.000                                                                                                                                    37765409.580 5 196654382.63405     -1408.951 5        30.536    37765405.426 6 152065659.68106     -1089.649 6        40.226    37765405.531 5 159797885.66905     -1145.052 5        32.078
R09        37.000    19976159.819 6 106671677.85606     -3358.491 6        41.516                                                                    19976160.753 6  82966852.16606     -2612.133 6        36.881
C11        38.000                                                                                                                                    21796644.244 6 113500917.23106       148.883 6        36.401    21796647.504 8  87766221.20608       115.105 8        51.807    21796644.782 7  92228768.12107       121.006 7        43.244
C12        41.000                                                                                                                                    22530943.638 7 117324522.52407     -2575.057 7        46.145    22530940.513 8  90722856.90008     -1991.248 8        49.433    22530939.910 8  95335865.10508     -2092.414 8        49.803
C13        43.000                                                                                                                                    37591803.329 5 195750394.13605     -1135.202 5        33.719    37591803.014 6 151366616.58906      -877.817 6        38.847    37591801.847 5 159063232.94305      -922.513 5        33.713
C38        44.000                                                                                                                                    39005830.207 4 203113700.01804     -1764.253 4        29.801                                                                    39005827.820 5 165046461.26305     -1433.561 5        31.479
C25        45.000                                                                                                                                    23155282.309 7 120575609.41907     -3193.911 7        42.292                                                                    23155263.109 6  97977734.43706     -2595.198 6        38.285
C21        46.000                                                                                                                                    25215491.996 5                      1844.698 5        30.543                                                                    25215464.924 4 106694891.47104      1499.120 4        28.616
C23        47.000                                                                                                                                    23758763.760 7 123718169.98307      -243.315 7        43.403                                                                    23758748.107 4 100531145.41004      -197.511 4        27.210
C43        48.000                                                                                                                                    23032946.945 6 119938677.18406      1207.768 6        41.857                                                                    23032946.561 7  97459963.05507       981.469 7        44.024
C34        52.000                                                                                                                                    21273681.726 6 110777700.57506     -1116.214 6        39.297                                                                    21273677.755 6  90016038.89406      -906.952 6        37.720
I01        56.000   410064706.306 6 306041178.37806     -1709.071 6        40.749
I06        58.000    38602258.855 7 151483679.28307      -613.698 7        43.340
> 2025 01 02 18 30 10.0000000  0 42
G10         1.000    24176302.699 5 127047373.84305      2756.372 5        30.475
G23         2.000    21689304.750 7 113978075.45207      1543.458 7        43.012                                    21689298.969 3  88814052.73103      1202.688 3        21.190    21689302.740 6  88814077.68106      1202.678 6        38.961
G05         4.000    24472566.941 5                     -3970.105 5        31.872                                                                                                    24472580.234 3                     -3092.344 3        20.929
G08         5.000    25052526.481 3                      2489.752 3        20.333
G31         7.000    24845016.640 4                     -4219.355 4        27.856
G07         8.000    25781657.342 5 135483535.66815      1125.164 5        33.186
G29         9.000    23491173.409 5 123446940.80915     -3840.998 5        34.543                                                                                                    23491179.972 4                     -2992.736 4        26.659
G18        12.000    20730246.854 7 108938410.48507     -2186.625 7        46.849                                    20730241.573 5  84886951.75005     -1703.862 5        30.181    20730242.043 7  84887151.75607     -1703.846 7        42.624
G27        13.000    22052521.606 5 115886800.65405      1934.353 5        33.323                                    22052529.180 3  90301401.86403      1507.289 3        23.790    22052526.883 6  90301440.86506      1507.016 6        40.300
E27        14.000    28094599.262 6 147638123.93606      2022.913 6        38.565                                                                    28094597.928 6 110249242.92706      1510.713 6        37.917    28094592.309 5 113125291.46105      1549.742 5        30.377
R03        15.000    22252055.342 5                       539.092 5        34.333                                                                    22252021.602 5  92646430.98005       419.504 5        31.555
G26        17.000    20777808.229 7 109188163.74407     -2429.886 7        47.405                                    20777806.947 7  85082085.00807     -1893.420 7        42.047    20777807.116 6  85081659.01506     -1893.407 6        41.855
R02        18.000    23462598.412 4 125200848.48804     -2767.709 4        25.940
E30        19.000    24345238.829 6 127935085.57606       352.137 6        39.595                                                                    24345245.405 4                       262.757 4        24.737    24345257.501 5  98028304.50905       269.587 5        30.513
R20        20.000    20768885.039 6 111060484.81606      1510.429 6        36.476                                                                    20768871.746 7  86380454.37007      1174.406 7        42.451
E02        21.000    23762995.808 8 124875644.11608     -2548.072 8        48.156                                                                    23762994.880 8  93251200.85708     -1902.739 8        48.163    23762993.446 7  95683848.79007     -1952.376 7        44.864
S23        22.000    38058873.665 6 200000765.36006      -865.410 6        40.162
R10        23.000    20213927.358 6 107751602.72106       299.199 6        40.918
E36        24.000    23585319.185 7 123941709.81607     -1924.800 7        45.536                                                                    23585317.603 6  92554041.50006     -1437.283 6        38.006    23585317.666 7  94968476.55507     -1474.784 7        44.658
R18        25.000    22363741.796 3                     -4265.212 3        21.167
G16        26.000    20502629.351 7 107742052.99107       -59.797 7        46.473                                    20502625.049 4  83954834.59904       -46.598 4        29.820
S21        27.000    38332948.472 5 201441254.98605      -863.902 5        34.229
C22        28.000                                                                                                                                    24635659.179 5 128284612.06805      -449.462 5        33.880                                                                    24635664.163 5 104241549.63405      -365.221 5        34.405
R19        29.000    19764707.660 5 105727868.14905     -2552.801 5        34.571                                                                    19764707.162 7  82232775.88307     -1985.404 7        42.201
S36        31.000    38103322.175 6 200234310.56106      -863.237 6        36.098
E34        32.000    24034261.080 7 126300904.50207       792.520 7        45.866                                                                    24034261.566 7  94315615.01107       591.899 7        45.028    24034258.877 6  96776081.71706       607.182 6        40.055
R11        33.000    23667303.393 5 126470903.08005      3213.565 5        35.976                                                                    23667300.563 5  98366215.19005      2499.947 5        32.946
R16        34.000    23559122.503 3                     -5527.306 3        23.238
C44        35.000                                                                                                                                    23946399.205 6 124695122.80606     -3384.088 6        36.389                                                                    23946400.211 5 101325038.33705     -2749.973 5        33.521
C08        36.000                                                                                                                                    37766762.227 5 196661430.46705     -1410.286 5        30.128    37766758.615 6 152071109.43806     -1090.196 6        39.727    37766758.755 5 159803612.52505     -1145.625 5        31.283
R09        37.000    19979306.018 6 106688479.66506     -3362.238 6        40.527                                                                    19979306.936 6  82979920.23506     -2614.693 6        37.062
C11        38.000                                                                                                                                    21796503.437 6 113500176.74506       147.452 6        38.877    21796504.920 8  87765648.62208       114.055 8        51.756    21796502.365 7  92228166.44907       119.831 7        42.993
C12        41.000                                                                                                                                    22533417.103 7 117337400.88207     -2576.074 7        46.680    22533413.277 8  90732815.25608     -1992.030 8        48.776    22533412.925 8  95346329.84008     -2093.326 8        49.582
C13        43.000                                                                                                                                    37592895.004 5 195756072.33305     -1136.088 5        34.486    37592893.252 6 151371007.32906      -878.388 6        38.691    37592892.479 5 159067846.93605      -923.056 5        33.581
C38        44.000                                                                                                                                    39007526.651 4 203122522.39504     -1764.823 4        28.882                                                                    39007521.745 5 165053630.14905     -1433.826 5        31.434
C25        45.000                                                                                                                                    23158342.890 6 120591583.85206     -3195.791 6        40.269                                                                    23158330.827 6  97990715.00606     -2596.834 6        37.157
C21        46.000                                                                                                                                                                                                                                                                    25213695.038 4 106687398.94504      1497.873 4        29.763
C23        47.000                                                                                                                                    23758999.170 7 123719393.66207      -246.058 7        44.147                                                                    23758983.724 4 100532139.74804      -199.759 4        27.138
C43        48.000                                                                                                                                    23031786.351 7 119932641.34607      1206.718 7        42.385                                                                    23031787.041 7  97455058.43507       980.634 7        43.433
C34        52.000                                                                                                                                    21274755.656 6 110783285.77606     -1117.638 6        40.482                                                                    21274750.450 6  90020577.36106      -908.279 6        38.273
I01        56.000   410066884.250 6 306049723.66006     -1709.108 6        40.696
I06        58.000    38603040.701 7 151486748.00307      -613.666 7        43.227
> 2025 01 02 18 30 15.0000000  0 39
G10         1.000    24173680.029 5 127033592.52105      2755.713 5        30.551
G23         2.000    21687836.671 7 113970364.89307      1540.902 7        43.700                                    21687832.782 3  88808044.50703      1200.703 3        21.810    21687837.917 6  88808069.47706      1200.649 6        39.492
G05         4.000    24476347.783 5                     -3972.077 5        31.540                                                                                                    24476360.553 3                     -3097.596 3        19.045
G31         7.000    24849033.646 4                     -4219.565 4        29.327
G07         8.000    25780589.813 5 135477915.51905      1123.046 5        31.540
G29         9.000    23494824.779 5 123466147.22605     -3841.802 5        34.052                                                                                                    23494835.514 4                     -2993.451 4        25.188
G18        12.000    20732327.922 7 108949349.61807     -2188.968 7        46.563                                    20732323.269 5  84895475.74505     -1705.682 5        30.453    20732323.513 7  84895675.76007     -1705.670 7        42.343
G27        13.000    22050682.558 4 115877133.66204      1933.484 4        25.579                                    22050689.483 3  90293869.08503      1506.607 3        21.643    22050687.203 6  90293908.06106      1506.095 6        40.110
E27        14.000    28092674.010 6 147628011.18906      2022.346 6        38.036                                                                    28092673.696 6 110241691.19806      1510.270 6        38.279    28092667.837 5 113117542.75805      1549.472 5        30.355
R03        15.000    22251557.078 5 119114292.37015       534.777 5        35.800                                                                    22251521.574 4  92644343.44704       416.113 4        29.393
G26        17.000    20780121.083 7 109200320.52007     -2432.875 7        47.376                                    20780120.234 7  85091557.81807     -1895.745 7        42.174    20780120.115 6  85091131.82406     -1895.762 6        41.573
R02        18.000                                                                                                                                    23465220.047 4  97389243.34404     -2155.747 4        29.062
E30        19.000    24344904.421 6 127933330.29306       350.158 6        39.429                                                                    24344911.245 4                       261.884 4        28.009    24344923.800 5  98026959.53305       268.559 5        31.947
R20        20.000    20767465.423 5 111052939.82105      1507.773 5        35.143                                                                    20767460.868 7  86374586.01607      1172.882 7        42.144
E02        21.000    23765421.188 8 124888389.40808     -2549.986 8        48.527                                                                    23765420.212 8  93260718.44308     -1904.257 8        48.122    23765419.079 7  95693614.66707     -1953.928 7        44.746
S23        22.000    38059696.963 6 200005092.80206      -865.510 6        40.248
R10        23.000    20213648.564 6 107750117.83406       294.818 6        40.694
E36        24.000    23587151.733 7 123951337.85707     -1926.391 7        45.667                                                                    23587149.752 6  92561231.27506     -1438.442 6        38.063    23587149.712 7  94975853.89107     -1476.090 7        44.327
G16        26.000    20502687.836 7 107742360.30307       -63.026 7        45.737                                    20502682.921 4  83955074.06904       -49.110 4        28.768
S21        27.000    38333771.089 5 201445574.52205      -864.265 5        34.286
C22        28.000                                                                                                                                    24636091.770 5 128286867.51505      -452.221 5        33.731                                                                    24636099.873 5 104243382.44005      -367.895 5        33.317
R19        29.000    19767097.659 6 105740637.23306     -2554.772 6        36.420                                                                    19767094.273 7  82242707.39007     -1987.128 7        42.243
S36        31.000    38104146.975 5 200238626.84905      -862.930 5        35.905
E34        32.000    24033508.243 7 126296946.13307       790.899 7        45.369                                                                    24033508.419 7  94312659.08307       590.509 7        45.306    24033504.092 6  96773048.65306       606.119 6        39.393
R11        33.000    23664297.978 5 126454838.03105      3212.161 5        35.976                                                                    23664297.507 5  98353720.20505      2498.275 5        32.443
C44        35.000                                                                                                                                    23949649.274 6 124712045.76906     -3384.742 6        37.399                                                                    23949650.624 5 101338789.64805     -2750.628 5        33.245
C08        36.000                                                                                                                                    37768118.476 5 196668482.36305     -1410.925 5        30.287    37768113.139 6 152076562.44206     -1091.033 6        39.402    37768113.006 5 159809342.76905     -1146.352 5        30.370
R09        37.000    19982456.710 6 106705300.43706     -3366.091 6        40.732                                                                    19982456.733 6  82993003.06106     -2618.011 6        36.635
C11        38.000                                                                                                                                    21796367.603 6 113499443.38606       146.026 6        40.572    21796363.912 8  87765081.56608       112.848 8        51.779    21796361.522 7  92227570.57007       118.570 7        42.902
C12        41.000                                                                                                                                    22535891.684 7 117350284.45407     -2577.251 7        46.816    22535887.373 8  90742777.64708     -1992.921 8        48.106    22535887.008 8  95356798.80108     -2094.283 8        49.472
C13        43.000                                                                                                                                    37593985.158 5 195761754.66305     -1136.917 5        34.900    37593984.678 6 151375401.26006      -879.017 6        38.841    37593983.380 5 159072464.32205      -923.758 5        33.820
C38        44.000                                                                                                                                    39009219.902 4 203131347.63604     -1765.040 4        28.379                                                                    39009216.058 5 165060801.40605     -1434.652 5        31.608
C25        45.000                                                                                                                                    23161411.382 6 120607567.85106     -3197.948 6        37.834                                                                    23161399.767 6  98003703.34406     -2598.636 6        36.197
C21        46.000                                                                                                                                                                                                                                                                    25211925.850 5 106679911.49905      1496.745 5        30.257
C23        47.000                                                                                                                                    23759237.432 7 123720631.20807      -248.858 7        45.102                                                                    23759221.395 4 100533145.41104      -202.572 4        27.497
C43        48.000                                                                                                                                    23030627.728 6 119926610.71806      1205.672 6        41.738                                                                    23030628.442 7  97450158.04707       979.574 7        42.918
C34        52.000                                                                                                                                    21275829.223 6 110788878.60706     -1119.315 6        41.192                                                                    21275824.845 6  90025121.99306      -909.588 6        38.829
I01        56.000   410069062.643 6 306058269.51706     -1709.312 6        40.420
I06        58.000    38603822.741 7 151489816.47307      -613.719 7        43.310
> 2025 01 02 18 30 20.0000000  0 40
G10         1.000    24171058.889 5 127019813.49505      2755.754 5        31.125
G23         2.000    21686371.334 7 113962667.01007      1538.334 7        44.939                                    21686368.696 3  88802046.15703      1198.701 3        22.686    21686373.046 6  88802071.11506      1198.716 6        39.213
G05         4.000    24480133.334 5                     -3973.954 5        32.371                                                                                                    24480134.343 3                     -3097.683 3        20.857
G31         7.000    24853051.806 4                     -4220.040 4        28.464
G07         8.000    25779522.687 4 135472306.30304      1120.961 4        28.787
G29         9.000    23498481.654 5 123485357.83805     -3842.654 5        33.539                                                                                                    23498492.465 3                     -2995.303 3        22.743
G18        12.000    20734411.457 7 108960300.43607     -2191.285 7        46.484                                    20734407.323 5  84904008.84005     -1707.495 5        30.453    20734407.779 7  84904208.86807     -1707.513 7        42.451
G27        13.000                                                                                                                                                                    22048848.921 6  90286380.01006      1505.183 6        39.808
E27        14.000    28090749.237 6 147617900.70106      2021.881 6        37.773                                                                    28090749.977 6 110234141.15106      1510.006 6        38.501    28090744.180 5 113109795.76505      1549.329 5        30.453
R03        15.000    22251064.755 6 119111628.45206       530.886 6        37.077                                                                    22251024.131 4  92642271.47604       413.224 4        28.730
G26        17.000    20782437.405 7 109212492.03407     -2435.738 7        46.942                                    20782436.333 7  85101042.11007     -1897.978 7        42.216    20782436.604 6  85100616.12206     -1897.961 6        41.588
E30        19.000    24344572.430 6 127931584.74006       348.095 6        39.336                                                                    24344580.564 5                       259.867 5        31.283    24344593.751 5  98025622.02305       267.279 5        31.947
R20        20.000    20766048.585 5 111045405.09005      1506.186 5        34.776                                                                    20766051.102 7  86368725.68007      1171.351 7        42.076
E02        21.000    23767848.226 8 124901144.34808     -2551.909 8        48.613                                                                    23767847.417 8  93270243.22708     -1905.633 8        48.118    23767846.531 7  95703387.93207     -1955.358 7        44.941
S23        22.000    38060521.713 6 200009420.56006      -865.580 6        40.446
R10        23.000    20213374.299 6 107748655.27206       290.348 6        41.156
E36        24.000    23588984.958 7 123960974.01407     -1928.104 7        45.261                                                                    23588983.573 6  92568427.11106     -1439.667 6        38.276    23588983.264 7  94983237.44507     -1477.229 7        44.001
R18        25.000                                                                                                                                    22371802.665 4                     -3314.885 4        24.361
G16        26.000    20502749.930 7 107742684.05007       -66.320 7        45.362                                    20502743.950 4  83955326.35304       -51.680 4        27.689
S21        27.000    38334588.636 5 201449894.29105      -863.852 5        34.171
C22        28.000                                                                                                                                    24636528.204 5 128289137.51005      -455.052 5        33.269                                                                    24636537.926 5 104245227.01505      -369.741 5        31.555
R19        29.000    19769489.183 6 105753416.70306     -2556.969 6        36.696                                                                    19769483.168 7  82252646.98707     -1988.755 7        42.411
S36        31.000    38104965.358 6 200242942.69006      -863.153 6        36.284
E34        32.000    24032756.954 7 126292995.97807       789.311 7        45.314                                                                    24032756.897 7  94309709.28907       589.306 7        45.729    24032752.265 6  96770021.91506       604.717 6        39.438
R11        33.000    23661292.596 5 126438780.59405      3210.766 5        35.524                                                                    23661292.311 5  98341231.06805      2497.273 5        32.467
R16        34.000                                                                                                                                    23569483.134 3                     -4302.624 3        18.985
C44        35.000                                                                                                                                    23952901.997 6 124728971.74906     -3385.340 6        38.282                                                                    23952901.632 5 101352543.40105     -2750.790 5        32.168
C08        36.000                                                                                                                                    37769471.994 4 196675538.79404     -1412.066 4        29.782    37769467.944 6 152082018.94406     -1091.729 6        38.934    37769467.703 4 159815076.74204     -1147.415 4        29.336
R09        37.000    19985612.568 7 106722140.39407     -3369.895 7        44.182                                                                    19985608.589 6  83006100.79006     -2621.104 6        36.227
C11        38.000                                                                                                                                    21796229.590 6 113498717.61906       144.387 6        41.404    21796224.370 8  87764520.35808       111.707 8        51.773    21796222.126 7  92226980.83407       117.441 7        42.745
C12        41.000                                                                                                                                    22538366.839 7 117363173.69407     -2578.419 7        46.739    22538362.663 7  90752744.40807     -1993.698 7        47.304    22538362.133 8  95367272.35108     -2095.011 8        49.105
C13        43.000                                                                                                                                    37595078.276 5 195767441.34305     -1137.799 5        34.871    37595076.531 6 151379798.60106      -879.875 6        38.622    37595075.732 5 159077085.23005      -924.428 5        33.389
C38        44.000                                                                                                                                    39010912.644 4 203140176.19504     -1765.649 4        28.654                                                                    39010911.866 5 165067975.31105     -1434.785 5        32.000
C25        45.000                                                                                                                                                                                                                                                                    23164471.032 5  98016699.77705     -2599.931 5        35.262
C21        46.000                                                                                                                                    25210159.881 5                      1841.016 5        32.317                                                                    25210158.900 5 106672429.56205      1495.718 5        30.249
C23        47.000                                                                                                                                    23759478.110 7 123721883.07307      -251.896 7        46.129                                                                    23759462.133 4 100534162.55104      -204.050 4        27.293
C43        48.000                                                                                                                                    23029470.628 6 119920585.73906      1204.480 6        41.557                                                                    23029471.192 7  97445262.23907       978.886 7        42.400
C34        52.000                                                                                                                                    21276904.116 6 110794479.48306     -1120.990 6        41.540                                                                    21276900.684 6  90029673.16506      -910.871 6        38.922
I01        56.000   410071240.542 6 306066816.27706     -1709.415 6        40.644
I06        58.000    38604604.762 7 151492884.99407      -613.690 7        43.528
> 2025 01 02 18 30 25.0000000  0 39
G10         1.000    24168437.293 5 127006036.42105      2755.254 5        30.174
G23         2.000    21684909.499 7 113954981.24707      1535.700 7        45.821                                    21684907.044 3  88796057.26303      1196.636 3        23.410    21684908.793 6  88796082.21706      1196.784 6        39.156
G05         4.000    24483920.887 5                     -3975.771 5        32.479                                                                                                    24483913.713 3                     -3096.069 3        20.976
G31         7.000    24857067.310 4                     -4219.939 4        26.395
G29         9.000    23502144.347 5 123504572.16505     -3843.644 5        32.886                                                                                                    23502149.582 3                     -2992.612 3        20.119
G18        12.000    20736497.530 7 108971262.40307     -2193.685 7        46.173                                    20736493.585 5  84912550.64005     -1709.365 5        30.445    20736493.831 7  84912750.65107     -1709.280 7        42.373
G27        13.000    22047028.152 4                      1930.877 4        27.162                                                                                                    22047011.747 6  90278856.27606      1504.182 6        39.471
E27        14.000    28088825.328 6 147607791.97906      2021.419 6        36.469                                                                    28088826.497 6 110226592.43406      1509.500 6        38.826    28088820.866 5 113102050.11005      1549.135 5        30.717
R03        15.000    22250570.799 5 119108984.27005       526.684 5        33.683                                                                    22250537.990 4  92640214.77504       409.275 4        26.886
G26        17.000    20784756.274 7 109224677.77907     -2438.759 7        46.170                                    20784755.165 7  85110537.49307     -1900.328 7        42.157    20784755.561 6  85110111.49606     -1900.336 6        41.516
R02        18.000                                                                                                                                    23470402.025 5  97410831.20705     -2161.765 5        34.629
E30        19.000    24344242.091 6 127929848.39306       346.174 6        38.721                                                                    24344251.336 5                       258.735 5        33.018    24344264.463 5  98024291.58005       265.768 5        30.008
R20        20.000    20764638.666 5 111037880.14905      1503.938 5        33.784                                                                    20764643.603 7  86362872.98307      1169.644 7        42.262
E02        21.000    23770276.600 8 124913908.41008     -2553.913 8        48.080                                                                    23770276.243 8  93279774.82408     -1907.086 8        48.180    23770275.546 7  95713168.17707     -1956.863 7        45.013
S23        22.000    38061345.520 6 200013748.22306      -865.799 6        40.195
R10        23.000    20213104.235 6 107747214.31106       285.751 6        40.815
E36        24.000    23590819.069 7 123970617.74307     -1929.739 7        44.767                                                                    23590818.912 6  92575628.61206     -1441.083 6        38.877    23590818.387 7  94990626.81407     -1478.544 7        43.958
R18        25.000                                                                                                                                    22375805.071 3                     -3316.059 3        21.595
G16        26.000    20502814.906 7 107743023.69107       -69.673 7        45.610                                    20502808.010 4  83955591.02204       -54.290 4        26.790
S21        27.000    38335414.478 5 201454213.92605      -864.254 5        34.048
C22        28.000                                                                                                                                    24636967.755 5 128291421.49505      -458.470 5        33.114                                                                    24636980.213 4 104247082.99104      -373.154 4        28.559
R19        29.000    19771881.030 6 105766206.06006     -2559.120 6        36.306                                                                    19771874.035 7  82262594.28207     -1990.399 7        42.184
S36        31.000    38105785.950 6 200247257.45406      -863.124 6        36.299
E34        32.000    24032006.715 7 126289053.51207       787.624 7        45.448                                                                    24032006.774 7  94306765.23107       588.108 7        46.265    24032002.130 6  96767001.06006       603.374 6        39.598
R11        33.000    23658289.250 5 126422730.19605      3209.178 5        33.587                                                                    23658284.900 5  98328747.30205      2496.291 5        31.826
C44        35.000                                                                                                                                    23956153.250 6 124745900.23506     -3386.096 6        38.177                                                                    23956155.120 5 101366299.20905     -2751.350 5        31.751
C08        36.000                                                                                                                                    37770827.764 4 196682599.22204     -1412.733 4        28.929    37770823.704 6 152087478.48306     -1092.277 6        38.387    37770822.658 4 159820813.88304     -1147.826 4        28.806
R09        37.000    19988772.501 7 106738999.00307     -3373.610 7        45.520                                                                    19988762.868 5  83019213.02805     -2624.061 5        33.563
C11        38.000                                                                                                                                    21796090.713 7 113497998.86407       142.948 7        42.157    21796086.351 8  87763964.58708       110.455 8        51.392    21796084.238 7  92226396.82007       116.175 7        42.682
C12        41.000                                                                                                                                    22540843.168 7 117376068.05207     -2579.590 7        46.742    22540839.014 7  90762715.14207     -1994.693 7        46.637    22540838.316 8  95377750.07308     -2096.040 8        48.910
C13        43.000                                                                                                                                    37596170.764 5 195773132.00805     -1138.805 5        35.100    37596169.039 6 151384198.96906      -880.502 6        38.321    37596168.472 5 159081709.33805      -925.195 5        33.216
C38        44.000                                                                                                                                    39012607.657 4 203149007.51804     -1766.529 4        28.919                                                                    39012607.763 5 165075151.45205     -1435.256 5        31.525
C25        45.000                                                                                                                                                                                                                                                                    23167544.358 5  98029703.93005     -2601.530 5        35.386
C21        46.000                                                                                                                                    25208395.455 5                      1839.722 5        32.198                                                                    25208393.537 5 106664952.61205      1494.696 5        30.928
C23        47.000                                                                                                                                    23759720.917 7 123723148.73807      -254.642 7        46.766                                                                    23759706.223 4 100535191.07804      -207.061 4        27.725
C43        48.000                                                                                                                                    23028315.403 6 119914565.89806      1203.309 6        41.812                                                                    23028314.965 6  97440370.62806       977.799 6        41.967
