     3.04           OBSERVATION DATA    M                   RINEX VERSION / TYPE
ssrcrin-15.6.1x                         20250102 111500 UTC PGM / RUN BY / DATE 
(00000000023479385599111004) Septentrio proprietary         COMMENT             
ract                                                        MARKER NAME         
01                                                          MARKER NUMBER       
geodetic                                                    MARKER TYPE         
NFB                 CLIMERS@TUW                             OBSERVER / AGENCY   
3296359             SEPT ASTERX SB3 PROB4.14.4              REC # / TYPE / VERS 
Unknown             Unknown                                 ANT # / TYPE        
  4127445.3053  1206914.9077  4695542.0782                  APPROX POSITION XYZ 
        0.0000        0.0000        0.0000                  ANTENNA: DELTA H/E/N
G   23 X1  C1C L1C D1C S1C C1W S1W C2W L2W D2W S2W C2L L2L  SYS / # / OBS TYPES 
       D2L S2L C5Q L5Q D5Q S5Q C1L L1L D1L S1L              SYS / # / OBS TYPES 
E   21 X1  C1C L1C D1C S1C C6C L6C D6C S6C C5Q L5Q D5Q S5Q  SYS / # / OBS TYPES 
       C7Q L7Q D7Q S7Q C8Q L8Q D8Q S8Q                      SYS / # / OBS TYPES 
S    9 X1  C1C L1C D1C S1C C5I L5I D5I S5I                  SYS / # / OBS TYPES 
R   17 X1  C1C L1C D1C S1C C2P L2P D2P S2P C2C L2C D2C S2C  SYS / # / OBS TYPES 
       C3Q L3Q D3Q S3Q                                      SYS / # / OBS TYPES 
C   25 X1  C1P L1P D1P S1P C5P L5P D5P S5P C2I L2I D2I S2I  SYS / # / OBS TYPES 
       C7I L7I D7I S7I C6I L6I D6I S6I C7D L7D D7D S7D      SYS / # / OBS TYPES 
J   17 X1  C1C L1C D1C S1C C2L L2L D2L S2L C5Q L5Q D5Q S5Q  SYS / # / OBS TYPES 
       C1L L1L D1L S1L                                      SYS / # / OBS TYPES 
I    5 X1  C5A L5A D5A S5A                                  SYS / # / OBS TYPES 
SEPTENTRIO RECEIVERS OUTPUT ALIGNED CARRIER PHASES.         COMMENT             
NO FURTHER PHASE SHIFT APPLIED IN THE RINEX ENCODER.        COMMENT             
G L1C                                                       SYS / PHASE SHIFT   
G L2W                                                       SYS / PHASE SHIFT   
G L2L  0.00000                                              SYS / PHASE SHIFT   
G L5Q  0.00000                                              SYS / PHASE SHIFT   
G L1L  0.00000                                              SYS / PHASE SHIFT   
E L1C  0.00000                                              SYS / PHASE SHIFT   
E L6C  0.00000                                              SYS / PHASE SHIFT   
E L5Q  0.00000                                              SYS / PHASE SHIFT   
E L7Q  0.00000                                              SYS / PHASE SHIFT   
E L8Q  0.00000                                              SYS / PHASE SHIFT   
S L1C                                                       SYS / PHASE SHIFT   
S L5I                                                       SYS / PHASE SHIFT   
R L1C                                                       SYS / PHASE SHIFT   
R L2P  0.00000                                              SYS / PHASE SHIFT   
R L2C                                                       SYS / PHASE SHIFT   
R L3Q  0.00000                                              SYS / PHASE SHIFT   
C L1P  0.00000                                              SYS / PHASE SHIFT   
C L5P  0.00000                                              SYS / PHASE SHIFT   
C L2I                                                       SYS / PHASE SHIFT   
C L7I                                                       SYS / PHASE SHIFT   
C L6I                                                       SYS / PHASE SHIFT   
C L7D                                                       SYS / PHASE SHIFT   
J L1C                                                       SYS / PHASE SHIFT   
J L2L  0.00000                                              SYS / PHASE SHIFT   
J L5Q  0.00000                                              SYS / PHASE SHIFT   
J L1L  0.00000                                              SYS / PHASE SHIFT   
I L5A                                                       SYS / PHASE SHIFT   
  2025     1     2    11    15    0.0000000     GPS         TIME OF FIRST OBS   
 C1C    0.000 C2C    0.000 C2P    0.000                     GLONASS COD/PHS/BIS 
DBHZ                                                        SIGNAL STRENGTH UNIT
    18                                                      LEAP SECONDS        
 24 R01  1 R02 -4 R03  5 R04  6 R05  1 R06 -4 R07  5 R08  6 GLONASS SLOT / FRQ #
    R09 -2 R10 -7 R11  0 R12 -1 R13 -2 R14 -7 R15  0 R16 -1 GLONASS SLOT / FRQ #
    R17  4 R18 -3 R19  3 R20  2 R21  4 R22 -3 R23  3 R24  2 GLONASS SLOT / FRQ #
                                                            END OF HEADER       
> 2025 01 02 11 15  0.0000000  0 40
G13         1.000    23500756.545 7 123497391.88307     -4638.591 7        43.702                                    23500763.374 2  96231684.47002     -3614.478 2        16.340
G17         2.000    22647444.335 6 119013014.02806     -2680.291 6        41.595                                    22647445.205 5  92737442.05305     -2088.540 5        30.521    22647442.560 5  92737514.01905     -2088.508 5        34.971
G19         4.000    21382305.179 7 112364935.56807      -200.696 7        42.688                                    21382299.892 3  87556951.23603      -156.386 3        19.612
E25         6.000                                                                                                                                    26414031.241 6 103654377.76106      1206.186 6        40.436    26414055.255 5 106358432.44305      1237.572 5        30.551
G10         7.000    24472198.802 6 128602233.56006     -1195.439 6        38.369                                    24472201.250 4 100209576.35504      -931.499 4        25.699    24472207.488 5 100209662.33805      -931.475 5        35.519
G15         9.000    22117601.532 6 116228961.44006     -4096.117 6        40.825                                    22117603.469 5  90567894.90005     -3191.775 5        30.589    22117603.898 6  90567907.88406     -3191.608 6        38.231
G23        10.000    24314867.012 4                     -3297.188 4        28.967                                                                                                    24314878.673 4                     -2568.831 4        27.078
E06        11.000    27525042.163 4                     -4034.302 4        25.338
G24        12.000    20237368.601 6 106348697.35906      -161.619 6        36.064                                    20237368.037 5  82868680.78405      -125.935 5        34.076    20237371.916 6  82868654.77806      -126.091 6        41.628
E31        13.000    24814638.489 7 130401869.02207     -2790.452 7        44.840                                                                    24814644.323 7  97377976.45007     -2083.818 7        45.314    24814641.119 6  99918256.44706     -2138.133 6        40.489
G12        15.000    21858954.461 7 114870062.66607      1803.983 7        44.334                                    21859021.575 2  89508838.75602      1405.750 2        12.788    21858955.511 5  89508778.37605      1405.594 5        35.400
E24        16.000    23746214.917 8 124787173.97308      -324.656 8        50.865                                                                    23746216.008 7  93185295.27207      -242.458 7        46.451    23746215.360 7  95616241.60207      -248.778 7        47.227
G32        17.000    26075169.850 5 137026057.30705      2629.560 5        30.309                                    26075184.649 1 106773527.44001      2049.031 1        11.852
E05        18.000    22365985.065 7 117534046.12907     -1170.670 7        45.217                                                                    22365988.603 8  87768925.99508      -874.231 8        49.071    22365987.837 7  90058553.25507      -897.098 7        45.940
E09        21.000    25820129.300 6 135685675.38906     -3649.617 6        39.712                                                                    25820131.227 5 101323740.33305     -2725.365 5        34.043    25820133.362 7 103966935.14507     -2796.297 7        43.338
R14        23.000    20098995.440 7 107138879.57807       644.752 7        44.119                                                                    20098997.091 6  83330311.42706       501.370 6        40.005
S23        24.000    38258566.733 5 201050122.84005      -860.503 5        35.433
R23        25.000    21990831.471 5 117636116.60705      1567.749 5        35.919
E03        26.000    26279467.941 6 138099670.87706      1404.302 6        41.209                                                                    26279474.920 7 103126330.26807      1048.572 7        43.187    26279473.362 7 105816594.36507      1075.982 7        46.458
R13        27.000    20492690.284 6 109429816.38406     -3033.707 6        36.242
R04        29.000    20169658.382 8 108007635.31408     -1397.992 8        48.236                                                                    20169660.049 7  84005920.27807     -1087.237 7        44.287
R15        30.000    23809057.490 5                      2445.791 5        32.515                                                                    23809081.245 3                      1902.278 3        23.429
S36        31.000    38323528.923 5 201391659.17705      -857.624 5        32.802
C07        32.000                                                                                                                                    39429942.677 5 205322021.36805     -1584.668 5        30.830    39429934.039 6 158768019.57206     -1225.183 6        38.544
C10        33.000                                                                                                                                    38751778.001 6 201790671.20106     -1246.837 6        37.595    38751780.470 6 156037366.58606      -964.217 6        37.036    38751778.522 6 163971441.83606     -1013.205 6        40.362
C36        34.000                                                                                                                                    24531879.498 5 127743937.64305     -3384.647 5        33.066                                                                    24531900.623 4 103802502.01204     -2750.394 4        28.379
R03        36.000    21618470.889 6                     -4810.947 6        40.446                                                                    21618459.366 5                     -3741.670 5        31.057
C45        37.000                                                                                                                                    21829936.385 8 113674197.55508     -1451.349 8        49.285                                                                    21829931.155 7  92369612.74207     -1179.210 7        46.299
C33        39.000                                                                                                                                                                                                                                                                    27071631.012 4                      1381.353 4        25.654
C40        40.000                                                                                                                                    39678417.237 4 206615925.92804     -1848.741 4        28.995
R22        41.000                                                                                                                                    22523802.784 5                     -1350.576 5        33.192
C30        43.000                                                                                                                                    24712788.528 5 128685986.35205     -1555.544 5        33.856                                                                    24712813.451 4 104567900.84904     -1263.823 4        25.699
R05        44.000    22343992.296 7                      2265.245 7        42.990                                                                    22343991.795 4                      1762.089 4        24.947
C42        45.000                                                                                                                                    24158537.811 6 125799825.40406      -768.020 6        38.655                                                                    24158549.094 5 102222780.07405      -624.060 5        34.967
C29        46.000                                                                                                                                    24003005.441 7 124989987.02207      1335.407 7        43.272
C26        48.000                                                                                                                                    23485236.089 6 122293772.52306      1262.616 6        38.408                                                                    23485232.787 5  99373733.21105      1025.992 5        34.429
C14        53.000                                                                                                                                    25311957.135 5 131806115.25605       669.721 5        31.743    25311973.870 6 101920842.97206       517.828 6        41.442    25311967.434 6 107103253.32206       544.132 6        38.736
C21        55.000                                                                                                                                    24323837.298 5 126660638.54405     -3427.141 5        32.892                                                                    24323851.023 5 102922039.64505     -2785.108 5        34.024
I06        58.000    38419359.708 6 150765827.15206      -750.706 6        36.881
I02        59.000    37012684.546 7 145245693.00907      -606.423 7        44.334
> 2025 01 02 11 15  5.0000000  0 40
G13         1.000    23505170.241 7 123520585.23007     -4639.130 7        42.942                                    23505176.709 2  96249757.18302     -3614.861 2        16.717
G17         2.000    22649995.183 6 119026420.27706     -2682.601 6        40.953                                    22649996.118 5  92747888.45105     -2090.330 5        30.189    22649993.244 5  92747960.40105     -2090.246 5        34.581
G19         4.000    21382497.465 6 112365945.87606      -203.707 6        41.945                                    21382492.534 3  87557738.48403      -158.736 3        19.791
E25         6.000    26412495.359 4                      1614.553 4        27.820                                                                    26412495.179 6 103648347.08406      1205.985 6        39.607    26412518.678 4 106352244.40104      1237.384 4        29.270
G10         7.000    24473337.292 6 128608217.07606     -1198.260 6        39.342                                    24473340.306 4 100214238.80604      -933.688 4        24.361    24473346.818 5 100214324.78705      -933.759 5        35.190
G15         9.000    22121500.001 6 116249444.76706     -4097.732 6        41.230                                    22121501.257 5  90583855.93805     -3193.039 5        30.151    22121501.919 6  90583868.92006     -3193.001 6        36.620
G23        10.000    24318005.818 5                     -3298.698 5        30.128                                                                                                    24318015.489 3                     -2570.924 3        22.933
E06        11.000    27528878.842 3                     -4035.524 3        23.371
G24        12.000    20237520.906 5 106349510.92005      -164.124 5        32.976                                    20237523.462 5  82869314.68505      -127.879 5        33.808    20237526.341 7  82869288.68407      -127.827 7        42.830
E31        13.000    24817293.035 7 130415821.90607     -2791.046 7        44.763                                                                    24817299.446 7  97388395.80907     -2084.172 7        45.427    24817296.086 6  99928947.62306     -2138.452 6        40.131
G12        15.000    21857238.837 7 114861045.64507      1802.396 7        44.041                                    21857307.995 2  89501812.36802      1404.481 2        14.762    21857240.475 6  89501752.10806      1404.468 6        37.675
E24        16.000    23746524.234 8 124788799.52408      -325.942 8        50.729                                                                    23746525.576 7  93186509.17007      -243.405 7        46.574    23746524.694 7  95617487.17007      -249.786 7        47.180
G32        17.000    26072667.685 4 137012910.49404      2629.066 4        29.981                                    26072683.000 2 106763283.09802      2048.659 2        12.788
E05        18.000    22367099.548 7 117539903.84307     -1172.808 7        45.016                                                                    22367103.331 8  87773300.26008      -875.778 8        49.431    22367102.438 7  90063041.62607      -898.570 7        46.214
E09        21.000    25823602.253 6 135703923.99206     -3650.256 6        38.249                                                                    25823605.068 5 101337367.51605     -2726.058 5        35.090    25823605.812 7 103980917.83507     -2797.112 7        42.781
R14        23.000    20098391.498 7 107135659.25107       643.026 7        45.088                                                                    20098394.423 6  83327806.72606       500.144 6        40.667
S23        24.000    38259381.981 5 201054424.21805      -860.584 5        35.881
R23        25.000    21989369.990 6 117628285.73006      1564.427 6        36.677
E03        26.000    26278132.008 6 138092651.26606      1403.253 6        41.669                                                                    26278139.135 7 103121088.36407      1047.785 7        42.654    26278137.449 7 105811215.71407      1075.189 7        46.115
R13        27.000    20495532.628 6 109444986.62306     -3034.701 6        37.682
R04        29.000    20170965.481 7 108014634.82907     -1402.293 7        47.949                                                                    20170967.298 7  84011364.34707     -1090.691 7        44.942
R15        30.000    23806756.603 5 127216135.50415      2445.339 5        35.767                                                                    23806779.960 3                      1899.308 3        20.762
S36        31.000    38324339.789 5 201395945.04105      -856.916 5        32.910
C07        32.000                                                                                                                                    39431461.533 5 205329942.93405     -1584.550 5        30.611    39431454.871 6 158774145.04206     -1225.351 6        38.796
C10        33.000                                                                                                                                    38752974.869 6 201796904.86706     -1246.971 6        37.493    38752977.140 6 156042186.82406      -964.011 6        37.153    38752975.630 6 163976507.21306     -1013.246 6        40.257
C36        34.000                                                                                                                                    24535127.705 5 127760860.30605     -3384.729 5        31.140                                                                    24535151.776 4 103816253.11504     -2750.747 4        27.054
R03        36.000    21622962.455 6 115749394.83716     -4812.948 6        38.246                                                                    21622954.809 5                     -3743.286 5        33.096
C45        37.000                                                                                                                                    21831329.966 8 113681455.83708     -1452.426 8        48.782                                                                    21831325.168 7  92375510.70107     -1180.228 7        46.641
C33        39.000                                                                                                                                                                                                                                                                    27070001.584 4                      1378.473 4        26.671
C40        40.000                                                                                                                                    39680191.079 4 206625168.86704     -1848.981 4        29.706
R22        41.000    22525414.227 5 120242388.80115     -1740.676 5        32.210                                                                    22525425.880 5                     -1353.849 5        33.599
C30        43.000                                                                                                                                    24714284.587 5 128693770.25805     -1558.124 5        34.043                                                                    24714314.571 4                     -1265.744 4        24.256
R05        44.000    22341874.423 7 119430288.07017      2262.513 7        42.993                                                                    22341877.066 4                      1759.917 4        26.431
C42        45.000                                                                                                                                    24159275.937 6 125803670.56206      -770.636 6        38.126                                                                    24159292.910 5 102225904.51305      -626.705 5        33.030
C29        46.000                                                                                                                                    24001722.974 7 124983313.22907      1333.753 7        42.866                                                                    24001733.678 5 101559185.14615      1083.886 5        35.367
C26        48.000                                                                                                                                    23484024.099 6 122287460.53106      1261.927 6        39.661                                                                    23484020.688 5  99368604.21305      1025.363 5        34.181
C14        53.000                                                                                                                                    25311322.481 5 131802771.29105       667.513 5        33.251    25311334.347 6 101918257.27106       516.066 6        41.802    25311325.194 6 107100536.11306       542.344 6        39.129
C21        55.000                                                                                                                                    24327128.627 5 126677777.53805     -3428.738 5        35.690                                                                    24327144.979 5 102935966.55405     -2786.273 5        30.996
I06        58.000    38420315.299 6 150769579.01006      -750.492 6        37.108
I02        59.000    37013456.858 7 145248724.70207      -606.681 7        44.500
> 2025 01 02 11 15 10.0000000  0 40
G13         1.000    23509584.006 7 123543782.75307     -4639.831 7        42.032                                    23509590.804 2  96267833.14602     -3615.452 2        16.868
G17         2.000    22652549.013 6 119039839.68106     -2685.119 6        40.937                                    22652549.213 5  92758345.10405     -2092.301 5        30.098    22652546.924 5  92758417.07005     -2092.255 5        35.086
G19         4.000    21382691.594 6 112366972.79006      -207.035 6        41.058                                    21382688.422 3  87558538.68603      -161.340 3        19.672
E25         6.000    26410954.062 4                      1614.104 4        25.955                                                                    26410959.659 6 103642319.42906      1205.179 6        38.156    26410984.152 4 106346059.47704      1236.105 4        28.237
G10         7.000    24474479.405 6 128614215.81406     -1201.236 6        40.296                                    24474482.140 3 100218913.11903      -935.997 3        23.410    24474488.202 5 100218999.11305      -936.154 5        33.659
G15         9.000    22125398.526 6 116269937.46406     -4099.499 6        40.970                                    22125400.614 4  90599824.26504     -3194.420 4        28.967    22125402.065 5  90599837.24705     -3194.280 5        34.881
G23        10.000    24321146.091 5                     -3300.600 5        31.509
E06        11.000    27532713.822 3                     -4034.202 3        23.105
G24        12.000    20237680.275 6 106350337.33906      -166.560 6        36.994                                    20237681.494 5  82869958.64505      -129.789 5        34.038    20237683.446 7  82869932.63407      -129.683 7        43.407
E31        13.000    24819948.859 7 130429779.15007     -2791.861 7        44.629                                                                    24819955.353 7  97398818.41007     -2084.781 7        45.461    24819952.306 6  99939642.14006     -2139.302 6        39.703
G12        15.000    21855524.244 7 114852037.79307      1800.755 7        44.060                                    21855596.088 2  89494793.16802      1403.205 2        15.810    21855527.229 6  89494733.00306      1402.992 6        39.453
E24        16.000    23746835.060 8 124790432.99708      -327.405 8        50.576                                                                    23746836.634 7  93187728.97407      -244.559 7        46.782    23746835.540 7  95618738.79807      -250.879 7        47.474
G32        17.000    26070165.458 5 136999766.82105      2628.629 5        30.143                                    26070182.008 2 106753041.15102      2048.290 2        12.242
E05        18.000    22368216.422 7 117545773.10307     -1174.906 7        45.062                                                                    22368220.238 8  87777683.14308      -877.352 8        49.627    22368219.305 7  90067538.84907      -900.263 7        46.838
E09        21.000    25827073.677 5 135722178.34205     -3651.470 5        35.800                                                                    25827078.719 6 101350999.00706     -2726.784 6        36.189    25827079.182 7 103994904.94107     -2797.854 7        42.428
R14        23.000    20097790.972 7 107132448.66207       641.105 7        46.421                                                                    20097792.588 6  83325309.59406       498.590 6        41.688
S23        24.000    38260201.858 6 201058725.61906      -860.281 6        36.261
R23        25.000    21987917.192 6 117620472.52906      1561.034 6        36.888
E03        26.000    26276797.433 6 138085638.49806      1401.990 6        41.800                                                                    26276804.806 7 103115851.58307      1046.836 7        42.343    26276802.965 7 105805842.31507      1074.207 7        46.093
R13        27.000    20498377.600 6 109460164.12306     -3036.155 6        39.111
R04        29.000    20172277.282 7 108021657.95307     -1406.899 7        47.847                                                                    20172278.758 7  84016826.78107     -1094.308 7        44.930
R15        30.000    23804466.988 5 127203910.74405      2444.911 5        34.848                                                                    23804482.150 4                      1902.257 4        24.752
S36        31.000    38325167.415 5 201400230.28905      -857.125 5        33.677
C07        32.000                                                                                                                                    39432982.938 5 205337866.26005     -1584.876 5        30.574    39432976.789 6 158780271.84106     -1225.464 6        38.940
C10        33.000                                                                                                                                    38754172.808 6 201803140.67806     -1247.362 6        37.622    38754175.009 6 156047008.74806      -964.443 6        37.546    38754173.189 6 163981574.31706     -1013.549 6        40.200
C36        34.000                                                                                                                                    24538384.472 5 127777785.57405     -3385.377 5        30.558                                                                    24538403.943 4 103830006.33504     -2750.888 4        26.323
R03        36.000    21627457.484 6 115773464.42516     -4815.033 6        36.253                                                                    21627452.027 5                     -3744.926 5        34.362
C45        37.000                                                                                                                                    21832725.592 8 113688721.38208     -1453.788 8        48.537                                                                    21832720.553 7  92381414.54407     -1181.286 7        46.764
C33        39.000                                                                                                                                                                                                                                                                    27068373.555 4                      1377.355 4        28.332
C40        40.000                                                                                                                                    39681966.495 4 206634413.91804     -1849.570 4        29.517
R22        41.000    22527056.591 5 120251103.43405     -1745.007 5        34.190                                                                    22527059.538 5                     -1357.330 5        33.725
C30        43.000                                                                                                                                    24715783.334 5 128701567.98605     -1560.900 5        34.862
R05        44.000    22339757.702 6 119418983.21816      2259.485 6        40.467                                                                    22339759.417 4                      1757.313 4        26.826
C42        45.000                                                                                                                                    24160015.996 6 125807530.28506      -773.307 6        37.493                                                                    24160045.044 5 102229040.62105      -628.338 5        32.742
C29        46.000                                                                                                                                    24000441.726 7 124976649.17607      1331.891 7        42.366                                                                    24000453.084 5 101553769.99105      1082.073 5        35.486
C26        48.000                                                                                                                                    23482811.451 6 122281153.17906      1261.054 6        39.444                                                                    23482809.223 5  99363479.02805      1024.481 5        34.448
C14        53.000                                                                                                                                    25310685.761 5 131799440.16105       665.024 5        34.609    25310702.046 6 101915681.41106       514.283 6        41.728    25310685.189 6 107097829.28206       540.537 6        39.204
C21        55.000                                                                                                                                    24330421.571 6 126694925.26806     -3430.364 6        38.835                                                                    24330446.977 5 102949900.54405     -2787.612 5        30.234
I06        58.000    38421271.255 6 150773330.86106      -750.165 6        37.183
I02        59.000    37014229.566 7 145251757.76707      -606.917 7        44.439
> 2025 01 02 11 15 15.0000000  0 40
G13         1.000    23513999.035 6 123566984.66006     -4641.197 6        40.832                                    23514005.834 2  96285912.50502     -3616.473 2        15.810
G17         2.000    22655104.966 7 119053272.35907     -2688.279 7        42.118                                    22655104.947 5  92768812.09905     -2094.759 5        30.475    22655103.684 5  92768884.09105     -2094.635 5        35.695
G19         4.000    21382890.108 6 112368016.47606      -210.815 6        41.094                                    21382887.065 3  87559351.95603      -164.252 3        19.791
E25         6.000    26409414.272 4                      1612.607 4        24.526                                                                    26409424.381 5 103636294.88405      1204.273 5        35.710    26409450.142 4 106339877.69004      1235.842 4        25.684
G10         7.000    24475624.719 6 128620229.95606     -1204.843 6        38.441                                    24475626.656 3 100223599.44703      -938.830 3        21.333    24475631.782 5 100223685.44405      -938.903 5        33.389
G15         9.000    22129298.895 6 116290439.66806     -4101.904 6        40.541                                    22129301.484 4  90615800.01604     -3196.289 4        26.886    22129303.382 5  90615812.98705     -3196.151 5        32.581
G23        10.000    24324285.416 5                     -3302.210 5        30.762
E06        11.000    27536551.498 3                     -4030.832 3        19.642
G24        12.000    20237841.690 6 106351176.75406      -169.679 6        37.939                                    20237841.980 5  82870612.75705      -132.218 5        34.929    20237843.202 7  82870586.75707      -132.139 7        43.943
E31        13.000    24822605.559 7 130443740.89307     -2793.135 7        44.290                                                                    24822612.095 7  97409244.37907     -2085.705 7        45.163    24822609.075 6  99950340.08506     -2140.250 6        39.204
G12        15.000    21853811.302 7 114843039.23807      1798.384 7        43.344                                    21853885.545 2  89487781.22202      1401.381 2        15.238    21853815.023 6  89487721.13506      1401.404 6        40.446
E24        16.000    23747147.467 8 124792074.53408      -329.549 8        50.482                                                                    23747149.155 7  93188954.80207      -246.104 7        46.924    23747148.078 7  95619996.60207      -252.448 7        47.580
G32        17.000    26067662.481 5 136986626.42305      2626.948 5        30.106                                    26067681.539 1 106742801.80101      2047.018 1        11.926
E05        18.000    22369335.590 7 117551654.09007     -1177.683 7        45.028                                                                    22369339.244 8  87782074.78008      -879.500 8        49.713    22369338.417 7  90072045.05307      -902.466 7        46.967
E09        21.000    25830544.867 5 135740438.64505     -3652.880 5        32.192                                                                    25830553.712 6 101364634.92006     -2727.898 6        36.998    25830553.850 6 104008896.56806     -2799.108 6        41.495
R14        23.000    20097191.302 7 107129247.98407       638.766 7        47.231                                                                    20097191.600 6  83322820.19306       496.841 6        41.886
S23        24.000    38261021.953 6 201063027.18406      -860.615 6        36.212
R23        25.000    21986471.177 5 117612677.52105      1556.769 5        35.500
E03        26.000    26275463.679 7 138078632.77107      1400.004 7        42.411                                                                    26275471.767 6 103110620.03506      1045.528 6        41.843    26275469.793 7 105800474.29207      1072.759 7        45.834
R13        27.000    20501221.961 6 109475349.33006     -3038.074 6        40.246
R04        29.000    20173593.435 7 108028704.77207     -1412.078 7        47.646                                                                    20173594.058 7  84022307.62607     -1098.260 7        44.563
R15        30.000    23802178.248 5 127191688.73605      2443.820 5        33.760                                                                    23802199.047 4                      1901.415 4        26.359
S36        31.000    38325976.957 5 201404515.17305      -857.312 5        33.934
C07        32.000                                                                                                                                    39434510.727 5 205345791.53205     -1585.422 5        30.958    39434499.021 6 158786400.15706     -1226.087 6        38.360
C10        33.000                                                                                                                                    38755370.969 6 201809378.79806     -1248.184 6        37.410    38755372.956 6 156051832.44306      -965.168 6        37.554    38755370.926 6 163986643.28306     -1014.504 6        40.210
C36        34.000                                                                                                                                    24541637.037 5 127794713.61505     -3385.687 5        30.408                                                                    24541655.586 4 103843761.79804     -2751.324 4        25.895
R03        36.000                                                                                                                                    21631950.655 6  90064738.29016     -3747.101 6        36.423
C45        37.000                                                                                                                                    21834122.616 8 113695994.34808     -1455.757 8        48.245                                                                    21834117.164 7  92387324.40907     -1183.067 7        46.595
C33        39.000                                                                                                                                    27066725.801 5                      1693.053 5        31.947                                                                    27066747.405 4                      1375.467 4        28.777
C40        40.000                                                                                                                                    39683741.600 4 206643661.23604     -1850.090 4        29.545
R22        41.000    22528702.669 6 120259839.84906     -1749.729 6        38.817                                                                    22528696.130 5                     -1360.913 5        33.365
C30        43.000                                                                                                                                    24717284.224 5 128709379.77505     -1564.252 5        34.738                                                                    24717332.326 4                     -1270.998 4        27.593
R05        44.000    22337640.159 6 119407693.96616      2255.762 6        36.544                                                                    22337650.815 4                      1755.017 4        26.467
C42        45.000                                                                                                                                    24160759.216 6 125811404.73006      -776.673 6        37.599                                                                    24160789.058 5 102232188.84805      -631.337 5        31.962
C29        46.000                                                                                                                                    23999163.283 6 124969994.99606      1329.460 6        41.778                                                                    23999175.633 5 101548362.88705      1080.239 5        35.048
C26        48.000                                                                                                                                    23481600.937 6 122274850.66206      1259.671 6        39.622                                                                    23481599.507 5  99358357.68605      1023.401 5        34.514
C14        53.000                                                                                                                                    25310047.320 5 131796121.93305       662.082 5        34.671    25310070.646 6 101913115.57706       511.915 6        41.213    25310047.525 6 107095132.97306       537.673 6        39.387
C21        55.000                                                                                                                                    24333716.457 6 126712081.88006     -3432.514 6        40.687                                                                    24333743.280 5 102963841.73105     -2789.544 5        31.245
I06        58.000    38422227.611 6 150777082.89306      -750.827 6        37.062
I02        59.000    37015003.187 7 145254791.90307      -607.292 7        44.384
> 2025 01 02 11 15 20.0000000  0 38
G13         1.000    23518414.865 6 123590191.47106     -4641.259 6        38.967                                    23518421.896 2  96303995.72302     -3616.589 2        15.571
G17         2.000    22657663.857 7 119066718.96307     -2690.189 7        44.364                                    22657663.555 5  92779289.95405     -2096.246 5        32.006    22657662.820 6  92779361.96006     -2096.360 6        36.938
G19         4.000    21383092.836 6 112369077.50106      -213.443 6        40.667                                    21383089.240 3  87560178.74103      -166.324 3        20.548
E25         6.000    26407869.765 4                      1612.595 4        26.323                                                                    26407890.104 5 103630273.92605      1204.015 5        32.605
G10         7.000    24476768.893 5 128626260.13305     -1207.156 5        35.200                                    24476774.517 3 100228298.24603      -940.625 3        20.119    24476780.241 5 100228384.24305      -940.904 5        34.405
G15         9.000    22133200.920 6 116310952.02506     -4103.093 6        40.243                                    22133204.047 4  90631783.66204     -3197.213 4        24.662    22133205.589 4  90631796.56604     -3196.920 4        29.735
G23        10.000    24327424.062 4                     -3303.615 4        27.186                                                                                                    24327463.258 4                     -2574.319 4        27.365
G24        12.000    20238002.182 6 106352029.82506      -171.312 6        36.612                                    20238004.980 6  82871277.46806      -133.493 6        36.060    20238005.575 7  82871251.47907      -133.668 7        44.375
E31        13.000    24825262.895 7 130457707.70807     -2793.338 7        43.570                                                                    24825269.675 7  97419674.13607     -2085.914 7        44.957    24825267.061 6  99961041.91806     -2140.257 6        38.973
G12        15.000    21852100.703 7 114834050.55907      1797.315 7        43.314                                    21852176.616 1  89480777.06001      1400.422 1        11.481    21852103.805 6  89480716.98306      1400.537 6        40.574
E24        16.000    23747461.485 8 124793724.70208      -330.346 8        50.382                                                                    23747463.192 7  93190187.08407      -246.774 7        47.005    23747462.205 7  95621261.03107      -253.149 7        47.937
G32        17.000    26065163.163 4 136973489.89904      2627.045 4        28.711                                    26065181.781 1 106732565.44001      2047.108 1        10.296
E05        18.000    22370456.317 7 117557547.33207     -1179.383 7        44.298                                                                    22370460.780 8  87786475.57808      -880.706 8        49.991    22370459.797 7  90076560.65007      -903.649 7        47.278
E09        21.000    25834021.389 4 135758705.39104     -3653.479 4        27.006                                                                    25834029.759 6 101378275.65806     -2728.159 6        37.720    25834029.550 6 104022893.16806     -2799.463 6        40.541
R14        23.000    20096591.852 7 107126057.93807       637.414 7        47.056                                                                    20096593.249 7  83320339.04707       495.701 7        42.582
S23        24.000    38261839.214 6 201067329.51206      -859.957 6        36.310
E03        26.000    26274132.312 7 138071634.61207      1399.425 7        42.747                                                                    26274140.148 6 103105394.16306      1044.932 6        41.621    26274138.106 7 105795112.08907      1072.268 7        45.691
R13        27.000    20504066.563 6 109490542.63606     -3039.175 6        39.210
R04        29.000    20174914.364 8 108035775.77008     -1416.165 8        48.117                                                                    20174914.579 7  84027807.28607     -1101.442 7        44.510
R15        30.000    23799894.988 5 127179470.35815      2444.054 5        35.638
S36        31.000    38326794.558 5 201408800.57805      -856.771 5        33.766
C07        32.000                                                                                                                                    39436033.944 5 205353719.31405     -1585.437 5        30.860    39436020.787 6 158792530.38506     -1226.017 6        38.165
C10        33.000                                                                                                                                    38756569.310 6 201815619.82106     -1247.974 6        37.656    38756571.399 6 156056658.38706      -964.874 6        37.611    38756569.458 6 163991714.63806     -1014.237 6        40.043
C36        34.000                                                                                                                                    24544889.880 5 127811645.08305     -3386.221 5        30.075                                                                    24544907.877 4 103857520.10004     -2751.607 4        27.425
R03        36.000                                                                                                                                    21636451.814 6  90083476.87116     -3748.121 6        38.099
C45        37.000                                                                                                                                    21835520.605 8 113703275.29808     -1456.560 8        48.181                                                                    21835515.102 7  92393240.78707     -1183.562 7        46.524
C33        39.000                                                                                                                                    27065097.285 5                      1691.407 5        33.042                                                                    27065122.780 4                      1374.428 4        29.687
C40        40.000                                                                                                                                    39685517.418 5 206652911.40905     -1849.734 5        30.347
R22        41.000    22530346.820 6 120268598.61406     -1753.454 6        37.682                                                                    22530336.267 5                     -1363.934 5        32.563
C30        43.000                                                                                                                                    24718787.594 5 128717206.12005     -1565.974 5        34.329                                                                    24718840.340 4                     -1272.617 4        24.707
R05        44.000    22335532.167 5 119396420.97805      2253.323 5        34.543                                                                    22335538.997 4                      1751.985 4        26.144
C42        45.000                                                                                                                                    24161506.776 6 125815294.53806      -779.000 6        37.395                                                                    24161535.726 5 102235349.54105      -633.090 5        31.042
C29        46.000                                                                                                                                    23997887.339 6 124963351.25606      1328.213 6        41.976                                                                    23997899.186 5 101542964.31705      1079.108 5        34.981
C26        48.000                                                                                                                                    23480393.406 6 122268553.52606      1259.213 6        40.126                                                                    23480390.361 5  99353240.77605      1023.238 5        34.662
C14        53.000                                                                                                                                    25309410.843 5 131792817.28305       659.912 5        35.076    25309432.561 6 101910560.24806       510.307 6        40.331    25309412.471 6 107092447.64506       536.299 6        39.162
C21        55.000                                                                                                                                    24337013.119 6 126729247.95406     -3433.597 6        41.354                                                                    24337037.302 5 102977790.58505     -2789.880 5        32.054
I06        58.000    38423183.237 6 150780835.44806      -749.977 6        37.217
I02        59.000    37015776.309 7 145257827.25807      -606.937 7        44.325
> 2025 01 02 11 15 25.0000000  0 38
G13         1.000    23522832.117 6 123613401.75706     -4642.183 6        36.873                                    23522838.607 2  96322081.60702     -3617.276 2        13.636
G17         2.000    22660224.999 7 119080178.02607     -2692.868 7        46.019                                    22660224.802 5  92789777.51105     -2098.333 5        33.557    22660225.203 6  92789849.52106     -2098.536 6        37.864
G19         4.000    21383297.382 6 112370154.42906      -216.780 6        40.827                                    21383294.228 3  87561017.90903      -168.928 3        21.524
E25         6.000    26406337.751 4                      1611.919 4        27.605                                                                    26406358.591 4 103624255.36504      1203.577 4        27.844
G10         7.000    24477918.587 5 128632304.82805     -1210.180 5        34.800                                    24477925.079 3 100233008.35903      -942.971 3        18.269    24477934.711 5 100233094.33805      -942.894 5        33.808
G15         9.000    22137106.136 6 116331472.96606     -4104.710 6        40.572                                    22137107.761 3  90647773.99103     -3198.472 3        21.286    22137108.269 4  90647786.89404     -3198.586 4        26.683
G23        10.000    24330567.975 4                     -3305.688 4        27.701                                                                                                    24330603.187 5                     -2575.882 5        30.158
G24        12.000    20238166.589 6 106352895.06406      -174.054 6        36.964                                    20238170.197 6  82871951.68606      -135.623 6        36.405    20238170.339 7  82871925.68707      -135.700 7        44.488
E31        13.000    24827921.653 7 130471678.14707     -2794.332 7        43.204                                                                    24827928.046 7  97430106.58707     -2086.675 7        44.766    24827925.894 6  99971746.54106     -2141.126 6        38.751
G12        15.000    21850392.592 7 114825070.37307      1795.534 7        43.972                                    21850469.878 1  89473779.72301      1399.090 1         8.476    21850393.719 6  89473719.42706      1398.965 6        40.310
E24        16.000    23747777.201 8 124795382.06008      -332.026 8        50.462                                                                    23747778.539 7  93191424.71507      -247.934 7        47.179    23747777.690 8  95622530.95408      -254.450 8        48.274
G32        17.000    26062662.493 4 136960355.74404      2627.065 4        28.370                                    26062682.457 1 106722330.90501      2047.081 1        10.370
E05        18.000    22371579.630 7 117563451.39907     -1181.596 7        43.771                                                                    22371584.319 8  87790884.46008      -882.456 8        50.133    22371583.164 7  90081084.54807      -905.452 7        47.701
E09        21.000    25837500.194 4 135776977.20504     -3654.767 4        25.654                                                                    25837506.827 6 101391920.14806     -2729.191 6        38.486    25837506.415 6 104036893.61406     -2800.439 6        39.883
R14        23.000    20095994.348 7 107122876.95407       635.540 7        46.542                                                                    20095996.803 7  83317864.97807       494.253 7        43.359
S23        24.000    38262655.553 6 201071631.17806      -860.205 6        36.446
E03        26.000    26272801.895 7 138064642.60407      1398.055 7        43.024                                                                    26272809.568 6 103100172.88006      1043.934 6        41.449    26272807.571 7 105789754.59707      1071.234 7        45.676
R13        27.000    20506913.121 5 109505742.57405     -3040.113 5        35.010
R04        29.000    20176239.435 8 108042869.49608     -1420.816 8        49.042                                                                    20176239.054 7  84033324.61607     -1105.129 7        44.173
R15        30.000    23797612.239 5 127167253.82415      2443.093 5        35.400                                                                    23797631.968 4                      1900.458 4        25.158
S36        31.000    38327607.986 5 201413085.86405      -856.811 5        34.081
C07        32.000                                                                                                                                    39437553.206 5 205361648.04205     -1585.732 5        30.581    39437543.767 6 158798661.40006     -1226.048 6        37.924
C10        33.000                                                                                                                                    38757767.621 6 201821862.30706     -1248.376 6        37.482    38757769.958 6 156061485.47206      -965.370 6        37.679    38757768.432 6 163996787.16206     -1014.495 6        39.997
C36        34.000                                                                                                                                    24548144.468 4 127828578.52304     -3386.856 4        28.957                                                                    24548159.823 4 103871279.83304     -2752.193 4        27.748
R03        36.000    21640997.056 5                     -4821.577 5        32.359                                                                    21640957.646 6  90102223.34806     -3749.888 6        38.679
C45        37.000                                                                                                                                    21836920.002 8 113710562.78208     -1457.934 8        48.297                                                                    21836914.408 7  92399162.44907     -1184.697 7        46.589
C33        39.000                                                                                                                                    27063472.910 5                      1689.553 5        32.778                                                                    27063499.934 5                      1373.089 5        30.264
C40        40.000                                                                                                                                    39687294.514 5 206662162.96805     -1850.794 5        30.438
R22        41.000    22531988.143 5 120277378.28415     -1757.877 5        35.538                                                                    22531977.125 5                     -1367.515 5        30.943
C30        43.000                                                                                                                                    24720294.022 5 128725045.64305     -1569.248 5        35.038
R05        44.000    22333427.820 5 119385162.76205      2250.423 5        33.251                                                                    22333434.428 4                      1750.442 4        27.629
C42        45.000                                                                                                                                    24162256.068 6 125819198.23306      -781.999 6        36.571                                                                    24162281.370 5 102238521.35405      -635.016 5        30.777
C29        46.000                                                                                                                                    23996613.435 7 124956716.54507      1326.220 7        42.408                                                                    23996624.366 5 101537573.02805      1077.609 5        34.657
C26        48.000                                                                                                                                    23479186.890 6 122262260.33706      1258.363 6        40.341                                                                    23479181.827 5  99348127.04405      1022.690 5        35.810
C14        53.000                                                                                                                                    25308778.797 5 131789524.66905       657.168 5        35.867                                                                    25308779.918 6 107089772.11006       534.330 6        39.012
C21        55.000                                                                                                                                    24340311.162 6 126746421.99406     -3435.349 6        41.731                                                                    24340334.860 5 102991745.92405     -2791.582 5        30.747
I06        58.000    38424139.471 6 150784587.50306      -750.142 6        37.285
I02        59.000    37016550.001 7 145260863.38607      -607.267 7        44.321
> 2025 01 02 11 15 30.0000000  0 39
G13         1.000    23527250.419 5 123636615.93605     -4643.140 5        34.171                                    23527256.123 1  96340170.53901     -3618.027 1        11.704
