     3.04           OBSERVATION DATA    M                   RINEX VERSION / TYPE
ssrcrin-15.6.1x                         20250102 133000 UTC PGM / RUN BY / DATE 
(00000000023479385599111004) Septentrio proprietary         COMMENT             
ract                                                        MARKER NAME         
01                                                          MARKER NUMBER       
geodetic                                                    MARKER TYPE         
NFB                 CLIMERS@TUW                             OBSERVER / AGENCY   
3296359             SEPT ASTERX SB3 PROB4.14.4              REC # / TYPE / VERS 
Unknown             Unknown                                 ANT # / TYPE        
  4127448.4474  1206915.1540  4695543.5523                  APPROX POSITION XYZ 
        0.0000        0.0000        0.0000                  ANTENNA: DELTA H/E/N
G   23 X1  C1C L1C D1C S1C C1W S1W C2W L2W D2W S2W C2L L2L  SYS / # / OBS TYPES 
       D2L S2L C5Q L5Q D5Q S5Q C1L L1L D1L S1L              SYS / # / OBS TYPES 
E   21 X1  C1C L1C D1C S1C C6C L6C D6C S6C C5Q L5Q D5Q S5Q  SYS / # / OBS TYPES 
       C7Q L7Q D7Q S7Q C8Q L8Q D8Q S8Q                      SYS / # / OBS TYPES 
S    9 X1  C1C L1C D1C S1C C5I L5I D5I S5I                  SYS / # / OBS TYPES 
R   17 X1  C1C L1C D1C S1C C2P L2P D2P S2P C2C L2C D2C S2C  SYS / # / OBS TYPES 
       C3Q L3Q D3Q S3Q                                      SYS / # / OBS TYPES 
C   25 X1  C1P L1P D1P S1P C5P L5P D5P S5P C2I L2I D2I S2I  SYS / # / OBS TYPES 
       C7I L7I D7I S7I C6I L6I D6I S6I C7D L7D D7D S7D      SYS / # / OBS TYPES 
J   17 X1  C1C L1C D1C S1C C2L L2L D2L S2L C5Q L5Q D5Q S5Q  SYS / # / OBS TYPES 
       C1L L1L D1L S1L                                      SYS / # / OBS TYPES 
I    5 X1  C5A L5A D5A S5A                                  SYS / # / OBS TYPES 
SEPTENTRIO RECEIVERS OUTPUT ALIGNED CARRIER PHASES.         COMMENT             
NO FURTHER PHASE SHIFT APPLIED IN THE RINEX ENCODER.        COMMENT             
G L1C                                                       SYS / PHASE SHIFT   
G L2W                                                       SYS / PHASE SHIFT   
G L2L  0.00000                                              SYS / PHASE SHIFT   
G L5Q  0.00000                                              SYS / PHASE SHIFT   
G L1L  0.00000                                              SYS / PHASE SHIFT   
E L1C  0.00000                                              SYS / PHASE SHIFT   
E L6C  0.00000                                              SYS / PHASE SHIFT   
E L5Q  0.00000                                              SYS / PHASE SHIFT   
E L7Q  0.00000                                              SYS / PHASE SHIFT   
E L8Q  0.00000                                              SYS / PHASE SHIFT   
S L1C                                                       SYS / PHASE SHIFT   
S L5I                                                       SYS / PHASE SHIFT   
R L1C                                                       SYS / PHASE SHIFT   
R L2P  0.00000                                              SYS / PHASE SHIFT   
R L2C                                                       SYS / PHASE SHIFT   
R L3Q  0.00000                                              SYS / PHASE SHIFT   
C L1P  0.00000                                              SYS / PHASE SHIFT   
C L5P  0.00000                                              SYS / PHASE SHIFT   
C L2I                                                       SYS / PHASE SHIFT   
C L7I                                                       SYS / PHASE SHIFT   
C L6I                                                       SYS / PHASE SHIFT   
C L7D                                                       SYS / PHASE SHIFT   
J L1C                                                       SYS / PHASE SHIFT   
J L2L  0.00000                                              SYS / PHASE SHIFT   
J L5Q  0.00000                                              SYS / PHASE SHIFT   
J L1L  0.00000                                              SYS / PHASE SHIFT   
I L5A                                                       SYS / PHASE SHIFT   
  2025     1     2    13    30    0.0000000     GPS         TIME OF FIRST OBS   
 C1C    0.000 C2C    0.000 C2P    0.000                     GLONASS COD/PHS/BIS 
DBHZ                                                        SIGNAL STRENGTH UNIT
    18                                                      LEAP SECONDS        
 24 R01  1 R02 -4 R03  5 R04  6 R05  1 R06 -4 R07  5 R08  6 GLONASS SLOT / FRQ #
    R09 -2 R10 -7 R11  0 R12 -1 R13 -2 R14 -7 R15  0 R16 -1 GLONASS SLOT / FRQ #
    R17  4 R18 -3 R19  3 R20  2 R21  4 R22 -3 R23  3 R24  2 GLONASS SLOT / FRQ #
                                                            END OF HEADER       
> 2025 01 02 13 30  0.0000000  0 41
G06         1.000    22893116.295 5 120304384.61805     -1396.914 5        35.595                                    22893120.873 3  93743615.66303     -1088.533 3        20.500    22893121.397 5  93743515.71405     -1088.837 5        33.114
G25         3.000    20366014.419 7 107024070.11207       814.571 7        43.200                                    20366016.479 4  83395448.48904       634.739 4        26.754    20366020.416 4  83395475.46504       635.215 4        27.437
G19         4.000    23900869.037 4                     -4291.895 4        28.417
E25         6.000    23586873.579 8 123949910.90808        65.399 8        48.581                                                                    23586876.982 7  92560098.32007        48.919 7        45.598    23586875.950 7  94974604.92107        50.164 7        47.187
G11         7.000    22810138.955 4 119868016.37904       943.671 4        28.540                                    22810117.704 1  93403644.53001       735.229 1         5.000    22810111.055 5  93403590.40505       735.499 5        32.964
G28         8.000    24141573.230 5                      2574.546 5        32.677                                                                                                    24141627.054 5  98855731.43805      2006.182 5        34.714
G29         9.000    23194610.042 6 121888443.87806      2588.424 6        37.614                                    23194602.600 3  94978056.55103      2016.935 3        20.286    23194602.061 5  94978035.60205      2016.860 5        33.509
E10        11.000    26044876.672 5 136866755.67205      1534.489 5        33.180                                                                    26044884.411 7 102205744.78507      1145.959 7        44.302    26044882.140 6 104871968.51206      1175.921 6        40.698
G24        12.000    22291926.342 6 117144887.87706     -4160.349 6        39.880                                    22291929.670 5  91281716.32405     -3241.821 5        32.329    22291929.379 6  91281716.32206     -3241.813 6        39.808
E12        13.000    25950217.556 5 136369362.15405       465.712 5        34.848                                                                                                                                    25950226.694 5 104490782.69505       356.705 5        34.338
E33        14.000    27171975.262 4 142789798.00504     -2288.423 4        27.832                                                                    27172023.706 4                     -1709.496 4        27.341    27171994.343 3                     -1753.743 3        21.310
G12        15.000    20256018.148 8 106446069.62008     -1726.111 8        50.709                                    20256016.527 8  82944996.74808     -1345.023 8        50.418    20256016.836 7  82945014.74007     -1345.055 7        46.843
E24        16.000    24408387.640 7 128266906.58807     -2264.477 7        46.160                                                                    24408391.228 7  95783793.94507     -1690.958 7        46.331    24408389.280 7  98282527.63807     -1735.097 7        46.526
G32        17.000    22783258.674 7 119727256.32407     -1075.933 7        42.354                                    22783256.123 5  93293615.59505      -838.378 5        31.879    22783259.808 5  93293642.56405      -838.313 5        30.966
E05        18.000    25175784.093 5 132299659.30505     -3911.553 5        35.095                                                                    25175826.462 3                     -2921.054 3        23.867    25175795.941 5 101372547.59405     -2997.190 5        30.649
E08        20.000    26742052.519 7 140530436.44307       523.719 7        43.591                                                                    26742060.582 6 104941673.52306       391.205 6        40.148    26742059.167 7 107679290.91207       401.265 7        43.238
E02        21.000    27169522.132 4 142776729.99204      1519.350 4        28.474                                                                    27169526.962 5 106619023.69805      1134.785 5        31.283    27169515.536 5 109400489.71505      1164.127 5        32.204
S23        22.000    38089259.575 6 200160417.33406      -864.679 6        36.820
R14        23.000    20136343.862 7 107338021.35907     -2709.271 7        43.989                                                                    20136347.152 5  83485071.80805     -2107.101 5        35.162
R06        24.000    22601950.055 5 120608333.41105      -323.022 5        32.042
R23        25.000    23306361.139 4                     -4780.730 4        27.018
E03        26.000    25116537.715 6 131988486.60506     -2100.544 6        36.439                                                                    25116545.281 7  98562783.36107     -1568.549 7        45.231    25116544.305 7 101133966.34907     -1609.592 7        42.161
S21        27.000    38376555.359 5 201670189.90705      -859.509 5        33.611
R15        30.000    19674822.265 7 105136549.98107       662.543 7        47.549                                                                    19674825.563 7  81772698.24107       515.402 7        43.685
S36        31.000    38147727.480 5 200467693.25505      -859.742 5        34.767
C10        33.000                                                                                                                                    39544574.006 4                     -1585.221 4        26.838    39544579.783 4 159229678.27804     -1225.421 4        29.488    39544563.115 3                     -1287.592 3        23.371
R16        34.000    23343890.175 4                      2611.454 4        24.496                                                                    23343907.572 5                      2030.760 5        31.109
C44        35.000                                                                                                                                    24469612.601 5 127419907.93505      2509.385 5        33.838                                                                    24469616.253 6 103538996.18206      2039.203 6        40.257
R17        36.000    21055755.834 6 112673683.42906      2875.413 6        41.507                                                                    21055758.911 6  87635164.80406      2236.569 6        37.974
C45        37.000                                                                                                                                    24252248.169 6 126287858.54506     -3466.351 6        38.673                                                                    24252246.748 6 102619169.21206     -2816.572 6        40.155
R24        38.000    20007942.202 8 106991738.74308     -1134.992 8        49.895                                                                    20007944.750 7  83215582.01307      -882.690 7        43.604
C33        39.000                                                                                                                                    25985307.374 5 135312434.70605     -2383.488 5        33.617                                                                    25985329.329 5 109952477.86005     -1936.667 5        32.725
C35        42.000                                                                                                                                    22181725.064 7 115506105.78907       630.854 7        47.611                                                                    22181725.461 7  93858178.05807       512.686 7        43.591
R05        44.000    22444213.227 5 119977255.85905     -4179.385 5        35.838
C29        46.000                                                                                                                                    23654050.765 6 123172910.27806     -2860.796 6        40.300                                                                    23654051.164 6 100088005.29006     -2324.532 6        37.304
C41        47.000                                                                                                                                                                                                                                                                    26774527.443 4                       -90.710 4        28.635
C26        48.000                                                                                                                                    21563904.107 8 112288934.85108      -985.798 8        50.064                                                                    21563907.017 7  91243968.72207      -800.921 7        47.354
C24        51.000                                                                                                                                    23171475.909 6 120659957.93106      1521.750 6        39.742                                                                    23171476.315 6  98046132.42906      1237.074 6        39.658
C14        53.000                                                                                                                                    26142369.227 5 136130168.33205     -3289.118 5        31.328    26142394.078 6 105264658.22706     -2543.124 6        36.749
I06        58.000    38465601.814 6 150947295.03606      -740.275 6        38.483
I02        59.000    37064419.384 4 145448736.43004      -873.824 4        28.360
> 2025 01 02 13 30  5.0000000  0 41
G06         1.000    22894445.894 5 120311378.58005     -1400.546 5        34.500                                    22894450.532 3  93749065.46003     -1091.351 3        21.476    22894451.939 5  93748965.49705     -1091.467 5        33.515
G25         3.000    20365240.299 6 107020002.01606       812.532 6        41.888                                    20365241.865 4  83392278.55404       633.132 4        25.789    20365245.161 4  83392305.54304       633.377 4        28.682
G19         4.000    23904959.333 5                     -4292.940 5        30.385
E25         6.000    23586811.764 8 123949586.59308        64.134 8        48.869                                                                    23586814.966 7  92559856.15407        47.990 7        45.642    23586814.167 7  94974356.42807        49.176 7        47.057
G11         7.000                                                                                                                                                                    22809213.819 5  93399919.94405       733.021 5        32.479
G28         8.000    24139126.885 5 126851946.50315      2573.251 5        30.468                                                                                                    24139170.403 5  98845702.81205      2005.357 5        35.943
G29         9.000    23192158.275 6 121875505.24406      2587.099 6        38.231                                    23192140.091 3  94967974.63803      2015.903 3        20.071    23192139.767 5  94967953.70205      2015.768 5        31.328
E10        11.000    26043418.170 5 136859086.59805      1532.877 5        33.407                                                                    26043424.935 7 102200017.89907      1144.610 7        44.283    26043422.844 6 104866092.23806      1174.535 6        40.753
G24        12.000    22295885.004 6 117165693.49306     -4162.104 6        41.650                                    22295889.524 5  91297928.49005     -3243.202 5        33.281    22295888.385 6  91297928.47306     -3243.096 6        40.062
E12        13.000    25949776.040 5 136367039.21505       463.335 5        34.562                                                                    25949786.504 5 101832534.32415       345.742 5        35.671    25949784.718 5 104489002.84405       354.900 5        33.138
E33        14.000    27174150.768 4 142801248.25204     -2291.049 4        27.186                                                                    27174195.837 4                     -1711.380 4        24.632
G12        15.000    20257661.568 8 106454705.66108     -1728.387 8        50.779                                    20257659.687 8  82951726.14108     -1346.793 8        50.401    20257659.777 7  82951744.13907     -1346.867 7        46.454
E24        16.000    24410542.643 7 128278231.34307     -2265.590 7        46.409                                                                    24410546.129 7  95792250.75107     -1691.812 7        46.603    24410544.690 7  98291205.05407     -1735.928 7        46.735
G32        17.000    22784284.815 7 119732643.57007     -1079.269 7        44.767                                    22784280.786 5  93297813.41705      -840.979 5        32.868    22784283.755 4  93297840.38104      -840.967 4        29.659
E05        18.000    25179505.947 5 132319218.59205     -3912.417 5        34.329                                                                    25179548.127 3                     -2921.667 3        23.276    25179513.911 5 101387534.53005     -2997.957 5        30.325
E08        20.000    26741555.011 7 140527823.99407       521.348 7        43.627                                                                    26741562.786 6 104939722.71306       389.298 6        39.288    26741561.791 7 107677289.19407       399.311 7        42.844
E02        21.000    27168077.004 4 142769133.66904      1518.873 4        29.867                                                                    27168083.527 5 106613351.09405      1134.731 5        31.894    27168069.661 5 109394669.20705      1163.694 5        30.687
S23        22.000    38090083.073 6 200164741.07006      -864.947 6        36.737
R14        23.000    20138886.932 7 107351573.26507     -2711.554 7        43.427                                                                    20138890.253 5  83495612.20205     -2109.163 5        34.538
R06        24.000    22602252.041 5 120609959.72005      -327.627 5        31.230
R23        25.000    23310841.302 4                     -4783.188 4        25.744
E03        26.000    25118538.860 5 131998995.12705     -2103.038 5        35.548                                                                    25118545.149 7  98570630.65907     -1570.440 7        45.484    25118543.829 7 101142018.35207     -1611.430 7        42.161
S21        27.000    38377375.084 5 201674487.81405      -860.121 5        32.593
R15        30.000    19674204.923 8 105133242.14508       660.429 8        49.014                                                                    19674207.165 7  81770125.47307       513.672 7        44.435
S36        31.000    38148544.087 5 200471992.78305      -860.125 5        34.252
C10        33.000                                                                                                                                    39546099.089 4                     -1584.682 4        27.737    39546102.230 5 159235806.12905     -1226.026 5        30.408    39546083.712 4                     -1286.877 4        24.556
R16        34.000    23341451.844 5                      2611.111 5        32.216                                                                    23341471.540 5                      2030.783 5        33.695
C44        35.000                                                                                                                                    24467203.867 5 127407363.13305      2508.760 5        31.653                                                                    24467206.555 6 103528802.49306      2038.445 6        40.076
R17        36.000    21053071.158 6 112659312.78606      2872.777 6        41.814                                                                    21053074.015 6  87623987.66306      2234.372 6        37.490
C45        37.000                                                                                                                                    24255577.533 6 126305192.92506     -3467.681 6        38.183                                                                    24255575.700 6 102633254.80906     -2817.458 6        40.634
R24        38.000    20009004.941 8 106997425.58208     -1139.894 8        49.087                                                                    20009008.035 7  83220005.12407      -886.548 7        44.175
C33        39.000                                                                                                                                    25987598.553 5 135324357.48505     -2385.884 5        35.324                                                                    25987618.343 5 109962166.08605     -1938.152 5        32.072
C35        42.000                                                                                                                                    22181119.931 8 115502957.99508       628.108 8        48.043                                                                    22181120.617 7  93855620.24007       510.635 7        42.845
R05        44.000                                                                                                                                    22448195.884 4  93331921.75914     -3253.247 4        27.234
C29        46.000                                                                                                                                    23656797.159 6 123187219.30106     -2863.010 6        38.444                                                                    23656798.944 6 100099632.49106     -2326.184 6        37.100
C41        47.000                                                                                                                                    26774624.248 4                      -114.368 4        27.796                                                                    26774637.486 4                       -92.858 4        28.919
C26        48.000                                                                                                                                    21564851.866 8 112293868.63208      -987.867 8        50.402                                                                    21564854.320 7  91247977.83007      -802.477 7        46.893
C24        51.000                                                                                                                                    23170015.596 6 120652350.69206      1520.755 6        36.034                                                                    23170016.555 6  98039950.92306      1236.053 6        40.174
C14        53.000                                                                                                                                    26145526.892 4 136146616.53004     -3290.013 4        28.720    26145556.527 5 105277376.95305     -2544.333 5        34.957
I06        58.000    38466545.369 6 150950996.06006      -740.314 6        38.901
I02        59.000    37065532.266 4 145453104.82604      -874.232 4        27.892
> 2025 01 02 13 30 10.0000000  0 42
G06         1.000    22895782.258 5 120318388.92805     -1403.656 5        33.383                                    22895783.684 3  93754528.07603     -1093.752 3        22.514    22895786.360 5  93754428.10105     -1093.807 5        34.286
G25         3.000    20364468.742 7 107015943.05507       810.897 7        42.809                                    20364469.168 4  83389115.73404       631.871 4        25.489    20364472.736 5  83389142.75505       632.185 5        30.068
G19         4.000    23909041.983 4                     -4293.801 4        28.948
E25         6.000    23586750.352 8 123949266.81908        63.510 8        48.201                                                                    23586754.321 7  92559617.37707        47.344 7        46.044    23586753.168 7  94974111.42007        48.550 7        47.068
G11         7.000    22808321.464 5                       937.528 5        30.460                                                                                                    22808319.556 5  93396259.52405       730.917 5        33.413
G28         8.000    24136678.469 5 126839079.75105      2573.109 5        34.614                                                                                                    24136718.330 5  98835676.89705      2004.888 5        35.319
G29         9.000    23189698.514 6 121862572.31506      2586.078 6        36.461                                    23189678.498 3  94957897.16103      2015.082 3        20.048    23189678.618 5  94957876.22305      2014.887 5        31.298
E10        11.000    26041960.046 5 136851424.78305      1531.461 5        32.778                                                                    26041967.000 7 102194296.45707      1143.591 7        44.412    26041964.379 6 104860221.54006      1173.481 6        41.266
G24        12.000    22299845.358 6 117186506.37006     -4163.261 6        41.959                                    22299850.827 5  91314146.31605     -3244.104 5        34.343    22299849.101 6  91314146.31406     -3244.174 6        39.892
E12        13.000    25949337.299 5 136364727.23805       461.223 5        32.916                                                                    25949344.274 6 101830807.80306       344.565 6        37.391    25949344.977 5 104487231.34205       353.495 5        32.737
E33        14.000    27176336.636 4 142812709.25104     -2293.070 4        29.687                                                                    27176375.887 4                     -1712.368 4        25.293    27176360.864 3                     -1755.739 3        19.493
G12        15.000    20259306.603 8 106463351.61408     -1730.182 8        51.292                                    20259304.757 8  82958463.25208     -1348.198 8        50.607    20259305.139 7  82958481.25607     -1348.187 7        46.069
E24        16.000    24412698.190 7 128289559.76707     -2266.059 7        45.622                                                                    24412701.792 7  95800710.29807     -1692.181 7        46.833    24412700.937 7  98299885.29407     -1736.394 7        47.395
G32        17.000    22785312.938 7 119738046.44707     -1082.116 7        45.157                                    22785308.540 5  93302023.43405      -843.208 5        33.048    22785315.524 5  93302050.39505      -842.996 5        32.485
E05        18.000    25183227.370 5 132338780.00205     -3912.597 5        32.796                                                                                                                                    25183234.825 4 101402523.09404     -2997.640 4        29.678
E08        20.000    26741060.715 7 140525221.92107       519.316 7        43.947                                                                    26741067.291 6 104937779.62706       387.796 6        39.102    26741066.418 7 107675295.40707       397.946 7        42.815
E02        21.000    27166629.048 4 142761538.26004      1518.645 4        28.976                                                                    27166636.778 5 106607679.20305      1134.261 5        33.263    27166624.036 4 109388849.35804      1163.982 4        29.573
S23        22.000    38090891.283 5 200169064.26405      -864.535 5        34.995
R14        23.000    20141431.372 6 107365135.23906     -2713.322 6        41.881                                                                    20141434.870 5  83506160.39005     -2110.448 5        35.267
R06        24.000    22602557.839 4 120611607.55604      -331.614 4        27.569
R23        25.000    23315321.466 4                     -4785.543 4        26.156
E03        26.000    25120540.613 5 132009514.37105     -2104.702 5        34.533                                                                    25120547.222 7  98578485.93307     -1571.842 7        45.613    25120545.462 7 101150078.55907     -1612.889 7        42.573
S21        27.000    38378199.785 5 201678785.01705      -859.591 5        32.210
R15        30.000    19673589.778 7 105129943.54807       658.769 7        47.867                                                                    19673591.086 7  81767559.89207       512.371 7        45.667
S36        31.000    38149359.228 5 200476291.58305      -859.505 5        34.357
C10        33.000                                                                                                                                    39547617.052 4                     -1584.763 4        25.940    39547626.047 5 159241933.59005     -1225.367 5        32.299    39547608.442 4                     -1287.888 4        25.744
R16        34.000    23339014.506 4                      2611.105 4        29.725                                                                    23339025.455 5                      2030.687 5        34.267
C44        35.000                                                                                                                                    24464796.064 5 127394821.71605      2508.006 5        31.147                                                                    24464797.578 6 103518611.65406      2037.823 6        39.784
R17        36.000    21050388.304 7 112644954.41107      2870.364 7        42.155                                                                    21050391.748 6  87612820.04606      2232.414 6        38.231
C45        37.000                                                                                                                                    24258907.810 6 126322531.64706     -3468.300 6        37.002                                                                    24258905.323 6 102647343.96006     -2818.150 6        41.082
R24        38.000    20010071.951 8 107003135.12308     -1144.178 8        48.503                                                                    20010075.077 7  83224445.90107      -889.905 7        43.653
C33        39.000                                                                                                                                    25989890.453 5 135336290.88205     -2387.663 5        35.786                                                                    25989910.011 5 109971862.99705     -1939.950 5        32.090
C35        42.000                                                                                                                                    22180518.040 7 115499822.51507       625.847 7        47.279                                                                    22180518.459 7  93853072.46607       508.529 7        42.491
R05        44.000    22452050.248 6 120019074.22106     -4184.046 6        36.367
C42        45.000                                                                                                                                    26806740.019 3                     -3748.134 3        23.752
C29        46.000                                                                                                                                    23659546.926 6 123201538.46006     -2864.854 6        38.742                                                                    23659548.886 6 100111268.00206     -2328.039 6        37.758
C41        47.000                                                                                                                                    26774741.015 4                      -117.220 4        25.158                                                                    26774754.817 4                       -95.047 4        28.891
C26        48.000                                                                                                                                    21565801.654 8 112298811.30508      -989.438 8        51.240                                                                    21565803.219 7  91251994.20007      -804.000 7        46.833
C24        51.000                                                                                                                                    23168556.107 5 120644747.37405      1520.124 5        30.830                                                                    23168557.533 6  98033772.69206      1235.364 6        40.377
C14        53.000                                                                                                                                    26148676.728 4                     -3291.081 4        24.932                                                                    26148720.748 4 110643793.57214     -2674.799 4        28.180
I06        58.000    38467488.211 6 150954696.62106      -740.062 6        38.513
I02        59.000    37066645.557 4 145457473.51304      -873.359 4        26.790
> 2025 01 02 13 30 15.0000000  0 40
G06         1.000    22897120.458 6 120325415.69806     -1406.962 6        36.979                                    22897120.363 3  93760003.47603     -1096.348 3        23.486    22897122.305 5  93759903.51605     -1096.367 5        33.886
G25         3.000    20363698.869 7 107011893.14407       809.184 7        43.200                                    20363697.970 4  83385959.99104       630.545 4        25.383    20363699.554 4  83385987.02304       630.302 4        29.630
G19         4.000    23913126.949 4                     -4294.430 4        28.076
E25         6.000    23586690.003 8 123948951.56808        62.697 8        48.023                                                                    23586694.440 7  92559381.95407        46.792 7        46.374    23586693.116 7  94973869.85007        48.055 7        47.376
G11         7.000                                                                                                                                                                    22807427.482 5  93392609.03705       729.238 5        34.133
G28         8.000    24134229.502 5 126826216.40505      2572.429 5        34.967                                                                                                    24134269.997 5  98825653.58005      2004.347 5        33.623
G29         9.000    23187237.566 5 121849644.99505      2585.111 5        35.510                                    23187218.028 3  94947824.04003      2014.340 3        18.328    23187219.386 4  94947803.10204      2013.893 4        28.645
E10        11.000    26040503.071 5 136843770.22705      1530.182 5        32.084                                                                    26040510.478 7 102188580.42007      1142.771 7        44.336    26040507.745 6 104854356.38906      1172.566 6        41.659
G24        12.000    22303807.574 7 117207326.51707     -4164.596 7        42.239                                    22303813.472 5  91330369.81005     -3245.142 5        34.795    22303812.090 6  91330369.76606     -3245.136 6        39.141
E12        13.000    25948900.178 5 136362426.21305       459.249 5        33.234                                                                    25948905.647 6 101829089.51106       342.792 6        36.548    25948907.078 5 104485468.20805       352.131 5        32.653
E33        14.000    27178525.335 4 142824180.79604     -2295.431 4        28.692                                                                    27178555.473 4                     -1714.087 4        26.395
G12        15.000    20260953.992 8 106472007.44708     -1732.046 8        51.173                                    20260951.709 8  82965208.06108     -1349.648 8        50.432    20260952.414 7  82965226.05707     -1349.704 7        46.237
E24        16.000    24414854.662 7 128300891.89607     -2266.679 7        45.619                                                                    24414858.160 7  95809172.60307     -1692.633 7        47.136    24414857.493 7  98308568.35707     -1736.793 7        47.650
G32        17.000    22786342.384 7 119743464.91607     -1085.111 7        43.464                                    22786339.410 5  93306245.60405      -845.536 5        32.497    22786347.481 5  93306272.63005      -845.412 5        34.710
E05        18.000    25186951.272 5 132358343.53005     -3913.090 5        33.024                                                                    25186981.453 4                     -2922.247 4        28.682    25186954.868 4 101417513.29604     -2998.066 4        29.280
E08        20.000    26740568.245 7 140522630.20107       517.398 7        44.286                                                                    26740573.928 6 104935844.27406       386.420 6        38.622    26740573.474 7 107673309.56807       396.489 7        42.929
E02        21.000    27165179.354 4 142753943.69004      1519.152 4        29.640                                                                    27165187.999 5 106602007.97205      1134.136 5        33.952    27165179.010 4 109383030.25804      1163.654 4        29.441
S23        22.000    38091718.757 5 200173386.97805      -864.323 5        35.200
R14        23.000    20143975.390 7 107378707.04807     -2715.199 7        42.576                                                                    20143981.497 6  83516716.22106     -2111.823 6        37.259
R06        24.000    22602871.983 4 120613276.67604      -335.858 4        26.934
E03        26.000    25122544.220 5 132020044.32105     -2106.875 5        34.367                                                                    25122550.968 7  98586349.20007     -1573.408 7        45.871    25122548.957 7 101158146.94607     -1614.355 7        42.965
S21        27.000    38379010.213 5 201683081.89905      -859.538 5        33.832
R15        30.000    19672972.130 7 105126654.23207       657.035 7        44.156                                                                    19672975.498 7  81765001.55607       511.008 7        45.729
S36        31.000    38150183.058 5 200480590.19005      -859.963 5        34.995
C10        33.000                                                                                                                                    39549136.626 4                     -1583.423 4        24.421    39549151.536 5 159248060.73105     -1224.944 5        32.126    39549129.272 4                     -1286.467 4        24.496
R16        34.000    23336570.992 4                      2610.964 4        27.784                                                                    23336584.088 5  96957656.82615      2031.125 5        35.495
C44        35.000                                                                                                                                    24462389.097 5 127382283.80005      2507.541 5        31.381                                                                    24462389.616 6 103508423.60806      2037.642 6        38.916
R17        36.000    21047708.339 7 112630608.25507      2868.040 7        43.287                                                                    21047711.543 6  87601661.94106      2230.774 6        39.616
C45        37.000                                                                                                                                    24262238.678 6 126339874.66806     -3469.053 6        37.323                                                                    24262235.743 6 102661436.59806     -2818.679 6        41.342
R24        38.000    20011143.942 8 107008867.33508     -1148.577 8        49.373                                                                    20011146.150 7  83228904.26407      -893.330 7        43.151
C33        39.000                                                                                                                                    25992184.932 6 135348234.90006     -2389.939 6        36.639                                                                    25992203.957 5 109981568.48405     -1941.884 5        32.132
C35        42.000                                                                                                                                    22179918.952 7 115496699.34507       623.564 7        47.512                                                                    22179918.999 7  93850534.67807       506.627 7        42.165
R05        44.000    22455965.722 6 120040000.55506     -4186.178 6        38.042
C29        46.000                                                                                                                                    23662299.961 6 123215867.75406     -2866.950 6        38.760                                                                    23662300.422 6 100122911.71406     -2329.425 6        37.217
C41        47.000                                                                                                                                    26774862.563 4                      -119.556 4        27.365                                                                    26774868.852 5                       -97.101 5        30.136
C26        48.000                                                                                                                                    21566753.115 8 112303762.84708      -991.082 8        51.338                                                                    21566754.005 7  91256017.75307      -805.304 7        46.029
C24        51.000                                                                                                                                    23167092.751 4 120637148.09904      1519.568 4        26.551                                                                    23167098.496 6  98027597.57006      1234.776 6        39.883
C14        53.000                                                                                                                                    26151836.318 3                     -3294.064 3        20.857    26151851.440 5 105302827.89505     -2546.133 5        31.540    26151882.092 4 110657168.63104     -2675.006 4        24.045
I06        58.000    38468430.527 6 150958396.72506      -739.813 6        38.498
I02        59.000    37067757.558 4 145461842.31904      -873.481 4        26.826
> 2025 01 02 13 30 20.0000000  0 41
G06         1.000    22898461.703 6 120332459.42306     -1410.444 6        38.787                                    22898460.567 4  93765492.09304     -1099.045 4        24.947    22898461.917 5  93765392.10505     -1099.155 5        33.796
G25         3.000    20362930.773 7 107007852.91707       807.115 7        45.016                                    20362927.916 4  83382811.78804       628.929 4        25.609    20362929.430 4  83382838.77804       628.814 4        24.947
G19         4.000    23917216.096 4                     -4295.369 4        29.232
E25         6.000    23586631.012 7 123948641.39507        61.579 7        47.338                                                                    23586635.622 7  92559150.33807        46.033 7        46.742    23586633.987 7  94973632.19807        47.235 7        47.364
G11         7.000    22806529.246 3                       932.599 3        23.619                                                                                                    22806539.341 5  93388968.97605       726.832 5        35.595
G28         8.000    24131785.275 6 126813357.10406      2571.357 6        36.253                                                                                                    24131824.400 5  98815633.38305      2003.773 5        34.314
G29         9.000    23184779.440 5 121836723.94305      2583.629 5        34.924                                    23184758.591 2  94937755.82502      2013.171 2        17.509    23184758.798 4  94937734.94504      2013.149 4        25.759
E10        11.000    26039049.022 5 136836123.58105      1528.403 5        31.668                                                                    26039055.424 7 102182870.26607      1141.508 7        44.251    26039052.862 7 104848497.29907      1171.202 7        42.245
G24        12.000    22307771.597 7 117228154.45007     -4166.180 7        43.850                                    22307777.494 5  91346599.36605     -3246.378 5        35.138    22307776.651 6  91346599.32006     -3246.534 6        39.802
E12        13.000    25948463.499 5 136360136.67905       456.653 5        30.868                                                                    25948469.744 5 101827379.76605       341.474 5        35.581    25948471.304 5 104483713.93105       350.007 5        32.593
E33        14.000    27180712.737 4 142835663.59904     -2297.662 4        25.308                                                                    27180744.967 3                     -1715.265 3        23.790
G12        15.000    20262602.950 8 106480673.75708     -1734.240 8        50.848                                    20262600.709 8  82971961.03208     -1351.355 8        50.262    20262601.446 7  82971979.02807     -1351.385 7        46.037
E24        16.000    24417012.154 7 128312228.25107     -2267.651 7        45.862                                                                    24417015.026 7  95817638.06907     -1693.348 7        47.139    24417014.998 8  98317254.66408     -1737.574 8        48.101
G32        17.000    22787374.925 6 119748899.55006     -1088.522 6        41.607                                    22787373.732 5  93310480.36405      -848.203 5        31.698    22787379.781 5  93310507.38305      -848.193 5        35.676
E05        18.000    25190675.575 5 132377909.69305     -3913.420 5        32.497                                                                    25190706.770 4                     -2922.483 4        28.104    25190677.033 4 101432505.52704     -2998.578 4        28.142
E08        20.000    26740077.419 7 140520049.43107       515.128 7        44.796                                                                    26740083.156 6 104933917.10406       384.773 6        38.510    26740082.656 7 107671332.12707       394.674 7        42.944
E02        21.000                                                                                                                                    27163741.061 5 106596337.85005      1133.974 5        35.319
S23        22.000    38092538.347 5 200177709.84405      -864.513 5        34.414
R14        23.000    20146523.813 7 107392289.28507     -2717.355 7        43.289                                                                    20146527.894 6  83527280.18506     -2113.629 6        38.051
R06        24.000    22603194.536 5 120614967.83305      -340.814 5        30.098
E03        26.000    25124550.235 5 132030585.52005     -2109.498 5        34.490                                                                    25124557.130 7  98594220.86907     -1575.143 7        45.755    25124554.563 7 101166223.97007     -1616.219 7        42.341
S21        27.000    38379830.787 5 201687378.94305      -859.489 5        33.707
R15        30.000    19672353.237 6 105123374.60006       654.964 6        41.280                                                                    19672361.272 7  81762450.75507       509.511 7        45.067
S36        31.000    38150997.537 5 200484889.68705      -859.753 5        33.599
C10        33.000                                                                                                                                    39550654.858 4                     -1584.832 4        25.564    39550671.044 5 159254188.12105     -1225.347 5        32.365    39550649.002 3                     -1287.035 3        23.429
R16        34.000    23334121.952 4                      2610.349 4        25.308                                                                    23334136.109 5                      2030.695 5        34.671
C44        35.000                                                                                                                                    24459979.715 4 127369750.02104      2506.703 4        29.934                                                                    24459982.241 6 103498238.85106      2036.629 6        38.453
R17        36.000    21045029.804 7 112616274.98507      2865.376 7        44.423                                                                    21045032.532 6  87590513.86706      2228.639 6        39.847
C45        37.000                                                                                                                                    24265569.963 6 126357222.60906     -3470.153 6        36.219                                                                    24265567.227 6 102675533.18806     -2819.705 6        41.416
R24        38.000    20012220.455 8 107014622.82408     -1153.357 8        50.408                                                                    20012222.650 7  83233380.75407      -897.034 7        43.693
C33        39.000                                                                                                                                    25994480.379 6 135360190.03906     -2392.125 6        36.034                                                                    25994500.397 5 109991282.98305     -1943.462 5        32.491
C35        42.000                                                                                                                                    22179321.512 7 115493589.06407       620.806 7        47.621                                                                    22179322.022 7  93848007.30107       504.438 7        42.544
R05        44.000    22459882.391 6 120060938.94906     -4188.880 6        38.486
C42        45.000                                                                                                                                    26813957.718 3                     -3752.898 3        21.238
C29        46.000                                                                                                                                    23665055.868 6 123230207.71106     -2868.987 6        39.757                                                                    23665053.979 6 100134564.09906     -2331.339 6        37.168
C41        47.000                                                                                                                                    26774986.168 4                      -122.399 4        28.682                                                                    26774983.254 5                       -99.235 5        30.543
C26        48.000                                                                                                                                    21567706.114 8 112308723.85408      -993.111 8        51.746                                                                    21567706.536 7  91260048.95307      -806.920 7        45.406
C24        51.000                                                                                                                                    23165631.715 4                      1518.153 4        24.180                                                                    23165640.377 6  98021426.07606      1233.931 6        37.981
C14        53.000                                                                                                                                    26155000.903 4                     -3293.182 4        24.391    26155018.642 5 105315560.57905     -2547.165 5        30.068    26155041.185 3                     -2675.490 3        19.701
I06        58.000    38469373.778 6 150962096.77206      -740.145 6        38.441
I02        59.000    37068873.264 4 145466211.98804      -874.922 4        24.902
> 2025 01 02 13 30 25.0000000  0 41
G06         1.000    22899805.469 6 120339520.39706     -1413.833 6        41.347                                    22899804.352 4  93770994.15704     -1101.686 4        26.263    22899806.526 5  93770894.15705     -1101.634 5        33.275
G25         3.000    20362163.851 7 107003822.58007       805.069 7        45.252                                    20362159.481 4  83379671.31204       627.310 4        25.910
G19         4.000    23921305.332 4                     -4296.535 4        29.498
E25         6.000    23586573.099 7 123948336.56707        60.490 7        46.831                                                                    23586577.667 7  92558922.72607        45.119 7        46.897    23586575.978 7  94973398.64107        46.337 7        47.201
G11         7.000                                                                                                                                                                    22805652.482 5  93385339.57005       724.709 5        34.814
G28         8.000    24129341.700 6 126800501.94306      2570.638 6        38.676                                    24129344.449 1  98805631.38211      2003.096 1        10.444    24129377.633 5  98805616.51605      2003.108 5        33.012
G29         9.000    23182319.780 5 121823809.41505      2582.496 5        34.181                                    23182300.057 2  94927692.67702      2012.326 2        16.491    23182297.061 4                      2012.192 4        24.647
E10        11.000    26037596.288 5 136828484.98505      1526.829 5        31.283                                                                    26037601.711 7 102177166.17107      1140.217 7        44.089    26037599.245 7 104842644.40507      1169.969 7        42.370
G24        12.000    22311736.600 7 117248990.43007     -4167.932 7        44.071                                    22311743.134 5  91362835.19405     -3247.738 5        35.119    22311742.387 6  91362835.12706     -3247.730 6        38.982
E12        13.000    25948030.835 5 136357858.89305       454.630 5        31.042                                                                    25948036.553 5 101825678.87805       339.156 5        34.638    25948037.789 5 104481968.66105       348.549 5        30.740
E33        14.000    27182900.460 4 142847157.86004     -2299.085 4        25.143                                                                    27182933.240 4                     -1716.413 4        25.173    27182907.516 3                     -1760.232 3        19.970
G12        15.000    20264253.896 8 106489350.78808     -1736.430 8        51.037                                    20264251.820 8  82978722.35608     -1353.065 8        50.306    20264252.267 7  82978740.33607     -1352.990 7        45.985
E24        16.000    24419170.264 7 128323569.09107     -2268.676 7        46.336                                                                    24419172.920 7  95826106.89807     -1694.112 7        47.071    24419173.239 8  98325944.41208     -1738.333 8        48.129
G32        17.000    22788411.296 6 119754350.57606     -1091.753 6        40.605                                    22788411.305 5  93314727.91305      -850.721 5        30.475    22788416.630 6  93314754.94506      -850.732 6        38.351
E05        18.000    25194399.528 5 132397478.83505     -3914.286 5        33.425                                                                    25194429.633 5                     -2922.714 5        30.030    25194402.477 4 101447500.02004     -2998.660 4        28.815
E08        20.000    26739588.377 7 140517479.86307       512.955 7        44.832                                                                    26739593.914 6 104931998.29706       382.914 6        38.568    26739593.911 7 107669363.26307       392.922 7        42.844
E02        21.000    27162272.135 5 142738759.37305      1518.037 5        31.034                                                                    27162296.050 5 106590669.04605      1133.805 5        35.838    27162306.719 4 109371395.38404      1163.158 4        28.417
S23        22.000    38093357.133 5 200182033.03505      -864.951 5        34.771
R14        23.000    20149075.138 7 107405882.49907     -2719.607 7        44.775                                                                    20149077.921 6  83537852.66606     -2115.304 6        36.941
R06        24.000    22603515.821 5 120616681.16005      -344.360 5        30.174
E03        26.000    25126558.919 5 132041138.20905     -2111.400 5        34.214                                                                    25126565.277 7  98602101.13107     -1576.940 7        45.958    25126562.340 7 101174309.80807     -1618.095 7        42.756
S21        27.000    38380641.836 5 201691676.34205      -859.269 5        33.072
R15        30.000    19671740.405 6 105120105.18306       652.865 6        39.234                                                                    19671749.321 7  81759907.86107       507.834 7        44.436
S36        31.000    38151819.242 5 200489189.65505      -860.163 5        34.848
C10        33.000                                                                                                                                    39552176.261 4                     -1585.511 4        26.156    39552190.564 5 159260315.75305     -1225.374 5        32.198    39552171.084 3                     -1287.500 3        22.857
R16        34.000    23331683.111 5                      2611.127 5        31.275
C44        35.000                                                                                                                                    24457574.072 4 127357220.53104      2505.410 4        29.204                                                                    24457576.370 6 103488057.57906      2035.974 6        38.477
R17        36.000    21042354.920 7 112601954.91707      2862.816 7        44.117                                                                    21042357.082 6  87579376.06106      2226.589 6        40.892
C45        37.000                                                                                                                                    24268902.592 5 126374575.65705     -3470.823 5        35.657                                                                    24268899.933 6 102689633.93706     -2820.534 6        41.664
R24        38.000    20013301.779 8 107020401.86508     -1158.047 8        51.492                                                                    20013303.972 7  83237875.56907      -900.788 7        43.716
C33        39.000                                                                                                                                    25996777.475 5 135372156.57905     -2394.322 5        33.772                                                                    25996799.061 5 110001006.72105     -1945.489 5        33.485
