     3.04           OBSERVATION DATA    M                   RINEX VERSION / TYPE
ssrcrin-15.6.1x                         20250102 023000 UTC PGM / RUN BY / DATE 
(00000000023479385599111004) Septentrio proprietary         COMMENT             
ract                                                        MARKER NAME         
01                                                          MARKER NUMBER       
geodetic                                                    MARKER TYPE         
NFB                 CLIMERS@TUW                             OBSERVER / AGENCY   
3296359             SEPT ASTERX SB3 PROB4.14.4              REC # / TYPE / VERS 
Unknown             Unknown                                 ANT # / TYPE        
  4127445.4983  1206914.5068  4695541.9839                  APPROX POSITION XYZ 
        0.0000        0.0000        0.0000                  ANTENNA: DELTA H/E/N
G   23 X1  C1C L1C D1C S1C C1W S1W C2W L2W D2W S2W C2L L2L  SYS / # / OBS TYPES 
       D2L S2L C5Q L5Q D5Q S5Q C1L L1L D1L S1L              SYS / # / OBS TYPES 
E   21 X1  C1C L1C D1C S1C C6C L6C D6C S6C C5Q L5Q D5Q S5Q  SYS / # / OBS TYPES 
       C7Q L7Q D7Q S7Q C8Q L8Q D8Q S8Q                      SYS / # / OBS TYPES 
S    9 X1  C1C L1C D1C S1C C5I L5I D5I S5I                  SYS / # / OBS TYPES 
R   17 X1  C1C L1C D1C S1C C2P L2P D2P S2P C2C L2C D2C S2C  SYS / # / OBS TYPES 
       C3Q L3Q D3Q S3Q                                      SYS / # / OBS TYPES 
C   25 X1  C1P L1P D1P S1P C5P L5P D5P S5P C2I L2I D2I S2I  SYS / # / OBS TYPES 
       C7I L7I D7I S7I C6I L6I D6I S6I C7D L7D D7D S7D      SYS / # / OBS TYPES 
J   17 X1  C1C L1C D1C S1C C2L L2L D2L S2L C5Q L5Q D5Q S5Q  SYS / # / OBS TYPES 
       C1L L1L D1L S1L                                      SYS / # / OBS TYPES 
I    5 X1  C5A L5A D5A S5A                                  SYS / # / OBS TYPES 
SEPTENTRIO RECEIVERS OUTPUT ALIGNED CARRIER PHASES.         COMMENT             
NO FURTHER PHASE SHIFT APPLIED IN THE RINEX ENCODER.        COMMENT             
G L1C                                                       SYS / PHASE SHIFT   
G L2W                                                       SYS / PHASE SHIFT   
G L2L  0.00000                                              SYS / PHASE SHIFT   
G L5Q  0.00000                                              SYS / PHASE SHIFT   
G L1L  0.00000                                              SYS / PHASE SHIFT   
E L1C  0.00000                                              SYS / PHASE SHIFT   
E L6C  0.00000                                              SYS / PHASE SHIFT   
E L5Q  0.00000                                              SYS / PHASE SHIFT   
E L7Q  0.00000                                              SYS / PHASE SHIFT   
E L8Q  0.00000                                              SYS / PHASE SHIFT   
S L1C                                                       SYS / PHASE SHIFT   
S L5I                                                       SYS / PHASE SHIFT   
R L1C                                                       SYS / PHASE SHIFT   
R L2P  0.00000                                              SYS / PHASE SHIFT   
R L2C                                                       SYS / PHASE SHIFT   
R L3Q  0.00000                                              SYS / PHASE SHIFT   
C L1P  0.00000                                              SYS / PHASE SHIFT   
C L5P  0.00000                                              SYS / PHASE SHIFT   
C L2I                                                       SYS / PHASE SHIFT   
C L7I                                                       SYS / PHASE SHIFT   
C L6I                                                       SYS / PHASE SHIFT   
C L7D                                                       SYS / PHASE SHIFT   
J L1C                                                       SYS / PHASE SHIFT   
J L2L  0.00000                                              SYS / PHASE SHIFT   
J L5Q  0.00000                                              SYS / PHASE SHIFT   
J L1L  0.00000                                              SYS / PHASE SHIFT   
I L5A                                                       SYS / PHASE SHIFT   
  2025     1     2     2    30    0.0000000     GPS         TIME OF FIRST OBS   
 C1C    0.000 C2C    0.000 C2P    0.000                     GLONASS COD/PHS/BIS 
DBHZ                                                        SIGNAL STRENGTH UNIT
    18                                                      LEAP SECONDS        
 24 R01  1 R02 -4 R03  5 R04  6 R05  1 R06 -4 R07  5 R08  6 GLONASS SLOT / FRQ #
    R09 -2 R10 -7 R11  0 R12 -1 R13 -2 R14 -7 R15  0 R16 -1 GLONASS SLOT / FRQ #
    R17  4 R18 -3 R19  3 R20  2 R21  4 R22 -3 R23  3 R24  2 GLONASS SLOT / FRQ #
                                                            END OF HEADER       
> 2025 01 02 02 30  0.0000000  0 38
G03         1.000    20569923.583 6 108095651.10806     -2342.954 6        40.255                                    20569919.434 5  84230387.67105     -1825.672 5        30.385    20569918.468 6  84230440.67406     -1825.622 6        36.321
G19         2.000    22625871.231 6 118899878.12106     -2150.495 6        38.354                                    22625862.169 2  92649134.06802     -1675.713 2        17.962
G28         3.000                                                                                                                                                                    24627489.481 3                     -2849.326 3        20.381
G02         4.000    23844831.880 6 125305509.40206     -4206.462 6        40.222                                    23844837.306 1  97640565.61601     -3277.735 1         4.143
G09         6.000    21187763.161 8 111342433.21008      1439.887 8        48.225                                    21187756.582 7  86760351.05507      1121.987 7        44.793    21187758.695 6  86760338.04106      1122.093 6        40.184
G31        10.000    22623085.600 7 118885128.37907     -2368.745 7        42.665                                    22623077.896 4  92637682.51104     -1845.776 4        29.725    22623077.543 5  92637723.51205     -1845.758 5        30.898
G17        11.000    23620265.103 3                     -3322.144 3        23.524                                                                                                    23620247.398 4                     -2594.320 4        28.246
G04        12.000    20205823.829 8 106182367.28608      -307.452 8        50.087                                    20205819.060 6  82739429.52106      -239.573 6        40.827    20205819.699 8  82739453.50808      -239.612 8        48.030
E12        13.000    24119181.573 6 126747176.95206      -231.482 6        41.616                                                                    24119177.408 7  94648846.39107      -172.931 7        42.868    24119177.778 7  97118020.06607      -177.331 7        46.068
E29        14.000    24230513.373 7 127332197.78907     -2390.436 7        44.003                                                                    24230510.994 7  95085725.08107     -1784.971 7        45.642    24230510.821 8  97566267.10108     -1831.616 8        48.907
G06        15.000    22508495.636 7 118282969.10107      1770.480 7        43.939                                    22508490.191 6  92168567.87506      1379.592 6        39.589    22508494.073 6  92168560.88506      1379.506 6        38.553
E11        16.000    27095962.688 5 142390591.56305      1907.835 5        34.629                                                                    27095957.438 5 106330377.88305      1424.783 5        31.623    27095960.605 6 109104200.01906      1461.754 6        38.330
E04        17.000    27330608.660 4                      1934.159 4        26.671                                                                    27330621.362 4 107251236.63304      1444.391 4        29.270    27330601.280 4 110049005.51404      1481.561 4        29.156
R08        18.000    21305378.684 6 114089209.50906      1705.242 6        39.823                                                                    21305379.405 6  88736245.14606      1326.475 6        38.405
E19        20.000    23140988.878 7 121606719.74007        -6.068 7        42.409                                                                    23140986.412 7  90810224.10107        -4.487 7        45.037    23140985.648 7  93179173.52507        -4.563 7        45.190
R06        21.000    21584150.611 4 115177050.58804     -3876.509 4        27.066
R15        22.000    23813687.659 6 127253030.35506     -2946.744 6        37.388                                                                    23813679.829 5  98974646.81505     -2291.543 5        30.030
S36        23.000    38309030.102 5 201315347.87805      -852.095 5        35.876
S23        24.000    38254918.117 6 201030935.13706      -848.078 6        39.856
R16        26.000    22470694.910 6 120034404.80606       400.283 6        37.474
E33        28.000    24703292.490 6 129816663.50306     -3139.544 6        36.707                                                                    24703291.409 7  96941061.43807     -2344.407 7        42.790    24703286.109 5  99469913.12105     -2405.624 5        32.449
E10        29.000    25068214.179 7 131734592.63507      1014.044 7        44.688                                                                    25068214.014 7  98373126.99707       757.360 7        43.050    25068212.631 7 100939322.25707       777.009 7        46.451
C20        31.000                                                                                                                                    22702797.495 8 118219586.49608       619.416 8        49.285                                                                    22702791.857 7  96062953.05307       503.392 7        44.798
C05        32.000                                                                                                                                                                                                    39235646.164 6 157985708.71806      -671.883 6        36.340
R23        33.000    20402778.492 7 109141059.14107       822.859 7        46.453
R07        34.000    19471625.157 7 104233106.65507     -1257.577 7        45.168                                                                    19471624.427 7  81070210.14207      -978.231 7        43.892
R22        35.000    20043310.799 7 106992554.37007     -3103.863 7        47.560                                                                    20043307.158 7  83216417.80407     -2414.104 7        42.180
C32        36.000                                                                                                                                    22549192.929 8 117419519.02408     -2265.986 8        48.060                                                                    22549191.138 7  95413025.83207     -1841.212 7        46.540
C25        37.000                                                                                                                                    25646271.006 4                     -1772.450 4        28.900
C30        38.000                                                                                                                                    24504465.833 5                     -3984.272 5        32.222                                                                    24504428.708 6 103686260.20406     -3237.742 6        38.538
C23        40.000                                                                                                                                    25123771.393 5 130826018.88105       793.222 5        33.946                                                                    25123751.451 5 106306841.82305       644.442 5        32.419
C35        41.000                                                                                                                                    25850560.964 6 134610629.79306      1548.778 6        38.123                                                                    25850559.961 5 109382249.32705      1258.491 5        32.371
C16        45.000                                                                                                                                                                                                    38930674.594 6 156757658.64106      -964.307 6        37.081    38930672.689 5                     -1013.280 5        31.758
C39        46.000                                                                                                                                    39402041.859 5 205176660.22805     -1637.711 5        35.657                                                                    39402024.521 4                     -1330.863 4        29.090
C09        47.000                                                                                                                                    38587368.594 3                      -647.251 3        22.838    38587368.846 6 155375359.66406      -500.948 6        36.968    38587361.472 5                      -526.044 5        30.196
C19        48.000                                                                                                                                    26474344.046 5                      1938.111 5        33.240                                                                    26474359.909 5                      1574.988 5        31.464
C06        50.000                                                                                                                                    38422266.303 5 200074805.71205     -1158.599 5        35.943    38422259.061 6 154710511.43806      -895.685 6        38.730
C29        54.000                                                                                                                                    23074361.774 7 120154227.02707     -1434.113 7        47.276                                                                    23074360.022 7  97635278.51107     -1165.220 7        44.528
> 2025 01 02 02 30  5.0000000  0 37
G03         1.000    20572153.121 6 108107368.72406     -2344.444 6        40.634                                    20572149.290 5  84239518.29405     -1826.843 5        31.306    20572148.235 6  84239571.28706     -1826.852 6        36.707
G19         2.000    22627918.371 6 118910637.64506     -2153.333 6        39.300                                    22627909.662 3  92657518.13203     -1677.916 3        18.448
G28         3.000    24631011.896 3                     -3658.228 3        22.533                                                                                                    24630967.312 3                     -2851.563 3        20.071
G02         4.000    23848833.959 6 125326543.02606     -4207.026 6        41.323                                    23848839.927 1  97656955.55101     -3278.286 1         2.800
G09         6.000    21186393.719 8 111335237.60208      1438.166 8        48.308                                    21186387.519 7  86754744.09707      1120.650 7        45.014    21186389.840 6  86754731.07606      1120.627 6        40.358
G31        10.000    22625340.314 7 118896978.85707     -2371.606 7        42.840                                    22625332.305 4  92646916.64504     -1848.001 4        29.602    22625332.655 4  92646957.65304     -1848.389 4        29.507
G17        11.000                                                                                                                                                                    23623417.497 4                     -2595.749 4        29.280
G04        12.000    20206117.333 8 106183910.22708      -309.859 8        50.338                                    20206112.599 6  82740631.81006      -241.448 6        40.753    20206113.379 8  82740655.79808      -241.457 8        48.276
E12        13.000    24119402.861 6 126748338.71206      -233.336 6        41.325                                                                    24119398.454 7  94649713.93807      -174.264 7        42.531    24119398.715 7  97118910.25207      -178.756 7        45.785
E29        14.000    24232788.013 7 127344152.11107     -2391.480 7        43.107                                                                    24232786.172 7  95094652.00807     -1785.835 7        46.098    24232785.721 8  97575426.91108     -1832.427 8        49.044
G06        15.000    22506812.711 7 118274120.85107      1768.659 7        43.858                                    22506806.902 6  92161673.14406      1378.178 6        39.826    22506809.914 6  92161666.14006      1378.163 6        38.859
E11        16.000    27094147.619 5 142381053.34205      1907.235 5        34.367                                                                    27094143.013 5 106323255.14305      1424.518 5        32.222    27094145.702 6 109096891.51006      1461.435 6        38.336
E04        17.000    27328762.698 4                      1933.924 4        25.624                                                                    27328776.602 4 107244016.23904      1444.198 4        29.735    27328761.441 4 110041596.78704      1481.581 4        27.988
R08        18.000    21303787.770 6 114080686.27206      1703.791 6        40.057                                                                    21303787.850 6  88729615.97806      1325.191 6        40.930
E19        20.000    23140995.233 7 121606753.22107        -7.562 7        42.205                                                                    23140992.860 7  90810249.10607        -5.638 7        45.242    23140992.052 7  93179199.19107        -5.754 7        45.169
R15        22.000    23816450.230 6 127267771.69806     -2949.968 6        36.250                                                                    23816435.963 4  98986112.32104     -2294.469 4        28.654
S36        23.000    38309842.838 6 201319608.79606      -852.144 6        36.053
S23        24.000    38255726.752 6 201035174.90206      -847.856 6        40.055
R16        26.000    22470326.037 5 120032411.89705       396.823 5        35.995
E33        28.000    24706280.619 6 129832363.62506     -3140.815 6        37.051                                                                    24706278.757 7  96952785.54607     -2345.246 7        42.927    24706273.992 5  99481943.10005     -2406.725 5        32.437
E10        29.000    25067249.690 7 131729524.93807      1012.770 7        44.539                                                                    25067249.497 7  98369342.66107       756.383 7        42.584    25067248.326 7 100935439.20807       776.049 7        46.692
R21        30.000    23686487.339 3                     -5539.493 3        21.667
C20        31.000                                                                                                                                    22702203.563 8 118216491.71508       618.322 8        49.043                                                                    22702197.574 7  96060438.28907       502.354 7        44.715
C05        32.000                                                                                                                                                                                                    39236480.068 6 157989066.96906      -671.805 6        36.295
R23        33.000    20402011.057 7 109136953.83907       819.019 7        47.302
R07        34.000    19472800.226 7 104239399.87207     -1259.736 7        43.771                                                                    19472800.503 7  81075104.86707      -979.857 7        43.537
R22        35.000    20046219.673 7 107008082.17107     -3107.459 7        45.634                                                                    20046215.980 6  83228494.96506     -2416.933 6        40.307
C32        36.000                                                                                                                                    22551369.624 7 117430850.86207     -2266.932 7        47.830                                                                    22551367.205 7  95422233.87507     -1842.196 7        46.548
C30        38.000                                                                                                                                    24508285.967 5                     -3985.470 5        31.064                                                                    24508255.219 6 103702450.61906     -3238.567 6        38.877
C23        40.000                                                                                                                                    25123007.806 5 130822056.68805       791.150 5        32.431                                                                    25122989.569 5 106303622.25405       643.008 5        32.683
C35        41.000                                                                                                                                    25849075.354 6 134602889.14706      1547.321 6        38.982                                                                    25849072.072 5 109375959.39505      1257.309 5        31.155
C16        45.000                                                                                                                                                                                                    38931872.154 6 156762481.07206      -964.808 6        36.355    38931870.212 5                     -1013.805 5        31.298
C39        46.000                                                                                                                                    39403614.870 5 205184850.38805     -1638.237 5        35.776                                                                    39403596.931 4                     -1331.304 4        29.071
C09        47.000                                                                                                                                    38587992.832 3                      -646.868 3        21.881    38587991.090 6 155377865.04006      -501.427 6        37.361    38587984.020 4                      -527.017 4        29.991
C19        48.000                                                                                                                                    26472480.381 5                      1937.669 5        32.748                                                                    26472500.420 5                      1574.644 5        30.574
C06        50.000                                                                                                                                    38423379.231 5 200080598.68305     -1159.066 5        35.705    38423370.717 6 154714990.94106      -895.925 6        38.405    38423375.162 5 162581887.04515      -941.777 5        34.143
C29        54.000                                                                                                                                    23075739.489 7 120161403.23607     -1436.608 7        47.652                                                                    23075738.199 7  97641109.76207     -1167.367 7        44.603
> 2025 01 02 02 30 10.0000000  0 37
G03         1.000    20574385.155 6 108119096.02906     -2346.139 6        39.913                                    20574381.014 5  84248656.44905     -1828.153 5        32.275    20574380.942 6  84248709.45906     -1828.258 6        37.433
G19         2.000    22629969.249 6 118921413.31006     -2156.569 6        40.145                                    22629960.125 3  92665914.77303     -1680.447 3        19.104
G02         4.000    23852836.733 7 125347581.64807     -4207.878 7        42.286                                    23852843.791 1  97673349.40501     -3278.847 1         4.286
G09         6.000    21185026.588 8 111328052.70008      1436.294 8        48.890                                    21185020.490 7  86749145.47807      1119.190 7        45.523    21185022.860 6  86749132.45606      1119.165 6        40.739
G31        10.000    22627598.450 7 118908846.32407     -2374.923 7        43.810                                    22627589.849 4  92656164.01004     -1850.594 4        29.498    22627593.318 4  92656204.98504     -1850.858 4        29.791
G17        11.000    23626584.216 5                     -3332.715 5        31.343                                                                                                    23626586.808 4                     -2596.723 4        29.479
G04        12.000    20206413.344 8 106185466.74208      -312.366 8        50.493                                    20206408.737 6  82741844.67806      -243.401 6        40.822    20206409.655 7  82741868.66907      -243.441 7        47.961
E12        13.000    24119625.937 6 126749511.30606      -235.203 6        41.302                                                                    24119621.530 7  94650589.58107      -175.622 7        42.313    24119621.690 7  97119808.73007      -180.253 7        45.521
E29        14.000    24235064.071 7 127356113.44007     -2392.632 7        42.485                                                                    24235062.660 7  95103584.16207     -1786.794 7        46.473    24235061.985 8  97584592.09108     -1833.395 8        49.352
G06        15.000    22505131.377 7 118265283.09907      1766.605 7        44.059                                    22505125.630 6  92154786.58706      1376.575 6        40.265    22505128.894 6  92154779.58206      1376.453 6        39.225
E11        16.000    27092332.957 5 142371518.85605      1906.804 5        32.850                                                                    27092328.698 5 106316135.27505      1423.941 5        32.994    27092331.663 6 109089585.85906      1460.992 6        38.168
E04        17.000    27326923.935 4                      1933.116 4        24.962                                                                    27326929.794 5 107236798.51405      1443.450 5        30.136    27326922.522 4 110034190.73104      1480.979 4        26.683
R08        18.000    21302203.417 7 114072172.07307      1702.162 7        43.663                                                                    21302199.801 7  88722993.79707      1323.934 7        42.182
E19        20.000    23141002.834 6 121606795.94506        -9.080 6        41.778                                                                    23141001.159 7  90810281.02707        -6.824 7        45.305    23141000.119 7  93179231.94107        -7.052 7        45.232
R15        22.000    23819210.090 6 127282531.38106     -2953.515 6        36.250                                                                    23819200.299 4  98997592.07204     -2297.860 4        24.586
S36        23.000    38310652.076 5 201323869.74505      -851.653 5        35.905
S23        24.000    38256533.356 6 201039414.98406      -847.720 6        40.040
R16        26.000    22469951.310 5 120030439.73915       392.741 5        31.215                                                                    22469937.723 5                       305.320 5        30.430
E33        28.000    24709270.244 6 129848072.01706     -3142.293 6        38.210                                                                    24709267.712 7  96964515.83707     -2346.407 7        42.616    24709263.351 5  99493979.39905     -2407.804 5        33.401
E10        29.000    25066287.019 7 131724465.41807      1011.355 7        44.715                                                                    25066286.410 6  98365564.43206       755.287 6        41.907    25066285.502 7 100931562.42207       774.933 7        47.088
R21        30.000    23691664.647 3                     -5536.513 3        22.457
C20        31.000                                                                                                                                    22701610.745 8 118213404.01908       617.087 8        48.309                                                                    22701604.742 7  96057929.28807       501.371 7        44.743
C05        32.000                                                                                                                                                                                                    39237314.442 6 157992425.55006      -671.608 6        36.106
R23        33.000    20401247.608 7 109132870.00507       814.899 7        47.168
R07        34.000    19473978.416 7 104245705.37607     -1262.047 7        44.018                                                                    19473978.223 7  81080009.14707      -981.538 7        44.590
R22        35.000    20049131.336 7 107023630.02307     -3111.304 7        43.388                                                                    20049128.666 6  83240587.73306     -2420.006 6        37.376
C32        36.000                                                                                                                                    22553547.032 8 117442189.10808     -2268.005 8        48.056                                                                    22553544.530 7  95431447.13107     -1842.909 7        46.550
C25        37.000                                                                                                                                    25649647.796 4                     -1778.028 4        29.498
C30        38.000                                                                                                                                                                                                                                                                    24512082.652 6 103718645.30706     -3239.138 6        38.898
C23        40.000                                                                                                                                                                                                                                                                    25122229.315 5 106300411.71105       641.556 5        30.853
C35        41.000                                                                                                                                    25847591.836 6 134595158.11606      1545.593 6        39.258                                                                    25847585.641 5 109369677.33005      1255.873 5        30.513
C16        45.000                                                                                                                                                                                                    38933070.920 5 156767306.49005      -965.263 5        35.957    38933067.681 5                     -1014.380 5        31.721
C39        46.000                                                                                                                                    39405188.521 5 205193043.86105     -1638.843 5        35.124                                                                    39405170.405 4                     -1331.736 4        29.412
C09        47.000                                                                                                                                    38588622.191 3                      -646.134 3        23.333    38588614.828 6 155380373.70106      -501.783 6        37.331    38588607.185 5                      -527.375 5        30.483
C19        48.000                                                                                                                                    26470622.663 5                      1937.447 5        33.096                                                                    26470640.485 4                      1574.078 4        28.692
C06        50.000                                                                                                                                    38424491.925 5 200086395.80405     -1159.695 5        35.614    38424483.454 6 154719473.66606      -896.655 6        38.030    38424488.467 5 162586597.69805      -942.220 5        34.267
C29        54.000                                                                                                                                    23077120.458 8 120168593.97408     -1439.339 8        48.139                                                                    23077119.295 7  97646952.82107     -1169.591 7        44.683
> 2025 01 02 02 30 15.0000000  0 39
G03         1.000    20576617.798 6 108130832.98306     -2348.444 6        38.586                                    20576614.527 5  84257802.12505     -1829.951 5        33.036    20576614.614 6  84257855.11406     -1829.829 6        38.568
G19         2.000    22632023.934 6 118932205.04706     -2159.910 6        40.467                                    22632013.820 3  92674323.93603     -1683.057 3        19.493
G28         3.000                                                                                                                                                                    24637877.834 3                     -2853.228 3        21.381
G02         4.000    23856840.918 7 125368625.20207     -4209.198 7        42.332                                    23856848.438 1  97689746.98201     -3279.895 1         5.714
G09         6.000    21183661.661 8 111320878.41608      1433.843 8        49.276                                    21183655.492 7  86743555.13607      1117.282 7        46.080    21183658.025 6  86743542.11106      1117.244 6        41.650
G31        10.000    22629860.185 7 118920730.73007     -2378.546 7        44.024                                    22629850.844 4  92665424.57404     -1853.411 4        29.299    22629855.409 5  92665465.55005     -1853.489 5        30.317
G17        11.000    23629760.562 5                     -3334.166 5        33.862                                                                                                    23629758.968 4                     -2598.307 4        29.318
G04        12.000    20206711.974 8 106187036.79908      -315.288 8        50.561                                    20206707.441 6  82743068.09606      -245.678 6        40.889    20206708.236 7  82743092.08607      -245.740 7        47.425
E12        13.000    24119850.489 6 126750694.73706      -237.768 6        41.044                                                                    24119846.703 7  94651473.30607      -177.549 7        42.154    24119846.678 7  97120715.50207      -182.184 7        45.145
E29        14.000    24237341.150 7 127368081.74007     -2394.401 7        42.559                                                                    24237340.373 7  95112521.51407     -1787.999 7        46.915    24237339.472 8  97593762.59408     -1834.622 8        49.464
G06        15.000    22503451.583 7 118256455.78407      1764.456 7        44.059                                    22503446.344 6  92147908.16106      1374.901 6        40.532    22503449.706 6  92147901.15606      1374.829 6        40.379
E11        16.000    27090518.753 5 142361988.16305      1905.793 5        32.665                                                                    27090515.240 5 106309018.18305      1422.993 5        33.413    27090518.358 6 109082283.12406      1460.279 6        37.936
E04        17.000    27325087.328 4                      1932.144 4        26.060                                                                    27325085.901 5 107229583.27105      1443.311 5        30.491    27325083.500 4 110026787.28004      1480.060 4        25.534
R08        18.000    21300622.965 7 114063666.80507      1700.226 7        42.984                                                                    21300611.009 6  88716378.57806      1322.329 6        41.425
E19        20.000    23141012.171 6 121606847.84306       -11.418 6        41.547                                                                    23141010.974 7  90810319.77507        -8.439 7        45.362    23141010.104 7  93179271.70007        -8.645 7        45.264
R06        21.000    21595053.979 4                     -3879.081 4        24.857
R15        22.000    23821974.196 6 127297309.30306     -2957.322 6        38.372                                                                    23821963.167 3                     -2297.835 3        20.048
S36        23.000    38311461.744 6 201328130.75206      -852.053 6        36.091
S23        24.000    38257339.433 6 201043655.51006      -848.195 6        39.940
R16        26.000                                                                                                                                    22469573.022 4                       302.077 4        27.689
E33        28.000    24712261.874 6 129863788.60106     -3144.229 6        40.021                                                                    24712258.068 7  96976252.26507     -2347.845 7        42.413    24712254.464 5  99506021.98605     -2409.100 5        34.119
E10        29.000    25065325.950 7 131719414.04107      1009.488 7        45.952                                                                    25065325.034 6  98361792.27706       753.932 6        41.416    25065324.155 7 100927691.87907       773.514 7        47.256
R21        30.000    23696844.664 4                     -5538.829 4        24.211
C20        31.000                                                                                                                                    22701019.437 7 118210323.36907       615.482 7        47.868                                                                    22701013.233 7  96055425.98907       500.087 7        44.743
C05        32.000                                                                                                                                                                                                    39238148.252 6 157995784.44606      -671.878 6        36.321
R23        33.000    20400487.301 7 109128807.71907       810.331 7        46.760
R07        34.000    19475159.190 7 104252023.04507     -1264.726 7        45.461                                                                    19475158.621 7  81084922.87907      -983.647 7        44.626
R22        35.000    20052048.210 7 107039197.89407     -3115.497 7        42.284                                                                    20052045.667 6  83252696.07206     -2423.093 6        36.813
C32        36.000                                                                                                                                    22555725.245 8 117453533.74308     -2269.579 8        48.495                                                                    22555723.302 7  95440665.56707     -1844.176 7        46.710
C25        37.000                                                                                                                                    25651358.357 4                     -1780.265 4        29.156
C30        38.000                                                                                                                                                                                                                                                                    24515911.113 6 103734844.30006     -3240.311 6        39.342
C23        40.000                                                                                                                                    25121480.710 4 130814165.76104       787.209 4        26.204                                                                    25121470.910 5 106297210.19005       639.007 5        30.302
C35        41.000                                                                                                                                    25846109.789 6 134587436.65206      1543.409 6        39.892                                                                    25846101.465 4 109363402.95804      1254.207 4        29.820
C16        45.000                                                                                                                                                                                                    38934269.290 5 156772134.89205      -965.798 5        35.495    38934266.139 5                     -1015.107 5        31.857
C39        46.000                                                                                                                                    39406763.838 5 205201240.59805     -1639.855 5        35.010                                                                    39406745.686 5                     -1332.158 5        30.143
C09        47.000                                                                                                                                    38589247.574 4                      -650.426 4        24.677    38589238.458 6 155382885.67706      -502.786 6        37.592    38589231.393 5                      -528.375 5        30.521
C19        48.000                                                                                                                                    26468764.271 5                      1936.791 5        33.808                                                                    26468781.390 4                      1574.163 4        26.838
C06        50.000                                                                                                                                    38425606.130 5 200092197.02505     -1160.529 5        35.352    38425597.990 6 154723959.54406      -897.685 6        37.981    38425602.484 5 162591311.64005      -942.761 5        34.252
C29        54.000                                                                                                                                    23078504.673 8 120175799.16708     -1442.409 8        48.516                                                                    23078503.015 7  97652807.62807     -1172.150 7        44.826
> 2025 01 02 02 30 20.0000000  0 37
G03         1.000    20578853.370 6 108142579.38106     -2350.491 6        38.631                                    20578849.927 5  84266955.16005     -1831.549 5        33.725    20578850.158 6  84267008.15106     -1831.348 6        38.937
G19         2.000    22634080.296 6 118943012.64506     -2163.219 6        40.594                                    22634070.847 3  92682745.45503     -1685.621 3        20.048
G28         3.000    24641342.413 4                     -3664.781 4        24.617                                                                                                    24641365.990 3                     -2855.192 3        22.648
G02         4.000    23860846.516 7 125389673.47207     -4210.165 7        42.588                                    23860853.902 1  97706148.25401     -3280.583 1         9.714
G09         6.000    21182298.338 8 111313714.59908      1431.619 8        49.137                                    21182292.550 7  86737972.94007      1115.545 7        46.550    21182294.517 6  86737959.90906      1115.578 6        41.948
G31        10.000    22632124.596 7 118932631.84407     -2382.087 7        43.975                                    22632115.099 4  92674698.16504     -1856.166 4        29.242    22632119.879 5  92674739.11005     -1855.753 5        31.683
G17        11.000    23632935.389 5 124191904.57415     -3335.837 5        35.595                                    23632940.058 2                     -2599.259 2        14.714    23632931.240 4                     -2599.219 4        28.787
G04        12.000    20207013.435 8 106188620.21508      -318.131 8        50.536                                    20207008.708 6  82744301.92406      -247.894 6        41.139    20207009.861 7  82744325.91807      -247.902 7        47.894
E12        13.000    24120077.369 6 126751888.79006      -239.899 6        40.300                                                                    24120073.749 6  94652364.99806      -179.230 6        41.974    24120073.774 7  97121630.43507      -183.884 7        44.581
E29        14.000    24239619.847 7 127380056.80807     -2395.818 7        42.609                                                                    24239619.271 7  95121463.92207     -1789.038 7        47.466    24239618.435 8  97602938.29808     -1835.806 8        49.508
G06        15.000    22501773.369 7 118247638.75907      1762.216 7        44.609                                    22501768.966 6  92141037.75406      1373.155 6        40.806    22501772.052 6  92141030.73806      1373.234 6        41.344
E11        16.000    27088706.556 5 142352461.00405      1904.984 5        31.472                                                                    27088702.359 5 106301903.76605      1422.517 5        34.195    27088705.888 6 109074983.10606      1459.378 6        37.474
E04        17.000    27323250.944 4                      1931.605 4        27.245                                                                    27323248.677 5 107222370.60105      1441.962 5        31.351    27323245.280 4 110019386.39104      1479.929 4        24.962
R08        18.000    21299039.865 7 114055170.38907      1698.287 7        42.580                                                                    21299021.853 6  88709770.22806      1321.028 6        41.645
E19        20.000    23141023.546 6 121606908.74606       -13.232 6        41.194                                                                    23141022.574 7  90810365.25307        -9.823 7        45.475    23141021.768 7  93179318.36607       -10.189 7        45.311
R15        22.000    23824744.856 6 127312105.23306     -2961.279 6        38.192
S36        23.000    38312274.184 5 201332391.67705      -852.313 5        35.857
S23        24.000    38258146.284 6 201047896.06206      -848.230 6        40.133
R16        26.000                                                                                                                                    22469211.540 3                       298.284 3        23.390
E33        28.000    24715254.672 6 129879513.20706     -3145.831 6        40.629                                                                    24715249.966 7  96987994.68707     -2349.159 7        42.006    24715246.321 5  99518070.72505     -2410.289 5        35.290
E10        29.000    25064366.612 7 131714370.61207      1007.818 7        46.532                                                                    25064365.184 6  98358026.09006       752.550 6        40.884    25064364.348 7 100923827.43807       772.216 7        47.380
C20        31.000                                                                                                                                    22700429.388 8 118207249.56608       613.973 8        48.153                                                                    22700423.125 7  96052928.29007       498.890 7        44.740
C05        32.000                                                                                                                                                                                                    39238982.268 6 157999143.52906      -671.742 6        36.329
R23        33.000    20399731.475 7 109124766.70907       805.933 7        46.249
R07        34.000    19476341.962 7 104258352.76507     -1267.362 7        45.813                                                                    19476341.076 7  81089845.98307      -985.748 7        44.412
R22        35.000    20054968.800 7 107054785.61607     -3119.590 7        42.089                                                                    20054966.191 6  83264819.87806     -2426.372 6        39.898
C32        36.000                                                                                                                                    22557904.685 8 117464884.56208     -2270.916 8        48.877                                                                    22557903.216 7  95449889.04507     -1845.249 7        46.592
C25        37.000                                                                                                                                    25653067.984 4                     -1782.167 4        26.036
C30        38.000                                                                                                                                                                                                                                                                    24519740.149 6 103751047.39406     -3241.052 6        39.315
C23        40.000                                                                                                                                    25120737.972 4 130810236.71504       784.793 4        24.045                                                                    25120715.050 4 106294017.54104       637.268 4        28.275
C35        41.000                                                                                                                                    25844627.596 6 134579724.60706      1541.367 6        39.477                                                                    25844620.494 5 109357136.32905      1252.038 5        30.241
C16        45.000                                                                                                                                    38935476.458 5                     -1250.043 5        34.590    38935469.492 5 156776966.16005      -966.523 5        35.000    38935465.737 5                     -1015.759 5        31.751
C39        46.000                                                                                                                                    39408339.315 5 205209440.38605     -1640.306 5        34.771                                                                    39408319.997 5                     -1333.195 5        30.249
C09        47.000                                                                                                                                    38589871.088 4                      -650.811 4        25.609    38589862.710 6 155385400.78206      -503.488 6        37.660    38589856.083 5                      -528.958 5        30.332
C19        48.000                                                                                                                                    26466907.809 5                      1936.607 5        33.317                                                                    26466922.129 4                      1573.192 4        25.218
C06        50.000                                                                                                                                    38426721.853 5 200098002.17705     -1161.513 5        35.548    38426712.561 6 154728448.46706      -898.286 6        37.981    38426717.282 5 162596028.82205      -943.709 5        34.333
C29        54.000                                                                                                                                    23079891.428 8 120183018.65408     -1445.458 8        48.669                                                                    23079889.422 7  97658674.06307     -1174.557 7        44.557
> 2025 01 02 02 30 25.0000000  0 37
G03         1.000    20581091.066 6 108154334.67206     -2352.102 6        37.664                                    20581087.003 5  84276115.13505     -1832.809 5        34.129    20581087.027 6  84276168.15306     -1832.750 6        39.471
G19         2.000    22636139.257 6 118953835.59906     -2166.151 6        40.863                                    22636130.991 3  92691178.94603     -1687.904 3        20.286
G28         3.000    24644836.025 4                     -3667.057 4        26.240                                                                                                    24644849.022 3                     -2856.712 3        22.667
G02         4.000    23864852.675 7 125410725.97807     -4210.944 7        42.182                                    23864860.154 1  97722552.85401     -3281.322 1         9.238
G09         6.000    21180936.715 8 111306560.75308      1429.731 8        48.839                                    21180931.509 7  86732398.51507      1114.078 7        46.966    21180932.821 7  86732385.49407      1114.068 7        42.389
G31        10.000    22634392.346 7 118944549.14707     -2385.042 7        43.048                                    22634382.775 4  92683984.36704     -1858.462 4        28.825    22634386.941 5  92684025.32805     -1858.560 5        32.365
G17        11.000    23636109.469 5 124208586.76305     -3337.258 5        35.105                                    23636113.131 2  96785938.03712     -2600.464 2        15.333    23636108.874 4                     -2600.548 4        28.370
G04        12.000    20207317.044 8 106190216.46608      -320.585 8        50.066                                    20207312.461 6  82745545.75406      -249.805 6        41.223    20207313.783 8  82745569.74708      -249.801 8        48.465
E12        13.000    24120306.403 6 126753093.01006      -241.981 6        39.673                                                                    24120302.660 6  94653264.23606      -180.614 6        41.733    24120302.827 7  97122553.14007      -185.391 7        44.340
E29        14.000    24241899.989 7 127392038.12407     -2396.889 7        42.929                                                                    24241899.248 7  95130411.00507     -1789.918 7        47.695    24241898.558 8  97612118.78908     -1836.673 8        49.784
G06        15.000    22500097.297 7 118238831.50507      1760.452 7        45.198                                    22500093.396 6  92134174.96106      1371.781 6        41.149    22500095.864 6  92134167.95206      1371.771 6        41.921
E11        16.000    27086894.043 5 142342936.96805      1904.265 5        31.291                                                                    27086889.719 5 106294791.62605      1422.375 5        34.695    27086894.541 6 109067685.44906      1459.159 6        37.535
E04        17.000    27321414.346 4                      1930.945 4        27.126                                                                    27321412.466 5 107215159.94205      1441.713 5        31.608
R08        18.000    21297456.112 7 114046682.33207      1696.707 7        42.760                                                                    21297437.006 7  88703168.40907      1319.745 7        42.025
E19        20.000    23141037.318 6 121606978.15106       -14.730 6        41.235                                                                    23141035.681 7  90810417.09307       -11.070 7        45.478    23141035.093 7  93179371.54407       -11.278 7        45.559
R15        22.000    23827518.402 6 127326918.58306     -2964.534 6        36.098
S36        23.000    38313086.030 6 201336652.18906      -852.058 6        36.004
S23        24.000    38258953.479 6 201052136.06406      -848.141 6        39.952
R16        26.000    22468891.991 5                       380.213 5        31.434                                                                    22468861.193 3                       294.675 3        19.104
E33        28.000    24718248.402 6 129895245.35606     -3147.318 6        41.218                                                                    24718243.657 6  96999742.72306     -2350.209 6        41.669    24718241.263 6  99530125.23606     -2411.602 6        36.560
E10        29.000    25063408.171 7 131709334.65307      1006.441 7        46.909                                                                    25063406.798 6  98354265.44906       751.695 6        40.210    25063406.044 7 100919968.71107       771.150 7        47.736
C20        31.000                                                                                                                                    22699840.068 8 118204182.10508       612.826 8        48.746                                                                    22699834.144 7  96050435.73907       498.082 7        44.856
C05        32.000                                                                                                                                                                                                    39239815.966 6 158002502.39506      -671.642 6        36.132
R23        33.000    20398980.516 7 109120746.60307       801.864 7        46.527
R07        34.000    19477525.785 7 104264694.23107     -1269.456 7        46.414                                                                    19477525.479 7  81094778.22807      -987.343 7        43.848
R22        35.000    20057892.629 6 107070392.63006     -3123.333 6        41.750                                                                    20057890.377 7  83276958.67807     -2429.320 7        43.181
C32        36.000                                                                                                                                    22560084.873 8 117476241.07808     -2271.917 8        49.208                                                                    22560084.294 7  95459117.14907     -1845.929 7        46.785
C25        37.000                                                                                                                                    25654775.214 3                     -1784.848 3        23.048
C30        38.000                                                                                                                                    24523587.019 4                     -3989.532 4        27.234                                                                    24523570.317 6 103767254.18706     -3241.613 6        39.291
C23        40.000                                                                                                                                    25119978.474 3                       784.871 3        19.761                                                                    25119960.512 4 106290833.34904       635.859 4        25.970
C35        41.000                                                                                                                                    25843148.019 6 134572021.46406      1539.685 6        39.009                                                                    25843140.989 5 109350876.90105      1251.093 5        30.596
C16        45.000                                                                                                                                    38936674.684 5 202753492.39015     -1250.740 5        34.619    38936670.228 5 156781799.88205      -966.793 5        34.600    38936665.960 5                     -1016.036 5        31.660
C39        46.000                                                                                                                                    39409915.345 5 205217642.75105     -1640.764 5        34.167                                                                    39409895.368 5                     -1333.091 5        30.506
