     3.04           OBSERVATION DATA    M                   RINEX VERSION / TYPE
ssrcrin-15.6.1x                         20250102 043000 UTC PGM / RUN BY / DATE 
(00000000023479385599111004) Septentrio proprietary         COMMENT             
ract                                                        MARKER NAME         
01                                                          MARKER NUMBER       
geodetic                                                    MARKER TYPE         
NFB                 CLIMERS@TUW                             OBSERVER / AGENCY   
3296359             SEPT ASTERX SB3 PROB4.14.4              REC # / TYPE / VERS 
Unknown             Unknown                                 ANT # / TYPE        
  4127446.7659  1206915.0353  4695543.2557                  APPROX POSITION XYZ 
        0.0000        0.0000        0.0000                  ANTENNA: DELTA H/E/N
G   23 X1  C1C L1C D1C S1C C1W S1W C2W L2W D2W S2W C2L L2L  SYS / # / OBS TYPES 
       D2L S2L C5Q L5Q D5Q S5Q C1L L1L D1L S1L              SYS / # / OBS TYPES 
E   21 X1  C1C L1C D1C S1C C6C L6C D6C S6C C5Q L5Q D5Q S5Q  SYS / # / OBS TYPES 
       C7Q L7Q D7Q S7Q C8Q L8Q D8Q S8Q                      SYS / # / OBS TYPES 
S    9 X1  C1C L1C D1C S1C C5I L5I D5I S5I                  SYS / # / OBS TYPES 
R   17 X1  C1C L1C D1C S1C C2P L2P D2P S2P C2C L2C D2C S2C  SYS / # / OBS TYPES 
       C3Q L3Q D3Q S3Q                                      SYS / # / OBS TYPES 
C   25 X1  C1P L1P D1P S1P C5P L5P D5P S5P C2I L2I D2I S2I  SYS / # / OBS TYPES 
       C7I L7I D7I S7I C6I L6I D6I S6I C7D L7D D7D S7D      SYS / # / OBS TYPES 
J   17 X1  C1C L1C D1C S1C C2L L2L D2L S2L C5Q L5Q D5Q S5Q  SYS / # / OBS TYPES 
       C1L L1L D1L S1L                                      SYS / # / OBS TYPES 
I    5 X1  C5A L5A D5A S5A                                  SYS / # / OBS TYPES 
SEPTENTRIO RECEIVERS OUTPUT ALIGNED CARRIER PHASES.         COMMENT             
NO FURTHER PHASE SHIFT APPLIED IN THE RINEX ENCODER.        COMMENT             
G L1C                                                       SYS / PHASE SHIFT   
G L2W                                                       SYS / PHASE SHIFT   
G L2L  0.00000                                              SYS / PHASE SHIFT   
G L5Q  0.00000                                              SYS / PHASE SHIFT   
G L1L  0.00000                                              SYS / PHASE SHIFT   
E L1C  0.00000                                              SYS / PHASE SHIFT   
E L6C  0.00000                                              SYS / PHASE SHIFT   
E L5Q  0.00000                                              SYS / PHASE SHIFT   
E L7Q  0.00000                                              SYS / PHASE SHIFT   
E L8Q  0.00000                                              SYS / PHASE SHIFT   
S L1C                                                       SYS / PHASE SHIFT   
S L5I                                                       SYS / PHASE SHIFT   
R L1C                                                       SYS / PHASE SHIFT   
R L2P  0.00000                                              SYS / PHASE SHIFT   
R L2C                                                       SYS / PHASE SHIFT   
R L3Q  0.00000                                              SYS / PHASE SHIFT   
C L1P  0.00000                                              SYS / PHASE SHIFT   
C L5P  0.00000                                              SYS / PHASE SHIFT   
C L2I                                                       SYS / PHASE SHIFT   
C L7I                                                       SYS / PHASE SHIFT   
C L6I                                                       SYS / PHASE SHIFT   
C L7D                                                       SYS / PHASE SHIFT   
J L1C                                                       SYS / PHASE SHIFT   
J L2L  0.00000                                              SYS / PHASE SHIFT   
J L5Q  0.00000                                              SYS / PHASE SHIFT   
J L1L  0.00000                                              SYS / PHASE SHIFT   
I L5A                                                       SYS / PHASE SHIFT   
  2025     1     2     4    30    0.0000000     GPS         TIME OF FIRST OBS   
 C1C    0.000 C2C    0.000 C2P    0.000                     GLONASS COD/PHS/BIS 
DBHZ                                                        SIGNAL STRENGTH UNIT
    18                                                      LEAP SECONDS        
 24 R01  1 R02 -4 R03  5 R04  6 R05  1 R06 -4 R07  5 R08  6 GLONASS SLOT / FRQ #
    R09 -2 R10 -7 R11  0 R12 -1 R13 -2 R14 -7 R15  0 R16 -1 GLONASS SLOT / FRQ #
    R17  4 R18 -3 R19  3 R20  2 R21  4 R22 -3 R23  3 R24  2 GLONASS SLOT / FRQ #
                                                            END OF HEADER       
> 2025 01 02 04 30  0.0000000  0 39
G03         1.000    24148288.882 4                     -4357.740 4        26.216                                                                                                    24148318.894 3                     -3395.393 3        23.676
G20         4.000    23146472.620 6 121635551.22006      2327.357 6        41.836                                    23146465.763 4  94780937.43604      1813.522 4        27.916
G07         5.000    21463526.729 6 112791620.33306       958.244 6        39.369                                    21463515.681 3  87889582.74503       746.691 3        21.405
G09         6.000    20215928.238 8 106235420.25208     -1732.292 8        51.624                                    20215925.909 8  82780861.10108     -1349.837 8        51.086    20215925.871 7  82780848.08207     -1349.775 7        45.276
G30         7.000    23601359.281 3                      2595.077 3        21.048
E27         9.000    27371004.779 4                      -753.306 4        26.335
E06        11.000    26186889.641 6 137613010.69906      1393.531 6        36.030                                                                    26186887.514 6 102763006.31906      1040.388 6        40.257    26186884.671 6 105443855.98306      1067.580 6        38.285
G04        12.000    21660234.234 6 113825358.17506     -3188.557 6        40.374                                    21660228.415 3  88695081.09903     -2484.610 3        18.896    21660229.133 6  88695023.10806     -2484.490 6        36.034
E12        13.000    25447846.914 6 133729342.72506     -3335.306 6        38.700                                                                    25447843.240 6  99862843.04206     -2490.547 6        37.425    25447842.527 5                     -2555.529 5        32.401
E29        14.000    27134932.092 4                     -3304.320 4        25.774                                                                    27134924.314 4                     -2467.847 4        29.649
G06        15.000    21693824.209 7 114002187.24407     -2585.402 7        43.602                                    21693825.564 7  88832682.57207     -2014.592 7        42.754    21693825.704 7  88832583.58407     -2014.599 7        44.679
E11        16.000                                                                                                                                    24664643.352 6  96789372.03006      -427.344 6        40.746    24664642.920 6  99314300.44706      -438.680 6        41.406
E04        17.000    24325676.553 8 127832298.42908       608.190 8        48.076                                                                    24325673.994 7  95459239.57107       454.159 7        46.979    24325672.401 7  97949424.39407       465.942 7        45.642
R08        18.000    19613810.115 8 105031226.38008     -1021.270 8        49.696                                                                    19613807.287 7  81690807.91407      -794.360 7        45.273
E19        20.000    23489905.457 7 123440291.25007     -2044.613 7        43.310                                                                    23489902.735 7  92179449.82107     -1526.806 7        42.777    23489902.696 7  94584118.13907     -1566.498 7        43.484
E36        22.000    27692746.166 4 145526410.87104      1680.393 4        28.123                                                                    27692747.393 5 108672343.71005      1255.062 5        30.309    27692749.340 6 111507239.70906      1287.467 6        40.229
S36        23.000    38275700.716 5 201140241.04205      -846.315 5        35.443
S23        24.000    38215866.502 6 200825709.50206      -842.174 6        39.955
G11        25.000    22285950.006 6 117113541.30206        35.774 6        38.607                                    22285942.772 3  91257182.71703        27.869 3        22.210    22285943.351 6  91257199.71706        27.824 6        41.583
R17        27.000    23609876.990 5                      2311.034 5        32.862                                                                    23609852.738 5                      1797.361 5        32.138
E10        29.000    24542792.462 7 128973332.81507     -2194.962 7        43.869                                                                    24542790.864 8  96311238.15808     -1639.177 8        49.358    24542790.768 8  98823792.49108     -1681.891 8        50.599
C20        31.000                                                                                                                                    22036632.155 7 114750673.08507     -1429.947 7        46.475                                                                    22036625.629 7  93244199.82007     -1161.947 7        46.239
R10        32.000    20813489.687 6 110947586.10106      1457.483 6        39.778
R23        33.000    22338316.581 5                     -4838.975 5        31.411
R07        34.000    21763830.714 6 116503398.94006     -3603.135 6        41.602                                                                    21763825.001 6  90613783.83406     -2802.633 6        37.304
C32        36.000                                                                                                                                    25433055.340 4                     -3491.275 4        26.850                                                                    25433032.715 4 107615473.65404     -2837.281 4        28.882
R09        37.000    21210372.617 5                     -2071.495 5        35.848                                                                    21210365.093 5  88092846.25305     -1611.257 5        34.052
C23        40.000                                                                                                                                                                                                                                                                    25399107.572 5 107471929.63205     -2365.488 5        31.653
C35        41.000                                                                                                                                    24939587.418 5 129867026.54305     -2104.752 5        33.150                                                                    24939584.728 6 105527603.51706     -1709.949 6        36.945
C37        42.000                                                                                                                                    23266238.849 6 121153566.69006      -134.261 6        39.838                                                                    23266242.128 7  98447070.29007      -109.114 7        43.939
R24        43.000    21349183.842 5 114163740.03505     -1155.061 5        30.672                                                                    21349181.274 6  88794004.80606      -898.365 6        36.181
R01        44.000    21782242.912 5 116438738.10405      2019.083 5        30.166                                                                    21782248.530 4  90563377.53004      1570.257 4        28.976
C16        45.000                                                                                                                                    39973868.075 4                     -1851.671 4        27.425    39973892.823 5 160958274.17005     -1432.328 5        33.120
C09        47.000                                                                                                                                    38939145.929 4 202766371.37104     -1478.442 4        27.437    38939153.345 4 156791749.92404     -1143.151 4        28.825
C19        48.000                                                                                                                                    23124005.571 4                      1035.561 4        26.982                                                                    23123909.528 7  97844840.27807       841.638 7        43.517
C06        50.000                                                                                                                                    39398606.613 4                     -1845.695 4        28.512    39398593.911 5 158641815.19705     -1427.258 5        34.900
C44        52.000                                                                                                                                    25916364.904 6 134953301.77906       138.203 6        39.811                                                                    25916364.590 5 109660601.47205       112.221 5        32.593
C29        54.000                                                                                                                                    26011963.185 3                     -3872.608 3        21.429
I06        59.000    38041769.689 6 149284076.39106      -602.897 6        36.000
> 2025 01 02 04 30  5.0000000  0 38
G03         1.000    24152436.674 4                     -4358.165 4        26.335                                                                                                    24152460.350 4                     -3395.755 4        24.586
G20         4.000    23144258.617 6 121623917.27906      2326.392 6        41.671                                    23144252.404 4  94771872.02904      1812.773 4        28.180
G07         5.000    21462617.664 7 112786835.95107       956.031 7        42.383                                    21462604.110 4  87885854.67404       744.953 4        24.120
G09         6.000    20217577.782 8 106244087.24508     -1734.246 8        52.096                                    20217575.168 8  82787614.59708     -1351.362 8        51.243    20217574.774 7  82787601.59307     -1351.443 7        45.216
G30         7.000                                                                                                                                                                    23598872.399 3                      2021.449 3        20.976
E27         9.000    27371723.221 3                      -757.872 3        23.371
E06        11.000    26185563.399 5 137606046.25905      1392.745 5        35.895                                                                    26185561.839 6 102757805.58806      1040.012 6        40.365    26185559.301 6 105438519.56906      1067.262 6        37.535
G04        12.000    21663269.774 6 113841304.38806     -3189.692 6        40.451                                    21663262.501 3  88707506.72003     -2485.473 3        18.925    21663263.221 6  88707448.73206     -2485.428 6        36.314
E12        13.000    25451021.142 6 133746023.65606     -3336.751 6        38.679                                                                    25451017.214 6  99875299.59806     -2491.831 6        36.836    25451019.906 5                     -2556.816 5        33.731
E29        14.000    27138076.238 4                     -3304.951 4        26.156                                                                    27138068.571 4                     -2467.894 4        29.194
G06        15.000    21696285.855 7 114015122.41807     -2588.417 7        43.683                                    21696287.121 7  88842761.91607     -2016.942 7        42.609    21696287.015 7  88842662.93507     -2016.845 7        44.495
E11        16.000                                                                                                                                    24665189.206 6  96791514.21806      -429.202 6        41.161    24665188.752 6  99316498.50806      -440.335 6        41.600
E04        17.000    24325098.660 8 127829260.98108       607.228 8        48.356                                                                    24325095.939 7  95456971.34807       453.476 7        47.112    24325093.907 7  97947096.99207       465.321 7        45.087
R08        18.000    19614765.126 8 105036338.43208     -1023.245 8        49.690                                                                    19614762.300 7  81694783.95107      -795.879 7        46.114
E19        20.000    23491851.617 7 123450517.30207     -2045.435 7        43.297                                                                    23491848.715 7  92187086.15707     -1527.514 7        43.058    23491848.850 7  94591953.69907     -1567.433 7        43.380
E36        22.000    27691147.937 4 145518013.41104      1678.795 4        29.659                                                                    27691149.204 5 108666072.90105      1253.584 5        30.408    27691151.394 6 111500805.30306      1286.581 6        40.086
S36        23.000    38276503.010 5 201144473.70905      -846.104 5        35.471
S23        24.000    38216670.616 6 200829921.15906      -841.993 6        39.988
G11        25.000    22285918.577 6 117113371.22006        32.484 6        40.708                                    22285910.930 3  91257050.19503        25.313 3        22.267    22285910.664 6  91257067.18706        25.324 6        41.013
E10        29.000    24544883.002 7 128984314.34507     -2197.329 7        45.050                                                                    24544880.748 8  96319438.64808     -1640.824 8        49.752    24544880.555 8  98832206.91808     -1683.646 8        50.609
C20        31.000                                                                                                                                    22038006.081 7 114757827.08307     -1431.374 7        47.589                                                                    22037999.536 7  93250013.01707     -1163.179 7        46.286
R10        32.000    20812126.777 6 110940309.52606      1453.387 6        40.429
R23        33.000    22342840.249 5                     -4840.763 5        31.955
R07        34.000    21767196.950 6 116521417.79606     -3604.282 6        40.989                                                                    21767190.819 6  90627798.51306     -2803.293 6        37.565
C32        36.000                                                                                                                                    25436407.648 4                     -3492.253 4        29.602                                                                    25436385.489 4 107629661.18204     -2837.949 4        28.891
R09        37.000    21212316.208 6 113272566.95016     -2075.933 6        40.102                                                                    21212305.763 5  88100911.02105     -1614.518 5        34.714
C23        40.000                                                                                                                                                                                                                                                                    25401903.990 5 107483760.85605     -2366.858 5        31.894
C35        41.000                                                                                                                                    24941612.334 5 129877555.42305     -2106.934 5        31.441                                                                    24941605.913 6 105536159.04706     -1712.113 6        36.204
C37        42.000                                                                                                                                    23266373.504 6 121154245.58406      -136.956 6        40.229                                                                    23266372.446 7  98447621.94107      -111.389 7        44.063
R24        43.000    21350263.271 4 114169528.07904     -1158.826 4        25.955                                                                    21350263.422 5  88798506.76105      -901.672 5        33.719
R01        44.000    21780359.363 5 116428645.01905      2018.253 5        33.168
C16        45.000                                                                                                                                    39975646.399 4                     -1852.365 4        28.322    39975665.357 5 160965434.74005     -1432.330 5        33.533
C09        47.000                                                                                                                                    38940571.821 4 202773766.20904     -1479.223 4        27.054    38940572.394 4 156797468.07804     -1144.434 4        29.166
C19        48.000                                                                                                                                                                                                                                                                    23122915.757 7  97840634.34207       840.855 7        43.744
C06        50.000                                                                                                                                    39400379.804 4                     -1845.963 4        28.256    39400366.684 5 158648952.07005     -1427.371 5        34.824
C44        52.000                                                                                                                                    25916234.234 6 134952617.81306       135.734 6        40.353                                                                    25916232.060 5 109660045.65905       110.020 5        32.563
C29        54.000                                                                                                                                    26015679.979 3                     -3871.190 3        21.548
I06        59.000    38042538.167 6 149287091.48706      -603.007 6        36.019
> 2025 01 02 04 30 10.0000000  0 39
G03         1.000    24156580.782 4                     -4358.404 4        24.120                                                                                                    24156604.520 3                     -3395.996 3        22.800
G20         4.000    23142046.567 7 121612288.38307      2325.313 7        42.709                                    23142039.827 4  94762810.55404      1811.937 4        28.152
G07         5.000    21461710.065 7 112782063.31707       953.388 7        44.460                                    21461695.557 4  87882135.75304       742.889 4        26.539    21461703.418 4  87882081.73414       743.194 4        27.928
G09         6.000    20219228.901 8 106252764.20908     -1736.281 8        52.206                                    20219226.288 8  82794375.86108     -1352.945 8        51.356    20219225.808 7  82794362.85507     -1353.040 7        44.686
G30         7.000                                                                                                                                                                    23596407.525 3                      2020.548 3        22.971
E27         9.000    27372440.894 3                      -759.884 3        21.500
E06        11.000    26184237.725 5 137599085.26705      1391.924 5        35.052                                                                    26184237.202 6 102752607.44306      1039.421 6        40.291    26184234.796 6 105433185.85906      1066.471 6        36.968
G04        12.000    21666306.084 6 113857256.72106     -3191.055 6        41.137                                    21666298.008 3  88719937.12403     -2486.550 3        20.119    21666299.162 6  88719879.12706     -2486.396 6        36.662
E12        13.000    25454196.771 6 133762712.81706     -3338.613 6        39.114                                                                    25454192.406 6  99887762.26806     -2493.213 6        36.000    25454193.439 5 102493498.48815     -2558.067 5        35.262
E29        14.000    27141219.592 4                     -3305.357 4        26.168                                                                    27141212.712 4                     -2467.819 4        28.284
G06        15.000    21698751.235 7 114028072.60907     -2591.454 7        44.230                                    21698751.427 7  88852852.96807     -2019.310 7        42.580    21698751.541 7  88852754.00307     -2019.358 7        44.435
E11        16.000                                                                                                                                    24665737.601 6  96793665.98406      -431.171 6        41.580    24665737.147 6  99318706.40806      -442.488 6        41.821
E04        17.000    24324521.809 8 127826228.96708       605.975 8        48.617                                                                    24324518.982 7  95454707.18207       452.513 7        46.984    24324516.652 7  97944773.75707       464.310 7        44.470
R08        18.000    19615722.092 8 105041460.70408     -1025.401 8        49.837                                                                    19615718.471 7  81698767.92807      -797.555 7        46.423
E19        20.000    23493798.583 7 123460748.26207     -2046.617 7        43.348                                                                    23493795.623 7  92194726.14607     -1528.363 7        43.007    23493795.972 7  94599793.00707     -1568.232 7        43.369
E36        22.000    27689552.864 5 145509622.78305      1677.793 5        31.253                                                                    27689552.687 5 108659807.20705      1252.626 5        30.136    27689554.720 6 111494376.16906      1285.402 6        40.005
S36        23.000    38277308.273 5 201148706.74505      -846.503 5        35.600
S23        24.000    38217471.381 6 200834132.91406      -842.309 6        39.844
G11        25.000    22285890.272 6 117113217.84706        29.067 6        41.926                                    22285882.061 3  91256930.68703        22.673 3        22.781    22285880.292 6  91256947.66906        22.646 6        40.195
R17        27.000    23605580.990 5                      2305.076 5        33.072                                                                    23605525.657 5                      1792.877 5        33.814
E10        29.000    24546974.931 7 128995307.69907     -2199.784 7        45.505                                                                    24546972.836 8  96327647.97308     -1642.672 8        50.214    24546972.579 8  98840630.40008     -1685.520 8        50.695
C20        31.000                                                                                                                                    22039381.163 8 114764988.90708     -1433.031 8        48.123                                                                    22039374.617 7  93255832.59307     -1164.451 7        46.274
R10        32.000    20810763.084 6 110933052.61606      1449.591 6        40.236
R23        33.000    22347369.220 5 119543349.05115     -4842.761 5        35.214
R07        34.000    21770564.350 6 116539442.20006     -3605.293 6        40.026                                                                    21770560.492 6  90641817.49706     -2804.189 6        37.584
C32        36.000                                                                                                                                                                                                                                                                    25439737.888 4 107643851.29004     -2838.510 4        27.102
R09        37.000    21214264.542 6 113282957.70606     -2080.160 6        40.646                                                                    21214251.725 5  88108992.69205     -1618.059 5        35.200
C23        40.000                                                                                                                                    25404791.924 3                     -2916.073 3        21.881                                                                    25404702.536 5 107495600.89705     -2369.106 5        31.200
C35        41.000                                                                                                                                    24943643.935 5 129888096.25205     -2109.210 5        31.623                                                                    24943629.656 6 105544724.39806     -1714.001 6        36.265
C37        42.000                                                                                                                                    23266508.208 6 121154938.64406      -140.112 6        39.658                                                                    23266505.278 7  98448185.13207      -113.755 7        43.915
R24        43.000    21351351.915 5 114175339.49805     -1164.178 5        30.860                                                                    21351350.069 5  88803026.56905      -905.393 5        32.222
R01        44.000    21778477.287 5                      2017.163 5        35.186
C16        45.000                                                                                                                                    39977421.437 4                     -1851.901 4        27.928    39977437.590 5 160972595.96305     -1432.403 5        33.719
C09        47.000                                                                                                                                    38941995.904 4 202781162.80904     -1479.326 4        26.156    38941991.329 4 156803187.53904     -1144.300 4        28.796
C19        48.000                                                                                                                                                                                                                                                                    23121922.877 7  97836432.59507       840.085 7        43.996
C06        50.000                                                                                                                                    39402151.371 4                     -1845.994 4        28.445    39402139.620 5 158656089.84605     -1427.383 5        35.143
C44        52.000                                                                                                                                    25916106.533 6 134951946.94706       132.990 6        40.868                                                                    25916103.167 5 109659500.54105       107.980 5        32.737
C29        54.000                                                                                                                                    26019400.401 3                     -3870.490 3        22.362
I06        59.000    38043305.658 5 149290106.90805      -602.825 5        35.795
> 2025 01 02 04 30 15.0000000  0 39
G03         1.000    24160729.674 3                     -4361.033 3        23.219                                                                                                    24160749.423 3                     -3397.933 3        21.690
G20         4.000    23139834.443 7 121600663.76107      2324.636 7        44.063                                    23139828.002 4  94753752.41504      1811.401 4        27.593
G07         5.000    21460803.795 7 112777301.55007       951.387 7        45.755                                    21460789.919 4  87878425.31204       741.335 4        28.616    21460798.688 4  87878371.27104       741.016 4        29.280
G09         6.000    20220881.842 8 106261450.28708     -1738.004 8        52.134                                    20220879.134 8  82801144.22808     -1354.289 8        51.221    20220878.548 7  82801131.22007     -1354.219 7        44.146
G30         7.000                                                                                                                                                                    23593939.842 4                      2020.243 4        24.346
E27         9.000    27373166.496 3                      -762.512 3        20.167
E06        11.000    26182913.247 5 137592126.88105      1391.449 5        33.952                                                                    26182912.565 6 102747411.26206      1039.231 6        40.045    26182910.885 6 105427854.12306      1065.859 6        36.707
G04        12.000    21669342.933 7 113873214.31607     -3191.854 7        42.419                                    21669335.179 3  88732371.61703     -2487.174 3        20.690    21669336.544 6  88732313.62106     -2487.050 6        37.633
E12        13.000    25457373.966 6 133779409.30006     -3339.787 6        39.553                                                                    25457369.184 5  99900230.41305     -2493.955 5        34.819    25457371.120 5 102506291.88805     -2559.142 5        35.324
E29        14.000    27144366.357 4                     -3304.095 4        26.287                                                                    27144356.526 4                     -2468.018 4        27.078
G06        15.000    21701218.565 7 114041036.98707     -2594.215 7        44.760                                    21701218.430 7  88862955.08307     -2021.466 7        42.853    21701218.559 7  88862856.11907     -2021.442 7        44.212
E11        16.000                                                                                                                                    24666288.268 6  96795826.66006      -432.898 6        41.676    24666287.836 7  99320923.45107      -444.144 7        42.044
E04        17.000    24323945.655 8 127823201.51608       605.140 8        48.511                                                                    24323942.929 7  95452446.42707       451.903 7        46.712    24323940.216 7  97942454.02807       463.714 7        43.915
R08        18.000    19616680.257 8 105046592.26708     -1027.132 8        49.572                                                                    19616676.521 7  81702759.15107      -798.862 7        46.438
E19        20.000    23495746.342 7 123470983.41507     -2047.199 7        43.122                                                                    23495743.452 7  92202369.29207     -1528.817 7        43.062    23495743.592 7  94607635.53707     -1568.818 7        43.367
E36        22.000    27687958.490 5 145501238.24405      1676.472 5        32.587                                                                    27687957.543 5 108653546.04705      1251.941 5        30.679    27687959.011 6 111487951.64306      1284.710 6        40.019
S36        23.000    38278110.478 5 201152939.16305      -846.304 5        35.395
S23        24.000    38218273.631 6 200838343.96006      -842.057 6        39.850
G11        25.000    22285864.210 7 117113080.33507        26.043 7        42.100                                    22285856.018 3  91256823.52603        20.295 3        22.267    22285854.535 6  91256840.51806        20.326 6        39.628
R17        27.000    23603428.217 5 126306715.35715      2302.502 5        34.862                                                                    23603377.283 5  98238327.68515      1790.422 5        33.072
E10        29.000    24549068.290 7 129006312.01307     -2201.875 7        45.630                                                                    24549066.981 8  96335865.48408     -1644.176 8        50.397    24549066.568 8  98849062.28408     -1687.082 8        50.723
C20        31.000                                                                                                                                    22040757.154 8 114772157.69608     -1434.386 8        48.058                                                                    22040750.967 7  93261657.83307     -1165.562 7        46.043
R10        32.000    20809403.268 6 110925814.47206      1445.868 6        40.043
R23        33.000    22351896.810 5 119567566.96705     -4844.471 5        35.995
R07        34.000    21773934.057 6 116557471.09706     -3606.230 6        38.571                                                                    21773928.479 6  90655839.96006     -2804.935 6        37.146
C32        36.000                                                                                                                                    25443089.956 5                     -3493.543 5        33.030                                                                    25443089.977 4 107658043.17004     -2838.686 4        26.228
R09        37.000    21216208.054 6 113293369.30906     -2084.126 6        38.114                                                                    21216200.518 5  88117090.58705     -1621.075 5        35.700
C23        40.000                                                                                                                                    25407589.809 3                     -2915.240 3        20.571                                                                    25407502.884 5 107507448.97105     -2370.409 5        31.721
C35        41.000                                                                                                                                    24945668.216 5 129898648.45105     -2111.518 5        32.228                                                                    24945656.083 6 105553298.87906     -1715.607 6        36.234
C37        42.000                                                                                                                                    23266641.918 6 121155644.95306      -142.380 6        38.393                                                                    23266640.796 7  98448759.10807      -115.729 7        44.027
R24        43.000    21352446.526 6 114181172.81806     -1168.699 6        37.841                                                                    21352440.568 5  88807563.59005      -908.923 5        30.921
R01        44.000    21776593.446 6 116408470.96416      2016.902 6        38.429
C16        45.000                                                                                                                                    39979199.564 4                     -1852.107 4        25.714    39979214.238 5 160979757.19105     -1431.922 5        33.886
C09        47.000                                                                                                                                    38943419.520 4 202788560.30604     -1478.815 4        25.023    38943410.484 4 156808907.79504     -1144.078 4        28.066
C19        48.000                                                                                                                                    23120941.844 6 120396920.76716      1032.993 6        39.015                                                                    23120930.914 7  97832234.33907       839.376 7        44.406
C06        50.000                                                                                                                                    39403922.974 4                     -1846.363 4        27.713    39403912.223 5 158663227.85805     -1427.423 5        35.405
C44        52.000                                                                                                                                    25915980.631 6 134951288.37906       130.685 6        40.641                                                                    25915976.942 5 109658965.34305       106.380 5        33.317
C29        54.000                                                                                                                                    26023118.738 3                     -3871.635 3        21.619
I06        59.000    38044074.436 5 149293122.03505      -602.816 5        35.662
> 2025 01 02 04 30 20.0000000  0 38
G03         1.000    24164877.350 3                     -4360.990 3        22.552                                                                                                    24164900.341 3                     -3397.426 3        21.357
G20         4.000    23137623.492 7 121589045.19207      2323.092 7        45.294                                    23137617.276 4  94744698.98404      1810.200 4        27.569
G07         5.000    21459899.511 7 112772552.47807       948.468 7        45.967                                    21459887.188 5  87874724.75505       739.069 5        30.377    21459897.106 5  87874670.70105       739.102 5        30.347
G09         6.000    20222536.812 8 106270147.27708     -1740.515 8        51.981                                    20222534.023 8  82807921.09708     -1356.245 8        51.195    20222533.864 7  82807908.08907     -1356.221 7        44.009
G30         7.000                                                                                                                                                                    23591473.957 4                      2018.308 4        25.624
E06        11.000    26181592.034 5 137585172.91005      1390.076 5        33.605                                                                    26181588.806 6 102742218.37506      1038.189 6        39.727    26181588.024 6 105422525.75406      1065.375 6        37.172
G04        12.000    21672380.869 7 113889178.99407     -3193.598 7        43.507                                    21672373.906 3  88744811.63003     -2488.521 3        22.095    21672374.531 6  88744753.62806     -2488.437 6        37.898
E12        13.000    25460553.327 6 133796114.97706     -3342.068 6        39.489                                                                    25460547.742 5  99912705.44305     -2495.850 5        33.431    25460550.882 5 102519092.33305     -2560.861 5        35.186
E29        14.000    27147513.087 4                     -3305.083 4        26.323                                                                    27147501.374 4                     -2468.717 4        25.850
G06        15.000    21703688.688 7 114054017.31707     -2597.634 7        45.597                                    21703688.474 7  88873069.62707     -2024.135 7        43.331    21703688.373 7  88872970.66607     -2024.271 7        43.945
E11        16.000                                                                                                                                    24666841.366 6  96797997.60206      -435.186 6        41.630    24666841.300 7  99323151.04007      -446.522 7        42.320
E04        17.000    24323370.512 8 127820180.44108       603.483 8        48.198                                                                    24323368.099 7  95450190.44107       450.633 7        46.444    24323365.050 7  97940139.17607       462.401 7        43.302
R08        18.000    19617639.859 8 105051734.95808     -1029.637 8        49.192                                                                    19617637.215 7  81706759.03007      -800.819 7        46.648
E19        20.000    23497694.943 7 123481224.54007     -2048.919 7        42.940                                                                    23497692.431 7  92210016.87307     -1529.975 7        43.308    23497692.371 7  94615482.62207     -1570.014 7        43.448
E36        22.000    27686365.121 5 145492861.56105      1674.503 5        34.229                                                                    27686363.562 5 108647290.70605      1250.264 5        30.460    27686364.952 6 111481533.14306      1282.985 6        39.676
S36        23.000    38278921.022 5 201157172.49905      -846.492 5        35.476
S23        24.000    38219071.144 6 200842556.20306      -842.424 6        39.775
G11        25.000    22285840.454 6 117112960.54106        22.064 6        40.939                                    22285833.190 3  91256730.14803        17.190 3        21.833    22285832.199 6  91256747.14806        17.289 6        39.583
R17        27.000    23601273.319 5 126295212.44805      2299.296 5        35.048                                                                    23601227.195 5  98229381.01605      1787.941 5        31.494
E10        29.000    24551164.865 7 129017329.08807     -2204.748 7        45.979                                                                    24551163.513 8  96344092.52908     -1646.426 8        50.570    24551162.903 8  98857503.94608     -1689.366 8        50.866
C20        31.000                                                                                                                                    22042134.545 8 114779335.22508     -1436.393 8        48.404                                                                    22042129.133 7  93267490.17307     -1167.251 7        45.776
R10        32.000    20808049.178 6 110918596.92006      1441.326 6        38.895
R23        33.000    22356427.874 5 119591794.98305     -4846.733 5        35.505
R07        34.000    21777300.956 5 116575506.37105     -3607.830 5        35.376                                                                    21777295.766 6  90669867.45906     -2806.106 6        36.215
C32        36.000                                                                                                                                    25446450.855 5                     -3494.460 5        33.587                                                                    25446445.174 4 107672238.31904     -2839.982 4        25.489
R09        37.000    21218155.661 5 113303803.62605     -2089.331 5        34.952                                                                    21218154.604 6  88125206.18206     -1624.953 6        37.164
C23        40.000                                                                                                                                                                                                                                                                    25410306.633 5 107519306.57305     -2372.396 5        32.156
C35        41.000                                                                                                                                    24947696.933 5 129909213.63105     -2114.162 5        33.341                                                                    24947685.194 6 105561883.95706     -1718.062 6        36.526
C37        42.000                                                                                                                                    23266780.698 6 121156366.41106      -145.804 6        37.868                                                                    23266779.419 7  98449345.37407      -118.519 7        43.845
R24        43.000    21353541.805 6 114187030.21406     -1174.059 6        36.454
R01        44.000    21774707.286 6 116398391.10706      2015.291 6        39.078
C16        45.000                                                                                                                                    39980977.226 4                     -1852.374 4        25.203    39980994.104 5 160986919.82705     -1432.923 5        33.910
C09        47.000                                                                                                                                    38944843.689 3                     -1480.711 3        23.295    38944832.478 4 156814630.13304     -1144.844 4        29.043
C19        48.000                                                                                                                                    23119946.427 6 120391760.27206      1031.418 6        39.051                                                                    23119940.191 7  97828041.01207       838.065 7        44.913
C06        50.000                                                                                                                                    39405696.500 4                     -1847.149 4        27.485    39405684.933 5 158670367.46905     -1428.066 5        35.195
C44        52.000                                                                                                                                    25915856.424 6 134950643.85306       127.651 6        40.322                                                                    25915853.726 5 109658441.66005       103.309 5        33.725
C29        54.000                                                                                                                                    26026839.598 3                     -3876.904 3        21.286
I06        59.000    38044842.413 5 149296138.14805      -603.411 5        35.757
> 2025 01 02 04 30 25.0000000  0 37
G03         1.000    24169019.324 3                     -4358.810 3        20.381                                                                                                    24169047.123 3                     -3398.289 3        20.024
G20         4.000    23135413.547 7 121577431.85507      2322.081 7        46.142                                    23135407.311 4  94735649.63204      1809.419 4        28.028
G07         5.000    21458997.462 7 112767815.28407       946.143 7        45.834                                    21458987.166 5  87871033.45405       737.250 5        32.048    21458996.217 5  87870979.36805       737.283 5        30.913
G09         6.000    20224193.886 8 106278854.34908     -1742.423 8        51.950                                    20224190.813 8  82814705.82208     -1357.732 8        51.273    20224190.929 7  82814692.83607     -1357.835 7        43.951
G30         7.000                                                                                                                                                                    23589008.541 4                      2017.879 4        26.503
E06        11.000    26180270.547 5 137578222.56105      1389.780 5        34.433                                                                    26180265.698 6 102737028.15506      1037.783 6        39.351    26180265.673 6 105417200.16006      1064.742 6        37.512
G04        12.000    21675419.678 7 113905149.89807     -3194.908 7        45.020                                    21675413.760 3  88757256.50403     -2489.540 3        23.638    21675413.743 6  88757198.49206     -2489.526 6        37.992
E12        13.000    25463733.609 6 133812828.97706     -3343.577 6        38.781                                                                    25463728.009 5  99925186.67305     -2496.845 5        32.719    25463731.678 5 102531899.17605     -2562.243 5        35.390
E29        14.000    27150656.951 4                     -3305.656 4        26.431                                                                    27150646.069 3                     -2468.562 3        23.886
G06        15.000    21706161.671 7 114067012.79507     -2600.685 7        45.959                                    21706161.429 7  88883195.98107     -2026.511 7        44.060    21706161.396 7  88883097.01507     -2026.581 7        43.793
E11        16.000                                                                                                                                    24667397.202 6  96800178.20706      -437.072 6        41.671    24667397.076 7  99325388.54607      -448.667 7        42.428
E04        17.000    24322796.679 8 127817164.92008       602.434 8        48.012                                                                    24322794.150 7  95447938.59207       449.938 7        46.000    24322791.060 7  97937828.58307       461.733 7        42.720
R08        18.000    19618602.030 8 105056887.92908     -1031.642 8        49.021                                                                    19618599.438 7  81710766.90307      -802.459 7        46.710
E19        20.000    23499644.512 7 123491470.87507     -2049.917 7        42.514                                                                    23499642.357 7  92217668.34907     -1530.771 7        43.050    23499642.065 7  94623333.70607     -1570.596 7        43.113
E36        22.000    27684773.420 5 145484491.86705      1673.377 5        34.995                                                                    27684771.044 5 108641040.62905      1249.467 5        30.309    27684772.034 6 111475120.00506      1281.952 6        39.727
S36        23.000    38279726.956 5 201161405.98405      -847.101 5        35.200
S23        24.000    38219877.378 6 200846768.87506      -842.735 6        39.435
G11        25.000    22285818.744 6 117112857.61106        18.804 6        39.811                                    22285813.480 3  91256649.92903        14.667 3        21.214    22285812.074 6  91256666.90906        14.708 6        39.237
R17        27.000    23599126.455 5 126283724.38805      2296.132 5        34.176                                                                    23599077.157 4  98220445.84004      1785.794 4        28.019
E10        29.000    24553263.742 7 129028358.09707     -2207.078 7        45.932                                                                    24553262.224 8  96352328.48008     -1648.147 8        50.530    24553261.572 8  98865954.75108     -1691.137 8        50.885
C20        31.000                                                                                                                                    22043513.753 8 114786520.69008     -1437.981 8        48.502                                                                    22043508.680 7  93273328.95607     -1168.450 7        45.360
R10        32.000    20806699.209 6 110911398.94806      1437.519 6        36.597
R23        33.000    22360960.451 5 119616032.30005     -4848.382 5        33.862
R07        34.000    21780666.012 5 116593547.01005     -3608.909 5        33.413                                                                    21780666.059 5  90683899.10205     -2806.912 5        35.743
C32        36.000                                                                                                                                    25449806.243 5                     -3494.936 5        33.144                                                                    25449800.576 4 107686436.10504     -2839.493 4        24.090
R09        37.000    21220116.323 5 113314259.80605     -2093.654 5        34.186                                                                    21220112.731 6  88133338.78906     -1628.245 6        38.141
C23        40.000                                                                                                                                    25413171.485 3                     -2922.024 3        23.048                                                                    25413112.024 5 107531172.95305     -2374.052 5        32.156
C35        41.000                                                                                                                                    24949725.860 5 129919791.02105     -2116.874 5        32.060                                                                    24949716.791 6 105570478.92206     -1720.103 6        37.025
C37        42.000                                                                                                                                    23266927.225 6 121157102.13106      -148.552 6        39.075                                                                    23266920.627 7  98449943.22207      -120.750 7        43.554
R24        43.000    21354643.570 6 114192910.63306     -1178.545 6        36.457                                                                    21354633.540 4  88816693.02604      -916.664 4        26.635
R01        44.000    21772818.951 6 116388315.69206      2014.613 6        41.015                                                                    21772814.941 5                      1566.881 5        32.707
C16        45.000                                                                                                                                    39982755.613 4                     -1853.287 4        24.241    39982775.637 5 160994083.22605     -1432.780 5        34.095
C09        47.000                                                                                                                                                                                                    38946252.893 4 156820354.07504     -1144.431 4        27.713
C19        48.000                                                                                                                                    23118954.261 6 120386605.03406      1030.492 6        39.703                                                                    23118950.322 7  97823851.94807       837.312 7        45.245
C06        50.000                                                                                                                                    39407469.101 4                     -1846.953 4        27.162    39407458.929 5 158677508.03005     -1428.184 5        35.195
C44        52.000                                                                                                                                    25915735.422 6 134950012.57406       124.888 6        39.468                                                                    25915732.470 5 109657928.66605       101.303 5        34.452
I06        59.000    38045611.486 5 149299154.71205      -603.474 5        35.495
> 2025 01 02 04 30 30.0000000  0 36
G20         4.000    23133203.137 7 121565822.53207      2321.414 7        46.154                                    23133198.151 4  94726603.40004      1808.894 4        28.227
G07         5.000    21458098.070 7 112763088.71107       944.256 7        45.485                                    21458089.206 5  87867350.42105       735.785 5        33.228    21458097.533 5  87867296.31605       735.678 5        32.174
G09         6.000    20225852.667 8 106287570.24808     -1744.116 8        52.046                                    20225849.266 8  82821497.42808     -1359.049 8        51.248    20225849.505 7  82821484.42207     -1358.970 7        44.101
G30         7.000    23586616.609 4                      2589.843 4        27.844                                                                                                    23586546.345 4                      2018.434 4        26.216
E06        11.000    26178947.896 5 137571274.52705      1389.153 5        34.438                                                                    26178943.514 6 102731839.69006      1037.557 6        38.988    26178944.114 6 105411876.33006      1064.418 6        38.225
G04        12.000    21678459.792 7 113921125.76407     -3195.675 7        46.296                                    21678454.660 4  88769705.23904     -2490.143 4        24.571    21678453.148 6  88769647.22606     -2490.065 6        37.845
