     3.04           OBSERVATION DATA    M                   RINEX VERSION / TYPE
ssrcrin-15.6.1x                         20250102 061500 UTC PGM / RUN BY / DATE 
(00000000023479385599111004) Septentrio proprietary         COMMENT             
ract                                                        MARKER NAME         
01                                                          MARKER NUMBER       
geodetic                                                    MARKER TYPE         
NFB                 CLIMERS@TUW                             OBSERVER / AGENCY   
3296359             SEPT ASTERX SB3 PROB4.14.4              REC # / TYPE / VERS 
Unknown             Unknown                                 ANT # / TYPE        
  4127445.5520  1206914.2486  4695543.5914                  APPROX POSITION XYZ 
        0.0000        0.0000        0.0000                  ANTENNA: DELTA H/E/N
G   23 X1  C1C L1C D1C S1C C1W S1W C2W L2W D2W S2W C2L L2L  SYS / # / OBS TYPES 
       D2L S2L C5Q L5Q D5Q S5Q C1L L1L D1L S1L              SYS / # / OBS TYPES 
E   21 X1  C1C L1C D1C S1C C6C L6C D6C S6C C5Q L5Q D5Q S5Q  SYS / # / OBS TYPES 
       C7Q L7Q D7Q S7Q C8Q L8Q D8Q S8Q                      SYS / # / OBS TYPES 
S    9 X1  C1C L1C D1C S1C C5I L5I D5I S5I                  SYS / # / OBS TYPES 
R   17 X1  C1C L1C D1C S1C C2P L2P D2P S2P C2C L2C D2C S2C  SYS / # / OBS TYPES 
       C3Q L3Q D3Q S3Q                                      SYS / # / OBS TYPES 
C   25 X1  C1P L1P D1P S1P C5P L5P D5P S5P C2I L2I D2I S2I  SYS / # / OBS TYPES 
       C7I L7I D7I S7I C6I L6I D6I S6I C7D L7D D7D S7D      SYS / # / OBS TYPES 
J   17 X1  C1C L1C D1C S1C C2L L2L D2L S2L C5Q L5Q D5Q S5Q  SYS / # / OBS TYPES 
       C1L L1L D1L S1L                                      SYS / # / OBS TYPES 
I    5 X1  C5A L5A D5A S5A                                  SYS / # / OBS TYPES 
SEPTENTRIO RECEIVERS OUTPUT ALIGNED CARRIER PHASES.         COMMENT             
NO FURTHER PHASE SHIFT APPLIED IN THE RINEX ENCODER.        COMMENT             
G L1C                                                       SYS / PHASE SHIFT   
G L2W                                                       SYS / PHASE SHIFT   
G L2L  0.00000                                              SYS / PHASE SHIFT   
G L5Q  0.00000                                              SYS / PHASE SHIFT   
G L1L  0.00000                                              SYS / PHASE SHIFT   
E L1C  0.00000                                              SYS / PHASE SHIFT   
E L6C  0.00000                                              SYS / PHASE SHIFT   
E L5Q  0.00000                                              SYS / PHASE SHIFT   
E L7Q  0.00000                                              SYS / PHASE SHIFT   
E L8Q  0.00000                                              SYS / PHASE SHIFT   
S L1C                                                       SYS / PHASE SHIFT   
S L5I                                                       SYS / PHASE SHIFT   
R L1C                                                       SYS / PHASE SHIFT   
R L2P  0.00000                                              SYS / PHASE SHIFT   
R L2C                                                       SYS / PHASE SHIFT   
R L3Q  0.00000                                              SYS / PHASE SHIFT   
C L1P  0.00000                                              SYS / PHASE SHIFT   
C L5P  0.00000                                              SYS / PHASE SHIFT   
C L2I                                                       SYS / PHASE SHIFT   
C L7I                                                       SYS / PHASE SHIFT   
C L6I                                                       SYS / PHASE SHIFT   
C L7D                                                       SYS / PHASE SHIFT   
J L1C                                                       SYS / PHASE SHIFT   
J L2L  0.00000                                              SYS / PHASE SHIFT   
J L5Q  0.00000                                              SYS / PHASE SHIFT   
J L1L  0.00000                                              SYS / PHASE SHIFT   
I L5A                                                       SYS / PHASE SHIFT   
  2025     1     2     6    15    0.0000000     GPS         TIME OF FIRST OBS   
 C1C    0.000 C2C    0.000 C2P    0.000                     GLONASS COD/PHS/BIS 
DBHZ                                                        SIGNAL STRENGTH UNIT
    18                                                      LEAP SECONDS        
 24 R01  1 R02 -4 R03  5 R04  6 R05  1 R06 -4 R07  5 R08  6 GLONASS SLOT / FRQ #
    R09 -2 R10 -7 R11  0 R12 -1 R13 -2 R14 -7 R15  0 R16 -1 GLONASS SLOT / FRQ #
    R17  4 R18 -3 R19  3 R20  2 R21  4 R22 -3 R23  3 R24  2 GLONASS SLOT / FRQ #
                                                            END OF HEADER       
> 2025 01 02 06 15  0.0000000  0 37
G13         1.000    23436094.796 6 123157699.95106      2273.250 6        39.420                                    23436089.229 2  95966862.78202      1771.361 2        15.286
G20         4.000    20864099.199 7 109641641.12107      -529.642 7        45.780                                    20864093.759 6  85434998.02406      -412.709 6        36.423
G07         5.000    21259249.576 7 111718131.75407     -2026.760 7        45.220                                    21259244.255 7  87053097.76407     -1579.288 7        44.543    21259243.771 7  87053043.74807     -1579.302 7        45.195
G09         6.000    22646830.768 6 119009985.05906     -3632.119 6        40.334                                    22646832.946 4  92735019.49704     -2830.229 4        26.575    22646829.281 5  92734985.49605     -2830.097 5        35.662
G30         7.000    20819093.618 8 109405091.99508       231.245 8        49.137                                    20819090.089 7  85250642.83707       180.195 7        46.496    20819091.827 7  85250690.80407       180.239 7        43.257
E21        10.000    25991397.360 7 136585755.60207     -1229.728 7        44.501                                                                    25991397.278 6 101995829.16206      -918.334 6        41.766    25991397.077 6 104656606.52806      -942.378 6        38.273
E06        11.000    24162938.119 7 126977086.93007       441.064 7        43.721                                                                    24162944.615 6  94820623.98706       329.366 6        39.577    24162935.975 7  97294146.31707       337.826 7        44.071
G05        14.000    22365509.453 7 117531813.17807      1763.483 7        46.093                                    22365503.817 6  91583206.19206      1374.148 6        39.598    22365503.835 6  91583017.21606      1374.100 6        40.279
E11        16.000                                                                                                                                    26271672.219 5 103095701.87405     -2511.020 5        34.076    26271670.593 5 105785135.24905     -2576.906 5        33.114
E04        17.000    23490892.514 7 123445507.53307      -719.494 7        42.172                                                                    23490890.630 7  92183366.49007      -537.340 7        44.188    23490890.252 6  94588079.96606      -551.369 6        41.445
R08        18.000    21433621.865 5 114775939.06905     -3586.453 5        31.019                                                                    21433604.656 6  89270182.28206     -2789.529 6        41.924
E19        20.000    25632755.671 5 134701034.68705     -2941.788 5        30.581                                                                    25632752.898 5 100588440.86005     -2196.584 5        31.879
E09        21.000    25935887.556 6 136294005.18006      1195.360 6        40.572                                                                    25935883.742 6 101777996.00006       892.803 6        36.601    25935885.856 7 104433084.59707       915.887 7        43.594
E36        22.000    26249799.646 5 137943623.27705     -1044.368 5        33.192                                                                    26249797.540 5 103009846.78305      -779.673 5        33.910    26249797.994 6 105697094.89606      -799.963 6        36.469
S23        24.000    38331134.607 6 201431469.94606      -848.792 6        38.730
G11        25.000                                                                                                                                                                    23755767.559 5  97275941.96605     -2819.920 5        35.609
E34        26.000    28628797.452 4                      1276.069 4        26.323                                                                                                                                    28628745.862 5 115276081.81405       977.562 5        31.879
R17        27.000    22878461.515 6                     -2778.479 6        37.278
R18        28.000    23402443.302 4                       294.593 4        25.910                                                                    23402434.466 3                       229.833 3        18.269
E10        29.000    27619227.729 4 145140011.22904     -3995.471 4        29.005                                                                    27619229.470 6 108383807.09206     -2983.744 6        39.919    27619227.906 6 111211175.81106     -3061.413 6        38.165
R11        30.000    19708392.866 6 105315694.49006       306.136 6        38.126                                                                    19708393.242 6  81912198.19406       237.952 6        39.754
C20        31.000                                                                                                                                    24042075.268 7 125193353.22107     -3332.452 7        42.656                                                                    24042071.946 6 101729865.96706     -2707.967 6        37.123
R10        32.000    21468290.526 6 114438091.73606     -3887.694 6        39.871
C36        34.000                                                                                                                                    24224918.078 5 126145481.42905      2280.305 5        30.800                                                                    24224922.432 6 102503570.75506      1852.787 6        36.110
R02        35.000    22269173.969 7 118832593.71607      2491.383 7        44.758                                                                    22269172.380 7  92425504.32507      1937.750 7        45.857
S36        36.000    38395386.413 5 201769155.75605      -851.862 5        34.790
R12        38.000    22847912.144 7 122049458.52607      3579.150 7        42.282                                                                    22847912.846 5  94927300.84205      2783.694 5        35.876
C37        42.000                                                                                                                                    24591502.184 6 128054522.68106     -3287.855 6        37.614                                                                    24591515.641 6 104054770.89306     -2671.785 6        37.202
R24        43.000    24467939.411 4                     -4739.346 4        24.211
R01        44.000    19487796.154 7 104173451.20007       -33.313 7        43.065                                                                    19487795.299 6  81023777.00606       -25.953 6        37.527
C09        47.000                                                                                                                                    39973766.484 4                     -1637.495 4        29.725    39973758.580 4 160957751.29604     -1265.358 4        27.581
C19        48.000                                                                                                                                    21995781.041 8 114537963.12208      -887.566 8        51.193                                                                    21995775.938 8  93071328.36008      -721.270 8        49.030
C34        49.000                                                                                                                                                                                                                                                                    26906230.437 5                      -696.003 5        31.170
C22        51.000                                                                                                                                    23880881.524 7 124353995.39507      1737.780 7        44.770                                                                    23880872.646 7 101047811.08407      1411.989 7        44.057
C44        52.000                                                                                                                                    26792957.445 3                     -2833.670 3        21.405                                                                    26792978.745 4                     -2305.313 4        28.474
C12        54.000                                                                                                                                    26651061.601 5                     -1872.609 5        32.269    26651053.387 6 107312867.73706     -1447.983 6        40.040    26651050.863 5 112769314.95005     -1521.373 5        31.789
I09        59.000    38874111.867 5 152550387.75805     -1179.000 5        33.479
> 2025 01 02 06 15  5.0000000  0 35
G13         1.000    23433928.567 6 123146335.42506      2272.682 6        37.388                                    23433926.354 2  95958007.30602      1770.924 2        12.545
G20         4.000    20864604.285 7 109644297.96707      -533.084 7        47.956                                    20864599.544 6  85437068.28406      -415.391 6        36.692
G07         5.000    21261178.749 7 111728270.98807     -2028.884 7        46.824                                    21261173.743 7  87060998.44707     -1580.948 7        43.979    21261172.896 7  87060944.45207     -1580.942 7        44.414
G09         6.000    22650289.394 6 119028148.67206     -3633.286 6        37.482                                    22650288.321 4  92749172.93904     -2831.141 4        26.826    22650284.394 5  92749139.00005     -2831.459 5        32.683
G30         7.000    20818874.295 8 109403942.91308       228.544 8        50.037                                    20818871.454 7  85249747.44107       178.093 7        47.656    20818873.132 7  85249795.41207       178.097 7        43.831
E21        10.000    25992569.274 7 136591911.43807     -1232.425 7        45.192                                                                    25992568.563 7 102000426.04907      -920.348 7        42.229    25992568.103 6 104661323.31106      -944.309 6        39.955
E06        11.000    24162517.958 7 126974884.59407       439.908 7        43.537                                                                    24162524.474 6  94818979.39506       328.441 6        37.735    24162517.017 7  97292458.81007       337.081 7        42.787
G05        14.000    22363832.849 7 117523002.14807      1760.986 7        45.747                                    22363826.958 6  91576340.44806      1372.189 6        39.916    22363827.677 6  91576151.48506      1372.234 6        41.709
E11        16.000                                                                                                                                    26274873.667 5 103108260.84305     -2512.586 5        34.000    26274870.107 5 105798021.82505     -2577.578 5        31.170
E04        17.000    23491577.442 7 123449108.28207      -720.781 7        43.357                                                                    23491576.315 7  92186055.36407      -538.250 7        43.475    23491575.313 6  94590838.96306      -552.278 6        41.492
R08        18.000    21436951.628 4                     -3588.254 4        26.802                                                                    21436952.309 6                     -2791.024 6        38.613
E19        20.000    25635555.594 4 134715743.90604     -2942.599 4        26.790                                                                    25635552.780 5 100599424.99805     -2197.058 5        32.623
E09        21.000    25934751.199 6 136288030.12906      1194.828 6        41.030                                                                    25934746.235 6 101773534.12006       892.024 6        36.575    25934748.033 7 104428506.34107       915.455 7        42.849
E36        22.000    26250796.395 5 137948850.76705     -1046.510 5        30.325                                                                    26250791.824 5 103013750.50905      -781.650 5        33.892    26250793.294 6 105701100.41306      -802.091 6        38.057
S23        24.000    38331945.473 6 201435714.73506      -849.105 6        36.972
G11        25.000    23759212.914 5                     -3620.424 5        30.204                                                                                                    23759212.005 5  97290044.47205     -2821.600 5        31.125
E34        26.000                                                                                                                                    28627532.212 4                       951.544 4        28.768    28627532.440 5 115271196.13205       976.329 5        30.845
R17        27.000    22881053.703 6 122441114.92016     -2782.341 6        36.352
E10        29.000    27623030.232 5 145159989.75205     -3995.964 5        32.293                                                                    27623031.704 6 108398726.05206     -2983.965 6        40.069    27623030.109 6 111226483.98006     -3061.791 6        38.538
R11        30.000    19708104.936 5 105314175.61705       301.710 5        34.367                                                                    19708108.869 6  81911016.77906       234.551 6        36.707
C20        31.000                                                                                                                                    24045274.024 7 125210019.37407     -3334.029 7        42.863                                                                    24045271.585 5 101743408.45705     -2709.044 5        35.486
R10        32.000    21471935.419 5 114457539.00405     -3891.275 5        34.109
C36        34.000                                                                                                                                    24222728.333 4                      2278.805 4        29.716                                                                    24222732.625 5 102494309.08205      1851.966 5        35.000
R02        35.000    22266839.108 7 118820138.92607      2490.589 7        42.322                                                                    22266838.791 7  92415817.26707      1937.099 7        45.466
S36        36.000    38396197.775 5 201773415.25005      -852.223 5        34.667
R12        38.000    22844561.057 6 122031566.51706      3577.631 6        41.754                                                                    22844562.533 6  94913384.79606      2782.887 6        36.151
C37        42.000                                                                                                                                    24594660.438 6 128070966.92106     -3289.770 6        36.597                                                                    24594672.336 6 104068133.14706     -2673.064 6        36.280
R01        44.000    19487829.209 7 104173624.66907       -36.095 7        43.477                                                                    19487828.448 6  81023911.93306       -27.996 6        36.125
C09        47.000                                                                                                                                    39975339.256 4                     -1637.353 4        27.677    39975331.304 5 160964081.14105     -1265.712 5        32.287
C19        48.000                                                                                                                                    21996634.224 8 114542406.82608      -889.810 8        50.003                                                                    21996629.156 8  93074939.19908      -723.083 8        49.369
C34        49.000                                                                                                                                    26907056.438 4                      -859.214 4        26.287                                                                    26907053.976 5                      -698.171 5        30.981
C22        51.000                                                                                                                                    23879212.767 7 124345309.64007      1736.632 7        43.043                                                                    23879204.851 7 101040753.17607      1411.203 7        44.811
C44        52.000                                                                                                                                                                                                                                                                    26795701.994 4                     -2306.829 4        25.504
C12        54.000                                                                                                                                    26652860.354 5 138788457.23615     -1875.084 5        34.686    26652854.683 6 107320112.52606     -1449.985 6        40.153    26652848.072 4 112776928.08604     -1523.362 4        28.218
I09        59.000    38875612.818 5 152556283.62405     -1179.303 5        34.852
> 2025 01 02 06 15 10.0000000  0 37
G13         1.000    23431764.089 5 123134974.26005      2272.066 5        33.868                                    23431764.132 1  95949154.37601      1770.445 1        10.741
G20         4.000    20865113.802 7 109646971.37507      -536.160 7        43.443                                    20865108.415 5  85439151.45305      -417.779 5        35.652
G07         5.000    21263110.794 7 111738420.03607     -2030.537 7        47.152                                    21263104.925 7  87068906.79307     -1582.237 7        44.084    21263104.303 7  87068852.80507     -1582.277 7        44.634
G09         6.000    22653744.058 5 119046317.73905     -3633.969 5        34.905                                    22653744.809 4  92763330.64704     -2831.630 4        25.218    22653743.053 5  92763296.69805     -2832.191 5        32.671
G30         7.000    20818658.235 8 109402806.05208       226.335 8        51.602                                    20818655.134 8  85248861.57208       176.365 8        48.733    20818656.603 7  85248909.55607       176.285 7        44.203
E21        10.000    25993743.130 7 136598079.70707     -1234.720 7        44.354                                                                    25993742.389 7 102005032.22807      -921.967 7        42.633    25993741.896 6 104666049.64406      -946.251 6        39.513
E06        11.000    24162098.251 7 126972686.81207       439.263 7        42.082                                                                    24162104.931 5  94817338.18005       328.239 5        34.871    24162098.714 7  97290774.75007       336.631 7        43.244
G05        14.000    22362157.948 7 117514202.55107      1758.998 7        44.802                                    22362152.407 6  91569483.62506      1370.639 6        39.420    22362152.953 6  91569294.67406      1370.640 6        40.534
G06        15.000    25392511.899 3                     -4351.554 3        20.952
E11        16.000    26278113.404 5 138092236.79815     -3365.625 5        33.695                                                                    26278075.471 5 103120825.17505     -2513.398 5        35.319    26278075.463 5 105810913.86305     -2578.866 5        34.319
E04        17.000    23492263.854 7 123452714.66607      -721.703 7        44.367                                                                    23492262.179 7  92188748.38507      -538.901 7        44.375    23492262.170 7  94593602.27807      -552.885 7        43.869
R08        18.000                                                                                                                                    21440299.375 6  89298092.57316     -2792.360 6        39.015
E19        20.000                                                                                                                                    25638351.561 5 100610411.31805     -2197.902 5        30.958
E09        21.000    25933612.339 6 136282057.65506      1194.359 6        39.060                                                                    25933610.916 6 101769074.17006       892.061 6        36.866    25933612.414 7 104423930.06007       915.139 7        44.981
E36        22.000                                                                                                                                    26251790.941 4 103017663.92404      -783.604 4        29.412    26251791.576 6 105705115.96706      -803.865 6        37.539
S23        24.000    38332745.196 6 201439959.66206      -849.015 6        39.655
G11        25.000                                                                                                                                                                    23762658.168 5  97304153.63005     -2822.492 5        30.543
E34        26.000    28626316.962 5                      1272.615 5        30.868                                                                    28626318.185 5                       950.512 5        30.770    28626322.380 4 115266317.16204       974.961 4        25.985
R17        27.000    22883655.808 5 122455035.86405     -2785.596 5        31.691
R18        28.000    23401912.950 4                       286.155 4        27.234                                                                    23401899.687 5                       223.488 5        34.719
E10        29.000    27626833.646 5 145179969.81905     -3996.041 5        35.371                                                                    27626833.948 6 108413646.21506     -2983.976 6        40.541    27626831.952 6 111241793.37006     -3061.989 6        37.796
R11        30.000    19707833.393 6 105312678.81206       297.380 6        37.497                                                                    19707828.972 6  81909852.68306       231.300 6        38.408
C20        31.000                                                                                                                                    24048478.420 7 125226692.16907     -3335.054 7        42.978                                                                    24048473.162 5 101756956.49005     -2710.414 5        34.214
R10        32.000    21475588.147 6 114477001.71606     -3893.728 6        36.560
C36        34.000                                                                                                                                    24220543.127 5                      2277.771 5        32.563                                                                    24220545.307 5 102485052.28005      1850.874 5        35.862
R02        35.000    22264505.112 7 118807687.08107      2490.323 7        44.770                                                                    22264504.713 7  92406132.46007      1936.794 7        44.364
S36        36.000    38397008.959 5 201777675.15805      -852.253 5        34.614
R12        38.000    22841210.982 6 122013680.29506      3576.959 6        39.120                                                                    22841215.116 6  94899473.24806      2781.792 6        36.435
C37        42.000                                                                                                                                    24597819.552 6 128087419.58206     -3291.363 6        37.388                                                                    24597830.876 5 104081502.31205     -2674.380 5        35.957
R01        44.000    19487863.154 6 104173811.24106       -38.499 6        41.690                                                                    19487863.120 6  81024057.05406       -29.888 6        37.580
C09        47.000                                                                                                                                    39976915.601 4                     -1636.903 4        26.287    39976905.766 6 160970410.97706     -1265.555 6        36.268
C19        48.000                                                                                                                                    21997489.544 8 114546860.87808      -891.676 8        51.858                                                                    21997484.488 8  93078558.52608      -724.693 8        48.776
C34        49.000                                                                                                                                                                                                                                                                    26907881.123 5                      -700.328 5        31.691
C22        51.000                                                                                                                                    23877546.333 7 124336628.31307      1736.132 7        45.440                                                                    23877537.230 7 101033698.89807      1410.445 7        43.382
C44        52.000                                                                                                                                    26798404.087 5                     -2839.627 5        32.425                                                                    26798431.831 3                     -2308.308 3        21.786
C12        54.000                                                                                                                                    26654663.764 5 138797838.57305     -1877.693 5        32.114    26654658.518 6 107327366.82106     -1451.590 6        41.788    26654648.175 4 112784551.29004     -1525.712 4        28.474
I09        59.000    38877116.946 5 152562180.07505     -1179.151 5        33.413
> 2025 01 02 06 15 15.0000000  0 35
G13         1.000    23429604.593 6 123123616.04706      2271.016 6        36.563                                    23429602.478 1  95940303.83201      1769.554 1         8.952
G20         4.000    20865623.816 7 109649660.91907      -539.769 7        44.071                                    20865620.237 5  85441247.23005      -420.598 5        34.276
G07         5.000    21265043.248 7 111748578.43407     -2032.799 7        45.688                                    21265037.998 7  87076822.42607     -1583.995 7        43.761    21265037.566 7  87076768.42707     -1583.873 7        44.781
G09         6.000    22657200.019 5 119064491.82005     -3635.114 5        31.585                                    22657202.187 3  92777492.26303     -2832.540 3        21.143    22657199.048 5  92777458.25105     -2833.141 5        30.136
G30         7.000    20818444.197 8 109401681.01008       223.665 8        50.223                                    20818441.194 8  85247984.90908       174.288 8        48.961    20818443.043 7  85248032.88407       174.378 7        43.409
E21        10.000    25994919.106 7 136604260.02407     -1237.454 7        45.201                                                                    25994918.871 7 102009647.34907      -924.042 7        43.278    25994917.027 6 104670785.20406      -948.148 6        40.472
E06        11.000    24161680.543 7 126970493.05907       438.178 7        42.571                                                                    24161686.743 6  94815700.00406       327.109 6        38.517    24161681.144 7  97289093.83207       335.712 7        44.879
G05        14.000    22360485.763 7 117505413.94207      1756.478 7        43.725                                    22360480.007 6  91562635.40106      1368.697 6        39.483    22360480.130 6  91562446.38406      1368.604 6        41.364
G06        15.000    25396661.627 3                     -4354.032 3        20.452
E11        16.000                                                                                                                                    26281277.929 5 103133394.50905     -2514.373 5        35.781    26281277.898 5 105823811.08705     -2580.254 5        35.681
E04        17.000    23492950.761 6 123456326.17506      -722.968 6        39.138                                                                    23492949.752 7  92191445.26707      -539.872 7        45.645    23492949.564 7  94596369.52907      -554.090 7        44.679
R08        18.000    21443652.030 4 114829816.08414     -3592.600 4        29.043                                                                    21443653.925 6  89312058.50006     -2794.088 6        39.267
E19        20.000    25641157.567 5 134745170.52805     -2943.109 5        33.599                                                                    25641153.663 5 100621399.41005     -2198.023 5        33.497
E09        21.000    25932476.947 6 136276087.42706      1193.729 6        38.883                                                                    25932472.291 5 101764615.84505       891.224 5        33.683    25932477.175 7 104419355.41507       914.620 7        45.088
E36        22.000    26252817.247 5 137959345.13005     -1052.358 5        32.431                                                                    26252787.500 5 103021586.77005      -785.706 5        33.689    26252789.918 6 105709141.10506      -806.086 6        37.539
S23        24.000    38333560.507 6 201444204.43606      -848.919 6        39.595
G11        25.000    23766136.600 4                     -3622.114 4        24.586                                                                                                    23766105.131 4  97318268.82604     -2823.499 4        27.581
E34        26.000    28625106.964 5 150425948.64915      1270.713 5        30.574                                                                    28625101.877 3                       949.461 3        22.724    28625106.426 4                       973.639 4        27.581
R17        27.000    22886263.442 5 122468974.88915     -2789.645 5        35.414
R18        28.000    23401650.846 5                       283.322 5        32.090                                                                    23401629.056 4  97159615.04814       219.692 4        28.645
E10        29.000    27630635.635 6 145199951.02306     -3996.409 6        36.068                                                                    27630635.088 6 108428567.26406     -2984.455 6        40.491    27630634.449 6 111257103.64106     -3062.282 6        38.240
R11        30.000    19707557.494 6 105311203.85016       292.595 6        37.750                                                                    19707555.307 6  81908705.56906       227.456 6        38.480
C20        31.000                                                                                                                                    24051681.692 7 125243371.22107     -3336.513 7        44.685                                                                    24051676.325 6 101770509.65906     -2711.604 6        36.760
R10        32.000    21479244.121 5 114496479.35305     -3897.005 5        34.495
C36        34.000                                                                                                                                    24218354.666 6                      2276.752 6        36.624                                                                    24218358.804 6 102475799.90206      1849.945 6        38.099
R02        35.000    22262175.289 7 118795237.66407      2489.623 7        43.852                                                                    22262172.481 7  92396449.58707      1936.175 7        44.090
R12        38.000    22837861.864 6 121995799.31706      3575.330 6        39.330                                                                    22837866.004 5  94885565.81905      2780.819 5        34.938
C37        42.000                                                                                                                                    24600983.843 6 128103880.33306     -3293.110 6        37.671                                                                    24600992.296 5 104094877.88705     -2675.812 5        31.449
R01        44.000    19487899.469 6 104174010.69506       -41.596 6        38.703                                                                    19487900.621 6  81024212.13506       -32.284 6        38.195
C09        47.000                                                                                                                                    39978486.997 5                     -1637.076 5        30.951    39978475.232 5 160976740.39405     -1265.752 5        31.608
C19        48.000                                                                                                                                    21998347.502 8 114551324.91008      -893.999 8        52.168                                                                    21998341.371 8  93082185.91508      -726.453 8        48.245
C34        49.000                                                                                                                                    26908726.822 3                      -864.471 3        23.676                                                                    26908703.741 4                      -702.393 4        29.460
C22        51.000                                                                                                                                    23875880.107 7 124327950.95807      1734.928 7        42.466                                                                    23875871.806 7 101026647.81607      1409.733 7        45.079
C12        54.000                                                                                                                                    26656465.547 5 138807231.83705     -1879.966 5        33.772    26656457.807 6 107334630.25506     -1453.881 6        36.480
I09        59.000    38878620.901 5 152568076.92105     -1179.591 5        32.240
> 2025 01 02 06 15 20.0000000  0 35
G13         1.000    23427446.669 6 123112261.24306      2270.921 6        37.085                                    23427441.513 1  95931455.90101      1769.601 1        10.222
G20         4.000    20866138.343 7 109652367.20207      -542.592 7        42.974                                    20866135.082 5  85443355.99005      -422.788 5        34.919
G07         5.000    21266977.637 7 111758746.81707     -2034.425 7        47.020                                    21266972.619 7  87084745.83507     -1585.274 7        44.223    21266972.363 7  87084691.84007     -1585.220 7        43.160
G09         6.000    22660661.112 6 119082671.60806     -3636.388 6        38.027                                    22660661.381 3  92791658.24803     -2833.536 3        23.924    22660661.815 5  92791624.23005     -2833.493 5        35.029
G30         7.000    20818231.768 8 109400568.29608       221.544 8        50.468                                    20818229.548 8  85247117.84808       172.625 8        48.105    20818230.890 7  85247165.85407       172.579 7        45.028
E21        10.000    25996097.247 7 136610452.90307     -1239.601 7        44.837                                                                    25996096.373 7 102014271.91707      -925.755 7        42.203    25996096.164 7 104675530.34307      -949.811 7        42.423
E06        11.000    24161263.182 6 126968303.98206       437.725 6        38.240                                                                    24161268.548 6  94814065.29906       326.954 6        37.153    24161262.389 6  97287416.52406       335.393 6        40.217
G05        14.000    22358815.523 7 117496636.85507      1754.437 7        44.509                                    22358809.615 6  91555796.11406      1367.105 6        39.138    22358809.314 6  91555607.11206      1367.057 6        41.402
E11        16.000    26284536.107 4                     -3368.159 4        28.114                                                                    26284482.598 6 103145969.23406     -2515.305 6        37.406    26284480.838 5 105836713.87505     -2580.969 5        32.952
E04        17.000    23493638.335 7 123459943.32207      -723.776 7        42.527                                                                    23493638.450 7  92194146.43607      -540.396 7        45.616    23493637.861 7  94599141.13007      -554.494 7        43.854
R08        18.000    21447011.030 5 114847781.02115     -3593.505 5        34.271                                                                    21447008.107 6  89326032.10116     -2795.226 6        39.075
E19        20.000    25643958.217 5 134759888.13805     -2943.814 5        30.974                                                                    25643953.373 5 100632389.75305     -2198.115 5        31.683
E09        21.000    25931341.920 6 136270119.84906      1193.721 6        36.166                                                                    25931338.058 5 101760159.52305       891.243 5        34.690    25931342.608 7 104414782.84607       914.510 7        46.522
E36        22.000    26253801.342 4                     -1053.959 4        29.839                                                                    26253798.249 5 103025519.38305      -787.313 5        33.521    26253792.708 6 105713176.27506      -807.876 6        37.826
S23        24.000    38334371.780 6 201448449.34506      -848.704 6        40.129
G11        25.000                                                                                                                                                                    23769551.983 5  97332390.70405     -2824.562 5        30.883
E34        26.000    28623897.969 5 150419598.67405      1269.100 5        34.500                                                                    28623894.458 4                       947.859 4        27.174    28623908.460 4                       972.268 4        28.559
R17        27.000    22888873.201 6 122482932.38716     -2793.019 6        36.854
R18        28.000    23401382.930 5 124918190.84315       278.620 5        32.443
E10        29.000    27634437.833 6 145219934.02506     -3996.557 6        36.329                                                                    27634438.375 6 108443489.59206     -2984.628 6        39.961    27634436.920 6 111272415.24806     -3062.274 6        38.342
R11        30.000    19707283.625 6 105309751.34706       288.624 6        36.163                                                                    19707284.328 6  81907575.69806       224.711 6        36.204
C20        31.000                                                                                                                                    24054885.317 7 125260057.29107     -3337.760 7        45.275                                                                    24054881.399 5 101784068.38505     -2712.031 5        33.006
R10        32.000    21482896.726 5 114515972.37405     -3900.063 5        34.971
C36        34.000                                                                                                                                    24216167.764 5                      2275.822 5        32.581                                                                    24216172.069 5 102466552.40305      1849.188 5        34.038
R02        35.000    22259841.853 6 118782791.21006      2489.404 6        41.700                                                                    22259840.273 7  92386768.99007      1936.054 7        45.479
R12        38.000    22834514.612 5 121977924.09405      3574.537 5        34.971                                                                    22834519.407 5  94871662.91605      2779.928 5        34.157
C37        42.000                                                                                                                                    24604146.108 5 128120349.44805     -3294.512 5        34.195                                                                    24604152.981 6 104108260.47106     -2677.197 6        36.465
R01        44.000    19487940.373 6 104174223.37706       -43.656 6        40.908                                                                    19487941.358 6  81024377.61406       -33.871 6        38.114
C09        47.000                                                                                                                                    39980055.973 4                     -1636.626 4        28.066    39980045.157 5 160983069.93505     -1266.028 5        33.946
C19        48.000                                                                                                                                    21999206.185 8 114555799.47308      -895.728 8        51.767                                                                    21999200.791 7  93085821.82307      -727.794 7        47.883
C34        49.000                                                                                                                                    26909556.840 4                      -866.775 4        27.150                                                                    26909538.226 5                      -703.913 5        30.468
C22        51.000                                                                                                                                    23874213.210 7 124319278.13907      1734.335 7        43.708                                                                    23874206.682 7 101019600.42907      1409.104 7        44.855
C44        52.000                                                                                                                                    26803869.780 5 139574744.20515     -2842.730 5        30.113
C12        54.000                                                                                                                                    26658274.876 5 138816637.42305     -1882.100 5        34.029    26658262.358 5 107341903.20305     -1455.159 5        34.014
I09        59.000    38880120.457 5 152573974.43605     -1179.615 5        32.066
> 2025 01 02 06 15 25.0000000  0 36
G13         1.000    23425282.615 6 123100908.78706      2270.237 6        36.321                                    23425281.424 1  95922609.86401      1769.059 1         8.000
G20         4.000    20866657.568 7 109655089.12307      -545.958 7        45.502                                    20866652.828 5  85445476.96705      -425.417 5        35.124
G07         5.000    21268914.692 7 111768924.11107     -2036.332 7        47.635                                    21268908.863 7  87092676.17807     -1586.751 7        43.420    21268909.051 7  87092622.16707     -1586.738 7        42.017
G09         6.000    22664122.257 4 119100855.88504     -3638.284 4        27.461                                    22664121.875 3  92805827.81203     -2835.031 3        23.962    22664121.679 5  92805793.72005     -2834.299 5        32.898
G30         7.000    20818022.093 8 109399466.96508       219.138 8        49.758                                    20818020.101 8  85246259.66308       170.758 8        48.327    20818020.701 7  85246307.65207       170.723 7        44.581
E21        10.000    25997278.317 7 136616657.33907     -1242.151 7        44.402                                                                    25997277.498 7 102018905.06007      -927.524 7        43.198    25997276.871 7 104680284.38407      -951.727 7        42.701
E06        11.000    24160849.137 6 126966118.62406       436.801 6        39.036                                                                    24160853.904 6  94812433.34606       326.187 6        37.955    24160847.331 6  97285742.01706       334.516 6        40.863
G05        14.000    22357148.341 7 117487870.34007      1752.214 7        47.812                                    22357141.163 6  91548965.04506      1365.355 6        39.237    22357141.041 6  91548776.08206      1365.338 6        38.982
G06        15.000    25404932.537 3                     -4352.913 3        22.857
E11        16.000    26287736.408 5                     -3369.723 5        30.377                                                                    26287688.386 6 103158548.59406     -2516.486 6        36.987    26287689.610 5 105849621.37205     -2581.954 5        32.383
E04        17.000    23494326.549 6 123463565.23206      -725.039 6        39.051                                                                    23494326.580 7  92196851.11107      -541.372 7        43.084    23494326.965 7  94601916.29907      -555.412 7        43.852
R08        18.000    21450369.831 6 114865755.70506     -3596.048 6        38.393                                                                    21450363.704 5  89340012.35205     -2796.902 5        35.243
E19        20.000    25646758.867 4 134774607.59704     -2943.680 4        29.014                                                                    25646751.975 5 100643381.61905     -2198.243 5        30.460
E09        21.000    25930207.300 6 136264153.96306      1193.103 6        41.418                                                                    25930203.804 6 101755704.48706       890.803 6        36.552    25930205.767 7 104410211.57607       914.082 7        45.427
E36        22.000                                                                                                                                    26254806.566 5 103029461.03605      -789.332 5        33.976    26254797.314 6 105717220.76306      -810.008 6        38.273
S23        24.000    38335173.936 6 201452693.43506      -848.785 6        41.490
G11        25.000                                                                                                                                                                    23773002.288 5                     -2826.075 5        30.702
E34        26.000    28622687.312 5 150413256.42905      1267.739 5        31.185                                                                    28622689.503 4                       946.525 4        29.592    28622698.032 4                       971.191 4        29.886
R18        28.000                                                                                                                                    23401126.185 5                       213.295 5        33.108
E10        29.000    27638241.464 6 145239917.67306     -3996.688 6        36.628                                                                    27638241.257 6 108458412.40506     -2984.621 6        40.329    27638239.985 6 111287727.36606     -3062.432 6        38.901
R11        30.000    19707020.019 6 105308320.13306       283.981 6        41.952                                                                    19707016.945 6  81906462.50406       220.934 6        36.200
C20        31.000                                                                                                                                    24058089.688 7 125276749.20007     -3338.948 7        42.620                                                                    24058089.564 5 101797631.92905     -2713.159 5        34.900
R10        32.000    21486556.102 5 114535479.81005     -3902.979 5        35.276
C36        34.000                                                                                                                                                                                                                                                                    24213988.717 6 102457309.16406      1848.349 6        36.722
R02        35.000    22257506.849 6 118770346.93906      2488.716 6        39.393                                                                    22257507.973 7  92377090.12907      1935.552 7        45.168
R12        38.000    22831168.159 6 121960053.75306      3573.488 6        36.189                                                                    22831175.207 5  94857763.71205      2779.360 5        34.833
C37        42.000                                                                                                                                    24607305.896 5 128136826.35005     -3296.327 5        33.000                                                                    24607318.625 5 104121649.21105     -2678.556 5        35.648
R24        43.000    24490124.928 3                     -4744.217 3        22.133                                                                    24490095.916 3                     -3688.730 3        20.024
R01        44.000    19487983.988 7 104174448.56207       -46.392 7        42.040                                                                    19487982.801 6  81024552.74706       -35.970 6        37.558
C09        47.000                                                                                                                                    39981627.238 4                     -1636.907 4        29.820    39981618.403 5 160989398.68105     -1265.887 5        32.994
C19        48.000                                                                                                                                    22000066.929 8 114560283.54908      -897.794 8        50.958                                                                    22000061.987 7  93089465.50707      -729.501 7        47.895
C34        49.000                                                                                                                                                                                                                                                                    26910371.088 5                      -706.393 5        31.019
C22        51.000                                                                                                                                    23872548.954 7 124310608.84407      1733.536 7        45.087                                                                    23872540.892 7 101012555.95007      1408.579 7        45.121
C44        52.000                                                                                                                                    26806599.051 3                     -2844.491 3        23.143
C12        54.000                                                                                                                                    26660086.069 5 138826054.41005     -1884.518 5        35.667    26660072.283 5 107349185.16505     -1457.093 5        35.848    26660099.655 5                     -1531.068 5        30.626
I09        59.000    38881624.200 5 152579871.97305     -1179.536 5        33.683
> 2025 01 02 06 15 30.0000000  0 36
G13         1.000    23423124.882 4                      2269.068 4        29.327
G20         4.000    20867178.815 7 109657827.49907      -549.304 7        46.296                                    20867173.755 5  85447610.76605      -428.030 5        35.314
G07         5.000    21270854.189 7 111779111.07207     -2038.319 7        47.615                                    21270846.918 7  87100614.03907     -1588.293 7        43.261    21270847.576 6  87100560.04306     -1588.409 6        41.821
G09         6.000    22667583.355 6 119119045.32206     -3638.333 6        38.517                                    22667583.282 3  92820001.40403     -2835.086 3        22.914    22667583.340 5  92819967.40705     -2835.149 5        30.717
G30         7.000    20817814.722 8 109398377.79608       216.612 8        50.111                                    20817813.043 8  85245410.95808       168.796 8        48.687    20817813.108 7  85245458.93807       168.781 7        44.214
E21        10.000    25998460.871 7 136622874.16307     -1244.541 7        44.376                                                                    25998460.655 7 102023547.48007      -929.443 7        42.919    25998459.807 7 104685047.88207      -953.690 7        43.721
E06        11.000    24160431.004 6 126963937.68406       435.695 6        37.108                                                                    24160432.923 5  94810804.75605       325.479 5        35.314    24160432.735 6  97284070.85406       333.895 6        41.144
G05        14.000    22355482.322 7 117479115.25507      1749.857 7        47.548                                    22355474.603 6  91542142.90006      1363.506 6        39.778    22355474.896 6  91541953.95306      1363.641 6        37.508
G06        15.000    25409079.126 3                     -4350.863 3        22.210
E11        16.000    26290946.017 4                     -3371.073 4        27.844                                                                    26290895.964 6 103171133.22606     -2517.523 6        36.718    26290896.288 5 105862534.31905     -2583.337 5        33.491
E04        17.000    23495017.538 6 123467192.64906      -725.900 6        38.526                                                                    23495016.022 7  92199559.90007      -542.191 7        42.118    23495017.200 7  94604695.75307      -556.315 7        42.739
R08        18.000                                                                                                                                    21453723.583 6  89354000.04306     -2798.278 6        37.645
E19        20.000    25649560.170 5 134789329.93105     -2944.737 5        32.796                                                                    25649553.634 4 100654375.58904     -2199.292 4        28.853
E09        21.000    25929072.372 6 136258190.61006      1192.446 6        40.865                                                                    25929069.119 6 101751251.34106       890.507 6        37.319    25929070.354 7 104405642.24207       913.687 7        43.754
E36        22.000                                                                                                                                    26255818.867 5 103033412.35805      -791.138 5        33.353    26255803.909 6 105721275.09806      -811.781 6        37.784
S23        24.000    38335984.784 6 201456937.78706      -848.843 6        41.185
G11        25.000    23776455.160 4                     -3628.755 4        28.246                                                                                                    23776454.116 4                     -2827.859 4        26.527
E34        26.000    28621484.811 5 150406923.04205      1266.010 5        32.245                                                                    28621485.743 5                       945.099 5        31.230    28621494.826 5 115246879.58915       969.925 5        30.604
