     3.04           OBSERVATION DATA    M                   RINEX VERSION / TYPE
ssrcrin-15.6.1x                         20250102 014500 UTC PGM / RUN BY / DATE 
(00000000023479385599111004) Septentrio proprietary         COMMENT             
ract                                                        MARKER NAME         
01                                                          MARKER NUMBER       
geodetic                                                    MARKER TYPE         
NFB                 CLIMERS@TUW                             OBSERVER / AGENCY   
3296359             SEPT ASTERX SB3 PROB4.14.4              REC # / TYPE / VERS 
Unknown             Unknown                                 ANT # / TYPE        
  4127446.6095  1206914.5065  4695543.3161                  APPROX POSITION XYZ 
        0.0000        0.0000        0.0000                  ANTENNA: DELTA H/E/N
G   23 X1  C1C L1C D1C S1C C1W S1W C2W L2W D2W S2W C2L L2L  SYS / # / OBS TYPES 
       D2L S2L C5Q L5Q D5Q S5Q C1L L1L D1L S1L              SYS / # / OBS TYPES 
E   21 X1  C1C L1C D1C S1C C6C L6C D6C S6C C5Q L5Q D5Q S5Q  SYS / # / OBS TYPES 
       C7Q L7Q D7Q S7Q C8Q L8Q D8Q S8Q                      SYS / # / OBS TYPES 
S    9 X1  C1C L1C D1C S1C C5I L5I D5I S5I                  SYS / # / OBS TYPES 
R   17 X1  C1C L1C D1C S1C C2P L2P D2P S2P C2C L2C D2C S2C  SYS / # / OBS TYPES 
       C3Q L3Q D3Q S3Q                                      SYS / # / OBS TYPES 
C   25 X1  C1P L1P D1P S1P C5P L5P D5P S5P C2I L2I D2I S2I  SYS / # / OBS TYPES 
       C7I L7I D7I S7I C6I L6I D6I S6I C7D L7D D7D S7D      SYS / # / OBS TYPES 
J   17 X1  C1C L1C D1C S1C C2L L2L D2L S2L C5Q L5Q D5Q S5Q  SYS / # / OBS TYPES 
       C1L L1L D1L S1L                                      SYS / # / OBS TYPES 
I    5 X1  C5A L5A D5A S5A                                  SYS / # / OBS TYPES 
SEPTENTRIO RECEIVERS OUTPUT ALIGNED CARRIER PHASES.         COMMENT             
NO FURTHER PHASE SHIFT APPLIED IN THE RINEX ENCODER.        COMMENT             
G L1C                                                       SYS / PHASE SHIFT   
G L2W                                                       SYS / PHASE SHIFT   
G L2L  0.00000                                              SYS / PHASE SHIFT   
G L5Q  0.00000                                              SYS / PHASE SHIFT   
G L1L  0.00000                                              SYS / PHASE SHIFT   
E L1C  0.00000                                              SYS / PHASE SHIFT   
E L6C  0.00000                                              SYS / PHASE SHIFT   
E L5Q  0.00000                                              SYS / PHASE SHIFT   
E L7Q  0.00000                                              SYS / PHASE SHIFT   
E L8Q  0.00000                                              SYS / PHASE SHIFT   
S L1C                                                       SYS / PHASE SHIFT   
S L5I                                                       SYS / PHASE SHIFT   
R L1C                                                       SYS / PHASE SHIFT   
R L2P  0.00000                                              SYS / PHASE SHIFT   
R L2C                                                       SYS / PHASE SHIFT   
R L3Q  0.00000                                              SYS / PHASE SHIFT   
C L1P  0.00000                                              SYS / PHASE SHIFT   
C L5P  0.00000                                              SYS / PHASE SHIFT   
C L2I                                                       SYS / PHASE SHIFT   
C L7I                                                       SYS / PHASE SHIFT   
C L6I                                                       SYS / PHASE SHIFT   
C L7D                                                       SYS / PHASE SHIFT   
J L1C                                                       SYS / PHASE SHIFT   
J L2L  0.00000                                              SYS / PHASE SHIFT   
J L5Q  0.00000                                              SYS / PHASE SHIFT   
J L1L  0.00000                                              SYS / PHASE SHIFT   
I L5A                                                       SYS / PHASE SHIFT   
  2025     1     2     1    45    0.0000000     GPS         TIME OF FIRST OBS   
 C1C    0.000 C2C    0.000 C2P    0.000                     GLONASS COD/PHS/BIS 
DBHZ                                                        SIGNAL STRENGTH UNIT
    18                                                      LEAP SECONDS        
 24 R01  1 R02 -4 R03  5 R04  6 R05  1 R06 -4 R07  5 R08  6 GLONASS SLOT / FRQ #
    R09 -2 R10 -7 R11  0 R12 -1 R13 -2 R14 -7 R15  0 R16 -1 GLONASS SLOT / FRQ #
    R17  4 R18 -3 R19  3 R20  2 R21  4 R22 -3 R23  3 R24  2 GLONASS SLOT / FRQ #
                                                            END OF HEADER       
> 2025 01 02 01 45  0.0000000  0 36
G03         1.000    19933026.802 8 104748743.80508     -1289.759 8        48.981                                    19933023.281 7  81622407.84607     -1005.004 7        45.049    19933025.009 7  81622434.83907     -1005.050 7        42.874
G19         2.000    22291354.347 7 117141988.71607      -281.240 7        43.566
G28         3.000    23384643.151 5 122887072.14205     -2251.096 5        35.429                                                                                                    23384634.228 5                     -1754.104 5        31.826
E07         5.000    27059227.153 3                     -3577.042 3        21.048                                                                    27059215.054 4                     -2673.262 4        24.045    27059218.758 5                     -2741.549 5        30.604
G09         6.000    22487892.259 4 118174754.41704      2396.474 4        29.242                                    22487893.559 3  92084223.76903      1867.421 3        20.690    22487888.906 5  92084232.74005      1867.175 5        35.195
G21         8.000    23816936.001 5                     -3967.887 5        33.539
G02         9.000    22156145.874 5 116431363.46505     -3454.217 5        32.168                                    22156135.714 2  90725601.90802     -2691.580 2        13.758
G31        10.000    22192821.625 6 116624082.72406      -450.186 6        40.300                                    22192816.235 5  90875961.41205      -350.795 5        31.487    22192815.700 6  90875893.41606      -350.701 6        38.147
G17        11.000    22479925.415 6 118133023.63406     -2170.597 6        39.441                                    22479923.263 4  92051605.42204     -1691.377 4        28.521    22479924.002 6  92051523.47106     -1691.443 6        37.214
G04        12.000    20714379.842 7 108854843.43207      1105.552 7        43.168                                    20714369.943 3  84821879.00003       861.469 3        19.433    20714376.079 6  84821910.98906       861.484 6        38.150
E12        13.000    24565723.262 7 129093789.05507       748.080 7        44.447                                                                    24565720.350 7  96401169.74907       558.583 7        42.990    24565720.074 6  98916056.28106       573.219 6        39.619
E29        14.000    23514463.439 5 123569333.12305     -1512.139 5        35.810                                                                    23514462.862 7  92275813.98907     -1129.332 7        47.913    23514460.957 7  94682978.46507     -1158.927 7        44.150
G06        15.000    23941134.298 7 125811514.65307      2529.808 7        44.686                                    23941130.623 5  98034965.94405      1971.279 5        32.012    23941130.053 5  98034958.96505      1971.265 5        34.667
R08        18.000                                                                                                                                    22686064.509 3                      1977.269 3        22.076
E26        19.000    27165781.376 5                     -3761.748 5        31.034                                                                                                                                    27165782.622 4                     -2882.074 4        25.534
E19        20.000    23684131.396 6 124460950.53706       947.181 6        38.829                                                                    23684129.875 7  92941629.33307       707.188 7        42.085    23684129.844 6  95366180.80706       725.532 6        40.024
R06        21.000    20087001.599 6 107188106.15106     -3132.023 6        41.318
S36        23.000    38171280.893 6 200591445.68506      -849.807 6        36.934
S23        24.000    38119199.829 6 200317712.27706      -846.321 6        41.082
E33        28.000    23626695.509 7 124159113.01407     -2192.863 7        46.220                                                                    23626694.130 8  92716267.68908     -1637.543 8        51.784    23626692.352 7  95134907.40407     -1680.357 7        47.656
E10        29.000    26069914.048 7 136998560.47007      1649.293 7        42.036                                                                    26069912.131 7 102304011.90007      1231.524 7        43.393    26069914.504 7 104972751.99007      1263.699 7        46.813
R21        30.000    21332578.715 4 114154996.92404     -4794.137 4        28.237                                                                    21332581.471 5  88787142.53505     -3729.259 5        30.830
C20        31.000                                                                                                                                    23508457.857 5 122414756.74005      1322.680 5        34.433                                                                    23508430.132 7  99471872.05007      1074.999 7        42.423
R23        33.000    21619890.704 7 115651990.66407      2646.073 7        45.452
R07        34.000    19487167.676 8 104316434.58008       170.363 8        51.491                                                                    19487165.231 7  81134937.18807       132.532 7        45.895
R22        35.000    19353050.685 8 103307899.64908      -768.300 8        48.663                                                                    19353047.801 7  80350576.09507      -597.609 7        45.896
C32        36.000                                                                                                                                    21862575.534 8 113844119.55508     -1501.700 8        50.367                                                                    21862573.068 8  92507720.87508     -1220.053 8        48.198
C30        38.000                                                                                                                                    22930278.515 7 119403892.77607     -3145.758 7        42.191                                                                    22930267.795 7  97025477.93607     -2556.092 7        42.032
C16        45.000                                                                                                                                    38691886.573 6 201478802.17106      -815.483 6        39.471    38691885.279 6 155796205.25906      -630.504 6        39.775    38691879.099 5 163718022.41805      -662.346 5        30.641
C39        46.000                                                                                                                                    38946222.876 5                     -1256.283 5        34.167
C09        47.000                                                                                                                                    38665878.071 7 201343372.95307      -200.004 7        42.216    38665874.289 7 155691470.50807      -154.582 7        43.735    38665871.789 6 163607948.82006      -162.337 6        41.747
C41        49.000                                                                                                                                                                                                                                                                    25124039.130 4                     -2911.156 4        29.299
C06        50.000                                                                                                                                    38235622.289 6 199102927.54906      -704.469 6        39.267    38235616.673 7 153959126.16007      -544.816 7        43.300    38235616.704 6 161787405.15306      -572.294 6        37.085
C29        54.000                                                                                                                                    23031775.096 4 119932529.32104       103.641 4        29.393                                                                    23031762.040 7  97454951.59207        84.332 7        42.938
I09        58.000    37179475.666 7 145900238.71107      -793.024 7        42.474
I01        59.000   377314153.255 6 177520967.52406     -2918.814 6        39.937
> 2025 01 02 01 45  5.0000000  0 37
G03         1.000    19934254.667 8 104755196.46308     -1291.489 8        50.087                                    19934251.430 7  81627435.89007     -1006.356 7        45.652    19934253.190 7  81627462.89107     -1006.429 7        43.517
G19         2.000    22291622.062 7 117143403.12007      -284.675 7        42.157
G28         3.000    23386786.906 5 122898334.79705     -2254.100 5        35.252                                                                                                    23386781.246 5                     -1756.370 5        33.281
E07         5.000    27062634.140 3                     -3579.035 3        19.881                                                                    27062620.101 3                     -2672.507 3        23.314    27062623.143 5                     -2741.947 5        30.264
G09         6.000                                                                                                                                                                    22485606.641 5  92074898.75105      1866.404 5        32.683
G21         8.000    23820711.740 5                     -3968.624 5        33.066
G02         9.000    22159433.204 5 116448636.55905     -3455.567 5        31.751                                    22159422.728 2  90739061.46902     -2692.656 2        13.576
G31        10.000    22193252.126 6 116626342.07406      -453.674 6        40.427                                    22193246.271 5  90877721.95805      -353.514 5        31.147    22193247.675 6  90877653.96906      -353.545 6        38.682
G17        11.000    22481991.655 6 118143882.75106     -2173.077 6        39.387                                    22481990.074 4  92060067.07404     -1693.305 4        27.988    22481990.401 6  92059985.09206     -1693.412 6        36.560
G04        12.000    20713328.384 7 108849321.27507      1103.166 7        43.464                                    20713319.849 3  84817576.03503       859.599 3        19.612    20713325.620 6  84817608.00906       859.659 6        38.823
E12        13.000    24565012.309 7 129090052.03307       746.620 7        44.054                                                                    24565009.232 7  96398379.11207       557.600 7        43.329    24565008.673 6  98913192.84806       572.148 6        40.043
E29        14.000    23515904.165 6 123576898.94206     -1514.033 6        37.009                                                                    23515902.535 7  92281463.79407     -1130.617 7        47.814    23515900.393 7  94688775.65507     -1160.206 7        43.591
G06        15.000    23938727.460 7 125798866.95807      2529.130 7        44.414                                    23938724.492 5  98025110.59905      1970.753 5        31.879    23938723.437 5  98025103.61605      1970.914 5        34.505
R08        18.000                                                                                                                                    22683688.347 4                      1978.642 4        25.459
E26        19.000    27169362.287 5                     -3762.315 5        31.215                                                                                                                                    27169361.745 4                     -2882.980 4        24.707
E19        20.000    23683230.558 6 124456219.41306       945.338 6        38.619                                                                    23683229.403 6  92938096.35406       705.927 6        41.683    23683230.022 6  95362555.66406       724.288 6        40.427
R06        21.000    20089937.000 6 107203770.28206     -3133.799 6        41.006
R15        22.000    23161782.024 5 123769117.51315      -771.002 5        30.891
S36        23.000    38172089.479 6 200595694.91406      -849.720 6        37.229
S23        24.000    38120005.870 6 200321943.25706      -846.241 6        41.287
E33        28.000    23628782.767 7 124170081.67307     -2194.651 7        46.703                                                                    23628781.393 8  92724458.56908     -1638.872 8        51.728    23628779.620 7  95143311.94907     -1681.641 7        47.657
E10        29.000    26068345.453 6 136990315.88206      1648.529 6        41.452                                                                    26068343.376 7 102297855.20907      1231.066 7        43.031    26068345.604 7 104966434.69307      1263.146 7        47.007
R21        30.000    21337057.613 4 114178974.09904     -4796.349 4        29.194                                                                    21337063.389 4  88805791.47604     -3730.888 4        29.659
C20        31.000                                                                                                                                    23507185.661 5 122408145.22405      1321.770 5        34.667                                                                    23507160.284 6  99466499.73206      1073.997 6        41.576
R23        33.000    21617418.660 7 115638765.65707      2643.708 7        45.756
R07        34.000    19487009.728 8 104315589.06208       167.657 8        51.887                                                                    19487007.155 7  81134279.54607       130.407 7        44.987
R22        35.000    19353771.952 8 103311751.45508      -772.571 8        48.258                                                                    19353769.578 7  80353571.94407      -600.822 7        46.385
C32        36.000                                                                                                                                    21864017.683 8 113851631.25108     -1503.087 8        50.979                                                                    21864015.704 8  92513824.77108     -1221.551 8        48.181
C30        38.000                                                                                                                                    22933302.289 6 119419626.18906     -3147.829 6        40.920                                                                    22933288.246 6  97038262.62706     -2557.850 6        41.139
C16        45.000                                                                                                                                    38692669.898 6 201482880.39906      -816.124 6        39.282    38692668.597 6 155799358.79606      -630.990 6        39.580    38692662.459 5 163721336.28405      -663.284 5        30.309
C39        46.000                                                                                                                                    38947433.425 5 202809484.72415     -1257.074 5        34.814
C09        47.000                                                                                                                                    38666070.447 7 201344373.83407      -200.619 7        42.318    38666066.399 7 155692244.45707      -155.195 7        44.021    38666064.066 6 163608762.15506      -163.085 6        41.809
C41        49.000                                                                                                                                    25127527.834 3                     -3575.936 3        20.310                                                                    25127478.273 4                     -2911.785 4        28.275
C06        50.000                                                                                                                                    38236299.793 6 199106451.50306      -705.166 6        39.459    38236293.640 7 153961851.10707      -545.389 7        43.204    38236293.746 6 161790268.66006      -572.877 6        37.474
C29        54.000                                                                                                                                                                                                                                                                    23031663.438 7  97454535.36807        82.036 7        43.238
I09        58.000    37180486.229 7 145904203.63807      -793.062 7        42.434
I01        59.000   377317872.083 6 177535561.64106     -2918.858 6        40.236
> 2025 01 02 01 45 10.0000000  0 37
G03         1.000    19935484.492 8 104761658.86008     -1293.497 8        50.287                                    19935481.493 7  81632471.52207     -1007.918 7        46.402    19935482.994 7  81632498.52107     -1007.931 7        43.983
G19         2.000    22291893.551 7 117144834.91207      -288.212 7        42.129
G28         3.000    23388933.655 6 122909612.50706     -2257.011 6        36.457                                                                                                    23388928.497 5  95773751.81115     -1758.692 5        34.090
E07         5.000    27066039.316 3                     -3578.898 3        21.024                                                                    27066024.558 4                     -2671.747 4        24.797    27066027.032 5                     -2742.300 5        30.702
G09         6.000    22483348.715 6 118150803.99206      2393.705 6        36.250                                    22483333.689 4  92065561.07604      1865.222 4        25.624    22483330.844 5  92065570.03905      1865.121 5        30.951
G21         8.000    23824486.612 5                     -3969.375 5        32.180
G02         9.000    22162722.111 4 116465918.40104     -3457.297 4        29.611                                    22162711.410 2  90752527.86302     -2693.976 2        13.576
G31        10.000    22193685.856 6 116628618.92606      -457.229 6        40.274                                    22193679.634 5  90879496.15705      -356.288 5        30.377    22193682.322 6  90879428.14806      -356.086 6        38.435
G17        11.000    22484064.341 6 118154754.83906     -2175.718 6        40.379                                    22484059.264 4  92068538.83804     -1695.363 4        27.281    22484058.508 5  92068456.84205     -1695.384 5        35.743
G04        12.000    20712279.783 7 108843811.14207      1100.854 7        42.667                                    20712272.278 3  84813282.42303       857.801 3        20.310    20712276.820 6  84813314.41006       857.684 6        37.648
E12        13.000    24564302.549 7 129086322.08707       745.272 7        43.681                                                                    24564299.253 7  96395593.77507       556.568 7        43.558    24564298.683 6  98910334.83606       571.023 6        40.279
E29        14.000    23517346.481 6 123584473.85706     -1515.809 6        38.498                                                                    23517343.851 7  92287120.41307     -1132.023 7        47.710    23517341.520 7  94694579.82107     -1161.543 7        43.319
G06        15.000    23936321.287 7 125786222.95807      2528.585 7        43.335                                    23936319.001 5  98015258.12405      1970.327 5        31.570    23936317.749 5  98015251.17005      1970.192 5        34.024
R08        18.000                                                                                                                                    22681314.595 4                      1977.757 4        28.047
E26        19.000    27172943.744 5                     -3762.786 5        30.883                                                                                                                                    27172942.254 4                     -2883.692 4        25.835
E19        20.000    23682332.993 6 124451496.40506       943.890 6        38.718                                                                    23682330.399 6  92934569.43506       704.841 6        41.538    23682331.496 6  95358936.75006       723.069 6        40.846
R06        21.000    20092873.331 6 107219443.79506     -3135.569 6        39.781
R15        22.000    23162491.605 4                      -774.128 4        27.665                                                                    23162444.130 4                      -603.684 4        24.737
S36        23.000    38172902.402 6 200599944.76606      -849.957 6        37.180
S23        24.000    38120812.350 6 200326173.95106      -846.176 6        41.399
E33        28.000    23630871.647 7 124181059.24607     -2196.441 7        47.101                                                                    23630870.253 8  92732656.11408     -1640.216 8        51.765    23630868.622 7  95151723.33907     -1682.968 7        47.718
E10        29.000    26066777.141 6 136982074.92606      1647.813 6        40.710                                                                    26066775.468 7 102291701.24307      1230.505 7        43.156    26066777.372 7 104960120.18107      1262.625 7        47.252
R21        30.000    21341541.552 5 114202962.48705     -4798.471 5        30.536                                                                    21341547.706 5  88824449.04905     -3732.086 5        31.343
C20        31.000                                                                                                                                    23505912.323 5 122401539.55305      1320.708 5        35.471                                                                    23505891.693 6  99461132.15606      1072.888 6        40.644
R23        33.000    21614949.462 7 115625552.26307      2641.440 7        46.141
R07        34.000    19486854.607 8 104314757.18808       164.973 8        52.247                                                                    19486851.955 7  81133632.53207       128.311 7        44.373
R22        35.000    19354496.560 7 103315624.94207      -776.966 7        47.212                                                                    19354494.889 7  80356584.65507      -604.181 7        46.635
C32        36.000                                                                                                                                    21865461.338 8 113859150.68808     -1504.678 8        51.460                                                                    21865459.792 8  92519934.92208     -1222.623 8        48.049
C30        38.000                                                                                                                                    22936329.175 6 119435369.56306     -3149.593 6        38.844                                                                    22936311.255 6  97051055.40006     -2559.337 6        40.231
C16        45.000                                                                                                                                    38693454.289 6 201486962.62106      -816.908 6        39.195    38693452.518 6 155802515.44306      -631.567 6        39.474    38693446.204 5 163724653.46005      -663.868 5        30.808
C39        46.000                                                                                                                                    38948640.092 5 202815771.19905     -1257.708 5        35.490
C09        47.000                                                                                                                                    38666263.301 7 201345378.63207      -201.397 7        42.337    38666260.078 7 155693021.42907      -155.710 7        44.349    38666257.027 6 163609578.61506      -163.456 6        41.905
C41        49.000                                                                                                                                                                                                                                                                    25130916.785 4                     -2911.032 4        26.383
C06        50.000                                                                                                                                    38236977.290 6 199109979.62006      -706.110 6        39.381    38236971.048 7 153964579.26907      -545.960 7        43.149    38236971.193 6 161793135.55606      -573.704 6        37.769
C29        54.000                                                                                                                                                                                                                                                                    23031567.547 7  97454129.90707        79.977 7        43.570
I09        58.000    37181496.398 7 145908169.04307      -793.078 7        42.400
I01        59.000   377321591.404 6 177550156.09606     -2918.861 6        40.198
> 2025 01 02 01 45 15.0000000  0 37
G03         1.000    19936715.674 8 104768131.35708     -1295.583 8        50.521                                    19936713.523 7  81637515.02607     -1009.546 7        46.958    19936714.233 7  81637542.02707     -1009.584 7        44.199
G19         2.000    22292170.631 7 117146284.51607      -291.834 7        44.247
G28         3.000    23391084.836 6 122920905.68106     -2260.229 6        37.796                                                                                                    23391076.536 5  95782551.79405     -1761.174 5        34.471
E07         5.000    27069444.045 3                     -3578.502 3        21.643                                                                    27069430.467 4                     -2673.119 4        24.391    27069432.695 5                     -2742.674 5        30.664
G09         6.000    22481071.121 6 118138839.34406      2392.252 6        38.315                                    22481055.840 4  92056237.94404      1864.075 4        26.359    22481055.996 5  92056246.92105      1864.095 5        30.377
G21         8.000    23828261.561 5                     -3970.191 5        30.936
G02         9.000    22166010.440 4 116483209.20904     -3459.178 4        29.204                                    22166001.768 2  90766001.25702     -2695.476 2        13.394
G31        10.000    22194121.575 6 116630913.64806      -460.825 6        40.377                                    22194116.266 4  90881284.26304      -359.098 4        29.488    22194117.811 6  90881216.25606      -358.954 6        37.399
G17        11.000    22486141.401 6 118165640.33406     -2178.374 6        39.381                                    22486130.801 4  92077021.07104     -1697.443 4        25.579    22486130.894 5  92076939.12105     -1697.722 5        35.276
G04        12.000    20711233.396 7 108838313.46507      1098.190 7        42.461                                    20711226.826 3  84808998.51503       855.725 3        20.190    20711229.335 5  84809030.48705       855.957 5        35.414
E12        13.000    24563594.134 7 129082599.66107       743.733 7        43.594                                                                    24563590.957 7  96392814.04607       555.239 7        43.532    24563590.027 6  98907482.59406       569.756 6        40.405
E29        14.000    23518789.529 6 123592058.31606     -1517.947 6        39.835                                                                    23518787.021 7  92292784.12907     -1133.528 7        47.405    23518784.650 7  94700391.29607     -1163.133 7        42.906
G06        15.000    23933916.099 7 125773583.08007      2527.591 7        42.237                                    23933914.363 5  98005408.86105      1969.550 5        30.800    23933912.582 5  98005401.89805      1969.537 5        34.186
R08        18.000    22678994.478 4 121444618.17114      2541.498 4        28.161                                                                    22678940.118 5                      1976.686 5        30.506
E26        19.000    27176525.106 5                     -3763.606 5        30.445                                                                                                                                    27176523.572 4                     -2883.896 4        25.323
E19        20.000    23681436.487 6 124446781.92506       941.988 6        39.003                                                                    23681433.124 6  92931048.90006       703.486 6        41.113    23681434.377 6  95355324.36206       721.783 6        41.004
R06        21.000    20095811.955 6 107235126.80906     -3137.684 6        38.607
R15        22.000                                                                                                                                    23163179.507 4                      -606.332 4        27.293
S36        23.000    38173708.049 6 200604194.32106      -849.767 6        36.960
S23        24.000    38121618.583 6 200330404.72206      -846.189 6        41.187
E33        28.000    23632962.218 7 124192046.16307     -2198.333 7        47.308                                                                    23632960.827 8  92740860.62508     -1641.626 8        51.438    23632959.406 7  95160141.88307     -1684.485 7        47.926
E10        29.000    26065210.276 6 136973837.99006      1646.884 6        40.377                                                                    26065208.188 7 102285550.28107      1229.772 7        42.737    26065209.828 7 104953808.75007      1261.890 7        47.405
R21        30.000    21346028.197 5 114226962.29605     -4801.192 5        33.671                                                                    21346032.952 5  88843115.57205     -3734.414 5        33.934
C20        31.000                                                                                                                                    23504641.079 6 122394940.18806      1319.205 6        36.030                                                                    23504624.459 6  99455769.63706      1071.807 6        40.033
R23        33.000    21612480.739 7 115612351.17307      2638.939 7        46.516
R07        34.000    19486701.840 8 104313939.62108       161.999 8        52.494                                                                    19486699.622 7  81132996.64807       125.990 7        44.503
R22        35.000    19355226.238 7 103319520.53807      -781.382 7        46.915                                                                    19355224.912 7  80359614.57207      -607.712 7        46.308
C32        36.000                                                                                                                                    21866906.276 8 113866678.27508     -1506.348 8        51.716                                                                    21866905.446 8  92526051.70608     -1224.200 8        48.013
C30        38.000                                                                                                                                    22939362.629 6 119451123.36606     -3152.042 6        36.646                                                                    22939336.417 6  97063856.61906     -2561.310 6        39.802
C16        45.000                                                                                                                                    38694239.555 6 201491049.26406      -817.822 6        39.538    38694237.182 6 155805675.48206      -632.341 6        39.225    38694231.143 5 163727974.15505      -664.285 5        30.166
C39        46.000                                                                                                                                    38949848.468 6 202822061.79206     -1258.613 6        36.034
C09        47.000                                                                                                                                    38666456.984 7 201346387.70207      -202.344 7        42.406    38666453.808 7 155693801.71107      -156.471 7        44.886    38666450.869 7 163610398.58307      -164.455 7        42.051
C41        49.000                                                                                                                                                                                                                                                                    25134353.111 4                     -2913.516 4        25.278
C06        50.000                                                                                                                                    38237655.988 6 199113512.30206      -707.076 6        39.523    38237649.405 7 153967310.95807      -546.736 7        42.965    38237649.847 6 161796006.15206      -574.693 6        38.195
C29        54.000                                                                                                                                                                                                                                                                    23031474.370 7  97453735.55207        77.645 7        43.941
I09        58.000    37182507.161 7 145912135.23507      -793.342 7        42.307
I01        59.000   377325310.209 6 177564751.18606     -2919.106 6        40.002
> 2025 01 02 01 45 20.0000000  0 36
G03         1.000    19937949.252 8 104774614.13308     -1297.643 8        50.539                                    19937947.530 7  81642566.53607     -1011.148 7        47.371    19937947.621 7  81642593.53507     -1011.045 7        44.305
G19         2.000    22292450.188 7 117147752.12707      -295.382 7        44.021
G28         3.000    23393245.144 6 122932214.43506     -2263.380 6        37.138                                                                                                    23393232.112 5  95791363.90205     -1763.932 5        33.545
E07         5.000    27072851.207 3                     -3580.724 3        22.038                                                                    27072837.271 3                     -2674.017 3        23.962    27072839.303 5                     -2743.127 5        30.536
G09         6.000    22478794.372 6 118126882.00606      2390.743 6        39.180                                    22478779.390 4  92046920.53104      1862.908 4        25.970    22478780.481 4  92046929.51904      1862.830 4        29.469
G21         8.000    23832037.900 4                     -3971.363 4        29.403
G02         9.000    22169304.367 5 116500509.34005     -3460.776 5        31.057                                    22169293.785 2  90779481.85802     -2696.711 2        13.818
G31        10.000    22194562.844 6 116633226.47606      -464.510 6        41.585                                    22194555.889 4  90883086.47204      -361.967 4        28.910    22194554.080 5  90883018.46205      -361.805 5        35.814
G17        11.000    22488211.582 5 118176539.44205     -2181.190 5        35.338                                    22488204.883 4  92085513.90104     -1699.640 4        24.632    22488204.536 5  92085431.93905     -1699.510 5        35.181
G04        12.000    20710190.343 7 108832828.42407      1095.669 7        42.296                                    20710183.677 3  84804724.46503       853.773 3        20.381    20710185.686 5  84804756.43705       853.557 5        34.614
E12        13.000    24562887.493 7 129078884.92407       742.137 7        43.627                                                                    24562884.130 7  96390040.05907       554.104 7        43.845    24562882.882 6  98904636.23906       568.585 6        40.720
E29        14.000    23520234.292 6 123599652.45306     -1519.972 6        40.934                                                                    23520231.968 7  92298455.07507     -1134.989 7        47.021    23520229.606 7  94706210.16407     -1164.537 7        42.521
G06        15.000    23931511.230 6 125760947.52106      2526.630 6        40.284                                    23931510.446 5  97995562.95805      1968.802 5        30.015    23931508.927 5  97995556.02805      1968.585 5        33.916
R08        18.000                                                                                                                                    22676569.850 5                      1975.432 5        31.894
E26        19.000    27180104.600 4                     -3764.500 4        29.744                                                                                                                                    27180105.516 4                     -2883.618 4        25.534
E19        20.000    23680539.983 6 124442076.18206       940.123 6        38.441                                                                    23680537.689 6  92927534.86306       702.103 6        40.794    23680538.631 6  95351718.65406       720.422 6        40.851
R06        21.000    20098752.503 6 107250819.75206     -3139.650 6        37.350
S36        23.000    38174516.684 6 200608444.15306      -849.974 6        36.794
S23        24.000    38122423.413 6 200334635.93806      -846.386 6        41.046
E33        28.000    23635054.655 7 124203042.59307     -2200.270 7        47.197                                                                    23635053.251 8  92749072.24708     -1643.067 8        51.216    23635052.007 8  95168567.71508     -1685.903 8        48.155
E10        29.000    26063643.877 6 136965605.26806      1646.008 6        39.799                                                                    26063641.760 7 102279402.46407      1229.221 7        42.675    26063643.238 7 104947500.56407      1261.262 7        47.736
R21        30.000    21350518.837 6 114250973.70506     -4803.448 6        36.692                                                                    21350518.933 6  88861791.10206     -3736.090 6        36.798
C20        31.000                                                                                                                                                                                                                                                                    23503358.312 6  99450412.34206      1070.806 6        39.456
R23        33.000    21610015.367 7 115599162.32707      2636.455 7        46.772
R07        34.000    19486551.633 8 104313136.12208       159.226 8        52.935                                                                    19486549.593 7  81132371.71007       123.757 7        44.278
R22        35.000    19355961.057 7 103323438.43507      -785.929 7        47.589                                                                    19355958.623 7  80362661.84007      -611.357 7        46.466
C32        36.000                                                                                                                                    21868352.841 8 113874214.17108     -1508.093 8        51.945                                                                    21868352.662 8  92532175.22808     -1225.580 8        48.058
C30        38.000                                                                                                                                    22942400.230 5 119466887.71005     -3154.247 5        35.005                                                                    22942363.905 6  97076666.37506     -2562.984 6        39.892
C16        45.000                                                                                                                                    38695025.830 6 201495140.45606      -818.770 6        39.673    38695022.347 6 155808839.08106      -633.160 6        38.961    38695016.975 5 163731298.61605      -665.502 5        30.332
C39        46.000                                                                                                                                    38951057.317 6 202828356.60706     -1259.538 6        36.363
C09        47.000                                                                                                                                    38666651.480 7 201347401.27907      -203.251 7        42.533    38666648.346 7 155694585.47007      -157.191 7        45.234    38666645.609 7 163611222.17907      -165.198 7        42.362
C41        49.000                                                                                                                                                                                                                                                                    25137788.229 4                     -2912.484 4        24.947
C06        50.000                                                                                                                                    38238335.267 6 199117049.72506      -708.160 6        39.330    38238328.522 7 153970046.31807      -547.411 7        42.601    38238329.477 6 161798880.60106      -575.550 6        38.342
C29        54.000                                                                                                                                                                                                                                                                    23031383.757 7  97453352.43807        75.354 7        44.141
I09        58.000    37183518.117 7 145916102.33107      -793.598 7        42.320
I01        59.000   377329029.918 6 177579347.01206     -2919.238 6        40.098
> 2025 01 02 01 45 25.0000000  0 37
G03         1.000    19939184.948 8 104781107.15808     -1299.781 8        50.717                                    19939183.478 7  81647626.03507     -1012.819 7        47.802    19939183.812 7  81647653.04707     -1012.844 7        44.673
G19         2.000    22292731.694 7 117149237.75307      -299.066 7        44.304
G28         3.000    23395408.663 5 122943538.71805     -2266.579 5        35.581                                                                                                    23395387.180 5  95800188.09505     -1766.304 5        32.503
E07         5.000    27076257.385 3                     -3579.486 3        22.229                                                                    27076245.055 3                     -2674.700 3        23.048    27076245.378 5                     -2743.628 5        30.596
G09         6.000    22476517.715 6 118114931.93506      2389.108 6        38.414                                    22476504.340 4  92037608.81604      1861.639 4        24.496    22476506.268 4  92037617.79004      1861.429 4        28.057
G21         8.000    23835815.540 5                     -3971.867 5        30.091
G02         9.000    22172601.442 5 116517818.67605     -3462.781 5        34.219                                    22172587.520 2  90792969.61902     -2698.219 2        14.667
G31        10.000    22195007.504 7 116635557.33507      -468.110 7        43.424                                    22194998.624 4  90884902.72104      -364.763 4        27.976    22194996.144 5  90884834.70105      -364.464 5        34.338
G17        11.000    22490280.704 5 118187452.20605     -2184.149 5        34.157                                    22490281.357 4  92094017.34504     -1701.963 4        24.962    22490280.995 6  92093935.40906     -1702.114 6        36.423
G04        12.000    20709149.595 7 108827355.97907      1093.118 7        42.354                                    20709142.978 3  84800460.20103       851.774 3        20.786    20709145.325 6  84800492.17306       851.895 6        36.435
E12        13.000    24562182.378 7 129075177.85007       740.513 7        44.141                                                                    24562178.611 7  96387271.78907       552.925 7        43.727    24562177.172 6  98901795.75406       567.497 6        40.822
E29        14.000    23521681.812 7 123607256.23007     -1521.933 7        42.436                                                                    23521678.650 7  92304133.22307     -1136.474 7        46.608    23521676.650 7  94712036.43307     -1166.088 7        42.463
G06        15.000    23929105.815 6 125748316.20606      2525.561 6        38.261                                    23929107.302 4  97985720.36904      1967.976 4        28.768    23929104.957 5  97985713.44705      1967.937 5        33.784
R08        18.000                                                                                                                                    22674205.953 5                      1974.343 5        31.419
E26        19.000    27183684.778 4                     -3765.183 4        27.569                                                                                                                                    27183689.651 4                     -2885.076 4        25.609
E19        20.000    23679645.726 6 124437379.07206       938.199 6        37.853                                                                    23679643.886 6  92924027.29306       700.631 6        40.408    23679644.527 6  95348119.56706       718.929 6        40.961
R06        21.000    20101693.740 5 107266522.41305     -3141.434 5        35.214
R15        22.000    23164620.324 5 123784706.75915      -787.588 5        34.862                                                                    23164656.546 5                      -612.797 5        30.181
S36        23.000    38175324.300 6 200612694.08206      -850.174 6        36.949
S23        24.000    38123227.290 6 200338867.22106      -846.396 6        41.042
E33        28.000    23637149.294 7 124214048.50407     -2202.334 7        47.458                                                                    23637147.470 8  92757290.94308     -1644.584 8        50.860    23637146.390 8  95177000.80508     -1687.457 8        48.431
E10        29.000    26062077.919 6 136957376.74606      1645.049 6        38.781                                                                    26062075.990 7 102273257.78107      1228.469 7        42.419    26062077.443 8 104941195.57708      1260.555 8        48.034
R21        30.000    21355008.574 6 114274996.78706     -4805.982 6        38.841                                                                    21355008.201 6  88880475.68806     -3737.974 6        37.784
C20        31.000                                                                                                                                    23502093.044 6 122381760.67606      1316.604 6        40.658                                                                    23502093.703 6  99445060.23506      1069.802 6        39.474
R23        33.000    21607551.807 7 115585985.84307      2633.883 7        46.815
R07        34.000    19486403.865 8 104312347.22208       156.163 8        52.660                                                                    19486402.514 7  81131758.12007       121.461 7        43.791
R22        35.000    19356699.902 8 103327378.59108      -790.375 8        48.218                                                                    19356697.115 7  80365726.39407      -614.763 7        47.134
C32        36.000                                                                                                                                    21869801.093 8 113881758.33908     -1509.845 8        52.114                                                                    21869801.432 7  92538305.47807     -1226.837 7        47.980
C30        38.000                                                                                                                                                                                                                                                                    22945393.541 6  97089484.67106     -2564.672 6        39.970
C16        45.000                                                                                                                                    38695812.478 6 201499236.19506      -819.781 6        39.718    38695809.027 6 155812006.17606      -633.903 6        38.544    38695802.863 4 163734626.72504      -665.943 4        29.299
C39        46.000                                                                                                                                    38952266.810 6 202834655.71606     -1260.329 6        36.507
C09        47.000                                                                                                                                    38666846.955 7 201348419.26507      -204.217 7        42.918    38666844.064 7 155695372.64907      -157.879 7        45.533    38666841.110 7 163612049.37607      -165.845 7        42.466
C41        49.000                                                                                                                                                                                                                                                                    25141229.728 4                     -2912.515 4        24.316
C06        50.000                                                                                                                                    38239015.255 6 199120591.82406      -709.039 6        39.667    38239008.871 7 153972785.30107      -548.306 7        42.468    38239009.618 6 161801758.83206      -576.116 6        38.604
C29        54.000                                                                                                                                                                                                                                                                    23031295.921 7  97452980.56307        73.171 7        44.036
I09        58.000    37184529.062 7 145920070.30607      -793.734 7        42.391
I01        59.000   377332749.500 6 177593943.60006     -2919.593 6        40.298
> 2025 01 02 01 45 30.0000000  0 37
G03         1.000    19940422.688 8 104787610.66008     -1301.862 8        50.030                                    19940421.384 8  81652693.69708     -1014.439 8        48.086    19940421.066 7  81652720.70307     -1014.474 7        44.333
G19         2.000    22293017.905 7 117150741.56707      -302.682 7        44.418
G28         3.000                                                                                                                                                                    23397543.153 5  95809024.58005     -1768.726 5        30.996
E07         5.000    27079664.100 3                     -3581.135 3        21.762                                                                    27079652.386 3                     -2675.197 3        22.952    27079652.678 5                     -2744.405 5        30.287
G09         6.000    22474240.419 6 118102989.38906      2387.690 6        38.360                                    22474230.494 3  92028302.97503      1860.520 3        23.390    22474231.571 4  92028311.96104      1860.520 4        26.766
G21         8.000    23839596.230 5                     -3972.869 5        32.341
G02         9.000    22175897.593 6 116535137.41406     -3465.012 6        38.553                                    22175882.985 2  90806464.70802     -2699.994 2        14.857
G31        10.000    22195454.446 7 116637906.40407      -471.735 7        43.498                                    22195444.606 4  90886733.14504      -367.592 4        27.401    22195441.893 5  90886665.15005      -367.786 5        33.401
G17        11.000    22492364.191 5 118198378.68705     -2186.537 5        32.204                                    22492360.232 3  92102531.48303     -1703.801 3        23.714    22492359.796 6  92102449.54306     -1704.053 6        37.304
G04        12.000    20708110.234 7 108821896.35207      1090.559 7        42.063                                    20708104.771 3  84796205.94003       849.791 3        21.405    20708107.625 6  84796237.92906       849.763 6        38.114
E12        13.000    24561478.781 7 129071478.69807       738.853 7        44.328                                                                    24561474.621 7  96384509.43307       551.777 7        44.036    24561473.215 6  98898961.34206       566.180 6        40.801
E29        14.000    23523130.596 7 123614869.85707     -1523.896 7        43.304                                                                    23523127.235 7  92309818.72807     -1137.919 7        46.403    23523125.589 7  94717870.25607     -1167.595 7        42.188
G06        15.000    23926701.021 5 125735689.39405      2524.709 5        35.995                                    23926704.507 4  97975881.31004      1967.307 4        27.760    23926702.033 5  97975874.36705      1967.456 5        33.994
R08        18.000    22671824.080 5 121406528.12315      2536.920 5        30.332                                                                    22671845.692 5                      1973.621 5        30.845
E26        19.000    27187265.689 4                     -3764.810 4        24.962                                                                                                                                    27187274.001 4                     -2885.741 4        25.759
E19        20.000    23678753.263 6 124432690.84906       936.666 6        37.274                                                                    23678751.603 6  92920526.37506       699.384 6        40.513    23678752.183 6  95344527.29906       717.656 6        41.120
R06        21.000    20104637.724 5 107282235.08705     -3143.714 5        34.452
R15        22.000    23165357.544 5 123788655.50615      -791.758 5        34.686                                                                    23165402.220 4                      -615.968 4        28.720
S36        23.000    38176138.036 6 200616944.51906      -850.328 6        37.100
S23        24.000    38124030.550 6 200343098.78306      -846.464 6        40.980
E33        28.000    23639245.509 7 124225064.10507     -2204.175 7        47.137                                                                    23639243.629 8  92765516.88608     -1645.987 8        50.748    23639242.541 8  95185441.33908     -1688.897 8        48.668
E10        29.000    26060513.035 6 136949152.63306      1644.194 6        38.039                                                                    26060511.075 7 102267116.39207      1227.893 7        42.546    26060512.398 8 104934893.98008      1259.949 8        48.216
R21        30.000    21359500.886 6 114299031.50806     -4808.258 6        40.288                                                                    21359500.316 6  88899169.35806     -3739.697 6        38.898
