     3.04           OBSERVATION DATA    M                   RINEX VERSION / TYPE
ssrcrin-15.6.1x                         20250102 214500 UTC PGM / RUN BY / DATE 
(00000000023479385599111004) Septentrio proprietary         COMMENT             
ract                                                        MARKER NAME         
01                                                          MARKER NUMBER       
geodetic                                                    MARKER TYPE         
NFB                 CLIMERS@TUW                             OBSERVER / AGENCY   
3296359             SEPT ASTERX SB3 PROB4.14.4              REC # / TYPE / VERS 
Unknown             Unknown                                 ANT # / TYPE        
  4127447.2486  1206915.5346  4695543.7487                  APPROX POSITION XYZ 
        0.0000        0.0000        0.0000                  ANTENNA: DELTA H/E/N
G   23 X1  C1C L1C D1C S1C C1W S1W C2W L2W D2W S2W C2L L2L  SYS / # / OBS TYPES 
       D2L S2L C5Q L5Q D5Q S5Q C1L L1L D1L S1L              SYS / # / OBS TYPES 
E   21 X1  C1C L1C D1C S1C C6C L6C D6C S6C C5Q L5Q D5Q S5Q  SYS / # / OBS TYPES 
       C7Q L7Q D7Q S7Q C8Q L8Q D8Q S8Q                      SYS / # / OBS TYPES 
S    9 X1  C1C L1C D1C S1C C5I L5I D5I S5I                  SYS / # / OBS TYPES 
R   17 X1  C1C L1C D1C S1C C2P L2P D2P S2P C2C L2C D2C S2C  SYS / # / OBS TYPES 
       C3Q L3Q D3Q S3Q                                      SYS / # / OBS TYPES 
C   25 X1  C1P L1P D1P S1P C5P L5P D5P S5P C2I L2I D2I S2I  SYS / # / OBS TYPES 
       C7I L7I D7I S7I C6I L6I D6I S6I C7D L7D D7D S7D      SYS / # / OBS TYPES 
J   17 X1  C1C L1C D1C S1C C2L L2L D2L S2L C5Q L5Q D5Q S5Q  SYS / # / OBS TYPES 
       C1L L1L D1L S1L                                      SYS / # / OBS TYPES 
I    5 X1  C5A L5A D5A S5A                                  SYS / # / OBS TYPES 
SEPTENTRIO RECEIVERS OUTPUT ALIGNED CARRIER PHASES.         COMMENT             
NO FURTHER PHASE SHIFT APPLIED IN THE RINEX ENCODER.        COMMENT             
G L1C                                                       SYS / PHASE SHIFT   
G L2W                                                       SYS / PHASE SHIFT   
G L2L  0.00000                                              SYS / PHASE SHIFT   
G L5Q  0.00000                                              SYS / PHASE SHIFT   
G L1L  0.00000                                              SYS / PHASE SHIFT   
E L1C  0.00000                                              SYS / PHASE SHIFT   
E L6C  0.00000                                              SYS / PHASE SHIFT   
E L5Q  0.00000                                              SYS / PHASE SHIFT   
E L7Q  0.00000                                              SYS / PHASE SHIFT   
E L8Q  0.00000                                              SYS / PHASE SHIFT   
S L1C                                                       SYS / PHASE SHIFT   
S L5I                                                       SYS / PHASE SHIFT   
R L1C                                                       SYS / PHASE SHIFT   
R L2P  0.00000                                              SYS / PHASE SHIFT   
R L2C                                                       SYS / PHASE SHIFT   
R L3Q  0.00000                                              SYS / PHASE SHIFT   
C L1P  0.00000                                              SYS / PHASE SHIFT   
C L5P  0.00000                                              SYS / PHASE SHIFT   
C L2I                                                       SYS / PHASE SHIFT   
C L7I                                                       SYS / PHASE SHIFT   
C L6I                                                       SYS / PHASE SHIFT   
C L7D                                                       SYS / PHASE SHIFT   
J L1C                                                       SYS / PHASE SHIFT   
J L2L  0.00000                                              SYS / PHASE SHIFT   
J L5Q  0.00000                                              SYS / PHASE SHIFT   
J L1L  0.00000                                              SYS / PHASE SHIFT   
I L5A                                                       SYS / PHASE SHIFT   
  2025     1     2    21    45    0.0000000     GPS         TIME OF FIRST OBS   
 C1C    0.000 C2C    0.000 C2P    0.000                     GLONASS COD/PHS/BIS 
DBHZ                                                        SIGNAL STRENGTH UNIT
    18                                                      LEAP SECONDS        
 24 R01  1 R02 -4 R03  5 R04  6 R05  1 R06 -4 R07  5 R08  6 GLONASS SLOT / FRQ #
    R09 -2 R10 -7 R11  0 R12 -1 R13 -2 R14 -7 R15  0 R16 -1 GLONASS SLOT / FRQ #
    R17  4 R18 -3 R19  3 R20  2 R21  4 R22 -3 R23  3 R24  2 GLONASS SLOT / FRQ #
                                                            END OF HEADER       
> 2025 01 02 21 45  0.0000000  0 41
G10         1.000    21233287.525 7 111581652.71007     -2504.424 7        46.281                                    21233285.662 7  86946750.13107     -1951.496 7        45.714    21233284.797 7  86946742.08907     -1951.435 7        45.403
G32         3.000    22677767.683 6 119172461.39106      1321.421 6        38.327                                    22677790.008 1  92861780.88001      1029.765 1         5.714    22677761.739 3                      1029.749 3        22.629
G21         4.000    21176475.378 7 111283234.02707       508.366 7        42.150                                    21176467.636 3  86714104.23503       396.131 3        20.643
G08         5.000    20288820.981 8 106618527.78108     -1151.154 8        48.550                                    20288818.040 8  83079331.62408      -897.013 8        49.346    20288819.913 7  83079313.64607      -896.938 7        46.105
G02         6.000    22823234.301 6 119936939.56106      1495.644 6        39.087                                    22823223.915 3  93457246.08503      1165.439 3        20.524
G14         7.000    24686859.870 6 129730471.71006      1327.572 6        38.736                                                                                                    24686854.122 4                      1034.619 4        28.190
E09         8.000    27452497.765 4                     -2377.581 4        26.180                                                                    27452495.996 5                     -1775.416 5        30.445    27452484.631 3                     -1822.094 3        22.190
E03         9.000    26717276.951 5                      2110.026 5        33.251                                                                    26717275.829 6 104844358.47006      1575.761 6        40.148    26717274.170 6 107579451.51206      1616.886 6        40.641
E05        11.000    24011259.914 4 126180034.14904       234.405 4        29.829                                                                    24011262.110 5  94225433.99305       174.824 5        35.081    24011277.841 4  96683433.85904       178.754 4        25.669
E13        12.000    27564698.447 4                      1507.440 4        29.318                                                                    27564693.485 4                      1127.499 4        24.150
G27        13.000    21268677.684 7 111767624.50607     -3419.441 7        42.174                                    21268671.096 5  87091674.65405     -2664.494 5        30.657    21268674.047 5  87091667.61605     -2664.217 5        34.076
E27        14.000    25521556.594 7 134116761.19407     -2167.386 7        42.700                                                                    25521555.398 7 100152094.13307     -1618.584 7        42.808    25521553.746 7 102764767.35807     -1660.801 7        42.567
E21        15.000                                                                                                                                    27129872.202 5 106463505.31005       361.030 5        35.252    27129875.583 6 109240829.44706       370.441 6        39.934
E15        16.000    23827876.659 7 125216467.46507       137.955 7        43.223                                                                    23827877.076 6  93505706.41606       102.922 6        40.381    23827876.087 6  95945010.32606       105.520 6        39.682
S23        17.000    38180476.391 6 200639769.12006      -861.394 6        37.206
E30        19.000    27172831.880 5 142794193.43505     -3902.443 5        35.367                                                                    27172836.982 4 106632044.63304     -2914.297 4        29.460    27172870.294 4 109413726.26304     -2990.564 4        26.826
R20        20.000    20844280.323 4                     -3130.756 4        27.449                                                                    20844284.142 5  86694039.80805     -2434.797 5        35.281
S36        22.000    38223260.223 6 200864580.73106      -862.843 6        37.524
R05        28.000    20269058.704 7 108349717.32607     -2306.934 7        47.389                                                                    20269059.390 7  84272011.40407     -1794.325 7        44.155
R12        30.000    22458356.046 8 119968417.83608     -1677.417 8        48.463                                                                    22458347.256 7  93308791.39407     -1304.647 7        43.172
E34        32.000    24122991.763 7 126767173.65507     -2139.462 7        46.591                                                                    24122992.002 7  94663817.90707     -1597.651 7        45.679    24122992.494 7  97133368.13907     -1639.298 7        47.829
R11        33.000    23500679.525 4                     -4639.610 4        26.072                                                                    23500675.614 3                     -3607.854 3        22.876
R22        35.000                                                                                                                                    22887411.532 6  95024705.20806      1961.570 6        37.119
C08        36.000                                                                                                                                                                                                    40294763.451 4                     -1565.231 4        24.180
C33        37.000                                                                                                                                    23538037.808 7 122568739.65207      1929.186 7        42.423                                                                    23538046.843 6  99597146.14106      1567.965 6        40.060
C11        38.000                                                                                                                                    23360064.818 5 121641802.76005     -3105.001 5        33.150    23360038.234 6  94061426.09306     -2401.256 6        40.465    23360038.248 7  98844013.51407     -2523.000 7        43.172
R21        39.000    19610422.349 8 104939318.05008       246.493 8        50.496                                                                    19610419.585 7  81619468.54207       191.815 7        42.883
R04        40.000    23665597.345 4                     -4974.545 4        28.256                                                                    23665566.644 4                     -3869.284 4        27.545
C27        41.000                                                                                                                                    26344728.033 6 137183987.08406      2187.523 6        36.253                                                                    26344734.625 4 111473242.14804      1777.868 4        29.972
C14        42.000                                                                                                                                    22359343.704 8 116430985.46508       555.666 8        48.385    22359340.460 8  90031773.81208       429.656 8        50.193    22359339.565 8  94609697.29208       451.717 8        48.180
C13        43.000                                                                                                                                                                                                    39599846.023 3                     -1444.244 3        21.048
C05        44.000                                                                                                                                                                                                    39186546.733 5 157787998.50205      -625.026 5        32.162
C21        46.000                                                                                                                                                                                                                                                                    25483765.450 5 107830159.56005     -3003.220 5        32.605
I09        47.000    37648104.851 4 147739277.84604      -196.444 4        29.706
C43        48.000                                                                                                                                    22044833.129 7 114793233.09007     -2256.854 7        46.408                                                                    22044829.084 6  93278885.37806     -1833.614 6        38.294
C42        50.000                                                                                                                                    22459722.389 7 116953673.40607     -1218.523 7        45.475                                                                    22459726.275 6  95034550.05006      -989.862 6        39.901
C34        52.000                                                                                                                                    25355907.667 4                     -3807.230 4        27.976
I01        53.000   414169718.439 5 322150163.30305     -2328.005 5        35.048
C37        54.000                                                                                                                                    26693306.287 5                     -3209.123 5        33.234                                                                    26693327.055 4                     -2607.035 4        24.737
C28        55.000                                                                                                                                    22648730.393 6 117937869.22106      1145.495 6        41.976                                                                    22648729.984 7  95834208.56007       931.048 7        44.470
I06        58.000    38516047.343 6 151145379.14806      -545.495 6        38.480
> 2025 01 02 21 45  5.0000000  0 43
G10         1.000    21235670.855 7 111594180.38507     -2506.684 7        46.698                                    21235669.265 7  86956511.94707     -1953.265 7        45.648    21235668.223 7  86956503.94607     -1953.279 7        43.926
G23         2.000    23922687.461 3                     -4229.306 3        20.524
G32         3.000    22676512.952 6 119165860.88706      1318.945 6        38.105                                    22676534.605 1  92856637.51001      1027.805 1        10.518
G21         4.000    21175993.074 6 111280696.56006       506.752 6        40.610                                    21175984.280 3  86712126.99903       394.889 3        20.405
G08         5.000    20289917.826 8 106624290.94208     -1154.160 8        49.937                                    20289914.857 8  83083822.40808      -899.345 8        48.979    20289916.216 7  83083804.42307      -899.379 7        46.159
G02         6.000    22821811.789 6 119929463.47006      1494.766 6        39.153                                    22821801.550 3  93451420.58403      1164.758 3        20.048
G14         7.000    24685598.027 6 129723840.31606      1325.038 6        38.249                                                                                                    24685590.746 4                      1032.795 4        28.597
E09         8.000    27454762.499 4                     -2380.100 4        25.624                                                                    27454761.589 5                     -1777.094 5        30.317    27454747.969 3                     -1823.622 3        23.257
E03         9.000    26715268.674 5 140389693.12615      2109.611 5        33.647                                                                    26715268.091 6 104836480.96706      1575.259 6        40.293    26715267.487 6 107571368.49106      1616.426 6        41.030
E05        11.000    24011037.330 4 126178868.46504       231.952 4        29.649                                                                    24011044.316 5  94224563.49205       173.090 5        35.576    24011056.888 3                       180.405 3        20.857
E13        12.000    27563261.344 4                      1507.109 4        25.038                                                                    27563262.857 4                      1125.572 4        25.549    27563274.971 4 110985892.08714      1155.185 4        29.678
G27        13.000    21271927.897 6 111784727.39306     -3421.589 6        38.829                                    21271925.247 4  87105001.59804     -2666.202 4        27.281    21271928.073 5  87104994.64205     -2666.040 5        33.569
E27        14.000    25523620.512 6 134127604.53806     -2169.785 6        41.657                                                                    25523618.240 6 100160191.46106     -1620.283 6        41.650    25523616.478 6 102773075.89506     -1662.718 6        40.920
E21        15.000                                                                                                                                    27129414.091 5 106461705.00005       359.189 5        34.424    27129417.163 6 109238982.16606       368.554 6        41.004
E15        16.000    23827746.335 7 125215780.38807       136.854 7        42.011                                                                    23827746.726 6  93505193.30606       102.235 6        40.577    23827744.781 6  95944483.82406       104.965 6        39.865
S23        17.000    38181291.501 5 200644077.30305      -861.580 5        35.695
E30        19.000    27176545.030 6 142813707.90106     -3903.123 6        36.306                                                                    27176547.421 4 106646617.17304     -2914.483 4        27.569
R20        20.000    20847210.116 4                     -3132.550 4        28.227                                                                    20847212.093 5  86706217.76315     -2436.427 5        34.386
S36        22.000    38224087.411 6 200868893.78106      -862.848 6        36.238
R06        24.000    20827943.796 4                      2599.660 4        25.218
R05        28.000    20271220.630 8 108361263.38908     -2311.424 8        48.425                                                                    20271218.424 7  84280991.67607     -1797.859 7        43.213
R12        30.000    22459925.994 7 119976815.77407     -1681.705 7        47.833                                                                    22459920.253 7  93315323.12107     -1307.991 7        42.648
E34        32.000    24125027.432 7 126777873.51807     -2140.339 7        44.844                                                                    24125028.065 7  94671808.06307     -1598.426 7        45.907    24125028.914 7  97141566.72707     -1640.084 7        47.815
R11        33.000    23505026.613 3                     -4641.161 3        22.876                                                                    23505015.990 4                     -3609.694 4        24.105
R22        35.000                                                                                                                                    22885055.422 6  95014898.48006      1961.173 6        38.081
C08        36.000                                                                                                                                                                                                    40296711.956 4                     -1565.177 4        24.947
C33        37.000                                                                                                                                    23536185.120 7 122559097.97507      1927.366 7        42.950                                                                    23536194.716 6  99589311.52206      1566.384 6        38.649
C11        38.000                                                                                                                                                                                                    23363020.093 6  94073434.01906     -2402.086 6        41.600    23363020.951 7  98856632.01807     -2524.195 7        43.767
R21        39.000    19610192.580 8 104938091.13808       244.255 8        50.276                                                                    19610190.176 7  81618514.29707       189.946 7        42.859
R04        40.000                                                                                                                                    23670217.257 4                     -3870.961 4        28.379
C27        41.000                                                                                                                                    26342630.083 5 137173049.50005      2187.386 5        34.386                                                                    26342634.258 4 111464354.43004      1777.404 4        28.834
C14        42.000                                                                                                                                    22358811.110 8 116428214.23208       552.862 8        48.402    22358808.850 8  90029630.93508       427.491 8        50.737    22358807.115 8  94607445.46608       449.312 8        48.289
C13        43.000                                                                                                                                    39601594.180 4                     -1866.440 4        25.263
C05        44.000                                                                                                                                                                                                    39187323.946 5 157791122.97405      -624.783 5        33.281
C21        46.000                                                                                                                                                                                                                                                                    25487317.143 5 107845181.06405     -3005.105 5        31.509
I09        47.000    37648355.090 5 147740263.88705      -197.181 5        32.461
C43        48.000                                                                                                                                    22047001.056 7 114804522.52307     -2258.877 7        45.958                                                                    22046997.449 6  93288058.97806     -1835.529 6        38.483
C42        50.000                                                                                                                                    22460893.700 7 116959773.43107     -1221.477 7        45.436                                                                    22460896.429 6  95039506.80606      -992.636 6        37.319
C34        52.000                                                                                                                                    25359564.838 4                     -3807.708 4        27.473
I01        53.000   414172685.165 6 322161803.91206     -2328.483 6        36.234
C37        54.000                                                                                                                                    26696383.694 5                     -3209.894 5        30.272                                                                    26696404.502 4                     -2608.884 4        27.317
C28        55.000                                                                                                                                    22647629.927 6 117932144.97306      1144.293 6        40.510                                                                    22647630.614 7  95829557.16607       929.868 7        45.369
I06        58.000    38516742.729 6 151148106.70606      -545.569 6        38.369
> 2025 01 02 21 45 10.0000000  0 43
G10         1.000    21238056.387 7 111606718.85607     -2508.470 7        47.389                                    21238054.951 7  86966282.19307     -1954.650 7        45.862    21238054.649 7  86966274.18107     -1954.623 7        44.224
G23         2.000    23926675.079 4                     -4233.153 4        24.451
G32         3.000    22675257.466 6 119159271.67206      1316.838 6        36.386                                    22675280.221 2  92851502.70302      1026.085 2        12.121    22675271.510 4                      1025.577 4        26.383
G21         4.000    21175511.685 6 111278166.45906       505.533 6        40.963                                    21175502.951 3  86710155.49603       393.911 3        20.310
G08         5.000    20291017.799 8 106630069.16308     -1156.909 8        48.819                                    20291014.501 8  83088324.93008      -901.489 8        48.721    20291015.741 7  83088306.94707      -901.543 7        45.944
G02         6.000    22820388.765 6 119921991.28006      1494.237 6        37.459                                    22820380.205 3  93445598.08803      1164.325 3        19.791
G14         7.000    24684338.528 6 129717220.92306      1322.920 6        38.360                                                                                                    24684330.879 4                      1030.699 4        27.784
E09         8.000                                                                                                                                    27457020.429 4                     -1778.647 4        28.076    27457018.279 4                     -1824.995 4        25.128
E03         9.000    26713264.079 5 140379147.02805      2109.074 5        33.281                                                                    26713261.184 6 104828605.63406      1575.181 6        39.501    26713260.229 6 107563287.73706      1616.081 6        40.558
E05        11.000    24010821.273 5 126177713.99005       230.044 5        32.072                                                                    24010824.955 5  94223701.42405       171.631 5        32.281    24010840.390 4                       176.232 4        29.024
E13        12.000                                                                                                                                    27561828.727 4                      1124.936 4        24.496    27561842.077 5 110980118.21105      1154.906 5        30.521
G27        13.000    21275184.095 5 111801841.54605     -3423.897 5        35.133                                    21275182.207 4  87118337.26204     -2667.965 4        26.335    21275184.735 5  87118330.26505     -2667.843 5        35.414
E27        14.000    25525683.896 6 134138458.77806     -2171.726 6        40.541                                                                    25525684.116 7 100168296.90007     -1621.796 7        42.519    25525682.418 6 102781392.76606     -1664.016 6        40.262
E21        15.000                                                                                                                                    27128957.377 5 106459912.69305       357.764 5        34.890    27128960.971 6 109237143.11806       367.219 6        41.008
E15        16.000    23827616.645 7 125215097.72407       136.245 7        42.163                                                                    23827616.903 6  93504683.55506       101.726 6        41.797    23827614.900 6  95943960.78406       104.324 6        38.504
S23        17.000    38182121.345 6 200648385.28106      -861.239 6        40.353
E30        19.000    27180257.769 5 142833224.59005     -3903.473 5        34.243                                                                    27180261.642 4 106661191.36304     -2915.182 4        28.711
R20        20.000    20850142.057 4                     -3134.750 4        28.085                                                                    20850141.363 5  86718402.68915     -2437.360 5        34.529
S36        22.000    38224902.234 6 200873207.41406      -862.708 6        38.529
R06        24.000    20825502.330 3                      2596.382 3        20.976
R05        28.000    20273384.560 7 108372831.00607     -2315.499 7        47.375                                                                    20273383.347 7  84289988.70707     -1800.919 7        43.589
R12        30.000    22461499.288 7 119985234.56607     -1685.612 7        47.166                                                                    22461495.795 6  93321871.08106     -1311.116 6        41.707
E34        32.000    24127064.371 7 126788577.45307     -2140.987 7        46.440                                                                    24127064.748 7  94679801.25307     -1598.793 7        45.655    24127065.798 7  97149768.43007     -1640.489 7        47.425
R11        33.000    23509365.956 5                     -4642.332 5        32.371                                                                    23509356.312 3                     -3610.051 3        20.500
R22        35.000    22882671.848 4                      2521.354 4        29.554                                                                    22882689.684 6                      1961.231 6        36.646
C08        36.000                                                                                                                                                                                                    40298651.491 3                     -1566.243 3        21.595
C33        37.000                                                                                                                                    23534334.880 7 122549464.92207      1925.992 7        43.530                                                                    23534345.948 6  99581483.91806      1564.910 6        39.483
C11        38.000                                                                                                                                                                                                    23366003.443 6  94085446.79106     -2402.872 6        41.561    23366003.907 7  98869255.61107     -2525.203 7        44.400
R21        39.000    19609964.734 8 104936875.04208       242.396 8        50.058                                                                    19609963.679 7  81617568.43307       188.553 7        44.218
R04        40.000                                                                                                                                    23674868.174 5                     -3872.202 5        31.909
C27        41.000                                                                                                                                    26340529.916 5 137162111.51405      2187.885 5        35.852                                                                    26340531.291 4 111455466.59604      1776.926 4        25.910
C14        42.000                                                                                                                                    22358281.387 8 116425456.23408       550.516 8        48.891    22358279.088 8  90027498.26608       425.711 8        50.953    22358277.658 8  94605204.36508       447.184 8        48.271
C13        43.000                                                                                                                                    39603389.527 3                     -1867.478 3        23.257    39603383.533 3                     -1443.076 3        22.743
C05        44.000                                                                                                                                                                                                    39188098.243 5 157794247.38405      -624.746 5        34.795
C21        46.000                                                                                                                                    25490874.539 5                     -3698.261 5        33.437                                                                    25490867.115 5 107860208.01505     -3005.976 5        32.551
I09        47.000    37648607.937 5 147741250.94605      -197.334 5        32.766
C43        48.000                                                                                                                                    22049170.067 7 114815820.77807     -2260.317 7        45.816                                                                    22049168.079 6  93297239.73006     -1836.919 6        39.261
C42        50.000                                                                                                                                    22462066.547 7 116965887.46207     -1224.027 7        43.615                                                                    22462072.209 6  95044474.98306      -994.753 6        40.141
C34        52.000                                                                                                                                    25363225.777 4                     -3808.502 4        29.156
I01        53.000   414175650.815 5 322173445.96305     -2328.302 5        35.538
C37        54.000                                                                                                                                    26699469.954 5                     -3210.934 5        33.263                                                                    26699488.598 4                     -2608.169 4        24.060
C28        55.000                                                                                                                                    22646532.537 6 117926426.61106      1143.353 6        41.395                                                                    22646532.606 7  95824910.58307       928.859 7        44.965
I06        58.000    38517437.714 6 151150834.10606      -545.351 6        39.583
> 2025 01 02 21 45 15.0000000  0 38
G10         1.000    21240444.719 8 111619268.46108     -2511.072 8        48.585                                    21240442.699 7  86976061.10807     -1956.676 7        45.881    21240442.328 7  86976053.08207     -1956.697 7        42.631
G32         3.000    22674005.359 6 119152694.14206      1314.408 6        37.792                                    22674028.265 1  92846377.40901      1024.278 1        10.815    22674010.083 4                      1024.141 4        29.848
G21         4.000    21175032.564 6 111275644.29206       503.612 6        38.420                                    21175023.534 3  86708190.16603       392.406 3        20.667
G08         5.000    20292119.737 7 106635862.89107     -1160.281 7        47.604                                    20292117.051 8  83092839.52408      -904.122 8        48.421    20292118.181 7  83092821.54407      -904.096 7        45.986
G02         6.000    22818968.036 6 119914523.46906      1493.219 6        37.399                                    22818959.709 3  93439779.01203      1163.521 3        20.167
G14         7.000    24683081.829 6 129710614.01206      1320.135 6        37.686                                                                                                    24683075.547 4                      1028.453 4        28.720
E09         8.000    27459290.312 4                     -2384.451 4        26.862                                                                                                                                    27459279.176 3                     -1827.529 3        22.590
E03         9.000    26711257.410 5 140368604.24605      2108.258 5        35.014                                                                    26711254.668 6 104820732.81406      1574.332 6        38.778    26711253.596 6 107555209.52606      1615.499 6        40.403
E05        11.000    24010606.391 5 126176571.32705       227.630 5        35.376                                                                    24010614.747 4  94222848.00904       169.426 4        28.351
E13        12.000    27560410.908 5                      1506.762 5        32.569                                                                    27560399.739 4                      1125.850 4        25.624    27560411.508 5 110974345.32305      1154.369 5        32.946
G27        13.000    21278443.472 6 111818967.21706     -3426.462 6        37.267                                    21278441.247 4  87131681.91304     -2669.951 4        25.083    21278442.374 5  87131674.88105     -2669.767 5        35.348
E27        14.000    25527750.226 6 134149324.28706     -2174.292 6        39.835                                                                    25527751.836 7 100176410.76307     -1623.570 7        42.434    25527750.282 6 102789718.31306     -1665.991 6        40.653
E21        15.000                                                                                                                                    27128503.618 5 106458128.76905       356.088 5        35.748    27128506.487 6 109235312.65606       365.282 6        41.073
E15        16.000    23827487.255 7 125214419.98007       135.053 7        42.700                                                                    23827488.174 7  93504177.45707       100.934 7        42.743    23827485.473 6  95943441.45406       103.434 6        38.513
S23        17.000    38182940.573 6 200652693.50106      -861.653 6        39.312
E30        19.000    27183970.184 5 142852743.84905     -3904.170 5        32.234                                                                    27183976.360 5 106675767.35705     -2915.450 5        30.151    27183975.927 5 109458589.47205     -2991.334 5        35.581
R20        20.000    20853078.938 4                     -3135.868 4        28.483                                                                    20853071.315 5                     -2439.074 5        35.867
S36        22.000    38225720.398 6 200877521.68906      -862.925 6        37.648
R05        28.000    20275551.348 7 108384420.55707     -2320.191 7        46.883                                                                    20275551.340 7  84299002.80207     -1804.526 7        42.811
R12        30.000    22463077.189 7 119993674.61507     -1690.180 7        46.314                                                                    22463074.683 6  93328435.55206     -1314.521 6        40.246
E34        32.000    24129101.834 7 126799285.86007     -2142.080 7        45.840                                                                    24129102.186 7  94687797.79007     -1599.602 7        44.712    24129104.126 7  97157973.58407     -1641.410 7        47.698
R11        33.000    23513713.106 5                     -4643.491 5        32.311
C33        37.000                                                                                                                                    23532486.833 7 122539840.93707      1923.934 7        44.536                                                                    23532497.021 6  99573663.62206      1563.352 6        40.265
C11        38.000                                                                                                                                    23369021.005 4                     -3108.768 4        27.557    23368987.943 7  94097464.70107     -2404.157 7        44.114    23368989.008 7  98881884.58407     -2526.392 7        44.552
R21        39.000    19609739.778 8 104935670.00108       239.881 8        50.330                                                                    19609738.776 7  81616631.18307       186.653 7        44.254
R04        40.000                                                                                                                                    23679511.489 4                     -3873.193 4        28.455
C27        41.000                                                                                                                                    26338428.455 5 137151173.54605      2187.697 5        33.257                                                                    26338425.012 4 111446578.59404      1777.532 4        26.048
C14        42.000                                                                                                                                    22357755.533 8 116422711.77708       547.559 8        48.882    22357752.371 8  90025376.09408       423.385 8        51.124    22357750.680 8  94602974.26908       444.966 8        48.141
C05        44.000                                                                                                                                                                                                    39188876.310 5 157797372.16605      -624.888 5        34.090
C21        46.000                                                                                                                                    25494426.595 5 132756172.54215     -3700.720 5        34.414                                                                    25494419.477 5 107875240.70805     -3007.049 5        31.743
I09        47.000    37648861.015 5 147742239.44405      -197.542 5        31.985
C43        48.000                                                                                                                                    22051342.427 7 114827128.27407     -2262.496 7        45.419                                                                    22051339.013 6  93306427.98906     -1838.345 6        40.136
C42        50.000                                                                                                                                    22463242.749 7 116972015.92707     -1227.187 7        44.727                                                                    22463248.626 6  95049454.82506      -997.098 6        38.489
C34        52.000                                                                                                                                    25366878.981 4                     -3809.070 4        28.398
I01        53.000   414178618.847 6 322185089.81706     -2328.857 6        37.085
C37        54.000                                                                                                                                    26702553.991 5 139047196.09015     -3212.438 5        32.186                                                                    26702558.407 4                     -2610.822 4        24.105
C28        55.000                                                                                                                                    22645435.346 7 117920714.61907      1141.701 7        42.976                                                                    22645435.545 7  95820269.10807       927.867 7        44.954
I06        58.000    38518132.781 6 151153561.66006      -545.594 6        38.096
> 2025 01 02 21 45 20.0000000  0 42
G10         1.000    21242835.165 8 111631828.78008     -2512.969 8        48.673                                    21242832.500 7  86985848.37407     -1958.162 7        45.518    21242832.973 7  86985840.33807     -1958.091 7        42.480
G23         2.000    23934732.907 4                     -4234.431 4        24.346                                                                                                    23934765.817 3                     -3299.163 3        23.390
G32         3.000    22672756.347 6 119146128.16006      1312.334 6        39.979                                    22672778.214 2  92841260.93702      1022.670 2        12.121    22672759.196 4                      1022.580 4        28.265
G21         4.000    21174553.790 6 111273129.54906       502.333 6        40.157                                    21174545.321 3  86706230.64003       391.419 3        20.857
G08         5.000    20293224.906 7 106641671.68507     -1163.111 7        47.620                                    20293222.449 7  83097365.86607      -906.320 7        47.598    20293223.622 7  83097347.87907      -906.341 7        45.323
G02         6.000    22817547.362 5 119907059.71305      1492.546 5        34.105                                    22817540.206 3  93433963.10903      1163.059 3        18.507
G14         7.000    24681827.688 6 129704019.05806      1317.994 6        37.637                                                                                                    24681820.886 5                      1026.923 5        31.170
E09         8.000    27461559.276 4                     -2386.312 4        28.464                                                                    27461540.671 4                     -1781.710 4        27.725    27461540.860 3                     -1828.810 3        23.943
E03         9.000    26709250.250 5 140358064.48205      2107.962 5        33.299                                                                    26709248.826 6 104812862.21006      1573.885 6        38.447    26709247.449 6 107547133.57806      1615.135 6        39.751
E05        11.000    24010394.879 6 126175440.03906       225.251 6        36.756                                                                    24010404.365 5  94222002.95005       168.591 5        30.483    24010373.016 5                       172.692 5        30.694
E13        12.000    27558974.211 5 144823398.13515      1506.832 5        33.024                                                                    27558970.331 3                      1124.831 3        23.657    27558982.088 5 110968573.00405      1153.897 5        30.740
G27        13.000                                                                                                                                                                    21281702.611 5  87145028.28505     -2671.375 5        35.567
E27        14.000    25529820.156 6 134160200.69206     -2176.412 6        36.060                                                                    25529820.955 7 100184532.73507     -1624.969 7        42.356    25529819.620 6 102798052.16606     -1667.532 6        40.265
E21        15.000                                                                                                                                    27128051.248 5 106456352.92105       354.574 5        34.648    27128054.138 6 109233490.47406       363.539 6        41.433
E15        16.000    23827359.418 7 125213746.68707       134.404 7        42.739                                                                    23827360.737 7  93503674.68207       100.319 7        43.393    23827357.246 6  95942925.54906       102.984 6        37.955
S23        17.000    38183760.700 6 200657001.54406      -861.515 6        40.157
E30        19.000    27187684.630 5 142872265.13205     -3903.937 5        31.042                                                                    27187691.199 4 106690345.00204     -2915.675 4        29.573    27187691.753 5 109473547.39405     -2991.685 5        34.876
R20        20.000    20856010.359 4                     -3138.071 4        28.806                                                                    20856007.147 5                     -2440.252 5        35.019
S36        22.000    38226546.772 6 200881836.46906      -862.699 6        38.051
G16        26.000    25769049.568 3                     -4512.180 3        19.164
R05        28.000    20277723.313 7 108396031.77607     -2324.292 7        47.900                                                                    20277722.392 6  84308033.75806     -1807.642 6        39.850
R12        30.000    22464659.858 7 120002135.48107     -1694.072 7        47.350                                                                    22464658.658 6  93335016.23506     -1317.620 6        40.653
E34        32.000    24131140.629 7 126809998.34307     -2142.733 7        45.076                                                                    24131140.911 7  94695797.37707     -1600.057 7        44.542    24131143.034 7  97166181.85307     -1641.733 7        47.809
R11        33.000    23518064.684 4                     -4644.511 4        27.928
C08        36.000                                                                                                                                                                                                    40302519.686 3                     -1569.877 3        22.724
C33        37.000                                                                                                                                    23530640.667 7 122530225.57907      1922.340 7        43.860                                                                    23530649.766 6  99565850.36706      1561.864 6        39.327
C11        38.000                                                                                                                                                                                                    23371973.263 7  94109487.42907     -2404.809 7        44.057    23371974.208 7  98894518.65407     -2527.273 7        44.868
R21        39.000    19609516.701 8 104934475.84208       237.971 8        49.596                                                                    19609514.594 7  81615702.36607       185.160 7        44.065
R04        40.000    23684152.012 4                     -4981.371 4        28.976                                                                    23684159.655 4                     -3874.748 4        28.663
C27        41.000                                                                                                                                    26336323.944 5 137140235.25105      2187.944 5        35.257                                                                    26336322.658 3                      1777.934 3        23.981
C14        42.000                                                                                                                                    22357231.303 8 116419980.51908       545.126 8        48.566    22357227.779 8  90023264.10108       421.552 8        51.499    22357225.877 8  94600754.90208       442.808 8        48.160
C13        43.000                                                                                                                                    39606965.761 3                     -1867.489 3        21.976
C05        44.000                                                                                                                                                                                                    39189651.332 5 157800496.95705      -625.033 5        31.343
C21        46.000                                                                                                                                    25497980.339 5 132774679.27505     -3701.661 5        32.323                                                                    25497973.837 5 107890278.99505     -3008.566 5        31.887
I09        47.000    37649114.050 5 147743229.14405      -197.859 5        34.524
C43        48.000                                                                                                                                    22053514.143 7 114838444.58307     -2263.944 7        45.038                                                                    22053511.701 6  93315623.48506     -1839.807 6        40.153
C42        50.000                                                                                                                                    22464421.366 7 116978158.38607     -1229.709 7        44.325                                                                    22464428.288 6  95054446.07606      -999.466 6        37.081
C34        52.000                                                                                                                                    25370533.884 4                     -3809.785 4        29.175
I01        53.000   414181585.542 6 322196735.13506     -2329.078 6        37.766
C37        54.000                                                                                                                                    26705640.074 5 139063260.49205     -3213.203 5        30.438                                                                    26705649.845 4                     -2610.866 4        28.000
C28        55.000                                                                                                                                    22644339.313 6 117915008.55906      1140.761 6        41.263                                                                    22644338.995 7  95815632.47007       926.833 7        44.904
I06        58.000    38518828.155 6 151156289.03606      -545.331 6        39.231
> 2025 01 02 21 45 25.0000000  0 41
G10         1.000    21245227.291 8 111644400.32908     -2515.401 8        49.293                                    21245224.474 7  86995644.39007     -1960.050 7        45.162    21245225.229 7  86995636.37007     -1959.966 7        42.021
G23         2.000    23938766.409 4                     -4234.950 4        29.365                                                                                                    23938748.025 3                     -3300.459 3        22.438
G32         3.000    22671510.217 6 119139573.93706      1309.797 6        37.856                                    22671530.658 1  92836153.73201      1020.568 1         9.714    22671510.370 4                      1020.765 4        28.408
G21         4.000    21174077.516 6 111270622.76506       500.593 6        39.468                                    21174068.526 3  86704277.30303       390.062 3        18.925
G08         5.000    20294333.347 7 106647496.02307     -1166.276 7        47.539                                    20294330.745 7  83101904.32007      -908.791 7        47.186    20294332.199 7  83101886.33407      -908.851 7        45.232
G02         6.000    22816129.156 6 119899600.30006      1491.568 6        38.408                                    22816121.011 3  93428150.58203      1162.253 3        18.478
G14         7.000    24680574.800 6 129697436.65506      1315.467 6        36.790                                                                                                    24680569.467 5                      1024.789 5        30.460
E09         8.000                                                                                                                                    27463814.187 4                     -1783.317 4        28.626    27463816.129 4                     -1830.347 4        25.669
E03         9.000    26707244.895 5 140347528.11605      2107.064 5        34.157                                                                    26707244.471 6 104804994.14606      1573.588 6        38.610    26707242.299 6 107539060.26706      1614.502 6        40.033
E05        11.000    24010184.640 5 126174320.42105       222.672 5        35.624                                                                    24010196.065 5  94221166.78605       166.600 5        31.223
E13        12.000    27557536.647 5 144815865.93905      1506.482 5        32.401                                                                    27557537.311 4                      1124.574 4        27.808    27557548.519 4 110962801.59204      1154.174 4        29.346
G27        13.000    21284977.486 5 111853252.26005     -3430.693 5        32.647                                    21284965.644 3  87158397.54703     -2673.271 3        22.514    21284964.954 5  87158390.55905     -2673.223 5        33.054
E27        14.000    25531891.570 5 134171088.39405     -2178.565 5        35.781                                                                    25531893.610 7 100192663.21407     -1626.879 7        42.191    25531890.153 6 102806394.70606     -1669.353 6        39.273
E21        15.000                                                                                                                                    27127602.058 5 106454585.47505       352.695 5        34.605    27127604.282 6 109231676.91306       361.811 6        41.988
E15        16.000    23827232.512 7 125213078.37507       133.283 7        42.643                                                                    23827233.778 7  93503175.60807        99.409 7        43.843    23827228.768 6  95942413.49106       102.128 6        37.319
S23        17.000    38184577.303 6 200661309.88506      -861.679 6        39.958
E30        19.000    27191399.933 4 142891789.19104     -3905.421 4        27.497                                                                    27191406.782 4 106704924.58704     -2915.901 4        28.047    27191406.662 5 109488507.30205     -2992.006 5        35.329
R20        20.000    20858939.572 4                     -3139.897 4        29.128                                                                    20858942.465 6  86755000.74516     -2441.967 6        36.726
S36        22.000    38227359.051 6 200886151.96406      -863.217 6        36.344
R06        24.000    20818244.462 3                      2589.289 3        20.690
R05        28.000    20279899.467 7 108407665.02407     -2328.738 7        46.656                                                                    20279899.627 6  84317081.85606     -1811.281 6        40.875
R12        30.000    22466246.712 7 120010617.67807     -1698.490 7        46.065                                                                    22466247.361 6  93341613.50606     -1321.198 6        40.663
E34        32.000    24133179.947 7 126820715.39407     -2143.783 7        45.022                                                                    24133180.433 7  94703800.37207     -1600.858 7        44.479    24133182.219 7  97174393.62807     -1642.694 7        47.625
R11        33.000    23522411.946 4                     -4645.874 4        28.986
C33        37.000                                                                                                                                    23528796.142 7 122520619.37807      1920.348 7        45.532                                                                    23528804.129 6  99558044.55206      1560.485 6        37.713
C11        38.000                                                                                                                                    23374959.239 5                     -3111.546 5        35.133    23374960.059 6  94121515.36806     -2406.041 6        40.589    23374961.391 7  98907158.15807     -2528.352 7        44.871
