     3.04           OBSERVATION DATA    M                   RINEX VERSION / TYPE
ssrcrin-15.6.1x                         20250102 211500 UTC PGM / RUN BY / DATE 
(00000000023479385599111004) Septentrio proprietary         COMMENT             
ract                                                        MARKER NAME         
01                                                          MARKER NUMBER       
geodetic                                                    MARKER TYPE         
NFB                 CLIMERS@TUW                             OBSERVER / AGENCY   
3296359             SEPT ASTERX SB3 PROB4.14.4              REC # / TYPE / VERS 
Unknown             Unknown                                 ANT # / TYPE        
  4127447.6870  1206915.0178  4695542.4594                  APPROX POSITION XYZ 
        0.0000        0.0000        0.0000                  ANTENNA: DELTA H/E/N
G   23 X1  C1C L1C D1C S1C C1W S1W C2W L2W D2W S2W C2L L2L  SYS / # / OBS TYPES 
       D2L S2L C5Q L5Q D5Q S5Q C1L L1L D1L S1L              SYS / # / OBS TYPES 
E   21 X1  C1C L1C D1C S1C C6C L6C D6C S6C C5Q L5Q D5Q S5Q  SYS / # / OBS TYPES 
       C7Q L7Q D7Q S7Q C8Q L8Q D8Q S8Q                      SYS / # / OBS TYPES 
S    9 X1  C1C L1C D1C S1C C5I L5I D5I S5I                  SYS / # / OBS TYPES 
R   17 X1  C1C L1C D1C S1C C2P L2P D2P S2P C2C L2C D2C S2C  SYS / # / OBS TYPES 
       C3Q L3Q D3Q S3Q                                      SYS / # / OBS TYPES 
C   25 X1  C1P L1P D1P S1P C5P L5P D5P S5P C2I L2I D2I S2I  SYS / # / OBS TYPES 
       C7I L7I D7I S7I C6I L6I D6I S6I C7D L7D D7D S7D      SYS / # / OBS TYPES 
J   17 X1  C1C L1C D1C S1C C2L L2L D2L S2L C5Q L5Q D5Q S5Q  SYS / # / OBS TYPES 
       C1L L1L D1L S1L                                      SYS / # / OBS TYPES 
I    5 X1  C5A L5A D5A S5A                                  SYS / # / OBS TYPES 
SEPTENTRIO RECEIVERS OUTPUT ALIGNED CARRIER PHASES.         COMMENT             
NO FURTHER PHASE SHIFT APPLIED IN THE RINEX ENCODER.        COMMENT             
G L1C                                                       SYS / PHASE SHIFT   
G L2W                                                       SYS / PHASE SHIFT   
G L2L  0.00000                                              SYS / PHASE SHIFT   
G L5Q  0.00000                                              SYS / PHASE SHIFT   
G L1L  0.00000                                              SYS / PHASE SHIFT   
E L1C  0.00000                                              SYS / PHASE SHIFT   
E L6C  0.00000                                              SYS / PHASE SHIFT   
E L5Q  0.00000                                              SYS / PHASE SHIFT   
E L7Q  0.00000                                              SYS / PHASE SHIFT   
E L8Q  0.00000                                              SYS / PHASE SHIFT   
S L1C                                                       SYS / PHASE SHIFT   
S L5I                                                       SYS / PHASE SHIFT   
R L1C                                                       SYS / PHASE SHIFT   
R L2P  0.00000                                              SYS / PHASE SHIFT   
R L2C                                                       SYS / PHASE SHIFT   
R L3Q  0.00000                                              SYS / PHASE SHIFT   
C L1P  0.00000                                              SYS / PHASE SHIFT   
C L5P  0.00000                                              SYS / PHASE SHIFT   
C L2I                                                       SYS / PHASE SHIFT   
C L7I                                                       SYS / PHASE SHIFT   
C L6I                                                       SYS / PHASE SHIFT   
C L7D                                                       SYS / PHASE SHIFT   
J L1C                                                       SYS / PHASE SHIFT   
J L2L  0.00000                                              SYS / PHASE SHIFT   
J L5Q  0.00000                                              SYS / PHASE SHIFT   
J L1L  0.00000                                              SYS / PHASE SHIFT   
I L5A                                                       SYS / PHASE SHIFT   
  2025     1     2    21    15    0.0000000     GPS         TIME OF FIRST OBS   
 C1C    0.000 C2C    0.000 C2P    0.000                     GLONASS COD/PHS/BIS 
DBHZ                                                        SIGNAL STRENGTH UNIT
    18                                                      LEAP SECONDS        
 24 R01  1 R02 -4 R03  5 R04  6 R05  1 R06 -4 R07  5 R08  6 GLONASS SLOT / FRQ #
    R09 -2 R10 -7 R11  0 R12 -1 R13 -2 R14 -7 R15  0 R16 -1 GLONASS SLOT / FRQ #
    R17  4 R18 -3 R19  3 R20  2 R21  4 R22 -3 R23  3 R24  2 GLONASS SLOT / FRQ #
                                                            END OF HEADER       
> 2025 01 02 21 15  0.0000000  0 40
G10         1.000    20820919.734 6 109414645.81906     -1622.007 6        40.107                                    20820918.710 5  85258173.41005     -1263.890 5        30.385    20820917.288 6  85258165.42006     -1263.705 6        37.013
G23         2.000    22821481.958 5 119927668.71005     -3881.327 5        35.824                                    22821479.218 1  93450135.95001     -3024.341 1        10.518    22821481.114 5  93450225.00305     -3024.458 5        35.843
G32         3.000    23553518.577 6 123774565.99406      1987.690 6        40.205                                    23553515.384 4  96447712.26704      1548.848 4        27.473    23553515.519 5  96447699.33705      1549.014 5        33.108
G21         4.000    21741362.329 6 114251643.40006      1033.140 6        38.853                                    21741357.722 1  89027232.85301       805.038 1        10.444
G08         5.000    20378385.092 8 107089182.38508       -90.553 8        48.308                                    20378383.548 7  83446075.02407       -70.555 7        45.219    20378383.696 7  83446057.00307       -70.517 7        44.179
G02         6.000    23681863.358 5 124449031.46305      1757.599 5        34.948                                    23681859.838 1  96973256.27601      1369.593 1         7.000
E09         8.000                                                                                                                                    27074736.949 4 106247087.69604     -1164.632 4        24.361    27074733.975 5 109018727.50205     -1195.414 5        32.629
E05        11.000    24523687.890 4                       980.660 4        26.898                                                                                                                                    24523684.311 6  98746687.87906       751.345 6        37.508
G27        13.000    20546233.053 7 107971182.00007     -2523.158 7        46.888                                    20546232.361 8  84133343.12608     -1966.096 8        49.366    20546231.711 7  84133421.11907     -1966.086 7        47.333
E27        14.000    25221054.200 4 132537533.42604     -1322.210 4        26.958                                                                    25221054.827 5  98972871.37105      -987.421 5        34.729    25221058.444 6 101554782.28306     -1012.985 6        40.343
E21        15.000    27720938.749 5 145674503.58705      1189.977 5        35.486                                                                    27720932.361 6 108783026.37506       888.819 6        36.499    27720929.575 5 111620696.49905       912.388 5        33.096
E15        16.000    24230755.907 7 127333606.64307       462.702 7        43.663                                                                    24230756.254 7  95086685.44307       345.537 7        42.197    24230755.000 7  97567204.40507       354.571 7        43.881
E30        19.000    26177138.755 6 137561779.36106     -3623.034 6        38.694                                                                    26177139.493 5 102724707.62505     -2705.217 5        33.934    26177139.409 5 105404489.58405     -2775.975 5        34.052
R20        20.000    20202738.364 5 108033108.75105     -2457.282 5        31.283                                                                    20202732.482 6  84025741.65606     -1911.589 6        40.570
S21        21.000    38458897.507 5 202102809.89105      -863.209 5        33.665
S23        22.000    38185088.593 6 200663976.92106      -861.800 6        38.682
S36        23.000    38227657.000 5 200887734.59705      -861.854 5        35.552
R06        24.000    22157025.795 5 118234144.24505      3405.671 5        34.338
G16        26.000    24481104.533 5 128649139.65205     -4615.672 5        33.467
R05        28.000    20066972.521 7 107269429.46107      -650.554 7        45.696                                                                    20066972.053 7  83431912.33907      -505.969 7        43.763
R12        30.000    22454066.877 6 119945868.87806      -119.028 6        40.424                                                                    22454068.934 6  93291066.36006       -92.417 6        39.814
E34        32.000    23743035.360 8 124770481.18908     -1824.312 8        48.673                                                                    23743033.858 7  93172784.91507     -1362.337 7        44.749    23743034.470 7  95603438.57307     -1397.897 7        46.728
R11        33.000    22340229.454 5 119379377.97805     -3938.992 5        34.581                                                                    22340241.168 5  92850636.29905     -3063.695 5        35.524
R22        35.000                                                                                                                                    24044501.145 4                      1978.807 4        27.593
C08        36.000                                                                                                                                    39884676.673 3                     -2077.453 3        18.000    39884638.612 3                     -1605.341 3        22.495
C33        37.000                                                                                                                                    24599863.823 5 128097931.99805      2439.339 5        34.433                                                                    24599874.787 5 104090146.48205      1982.416 5        34.152
C11        38.000                                                                                                                                    22667960.266 7 118038022.35207     -2627.953 7        45.753    22667955.766 5                     -2032.069 5        32.347    22667950.423 5                     -2135.310 5        35.200
R21        39.000    20114205.587 8 107635162.00208       936.116 8        50.548                                                                    20114203.296 7  83716237.44707       727.990 7        46.811
R04        40.000    22408893.360 6 119998637.12306     -4203.499 6        39.120
C14        42.000                                                                                                                                    23008498.291 7 119811506.10807      1438.122 7        42.366                                                                    23008500.601 5  97356504.82605      1168.581 5        32.503
C13        43.000                                                                                                                                    39248369.110 4                     -1894.637 4        28.218    39248379.607 5 158036964.56605     -1465.330 5        34.386
C05        44.000                                                                                                                                                                                                    39208029.602 6 157874498.31406      -620.314 6        36.291
C21        46.000                                                                                                                                    24606412.522 6 128132037.01206     -3071.578 6        38.940                                                                    24606405.335 6 104117791.36006     -2495.835 6        36.439
C43        48.000                                                                                                                                    21676221.715 7 112873790.67607     -1610.772 7        44.086                                                                    21676220.884 7  91719181.12307     -1308.695 7        46.618
C42        50.000                                                                                                                                    22517069.276 8 117252264.35108      -181.104 8        48.649                                                                    22517077.690 8  95277137.69408      -147.005 8        48.777
C34        52.000                                                                                                                                                                                                                                                                    24385350.270 6 103182412.18806     -2868.333 6        38.150
C37        54.000                                                                                                                                                                                                                                                                    25965795.757 5                     -2184.270 5        35.243
C28        55.000                                                                                                                                    23410684.449 6 121905518.86706      1504.723 6        38.904                                                                    23410686.185 5                      1222.758 5        33.689
I01        57.000   413427906.736 6 319239092.14906     -2213.347 6        39.892
I06        58.000    38564252.975 6 151334546.26206      -551.732 6        36.533
> 2025 01 02 21 15  5.0000000  0 39
G10         1.000    20822462.719 6 109422761.53206     -1624.583 6        39.652                                    20822463.079 4  85264497.35004     -1265.926 4        28.427    20822461.204 6  85264489.39706     -1265.907 6        36.302
G23         2.000                                                                                                                                                                    22825172.440 5  93465348.65305     -3025.268 5        35.548
G32         3.000    23551627.568 6 123764630.41006      1986.312 6        40.884                                    23551623.615 4  96439970.30104      1547.767 4        27.102    23551624.658 5  96439957.33505      1547.738 5        34.900
G21         4.000    21740381.065 6 114246480.34806      1031.853 6        37.565                                    21740374.966 1  89023209.73601       803.966 1         8.476
G08         5.000    20378472.471 8 107089641.36208       -93.246 8        48.443                                    20378470.731 7  83446432.65807       -72.654 7        45.186    20378471.268 7  83446414.63207       -72.606 7        43.664
G02         6.000    23680185.090 5 124440244.63305      1756.524 5        31.947                                    23680187.684 1  96966409.30101      1368.645 1         6.500
E09         8.000    27076218.745 4                     -1562.233 4        27.725                                                                                                                                    27076221.143 5 109024708.63905     -1197.165 5        31.721
E05        11.000                                                                                                                                                                                                    24522753.252 6  98742933.75406       749.936 6        37.240
G27        13.000    20548634.896 7 107983804.03307     -2525.863 7        47.418                                    20548634.382 8  84143178.47308     -1968.204 8        48.685    20548633.661 7  84143256.47007     -1968.218 7        47.182
E27        14.000    25222314.062 5 132544149.77705     -1324.416 5        31.351                                                                    25222312.786 5  98977812.09405      -989.065 5        34.614    25222316.711 6 101559851.90106     -1014.831 6        39.048
E21        15.000    27719804.908 5 145668555.64805      1188.580 5        34.595                                                                    27719800.253 6 108778584.80106       887.724 6        37.187    27719797.900 5 111616139.08705       910.751 5        33.060
E15        16.000    24230315.318 7 127331294.45207       461.951 7        43.437                                                                    24230316.171 7  95084958.79507       344.876 7        42.366    24230314.499 7  97565432.72907       353.904 7        43.477
E30        19.000    26180586.865 6 137579896.11406     -3624.073 6        38.898                                                                                                                                    26180585.838 5 105418371.15305     -2776.635 5        32.240
R20        20.000                                                                                                                                    20205030.798 6  84035302.96706     -1913.045 6        40.934
S21        21.000    38459708.722 5 202107124.05605      -862.836 5        34.595
S23        22.000    38185905.987 6 200668285.63306      -861.918 6        37.365
S36        23.000    38228470.692 6 200892044.66006      -862.323 6        37.543
R06        24.000    22153836.552 5 118217120.09205      3404.054 5        34.514
G16        26.000    24485496.704 5 128672219.23005     -4616.039 5        33.108
R05        28.000    20067581.724 7 107272693.74807      -655.271 7        45.830                                                                    20067582.097 6  83434451.23906      -509.670 6        41.483
R12        30.000    22454181.286 6 119946473.65306      -123.297 6        37.040                                                                    22454180.177 6  93291536.72706       -96.024 6        38.847
E34        32.000    23744771.745 8 124779604.43308     -1825.134 8        48.533                                                                    23744769.359 7  93179597.72307     -1362.924 7        44.057    23744770.910 7  95610429.10807     -1398.539 7        47.201
R11        33.000                                                                                                                                    22343928.156 6  92865960.28406     -3066.015 6        37.214
R22        35.000                                                                                                                                    24042115.905 5                      1978.673 5        30.649
C08        36.000                                                                                                                                    39886650.255 3                     -2077.888 3        20.310    39886643.491 4                     -1606.954 4        26.826
C33        37.000                                                                                                                                    24597525.151 6 128085737.98306      2438.348 6        36.480                                                                    24597533.740 5 104080237.86005      1981.408 5        34.576
C11        38.000                                                                                                                                    22670484.306 7 118051164.86507     -2629.253 7        44.424    22670480.592 5  91284701.61215     -2033.281 5        35.771    22670474.801 6  95926193.57416     -2136.719 6        36.155
R21        39.000    20113331.167 8 107630484.96808       934.547 8        50.045                                                                    20113329.268 7  83712599.73507       726.830 7        46.913
C14        42.000                                                                                                                                    23007120.801 6 119804320.14806      1435.978 6        41.659    23007111.750 5                      1110.392 5        34.857    23007124.690 4                      1167.236 4        28.351
C13        43.000                                                                                                                                    39250189.373 4                     -1894.518 4        25.925    39250197.642 5 158044289.97805     -1465.121 5        31.992
C05        44.000                                                                                                                                                                                                    39208798.721 5 157877599.39905      -620.437 5        35.929
C21        46.000                                                                                                                                    24609363.566 6 128147399.98206     -3073.958 6        36.000                                                                    24609360.051 6 104130275.01106     -2497.599 6        36.681
C43        48.000                                                                                                                                    21677768.813 6 112881848.39106     -1612.517 6        41.621                                                                    21677768.080 7  91725728.69207     -1310.198 7        46.891
C42        50.000                                                                                                                                    22517243.365 8 117253176.45608      -183.938 8        48.349                                                                    22517253.324 8  95277878.83908      -149.297 8        48.872
C34        52.000                                                                                                                                    24388744.745 5 126998582.10715     -3530.860 5        33.611                                                                    24388740.460 6 103196756.01106     -2869.096 6        37.633
C37        54.000                                                                                                                                    25968366.670 5 135224097.15615     -2690.323 5        33.168                                                                    25968378.078 5 109880697.88515     -2185.933 5        35.376
C28        55.000                                                                                                                                    23409241.679 6 121897996.74206      1503.865 6        40.779                                                                    23409243.782 5                      1222.333 5        35.762
I01        57.000   413430726.476 6 319250158.79306     -2213.448 6        39.369
I06        58.000    38564955.849 6 151337304.20506      -551.453 6        36.386
> 2025 01 02 21 15 10.0000000  0 39
G10         1.000    20824008.344 5 109430890.69705     -1627.091 5        35.490                                    20824010.077 4  85270831.74004     -1267.874 4        26.742    20824007.743 5  85270823.73805     -1267.804 5        34.862
G23         2.000    22828860.567 4                     -3883.946 4        28.123                                                                                                    22828865.912 6  93480477.44206     -3026.292 6        37.433
G32         3.000    23549738.516 6 123754701.66906      1985.050 6        38.444                                    23549733.908 4  96432233.64904      1546.792 4        26.671    23549737.407 5  96432220.60605      1546.945 5        34.814
G21         4.000    21739399.540 6 114241324.17306      1030.568 6        39.544                                    21739393.495 1  89019191.95001       803.062 1        10.667
G08         5.000    20378562.092 8 107090114.20608       -95.865 8        48.210                                    20378560.494 7  83446801.10407       -74.699 7        45.254    20378560.680 7  83446783.10607       -74.703 7        43.494
E09         8.000    27077703.364 4                     -1564.897 4        29.213                                                                    27077721.020 3                     -1168.043 3        19.552    27077708.931 5 109030698.83305     -1198.632 5        32.287
E05        11.000                                                                                                                                                                                                    24521821.038 6  98739186.52506       748.951 6        38.138
G27        13.000    20551039.222 7 107996439.34307     -2528.216 7        47.577                                    20551038.877 8  84153024.16808     -1970.031 8        48.310    20551037.991 7  84153102.15707     -1970.109 7        46.699
E27        14.000    25223576.592 5 132550778.19505     -1326.730 5        31.947                                                                    25223573.020 5  98982761.84705      -990.651 5        34.343    25223577.229 6 101564930.83606     -1016.640 6        40.508
E21        15.000    27718673.398 5 145662616.26805      1187.256 5        34.295                                                                    27718669.834 6 108774149.56306       886.543 6        37.164    27718667.483 5 111611588.14505       910.037 5        32.425
E15        16.000    24229875.986 7 127328986.57107       461.265 7        43.932                                                                    24229876.542 6  95083235.37706       344.371 6        41.600    24229875.280 7  97563664.36107       353.435 7        43.752
E30        19.000    26184035.314 6 137598018.18806     -3624.806 6        37.936                                                                    26184044.309 5 102751768.99105     -2706.918 5        34.695    26184033.331 4 105432256.83204     -2777.500 4        28.464
R20        20.000    20207326.013 3                     -2461.654 3        22.419                                                                    20207332.010 6                     -1914.214 6        39.291
S21        21.000    38460519.275 4 202111438.01004      -862.124 4        29.488
S23        22.000    38186703.314 6 200672594.32506      -861.737 6        36.987
S36        23.000    38229299.306 6 200896354.99306      -861.941 6        38.039
R06        24.000    22150648.109 5 118200103.64505      3402.517 5        35.562
G16        26.000    24489889.313 5 128695299.27005     -4616.148 5        32.832
R05        28.000    20068197.553 7 107275981.47807      -659.710 7        45.556                                                                    20068196.834 6  83437008.34006      -513.011 6        41.237
R12        30.000    22454298.104 6 119947099.96206      -127.192 6        38.520                                                                    22454297.863 6  93292023.84606       -98.904 6        39.471
E34        32.000    23746508.518 8 124788732.14808     -1825.821 8        48.443                                                                    23746507.090 7  93186413.87707     -1363.429 7        43.598    23746507.722 7  95617423.07107     -1399.012 7        47.402
R11        33.000                                                                                                                                    22347624.638 6  92881294.59406     -3067.579 6        38.853
R22        35.000                                                                                                                                    24039736.215 4                      1978.738 4        26.491
C08        36.000                                                                                                                                                                                                    39888635.948 4                     -1606.656 4        26.982
C33        37.000                                                                                                                                    24595185.083 6 128073549.23906      2437.280 6        38.147                                                                    24595193.484 5 104070333.52305      1980.500 5        35.181
C11        38.000                                                                                                                                    22673008.941 7 118064314.08807     -2630.305 7        44.071    22673011.097 6  91294869.37706     -2033.971 6        40.017    22673004.569 6  95936878.39506     -2137.328 6        37.508
R21        39.000    20112457.831 8 107625816.16508       932.961 8        49.301                                                                    20112456.961 7  83708968.45907       725.753 7        46.451
R04        40.000                                                                                                                                    22416752.779 4                     -3273.813 4        27.377
C14        42.000                                                                                                                                    23005742.871 6 119797145.03006      1434.016 6        40.858    23005735.975 6  92634554.81316      1108.919 6        38.886    23005745.222 4                      1165.939 4        24.767
C13        43.000                                                                                                                                    39252008.210 3                     -1894.304 3        23.295    39252009.917 5 158051615.19105     -1464.977 5        34.919
C05        44.000                                                                                                                                                                                                    39209567.192 5 157880700.46505      -620.176 5        35.538
C21        46.000                                                                                                                                    24612311.812 5 128162773.18905     -3075.503 5        34.324
C43        48.000                                                                                                                                    21679318.217 7 112889914.83007     -1613.964 7        42.214                                                                    21679317.501 7  91732283.35407     -1311.506 7        46.929
C42        50.000                                                                                                                                    22517420.780 7 117254102.76807      -186.526 7        47.932                                                                    22517430.888 8  95278631.56108      -151.617 8        48.706
C34        52.000                                                                                                                                    24392133.627 5 127016238.54905     -3531.826 5        34.148                                                                    24392130.638 6 103211103.25206     -2869.816 6        36.699
C37        54.000                                                                                                                                    25970960.216 5 135237551.67105     -2691.560 5        34.948                                                                    25970960.968 5 109891630.82305     -2187.197 5        33.719
C28        55.000                                                                                                                                    23407797.633 7 121890478.54507      1503.399 7        42.421                                                                    23407798.909 6  99046053.11816      1221.582 6        36.212
I01        57.000   413433547.282 6 319261226.93806     -2213.644 6        39.952
I06        58.000    38565658.140 6 151340062.01606      -551.460 6        36.136
> 2025 01 02 21 15 15.0000000  0 39
G10         1.000    20825559.147 6 109439033.31706     -1629.901 6        36.435                                    20825559.553 4  85277176.66604     -1270.027 4        25.188    20825555.800 5  85277168.61205     -1269.843 5        32.545
G23         2.000    22832564.068 5                     -3885.531 5        32.922                                                                                                    22832560.758 6  93495611.42106     -3027.468 6        36.072
G32         3.000    23547848.786 6 123744779.85906      1983.748 6        37.403                                    23547845.993 4  96424502.39604      1545.780 4        26.311    23547849.241 5  96424489.31905      1545.804 5        35.267
G21         4.000    21738419.180 6 114236174.98806      1029.269 6        37.762                                    21738413.431 2  89015179.63202       802.066 2        12.303
G08         5.000    20378654.906 8 107090601.05908       -98.780 8        48.567                                    20378652.829 7  83447180.45707       -76.973 7        45.144    20378653.120 7  83447162.47207       -77.035 7        42.971
G02         6.000    23676863.761 6 124422680.45506      1755.747 6        36.215                                    23676845.316 1  96952722.88001      1368.086 1         9.810
E09         8.000    27079196.904 4                     -1566.579 4        28.322                                                                                                                                    27079196.821 5 109036698.17405     -1200.800 5        31.125
E05        11.000    24520915.994 3                       973.732 3        20.429                                                                                                                                    24520888.869 6  98735446.35706       747.201 6        38.535
G27        13.000    20553446.692 7 108009088.03707     -2531.221 7        46.783                                    20553445.812 8  84162880.29408     -1972.380 8        48.182    20553444.960 7  84162958.29307     -1972.334 7        46.516
E27        14.000    25224840.327 4 132557418.94704     -1329.797 4        29.014                                                                    25224838.908 5  98987720.79805      -992.553 5        35.300    25224840.570 6 101570019.14006     -1018.619 6        41.042
E21        15.000    27717543.659 6 145656685.60006      1184.991 6        36.590                                                                    27717541.153 6 108769720.79706       885.031 6        37.535    27717538.725 5 111607043.79505       908.559 5        30.808
E15        16.000    24229437.326 7 127326683.14707       460.157 7        44.518                                                                    24229437.874 6  95081515.28706       343.666 6        41.633    24229437.006 7  97561899.40507       352.565 7        43.469
E30        19.000    26187485.375 6 137616145.63806     -3626.163 6        36.541                                                                    26187490.936 5 102765305.76605     -2707.873 5        33.120    26187480.686 4 105446146.73104     -2777.954 4        27.234
R20        20.000    20209624.079 3                     -2462.342 3        22.038                                                                    20209634.909 6  84054447.64816     -1916.091 6        39.420
S21        21.000    38461350.036 4 202115751.86504      -862.601 4        29.630
S23        22.000    38187529.142 6 200676903.15406      -861.967 6        38.129
S36        23.000    38230115.390 6 200900665.21006      -862.206 6        37.728
R06        24.000    22147461.008 5 118183095.00905      3400.746 5        35.410
G16        26.000    24494282.678 5 128718379.81305     -4616.400 5        33.096
R05        28.000    20068816.985 7 107279292.85907      -664.603 7        44.030                                                                    20068814.379 6  83439583.87706      -517.025 6        40.117
R12        30.000    22454421.872 6 119947747.84606      -131.799 6        40.572                                                                    22454417.403 6  93292527.74106      -102.646 6        38.372
E34        32.000    23748245.839 7 124797864.45307     -1827.046 7        47.663                                                                    23748244.920 7  93193233.43907     -1364.307 7        43.568    23748245.827 7  95624420.54907     -1399.921 7        47.409
R11        33.000    22351319.979 5 119438525.15105     -3947.255 5        33.892                                                                    22351324.810 6  92896639.32806     -3070.007 6        38.396
R22        35.000    24037339.528 4                      2544.733 4        28.360                                                                    24037353.896 4                      1979.160 4        29.697
C08        36.000                                                                                                                                                                                                    39890631.454 4                     -1606.422 4        28.882
C33        37.000                                                                                                                                    24592844.971 6 128061365.84206      2435.914 6        38.718                                                                    24592856.049 6 104060433.52306      1979.448 6        36.628
C11        38.000                                                                                                                                    22675534.505 7 118077470.09407     -2631.926 7        43.454    22675545.090 6  91305042.45006     -2035.219 6        40.892    22675531.881 6  95947568.75806     -2138.931 6        37.913
R21        39.000    20111587.015 8 107621155.70208       931.086 8        49.891                                                                    20111585.722 7  83705343.63907       724.332 7        44.898
C14        42.000                                                                                                                                    23004367.921 6 119789980.91706      1431.718 6        39.658    23004360.869 6  92629015.07806      1107.001 6        39.700
C13        43.000                                                                                                                                                                                                    39253824.650 5 158058940.24305     -1465.154 5        34.167
C05        44.000                                                                                                                                                                                                    39210338.954 6 157883801.56606      -620.287 6        36.208
C21        46.000                                                                                                                                    24615264.519 5 128178156.75305     -3077.944 5        34.324                                                                    24615291.007 5 104155267.64205     -2501.109 5        35.157
C43        48.000                                                                                                                                    21680869.804 6 112897990.18706     -1616.123 6        41.692                                                                    21680868.140 7  91738845.25607     -1313.153 7        46.874
C42        50.000                                                                                                                                    22517602.529 8 117255043.46008      -189.717 8        48.273                                                                    22517611.301 8  95279395.94408      -154.127 8        48.602
C34        52.000                                                                                                                                    24395521.940 5 127033899.12605     -3532.351 5        31.706                                                                    24395521.922 6 103225453.96406     -2870.684 6        36.306
C37        54.000                                                                                                                                    25973547.403 6 135251015.33706     -2693.795 6        38.081                                                                    25973543.430 5 109902571.10905     -2188.929 5        34.462
C28        55.000                                                                                                                                    23406353.329 7 121882964.38307      1502.274 7        44.187                                                                    23406355.331 5  99039947.22505      1220.896 5        35.590
I01        57.000   413436368.848 6 319272296.67506     -2214.132 6        39.538
I06        58.000    38566360.918 6 151342819.67706      -551.545 6        36.386
> 2025 01 02 21 15 20.0000000  0 40
G10         1.000    20827111.576 6 109447189.19806     -1632.798 6        38.940                                    20827111.465 4  85283531.90304     -1272.310 4        26.623    20827109.232 5  85283523.89105     -1272.126 5        34.738
G23         2.000    22836260.616 5 120005354.07215     -3886.356 5        34.238                                    22836256.723 1  93510653.50111     -3028.410 1         9.048    22836258.002 5  93510750.53505     -3028.354 5        35.019
G32         3.000    23545962.029 5 123734864.83705      1982.361 5        33.994                                    23545959.237 4  96416776.37504      1544.684 4        25.323    23545962.278 6  96416763.37406      1544.692 6        36.586
G21         4.000    21737438.386 4 114231032.66304      1027.347 4        29.820                                    21737434.611 1  89011172.55701       800.508 1        11.259
G08         5.000    20378749.772 8 107091101.78708      -101.646 8        48.972                                    20378747.824 7  83447570.63507       -79.204 7        45.243    20378748.416 7  83447552.64607       -79.247 7        42.908
G02         6.000    23675192.466 6 124413902.95806      1755.154 6        36.253                                    23675175.026 1  96945883.32901      1367.638 1         9.429
E09         8.000                                                                                                                                                                                                    27080685.485 4 109042706.73204     -1202.604 4        29.450
E05        11.000                                                                                                                                                                                                    24519961.402 6  98731713.11706       745.841 6        38.664
G27        13.000    20555855.981 7 108021750.01407     -2533.814 7        46.882                                    20555855.226 8  84172746.77208     -1974.403 8        48.521    20555854.344 7  84172824.78107     -1974.428 7        45.544
E27        14.000    25226106.950 5 132564071.67405     -1331.929 5        34.290                                                                    25226106.074 5  98992688.78705      -994.493 5        35.138    25226106.284 6 101575116.71906     -1020.525 6        41.442
E21        15.000    27716417.402 5 145650763.39805      1183.310 5        35.109                                                                    27716414.043 6 108765298.34306       883.784 6        37.875    27716412.641 5 111602506.05105       906.742 5        30.468
E15        16.000    24228999.885 7 127324384.03907       459.180 7        44.813                                                                    24229000.352 6  95079798.44306       342.916 6        41.518    24228999.361 7  97560137.75807       351.898 7        43.018
E30        19.000    26190935.935 5 137634278.52005     -3627.375 5        34.490                                                                    26190941.458 4 102778846.59904     -2709.127 4        24.617    26190936.175 4 105460040.72104     -2778.435 4        24.827
R20        20.000                                                                                                                                    20211939.377 6  84064031.07406     -1917.521 6        41.409
S21        21.000    38462171.495 5 202120065.82005      -863.086 5        30.657
S23        22.000    38188354.062 6 200681211.90706      -862.095 6        37.221
S36        23.000    38230931.739 5 200904974.93605      -861.786 5        32.784
R06        24.000    22144274.461 5 118166094.01005      3399.340 5        35.938
G16        26.000    24498674.579 5 128741460.90805     -4616.327 5        31.441
R05        28.000    20069440.583 7 107282627.71007      -669.450 7        43.168                                                                    20069439.357 6  83442177.62306      -520.716 6        40.133
R12        30.000    22454548.651 7 119948417.31107      -136.200 7        44.134                                                                    22454543.018 6  93293048.43106      -106.018 6        38.396
E34        32.000    23749984.955 7 124807001.22607     -1827.946 7        46.552                                                                    23749983.845 7  93200056.36007     -1364.994 7        43.699    23749983.574 7  95631421.45207     -1400.642 7        47.137
R11        33.000    22355004.269 5 119458267.75605     -3949.740 5        30.317                                                                    22355015.530 6  92911994.41106     -3072.170 6        36.000
R22        35.000    24034963.084 5                      2544.751 5        30.294                                                                    24034966.045 4                      1979.080 4        28.597
C08        36.000                                                                                                                                                                                                    39892624.800 4                     -1606.669 4        28.540
C33        37.000                                                                                                                                    24590507.317 6 128049187.65406      2434.928 6        39.063                                                                    24590517.914 6 104050537.75206      1978.720 6        36.650
C11        38.000                                                                                                                                    22678062.475 7 118090632.81307     -2633.306 7        43.306    22678078.962 6  91315220.68606     -2036.264 6        38.835    22678058.620 6  95958264.57406     -2139.685 6        39.177
R21        39.000    20110717.689 8 107616503.50708       929.525 8        48.101                                                                    20110716.039 7  83701725.27907       722.973 7        45.108
R04        40.000    22424628.173 4                     -4214.059 4        25.805                                                                    22424594.485 4                     -3277.890 4        28.787
C14        42.000                                                                                                                                    23002992.132 6 119782827.70406      1429.738 6        36.405    23002986.610 6  92623483.80606      1105.212 6        38.931    23003009.259 3                      1164.550 3        22.705
C13        43.000                                                                                                                                                                                                    39255646.312 5 158066265.08305     -1465.228 5        33.850
C05        44.000                                                                                                                                                                                                    39211110.259 5 157886902.64005      -620.451 5        35.252
C21        46.000                                                                                                                                    24618224.043 4 128193550.55004     -3080.357 4        27.114                                                                    24618244.164 5 104167776.42705     -2502.710 5        33.557
C43        48.000                                                                                                                                    21682423.177 7 112906074.29507     -1617.839 7        45.106                                                                    21682420.860 7  91745414.28107     -1314.553 7        46.707
C42        50.000                                                                                                                                    22517786.905 7 117255998.40507      -192.573 7        46.142                                                                    22517794.740 8  95280171.90408      -156.345 8        48.311
C34        52.000                                                                                                                                    24398911.470 5 127051564.05505     -3533.658 5        30.340                                                                    24398914.524 6 103239808.12106     -2871.115 6        36.072
C37        54.000                                                                                                                                    25976130.526 6 135264487.87506     -2695.539 6        37.490                                                                    25976129.528 6 109913518.69206     -2190.231 6        36.624
C28        55.000                                                                                                                                    23404910.960 7 121875454.09407      1501.667 7        42.057                                                                    23404906.834 5  99033844.56305      1220.315 5        33.263
I01        57.000   413439190.673 6 319283367.92506     -2214.565 6        40.911
I06        58.000    38567064.190 6 151345577.15106      -551.771 6        37.263
> 2025 01 02 21 15 25.0000000  0 40
G10         1.000    20828665.552 6 109455359.24306     -1635.278 6        41.712                                    20828666.579 4  85289898.19804     -1274.224 4        29.194    20828666.704 6  85289890.17206     -1274.334 6        38.042
G23         2.000    22839960.253 6 120024789.89406     -3887.737 6        36.665                                    22839955.708 1  93525798.30401     -3029.430 1         8.190    22839955.483 5  93525895.30605     -3029.270 5        34.662
G32         3.000    23544074.266 4 123724957.55104      1981.166 4        27.904                                    23544074.439 4  96409056.42404      1543.764 4        25.158    23544078.595 6  96409043.35906      1543.465 6        36.514
G21         4.000    21736462.313 5 114225897.93705      1026.465 5        33.689                                    21736457.351 1  89007171.54801       799.773 1         7.375
G08         5.000    20378847.611 8 107091617.13908      -104.296 8        49.478                                    20378845.605 7  83447972.19907       -81.263 7        44.770    20378846.438 7  83447954.20507       -81.278 7        42.514
G02         6.000    23673519.306 6 124405129.38406      1754.444 6        37.974                                    23673505.381 1  96939046.87301      1367.072 1         9.333
E09         8.000                                                                                                                                                                                                    27082178.969 4 109048724.97204     -1204.748 4        28.398
E05        11.000                                                                                                                                                                                                    24519036.869 6  98727987.39606       744.507 6        38.916
G27        13.000    20558268.575 8 108034425.99908     -2536.403 8        48.536                                    20558267.152 8  84182624.17008     -1976.414 8        48.947    20558266.347 7  84182702.15607     -1976.469 7        44.921
E27        14.000    25227375.391 5 132570737.33405     -1334.275 5        34.462                                                                    25227375.187 6  98997666.37906      -996.400 6        37.183    25227373.981 6 101580224.12606     -1022.111 6        40.553
E21        15.000    27715293.518 5 145644850.38205      1181.673 5        33.952                                                                    27715289.096 6 108760882.83506       882.405 6        36.125    27715286.512 5 111597975.29105       905.265 5        30.528
E15        16.000    24228563.215 7 127322090.02507       458.534 7        44.172                                                                    24228563.939 7  95078085.39507       342.355 7        42.597    24228562.637 7  97558380.00507       351.376 7        42.679
E30        19.000    26194386.944 4 137652417.26704     -3627.940 4        29.602                                                                    26194392.872 4 102792391.71004     -2708.388 4        26.599
R20        20.000    20214239.522 3                     -2466.891 3        21.643                                                                    20214245.742 7                     -1918.917 7        43.132
S21        21.000    38462981.203 5 202124380.36305      -862.632 5        33.042
S23        22.000    38189185.654 5 200685521.25305      -861.716 5        35.214
S36        23.000    38231754.714 6 200909284.95406      -861.884 6        36.227
R06        24.000    22141089.125 5 118149101.50005      3397.931 5        35.405
G16        26.000    24503065.309 5 128764543.10905     -4616.698 5        31.004
R05        28.000    20070069.850 7 107285986.73207      -674.005 7        44.134                                                                    20070068.191 7  83444790.26107      -524.138 7        42.254
R12        30.000    22454679.609 7 119949109.05707      -140.413 7        44.150                                                                    22454672.586 6  93293586.47206      -109.189 6        37.989
E34        32.000    23751724.604 7 124816143.19707     -1828.720 7        46.564                                                                    23751723.827 7  93206883.16407     -1365.651 7        44.275    23751723.255 7  95638426.32507     -1401.185 7        46.802
R11        33.000    22358695.521 5 119478024.09005     -3952.744 5        33.060
R22        35.000    24032587.808 4 128287562.56514      2545.404 4        29.934
C08        36.000                                                                                                                                    39894633.018 3                     -2074.064 3        21.571    39894624.568 5                     -1606.508 5        30.845
C33        37.000                                                                                                                                    24588169.355 6 128037015.46006      2434.056 6        39.622                                                                    24588183.123 6 104040646.94506      1977.714 6        36.972
C11        38.000                                                                                                                                    22680593.251 7 118103802.98607     -2634.665 7        43.562    22680608.159 6  91325404.68306     -2037.210 6        36.677    22680587.539 6  95968966.35906     -2140.671 6        38.844
R21        39.000    20109850.348 8 107611860.23308       927.940 8        50.024                                                                    20109848.542 7  83698113.83707       721.783 7        45.720
R04        40.000    22428567.985 4                     -4218.065 4        24.932                                                                    22428537.463 5                     -3280.393 5        31.306
C14        42.000                                                                                                                                    23001617.041 6 119775686.13506      1427.399 6        37.800    23001611.856 6  92617961.39206      1103.815 6        37.962    23001637.987 4                      1159.088 4        24.421
C13        43.000                                                                                                                                    39257464.015 4                     -1895.491 4        24.466    39257471.523 5 158073590.21505     -1464.980 5        31.094
C05        44.000                                                                                                                                                                                                    39211880.791 6 157890004.21306      -620.015 6        36.329
C21        46.000                                                                                                                                    24621179.895 5                     -3081.949 5        34.490                                                                    24621195.964 5 104180294.13105     -2504.444 5        33.317
C43        48.000                                                                                                                                    21683976.811 7 112914167.95207     -1619.500 7        44.775                                                                    21683975.216 7  91751991.04107     -1316.021 7        47.166
C42        50.000                                                                                                                                    22517973.341 7 117256968.30107      -195.326 7        47.545                                                                    22517980.439 7  95280960.02307      -158.670 7        47.246
C34        52.000                                                                                                                                    24402307.133 5 127069233.96205     -3534.483 5        30.332                                                                    24402307.580 6 103254166.27406     -2871.941 6        36.836
C37        54.000                                                                                                                                    25978714.787 6 135277970.10706     -2697.189 6        36.408                                                                    25978721.627 6 109924474.07106     -2191.677 6        38.318
