     3.04           OBSERVATION DATA    M                   RINEX VERSION / TYPE
ssrcrin-15.6.1x                         20250102 091500 UTC PGM / RUN BY / DATE 
(00000000023479385599111004) Septentrio proprietary         COMMENT             
ract                                                        MARKER NAME         
01                                                          MARKER NUMBER       
geodetic                                                    MARKER TYPE         
NFB                 CLIMERS@TUW                             OBSERVER / AGENCY   
3296359             SEPT ASTERX SB3 PROB4.14.4              REC # / TYPE / VERS 
Unknown             Unknown                                 ANT # / TYPE        
  4127445.4190  1206914.6111  4695542.6126                  APPROX POSITION XYZ 
        0.0000        0.0000        0.0000                  ANTENNA: DELTA H/E/N
G   23 X1  C1C L1C D1C S1C C1W S1W C2W L2W D2W S2W C2L L2L  SYS / # / OBS TYPES 
       D2L S2L C5Q L5Q D5Q S5Q C1L L1L D1L S1L              SYS / # / OBS TYPES 
E   21 X1  C1C L1C D1C S1C C6C L6C D6C S6C C5Q L5Q D5Q S5Q  SYS / # / OBS TYPES 
       C7Q L7Q D7Q S7Q C8Q L8Q D8Q S8Q                      SYS / # / OBS TYPES 
S    9 X1  C1C L1C D1C S1C C5I L5I D5I S5I                  SYS / # / OBS TYPES 
R   17 X1  C1C L1C D1C S1C C2P L2P D2P S2P C2C L2C D2C S2C  SYS / # / OBS TYPES 
       C3Q L3Q D3Q S3Q                                      SYS / # / OBS TYPES 
C   25 X1  C1P L1P D1P S1P C5P L5P D5P S5P C2I L2I D2I S2I  SYS / # / OBS TYPES 
       C7I L7I D7I S7I C6I L6I D6I S6I C7D L7D D7D S7D      SYS / # / OBS TYPES 
J   17 X1  C1C L1C D1C S1C C2L L2L D2L S2L C5Q L5Q D5Q S5Q  SYS / # / OBS TYPES 
       C1L L1L D1L S1L                                      SYS / # / OBS TYPES 
I    5 X1  C5A L5A D5A S5A                                  SYS / # / OBS TYPES 
SEPTENTRIO RECEIVERS OUTPUT ALIGNED CARRIER PHASES.         COMMENT             
NO FURTHER PHASE SHIFT APPLIED IN THE RINEX ENCODER.        COMMENT             
G L1C                                                       SYS / PHASE SHIFT   
G L2W                                                       SYS / PHASE SHIFT   
G L2L  0.00000                                              SYS / PHASE SHIFT   
G L5Q  0.00000                                              SYS / PHASE SHIFT   
G L1L  0.00000                                              SYS / PHASE SHIFT   
E L1C  0.00000                                              SYS / PHASE SHIFT   
E L6C  0.00000                                              SYS / PHASE SHIFT   
E L5Q  0.00000                                              SYS / PHASE SHIFT   
E L7Q  0.00000                                              SYS / PHASE SHIFT   
E L8Q  0.00000                                              SYS / PHASE SHIFT   
S L1C                                                       SYS / PHASE SHIFT   
S L5I                                                       SYS / PHASE SHIFT   
R L1C                                                       SYS / PHASE SHIFT   
R L2P  0.00000                                              SYS / PHASE SHIFT   
R L2C                                                       SYS / PHASE SHIFT   
R L3Q  0.00000                                              SYS / PHASE SHIFT   
C L1P  0.00000                                              SYS / PHASE SHIFT   
C L5P  0.00000                                              SYS / PHASE SHIFT   
C L2I                                                       SYS / PHASE SHIFT   
C L7I                                                       SYS / PHASE SHIFT   
C L6I                                                       SYS / PHASE SHIFT   
C L7D                                                       SYS / PHASE SHIFT   
J L1C                                                       SYS / PHASE SHIFT   
J L2L  0.00000                                              SYS / PHASE SHIFT   
J L5Q  0.00000                                              SYS / PHASE SHIFT   
J L1L  0.00000                                              SYS / PHASE SHIFT   
I L5A                                                       SYS / PHASE SHIFT   
  2025     1     2     9    15    0.0000000     GPS         TIME OF FIRST OBS   
 C1C    0.000 C2C    0.000 C2P    0.000                     GLONASS COD/PHS/BIS 
DBHZ                                                        SIGNAL STRENGTH UNIT
    18                                                      LEAP SECONDS        
 24 R01  1 R02 -4 R03  5 R04  6 R05  1 R06 -4 R07  5 R08  6 GLONASS SLOT / FRQ #
    R09 -2 R10 -7 R11  0 R12 -1 R13 -2 R14 -7 R15  0 R16 -1 GLONASS SLOT / FRQ #
    R17  4 R18 -3 R19  3 R20  2 R21  4 R22 -3 R23  3 R24  2 GLONASS SLOT / FRQ #
                                                            END OF HEADER       
> 2025 01 02 09 15  0.0000000  0 31
G13         1.000    20072664.010 5 105482539.06205     -1627.004 5        34.148
G17         2.000    23118042.794 6 121486075.78206      1452.924 6        39.105                                    23118036.399 3  94664479.05403      1132.157 3        21.548    23118036.213 5  94664504.06905      1132.246 5        32.240
G30         6.000    23082627.623 5                     -3538.959 5        32.958                                                                                                    23082636.824 3                     -2756.715 3        20.595
G14         8.000    20978762.927 6 110243744.34606     -2254.852 6        37.565                                    20978756.710 4  85904465.63904     -1757.014 4        25.323    20978757.135 7  85904511.62807     -1757.206 7        44.059
G15         9.000    20516465.340 8 107814972.27108       344.504 8        48.374                                    20516469.446 6  84011572.45906       268.435 6        39.733    20516466.081 6  84011451.48406       268.558 6        40.753
G23        10.000    23682753.569 7 124453678.40807       935.651 7        44.602                                    23682748.318 3  96976879.38803       729.091 3        18.328    23682749.174 5  96976902.36805       729.227 5        35.752
E06        11.000    24087227.293 6 126579216.31406     -2428.823 6        41.812                                                                    24087232.105 8  94523457.09608     -1813.824 8        48.979    24087230.764 7  96989224.38207     -1861.190 7        47.117
G24        12.000    23219680.778 6 122020434.13006      2342.803 6        39.117                                    23219683.239 4  95080758.73904      1825.569 4        26.778    23219686.334 5  95080775.74305      1826.022 5        31.079
E31        13.000    23544104.121 7 123725076.30207      -490.276 7        43.429                                                                    23544106.786 7  92392161.27607      -366.152 7        46.143    23544105.749 7  94802365.53707      -375.768 7        44.489
G05        14.000    23695952.811 5 124523324.67805     -4305.636 5        33.725                                    23695962.674 3  97030981.17203     -3355.015 3        18.597    23695960.652 5  97030996.07305     -3355.219 5        34.414
E24        16.000    26077727.223 4 137039403.55404      1865.038 4        29.725                                                                    26077735.905 6 102334679.99606      1392.368 6        38.453    26077731.440 5 105004219.58005      1428.692 5        35.552
E04        17.000    25839952.332 4                     -3341.771 4        29.810                                                                    25839960.852 5 101401556.22605     -2495.847 5        30.936    25839954.651 6 104046855.44106     -2560.817 6        37.535
E05        18.000    23923357.950 7 125718179.41107      1336.918 7        45.857                                                                    23923361.517 7  93880547.93207       998.317 7        46.603    23923361.753 7  96329591.61507      1024.408 7        44.515
E15        19.000                                                                                                                                    28642324.853 5 112398685.29905     -1156.696 5        32.665    28642325.930 5                     -1186.586 5        31.155
E09        21.000    23589833.915 8 123965519.84008     -1191.429 8        48.042                                                                    23589835.709 8  92571535.82108      -889.710 8        49.735    23589834.968 8  94986506.33508      -912.931 8        51.571
S23        24.000    38281826.043 6 201172347.99206      -855.799 6        37.909
S36        25.000    38349177.600 5 201526281.88005      -855.410 5        34.729
R13        27.000    19667671.626 7 105024276.11707       448.685 7        44.014
R04        29.000    23338765.543 5 124978090.26805      3320.853 5        34.290
C07        32.000                                                                                                                                    38950572.783 5 202825850.71505      -743.621 5        34.333    38950574.154 7 156837792.21607      -575.027 7        43.378    38950566.838 5 164812597.80205      -604.233 5        34.276
C10        33.000                                                                                                                                    38789260.789 7 201985886.18607      -360.675 7        44.069    38789259.985 7 156188350.49907      -278.809 7        42.468    38789257.383 6 164130043.37806      -292.996 6        40.238
C36        34.000                                                                                                                                    21877608.230 7 113922432.08807     -1916.703 7        44.770                                                                    21877614.232 6  92571412.02606     -1557.463 6        38.682
R02        35.000    20109067.073 6 107305726.80706     -3497.394 6        41.282                                                                    20109069.182 6  83460105.21406     -2720.175 6        41.325
R03        36.000    19855973.766 8 106290667.60808       832.631 8        48.796                                                                    19855975.123 6  82670442.66006       647.668 6        36.420
C45        37.000                                                                                                                                    22581853.120 7 117589618.43607       853.510 7        44.339                                                                    22581848.082 7  95551221.74007       693.507 7        47.357
R12        38.000                                                                                                                                    19958378.389 7                     -2325.595 7        46.200
C40        40.000                                                                                                                                    38955125.217 5 202849561.24305      -799.089 5        31.728
C42        45.000                                                                                                                                    26775318.847 5 139426121.03405      2285.675 5        33.132                                                                    26775332.012 5 113295200.09705      1857.089 5        32.341
C19        48.000                                                                                                                                    26408799.201 3                     -4412.769 3        18.716
C22        51.000                                                                                                                                    22576817.713 7 117563389.79107     -2874.977 7        47.179                                                                    22576814.224 7  95529836.62107     -2336.042 7        42.859
C21        55.000                                                                                                                                    23252820.918 7 121083560.09407       362.442 7        42.971                                                                    23252820.370 7  98390310.70107       294.555 7        44.021
> 2025 01 02 09 15  5.0000000  0 31
G13         1.000    20074212.078 5 105490679.83505     -1629.627 5        30.264                                    20074209.958 2  82200534.21612     -1269.937 2        12.121
G17         2.000    23116659.228 6 121478816.07306      1450.738 6        39.559                                    23116656.112 3  94658822.10703      1130.452 3        22.762    23116658.865 5  94658847.13505      1130.413 5        33.665
G30         6.000    23085993.503 5                     -3540.231 5        33.539                                                                                                    23086007.055 3                     -2758.397 3        22.800
G14         8.000    20980909.157 6 110255025.91206     -2257.781 6        40.858                                    20980903.589 4  85913256.48704     -1759.315 4        26.431    20980904.525 7  85913302.51207     -1759.474 7        45.058
G15         9.000    20516139.088 8 107813257.47408       341.106 8        49.657                                    20516143.674 6  84010236.23706       265.790 6        40.288    20516141.675 6  84010115.25906       265.856 6        40.527
G23        10.000    23681864.463 7 124449007.60407       932.374 7        43.374                                    23681859.386 2  96973239.76802       726.519 2        17.358    23681860.725 5  96973262.80305       726.389 5        35.652
E06        11.000    24089539.061 7 126591365.05607     -2430.749 7        43.628                                                                    24089543.898 8  94532529.18108     -1815.207 8        48.862    24089543.015 7  96998533.14107     -1862.574 7        47.754
G24        12.000    23217451.244 6 122008721.65406      2342.263 6        38.742                                    23217454.189 4  95071632.15604      1825.145 4        25.218    23217457.217 5  95071649.11405      1824.857 5        31.774
E31        13.000    23544571.122 7 123727533.09307      -492.705 7        42.292                                                                    23544574.489 7  92393995.91307      -367.918 7        46.061    23544573.268 7  94804248.01507      -377.531 7        44.697
G05        14.000    23700051.365 6 124544854.82006     -4306.660 6        38.180                                    23700059.681 3  97047757.83903     -3355.833 3        21.905    23700056.421 5  97047772.91605     -3356.265 5        32.365
E24        16.000    26075955.803 5 137030082.83405      1863.311 5        33.467                                                                    26075961.874 6 102327719.77706      1391.397 6        38.847    26075958.271 5 104997077.83405      1427.806 5        35.314
E04        17.000    25843138.877 4                     -3342.654 4        24.406                                                                    25843137.953 5 101414036.37405     -2496.363 5        32.862    25843134.745 6 104059661.12606     -2561.682 6        36.798
E05        18.000    23922085.652 7 125711497.24407      1335.698 7        46.094                                                                    23922090.161 7  93875558.00407       997.405 7        45.986    23922089.687 7  96324471.51007      1023.428 7        44.256
E15        19.000                                                                                                                                    28643796.804 5 112404472.78005     -1158.696 5        30.875    28643801.283 4                     -1188.977 4        29.100
E09        21.000    23590968.443 7 123971481.48207     -1193.528 7        47.622                                                                    23590970.398 8  92575987.69608      -891.237 8        49.837    23590969.389 8  94991074.36008      -914.527 8        51.946
S23        24.000    38282643.594 6 201176626.65706      -855.891 6        37.191
S36        25.000    38349995.111 5 201530558.87805      -855.574 5        33.796
R13        27.000    19667253.366 7 105022040.40507       445.215 7        43.236
R04        29.000    23335669.555 6 124961489.00206      3319.449 6        37.191                                                                    23335693.203 6  97192259.87916      2581.886 6        36.866
C07        32.000                                                                                                                                    38951288.304 6 202829570.68106      -744.662 6        36.476    38951288.633 7 156840668.71607      -575.731 7        43.264    38951280.715 5 164815620.56505      -604.947 5        33.072
C10        33.000                                                                                                                                    38789607.408 7 201987691.02707      -361.607 7        43.903    38789606.262 6 156189746.09206      -279.655 6        41.035    38789603.756 6 164131509.98806      -293.934 6        40.145
C36        34.000                                                                                                                                    21879449.318 7 113932019.61507     -1918.611 7        44.324                                                                    21879455.024 6  92579202.70006     -1559.060 6        39.318
R02        35.000    20112346.680 7 107323222.45807     -3501.074 7        42.320                                                                    20112348.034 6  83473712.91506     -2723.093 6        41.714
R03        36.000    19855198.992 8 106286514.10608       828.511 8        50.147                                                                    19855198.546 6  82667212.20906       644.439 6        36.333
C45        37.000                                                                                                                                    22581035.147 7 117585354.79407       851.615 7        44.479                                                                    22581029.169 7  95547757.20907       691.950 7        46.641
R12        38.000    19961201.842 5 106629179.74615     -2992.819 5        33.515                                                                    19961178.871 7  82933675.40717     -2327.733 7        45.410
C40        40.000                                                                                                                                    38955894.559 5 202853561.03705      -800.571 5        30.672                                                                    38955864.320 3                      -649.430 3        20.762
C42        45.000                                                                                                                                    26773128.348 5 139414694.64505      2284.703 5        30.498                                                                    26773136.134 5 113285915.18105      1856.383 5        31.494
C19        48.000                                                                                                                                                                                                                                                                    26413048.871 3                     -3586.166 3        21.405
C22        51.000                                                                                                                                    22579579.430 7 117577770.58707     -2877.491 7        45.956                                                                    22579575.618 7  95541522.20507     -2338.354 7        42.214
C21        55.000                                                                                                                                    23252471.697 6 121081754.67706       359.522 6        40.458                                                                    23252473.510 7  98388843.63507       292.041 7        43.970
> 2025 01 02 09 15 10.0000000  0 31
G13         1.000    20075763.431 5 105498835.27205     -1632.375 5        30.521                                    20075761.580 2  82206889.09102     -1271.993 2        13.151
G17         2.000    23115278.768 6 121471566.64906      1449.198 6        38.147                                    23115278.047 3  94653173.18903      1129.262 3        22.914    23115279.441 5  94653198.23005      1129.346 5        32.192
G30         6.000    23089361.720 5 121335418.66415     -3540.819 5        35.343                                    23089369.397 1  94547107.98911     -2758.980 1         7.625    23089377.809 4                     -2758.853 4        25.970
G14         8.000    20983056.121 6 110266321.02006     -2260.094 6        38.408                                    20983053.201 4  85922057.85604     -1761.109 4        28.237    20983053.794 7  85922103.85107     -1761.026 7        45.443
G15         9.000    20515816.035 8 107811558.98208       338.406 8        50.108                                    20515820.680 6  84008912.72906       263.697 6        40.336    20515817.313 6  84008791.75206       263.831 6        39.787
G23        10.000    23680973.235 7 124444351.92507       929.927 7        43.344                                    23680973.567 2  96969611.93602       724.615 2        17.774    23680973.066 6  96969634.95106       724.757 6        36.707
E06        11.000    24091852.536 7 126603522.19207     -2431.849 7        43.922                                                                    24091857.016 7  94541607.55707     -1816.019 7        47.554    24091856.702 7  97007848.33307     -1863.389 7        47.444
G24        12.000    23215224.036 6 121997014.05606      2341.265 6        37.282                                    23215225.979 3  95062509.31803      1824.364 3        23.810    23215229.476 5  95062526.38705      1824.532 5        31.623
E31        13.000    23545040.713 7 123730001.02507      -494.324 7        42.955                                                                    23545044.141 7  92395838.86407      -369.153 7        46.506    23545043.434 7  94806139.03707      -378.743 7        44.910
G05        14.000    23704151.033 6 124566390.46506     -4307.208 6        38.598                                    23704157.159 3  97064538.86803     -3356.233 3        23.448    23704153.672 5  97064553.89305     -3356.288 5        32.796
E24        16.000    26074184.769 5 137020768.15905      1862.668 5        34.724                                                                    26074189.619 6 102320764.05806      1391.004 6        38.438    26074186.005 5 104989940.66305      1426.864 5        34.300
E04        17.000                                                                                                                                    25846317.254 5 101426520.78505     -2496.846 5        31.577    25846315.030 6 104072471.18706     -2562.274 6        37.013
E05        18.000    23920814.986 7 125704820.03707      1335.329 7        46.472                                                                    23920819.205 7  93870571.76707       997.172 7        46.086    23920818.849 7  96319355.22007      1023.221 7        45.087
E15        19.000                                                                                                                                    28645275.217 5 112410269.30105     -1159.986 5        32.036    28645278.493 4                     -1190.197 4        29.545
E09        21.000    23592104.292 7 123977452.67707     -1194.853 7        46.622                                                                    23592106.527 8  92580446.71208      -892.215 8        49.896    23592105.638 8  94995649.69208      -915.512 8        51.965
S23        24.000    38283456.186 6 201180905.53106      -855.281 6        37.713
S36        25.000    38350819.199 6 201534836.71506      -855.143 6        36.355
R13        27.000    19666837.979 7 105019820.53507       442.817 7        43.807
R04        29.000    23332567.943 6 124944892.65506      3319.017 6        39.589                                                                    23332599.250 5  97179351.56505      2581.596 5        35.257
C07        32.000                                                                                                                                    38952003.988 5 202833294.82905      -745.076 5        35.414    38952003.988 7 156843548.43907      -575.973 7        43.617    38951995.153 5 164818646.72105      -605.302 5        32.922
C10        33.000                                                                                                                                    38789954.929 7 201989499.87907      -361.804 7        45.160    38789953.715 6 156191144.83906      -279.721 6        40.834    38789951.174 6 164132979.81606      -294.135 6        40.560
C36        34.000                                                                                                                                    21881292.827 7 113941615.73007     -1919.857 7        43.845                                                                    21881297.553 6  92587000.32706     -1560.000 6        40.274
R02        35.000    20115626.840 7 107340736.24207     -3504.269 7        42.201                                                                    20115628.585 6  83487334.72806     -2725.384 6        40.072
R03        36.000    19854427.785 8 106282380.12408       825.129 8        50.481                                                                    19854427.765 6  82663996.87806       641.899 6        37.047
C45        37.000                                                                                                                                    22580218.122 7 117581099.66507       850.466 7        45.294                                                                    22580211.605 7  95544299.55807       691.034 7        46.807
R12        38.000                                                                                                                                    19963980.590 7  82945317.45107     -2329.082 7        45.535
C40        40.000                                                                                                                                    38956669.595 5                      -801.400 5        32.772                                                                    38956625.636 3                      -651.215 3        22.514
C42        45.000                                                                                                                                    26770933.263 5 139403272.75205      2284.651 5        32.982                                                                    26770945.251 5 113276633.95605      1855.973 5        32.641
C19        48.000                                                                                                                                    26417267.461 3                     -4408.325 3        19.552                                                                    26417284.392 3                     -3586.184 3        19.015
C22        51.000                                                                                                                                    22582343.114 7 117592163.51207     -2879.538 7        46.288                                                                    22582340.839 7  95553217.55907     -2339.826 7        44.221
C21        55.000                                                                                                                                    23252131.459 6 121079962.79606       357.216 6        36.851                                                                    23252129.913 7  98387387.48407       290.410 7        44.290
> 2025 01 02 09 15 15.0000000  0 31
G13         1.000    20077316.683 4 105507003.55604     -1635.027 4        27.030                                    20077316.077 2  82213253.95302     -1274.061 2        12.485
G17         2.000    23113899.701 6 121464326.18806      1447.202 6        36.336                                    23113901.047 3  94647531.26303      1127.700 3        21.071    23113898.777 5  94647556.27205      1127.727 5        32.551
G30         6.000    23092732.028 6 121353124.74406     -3542.012 6        36.439                                    23092737.245 1  94560904.92501     -2759.980 1         6.000    23092750.888 3                     -2758.230 3        20.548
G14         8.000    20985207.142 6 110277628.14106     -2263.118 6        36.930                                    20985205.076 4  85930868.59804     -1763.462 4        27.940    20985205.357 7  85930914.56707     -1763.391 7        45.038
G15         9.000    20515495.633 8 107809875.44408       334.904 8        50.582                                    20515500.181 6  84007600.86106       260.966 6        39.513    20515496.861 6  84007479.91606       260.977 6        38.652
G23        10.000    23680087.803 6 124439710.06806       926.655 6        40.622                                    23680090.676 2  96965994.89502       722.076 2        16.906    23680093.290 5  96966017.93205       721.856 5        33.808
E06        11.000    24094167.404 7 126615686.34107     -2433.834 7        45.418                                                                    24094171.399 7  94550691.15807     -1817.504 7        46.586    24094171.173 7  97017168.91507     -1864.875 7        47.112
G24        12.000    23212999.086 6 121985309.83406      2340.267 6        37.357                                    23212998.660 3  95053389.12903      1823.596 3        21.738    23213001.014 5  95053406.18005      1823.358 5        30.558
E31        13.000    23545512.757 7 123732478.72607      -496.740 7        43.755                                                                    23545515.621 7  92397689.08607      -371.028 7        46.683    23545514.726 7  94808037.51207      -380.637 7        44.555
G05        14.000    23708247.530 6 124587930.10406     -4308.762 6        40.093                                    23708255.441 3  97081322.97903     -3357.494 3        23.676    23708252.822 5  97081338.03705     -3357.303 5        33.168
E24        16.000    26072413.568 5 137011458.05705      1861.306 5        35.671                                                                    26072420.112 6 102313811.72106      1389.942 6        40.651    26072413.501 5 104982806.88105      1426.306 5        34.476
E04        17.000                                                                                                                                    25849495.169 5 101439008.37305     -2498.044 5        31.185    25849498.349 6 104085284.52006     -2563.203 6        38.120
E05        18.000    23919545.396 7 125698146.42307      1334.091 7        47.500                                                                    23919548.694 7  93865588.23707       996.179 7        46.471    23919548.725 7  96314241.69807      1022.165 7        45.356
E15        19.000                                                                                                                                    28646754.945 5 112416073.89705     -1161.916 5        33.665    28646755.671 5                     -1192.363 5        31.653
E09        21.000    23593242.017 7 123983432.04607     -1196.951 7        46.224                                                                    23593244.397 8  92584911.82308      -893.835 8        49.883    23593243.414 8  95000231.29308      -917.181 8        51.897
S23        24.000    38284259.782 5 201185183.47805      -855.730 5        34.619
S36        25.000    38351602.766 5 201539113.64705      -855.754 5        30.377
R13        27.000    19666424.874 7 105017614.97007       439.312 7        43.594
R04        29.000    23329470.664 6 124928299.88406      3317.773 6        39.288                                                                    23329503.005 5  97166445.98705      2580.662 5        34.238
C07        32.000                                                                                                                                    38952718.549 6 202837021.81706      -745.867 6        36.348    38952719.219 7 156846430.37107      -576.782 7        44.468    38952711.515 5 164821675.22405      -606.415 5        34.090
C10        33.000                                                                                                                                    38790303.717 7 201991311.43607      -362.871 7        44.530    38790301.581 7 156192545.66107      -280.697 7        42.155    38790299.159 6 164134451.87006      -294.856 6        40.596
C36        34.000                                                                                                                                    21883136.980 7 113951219.16007     -1921.722 7        46.978                                                                    21883142.083 6  92594803.91406     -1561.344 6        39.069
R02        35.000    20118911.122 7 107358266.67007     -3508.015 7        44.904                                                                    20118913.350 6  83500969.51506     -2728.479 6        37.648
R03        36.000    19853658.136 8 106278264.29608       821.048 8        50.313                                                                    19853659.306 6  82660795.71806       638.575 6        39.691
C45        37.000                                                                                                                                    22579402.780 7 117576851.65407       848.587 7        44.885                                                                    22579396.095 7  95540847.74607       689.630 7        47.064
R12        38.000    19966788.708 6 106659127.33106     -2997.106 6        41.449                                                                    19966785.288 7  82956967.87407     -2331.200 7        45.654
C40        40.000                                                                                                                                                                                                                                                                    38957398.864 3                      -651.951 3        23.619
C42        45.000                                                                                                                                    26768743.358 5 139391854.20205      2282.942 5        34.743                                                                    26768751.549 5 113267355.40505      1855.137 5        33.144
C19        48.000                                                                                                                                    26421511.563 3                     -4413.197 3        20.071                                                                    26421518.111 3                     -3583.565 3        19.821
C22        51.000                                                                                                                                    22585109.157 7 117606567.12907     -2882.097 7        46.054                                                                    22585107.377 7  95564921.68207     -2341.822 7        45.601
C21        55.000                                                                                                                                    23251789.532 5 121078182.92305       353.978 5        30.106                                                                    23251787.618 7  98385941.18207       288.096 7        44.156
> 2025 01 02 09 15 20.0000000  0 31
G13         1.000    20078878.832 5 105515185.74205     -1637.871 5        34.857                                    20078873.212 1  82219629.72301     -1276.230 1        11.556
G17         2.000    23112525.959 6 121457095.69306      1445.152 6        38.562                                    23112526.398 3  94641897.11203      1126.095 3        20.810    23112529.613 5  94641922.11005      1126.300 5        33.287
G30         6.000    23096103.183 5 121370835.04405     -3542.565 5        34.995                                    23096104.421 1  94574705.21601     -2760.430 1         7.625    23096122.500 3                     -2760.685 3        23.676
G14         8.000    20987364.289 5 110288948.29605     -2265.142 5        35.538                                    20987359.450 4  85939689.48804     -1765.048 4        27.880    20987359.602 7  85939735.49207     -1765.164 7        44.873
G15         9.000    20515178.251 8 107808207.95308       331.951 8        49.122                                    20515182.499 6  84006301.51506       258.675 6        38.279    20515179.797 6  84006180.56306       258.641 6        37.221
G23        10.000    23679208.285 7 124435083.02207       923.910 7        42.262                                    23679210.008 2  96962389.39602       719.894 2        16.604    23679215.946 5  96962412.48005       719.923 5        34.410
E06        11.000    24096484.276 7 126627858.54907     -2435.243 7        45.726                                                                    24096487.757 7  94559780.80007     -1818.495 7        47.015    24096487.774 7  97026495.67407     -1865.900 7        46.507
G24        12.000    23210769.961 5 121973610.14605      2339.557 5        34.295                                    23210772.601 3  95044272.52003      1823.059 3        19.194    23210775.507 4  95044289.56504      1822.809 4        27.713
E31        13.000    23545986.438 7 123734967.20407      -498.821 7        43.096                                                                    23545989.117 7  92399547.35707      -372.517 7        46.822    23545988.098 7  94809944.27507      -382.156 7        44.435
G05        14.000    23712344.875 5 124609474.91305     -4309.489 5        35.890                                    23712354.864 3  97098111.06403     -3358.060 3        23.505    23712351.453 5  97098126.08905     -3357.937 5        35.719
E24        16.000    26070642.370 6 137002153.56906      1860.503 6        36.435                                                                    26070652.206 6 102306863.60006      1389.281 6        41.757    26070642.371 5 104975677.53405      1425.446 5        33.623
E04        17.000                                                                                                                                    25852682.549 5 101451499.89305     -2498.561 5        33.240    25852681.976 6 104098101.90706     -2563.938 6        37.267
E05        18.000    23918276.667 7 125691477.45807      1333.366 7        47.849                                                                    23918279.739 7  93860608.16807       995.656 7        46.163    23918278.249 7  96309131.72007      1021.639 7        43.805
E15        19.000    28648220.907 5                     -1558.157 5        30.589                                                                    28648236.904 4 112421887.24204     -1163.376 4        29.858    28648238.707 5                     -1193.808 5        30.792
E09        21.000    23594381.733 7 123989420.63907     -1198.586 7        45.964                                                                    23594383.928 8  92589383.83208      -895.083 8        50.250    23594382.997 8  95004819.95708      -918.407 8        51.799
S23        24.000    38285088.655 6 201189461.44806      -855.297 6        36.998
S36        25.000    38352438.951 5 201543390.39905      -855.065 5        30.853
R13        27.000    19666014.129 7 105015424.86307       436.597 7        44.399
R04        29.000    23326376.705 6 124911711.76206      3317.147 6        40.150                                                                    23326400.383 6  97153543.99106      2579.944 6        37.686
C07        32.000                                                                                                                                    38953436.449 5 202840752.73205      -746.685 5        35.776    38953436.054 7 156849315.28707      -577.152 7        44.081    38953427.015 5 164824706.81105      -606.767 5        33.940
C10        33.000                                                                                                                                    38790652.033 7 201993126.71407      -363.386 7        44.644    38790650.753 6 156193949.35306      -281.119 6        41.128    38790647.611 6 164135926.92806      -295.448 6        40.536
C36        34.000                                                                                                                                    21884982.468 7 113960830.83707     -1923.113 7        44.524                                                                    21884987.656 6  92602614.18706     -1562.756 6        39.718
R02        35.000    20122200.804 7 107375814.49507     -3511.259 7        43.968                                                                    20122204.221 6  83514617.84406     -2731.104 6        41.456
R03        36.000    19852891.871 8 106274167.61208       817.361 8        50.748                                                                    19852895.363 6  82657609.44406       635.756 6        41.342
C45        37.000                                                                                                                                    22578587.269 7 117572611.92507       847.053 7        42.751                                                                    22578581.797 7  95537402.57307       688.287 7        46.585
R12        38.000    19969586.119 7 106674118.31107     -2999.316 7        44.056                                                                    19969591.651 7  82968627.48807     -2332.827 7        46.597
C40        40.000                                                                                                                                    38958218.605 5                      -803.156 5        33.281                                                                    38958170.425 3                      -652.823 3        23.867
C42        45.000                                                                                                                                    26766553.409 5 139380439.85705      2282.561 5        33.102                                                                    26766558.785 5 113258080.33805      1854.574 5        32.970
C19        48.000                                                                                                                                    26425738.503 3                     -4411.160 3        23.029                                                                    26425751.347 3                     -3584.847 3        21.214
C22        51.000                                                                                                                                    22587877.582 7 117620982.52707     -2884.254 7        46.148                                                                    22587875.394 7  95576635.36607     -2343.762 7        44.671
C21        55.000                                                                                                                                    23251449.407 5 121076416.27105       351.924 5        31.298                                                                    23251448.391 7  98384505.59707       285.978 7        44.578
> 2025 01 02 09 15 25.0000000  0 31
G13         1.000    20080440.588 5 105523382.24605     -1640.868 5        34.381                                    20080433.178 2  82226016.58302     -1278.626 2        14.667
G17         2.000    23111154.035 5 121449875.31005      1443.138 5        35.486                                    23111153.566 3  94636270.83703      1124.549 3        19.851    23111163.983 5  94636295.85605      1124.228 5        33.377
G30         6.000    23099473.269 6 121388549.67406     -3543.266 6        37.282                                    23099472.971 1  94588508.78001     -2760.971 1         7.125
G14         8.000    20989520.804 6 110300281.66206     -2268.036 6        39.748                                    20989516.377 4  85948520.64804     -1767.303 4        27.293    20989516.378 7  85948566.67007     -1767.343 7        45.284
G15         9.000    20514863.437 8 107806556.54508       328.641 8        48.098                                    20514867.809 6  84005014.68006       256.081 6        36.798    20514865.955 5  84004893.78105       255.887 5        35.205
G23        10.000    23678332.635 7 124430470.94407       920.908 7        42.559                                    23678332.291 2  96958795.55302       717.579 2        16.000    23678332.630 5  96958818.65605       717.259 5        35.381
E06        11.000    24098802.342 7 126640038.93407     -2436.993 7        46.769                                                                    24098806.175 7  94568876.53407     -1819.762 7        46.851    24098805.553 7  97035828.66207     -1867.273 7        46.702
G24        12.000    23208543.575 5 121961915.04705      2338.104 5        34.657                                    23208546.873 3  95035159.48103      1821.864 3        18.090    23208549.000 5  95035176.45205      1822.239 5        30.891
E31        13.000    23546461.330 7 123737466.55307      -501.028 7        43.683                                                                    23546464.362 7  92401413.76107      -374.121 7        46.892    23546464.478 7  94811859.36407      -383.882 7        44.971
G05        14.000    23716447.344 6 124631024.81806     -4310.431 6        40.825                                    23716455.404 3  97114903.23003     -3358.773 3        22.857    23716453.079 5  97114918.23605     -3358.778 5        35.514
E24        16.000    26068872.202 6 136992854.83406      1859.143 6        37.834                                                                    26068882.823 7 102299919.78007      1388.234 7        42.485    26068873.527 5 104968552.54105      1424.416 5        33.964
E04        17.000                                                                                                                                    25855864.085 5 101463995.49905     -2499.344 5        33.461    25855865.279 6 104110923.46306     -2564.865 6        36.760
E05        18.000    23917007.968 7 125684813.26107      1332.286 7        47.394                                                                    23917011.448 7  93855631.65407       994.874 7        45.114    23917009.637 7  96304025.37407      1020.779 7        43.611
E15        19.000    28649702.485 4                     -1560.696 4        29.934                                                                    28649721.017 4 112427709.54604     -1165.452 4        28.739    28649723.938 5                     -1195.749 5        30.785
E09        21.000    23595523.243 7 123995418.55107     -1200.590 7        45.327                                                                    23595525.172 8  92593862.79008      -896.528 8        49.873    23595524.486 8  95009415.76908      -919.982 8        51.847
S23        24.000    38285906.515 6 201193739.63906      -855.635 6        37.501
S36        25.000    38353259.909 5 201547667.15805      -855.370 5        35.300
R13        27.000    19665607.911 7 105013250.23107       433.177 7        44.540
R04        29.000    23323284.389 6 124895128.44206      3316.281 6        40.710
C07        32.000                                                                                                                                    38954153.094 5 202844487.57805      -747.366 5        35.314    38954153.816 7 156852203.27607      -578.006 7        42.309    38954144.505 5 164827741.70705      -607.318 5        34.076
C10        33.000                                                                                                                                    38791000.324 7 201994945.81207      -364.218 7        43.890    38790999.258 6 156195356.00006      -281.721 6        41.704    38790997.005 6 164137405.13306      -296.118 6        40.076
C36        34.000                                                                                                                                    21886830.100 7 113970450.95607     -1924.888 7        45.303                                                                    21886835.477 6  92610431.36806     -1564.372 6        39.934
R02        35.000    20125492.184 7 107393380.14907     -3514.930 7        43.168                                                                    20125495.594 7  83528280.01807     -2734.017 7        42.201
R03        36.000    19852130.321 8 106270090.45908       813.512 8        49.791                                                                    19852132.642 6  82654438.31906       632.603 6        40.455
C45        37.000                                                                                                                                    22577773.271 6 117568380.47806       845.255 6        38.324                                                                    22577768.556 7  95533964.17407       686.824 7        46.294
R12        38.000    19972396.396 7 106689121.11207     -3001.825 7        45.246                                                                    19972399.798 7  82980296.32907     -2334.808 7        46.935
C40        40.000                                                                                                                                    38958980.279 4                      -804.263 4        29.517                                                                    38958942.969 4                      -653.096 4        25.128
C42        45.000                                                                                                                                    26764366.335 5 139369030.00905      2281.245 5        30.309                                                                    26764368.086 5 113248808.92705      1853.926 5        32.114
C19        48.000                                                                                                                                    26429976.184 3                     -4410.256 3        21.595                                                                    26429986.801 3                     -3588.638 3        19.761
C22        51.000                                                                                                                                    22590647.897 7 117635409.77907     -2886.660 7        45.049                                                                    22590645.976 7  95588358.71707     -2345.798 7        44.877
C21        55.000                                                                                                                                    23251112.447 5 121074662.75605       349.524 5        34.452                                                                    23251111.528 7  98383080.83207       283.724 7        44.474
> 2025 01 02 09 15 30.0000000  0 31
G13         1.000    20081999.797 5 105531593.32705     -1643.263 5        34.538                                    20081995.786 2  82232414.86302     -1280.478 2        15.571
G17         2.000    23109782.579 5 121442665.50205      1441.091 5        32.557                                    23109782.012 2  94630652.86302      1122.922 2        15.381    23109795.416 5  94630677.85705      1123.005 5        30.060
G30         6.000    23102846.141 6 121406269.30106     -3544.237 6        37.051                                    23102843.264 1  94602316.11401     -2761.759 1        10.148
G14         8.000    20991678.531 6 110311628.73006     -2270.326 6        39.712                                    20991675.576 4  85957362.50204     -1769.088 4        26.060    20991675.930 7  85957408.53507     -1769.225 7        44.764
G15         9.000    20514552.351 8 107804921.80308       325.564 8        48.223                                    20514555.712 5  84003740.85405       253.662 5        34.629    20514552.359 5  84003619.98905       253.436 5        34.500
G23        10.000    23677458.039 6 124425874.34506       918.259 6        41.359                                    23677457.687 2  96955213.81302       715.543 2        16.528    23677455.154 5  96955236.84205       715.473 5        34.481
E06        11.000    24101121.310 7 126652228.01807     -2438.434 7        46.871                                                                    24101125.165 7  94577978.78207     -1820.912 7        45.956    24101125.562 7  97045168.35207     -1868.415 7        46.729
G24        12.000    23206319.248 5 121950225.05205      2337.891 5        33.353                                    23206322.102 2  95026050.38302      1821.736 2        15.810    23206323.417 4  95026067.42704      1821.686 4        29.270
E31        13.000    23546940.106 7 123739977.32007      -502.980 7        43.232                                                                    23546942.224 7  92403288.71507      -375.708 7        46.649    23546942.833 7  94813783.22607      -385.418 7        45.928
G05        14.000    23720553.053 6 124652580.43306     -4311.490 6        39.859                                    23720557.076 3  97131699.77903     -3359.590 3        21.667    23720553.628 5  97131714.73605     -3359.556 5        34.481
E24        16.000    26067104.740 6 136983562.38506      1858.303 6        39.339                                                                    26067114.459 6 102292980.64806      1387.525 6        41.228    26067106.121 5 104961432.37505      1423.908 5        33.946
E04        17.000    25859053.802 4                     -3347.862 4        28.720                                                                    25859051.902 5 101476495.49805     -2500.421 5        35.390    25859050.007 6 104123749.53006     -2565.480 6        36.699
E05        18.000    23915740.924 7 125678154.37107      1331.531 7        47.319                                                                    23915744.392 7  93850659.12107       994.360 7        45.261    23915742.240 7  96298923.11607      1020.222 7        43.391
E15        19.000    28651194.451 4                     -1562.807 4        28.246                                                                                                                                    28651210.905 4                     -1197.551 4        29.393
E09        21.000    23596666.083 7 124001426.34507     -1202.254 7        42.703                                                                    23596668.318 8  92598349.11508      -897.776 8        49.786    23596667.923 8  95014019.13208      -921.206 8        52.011
S23        24.000    38286728.323 6 201198018.56906      -855.515 6        39.826
S36        25.000    38354070.270 5 201551944.26105      -855.219 5        35.557
R13        27.000    19665203.750 7 105011091.69307       430.485 7        44.826
R04        29.000    23320194.414 6 124878550.43406      3315.388 6        40.234                                                                    23320186.084 6  97127751.75506      2578.450 6        36.389
C07        32.000                                                                                                                                    38954871.223 5 202848226.94105      -748.013 5        34.390    38954871.282 7 156855094.78607      -578.451 7        42.764    38954863.493 5 164830780.20105      -607.958 5        33.467
C10        33.000                                                                                                                                    38791351.373 7 201996769.25107      -364.887 7        43.848    38791349.634 6 156196765.98906      -282.127 6        41.473    38791347.149 6 164138886.81106      -296.519 6        39.958
C36        34.000                                                                                                                                    21888678.785 7 113980080.04907     -1926.373 7        43.132                                                                    21888685.458 6  92618255.72506     -1565.467 6        40.846
R02        35.000    20128787.623 7 107410964.15707     -3518.393 7        44.755                                                                    20128790.995 7  83541956.43407     -2736.449 7        42.662
R03        36.000    19851372.760 8 106266032.96108       809.826 8        50.809                                                                    19851373.798 6  82651282.47106       629.794 6        41.490
C45        37.000                                                                                                                                    22576961.837 6 117564157.79706       843.936 6        38.327                                                                    22576957.644 7  95530532.91307       685.693 7        46.068
R12        38.000    19975210.374 7 106704136.39107     -3004.082 7        45.819                                                                    19975210.761 7  82991974.87207     -2336.429 7        47.005
C40        40.000                                                                                                                                    38959757.491 5                      -805.436 5        30.536                                                                    38959714.351 4                      -655.123 4        26.311
C42        45.000                                                                                                                                                                                                                                                                    26762177.518 5 113239541.51605      1853.349 5        33.772
C19        48.000                                                                                                                                                                                                                                                                    26434220.945 3                     -3585.144 3        20.952
C22        51.000                                                                                                                                    22593420.236 7 117649849.44307     -2888.896 7        44.709                                                                    22593418.779 7  95600092.12107     -2347.425 7        45.279
C21        55.000                                                                                                                                    23250782.844 5 121072923.16705       346.793 5        33.856                                                                    23250776.956 7  98381667.26207       281.754 7        44.540
> 2025 01 02 09 15 35.0000000  0 31
