     3.04           OBSERVATION DATA    M                   RINEX VERSION / TYPE
ssrcrin-15.6.1x                         20250102 201500 UTC PGM / RUN BY / DATE 
(00000000023479385599111004) Septentrio proprietary         COMMENT             
ract                                                        MARKER NAME         
01                                                          MARKER NUMBER       
geodetic                                                    MARKER TYPE         
NFB                 CLIMERS@TUW                             OBSERVER / AGENCY   
3296359             SEPT ASTERX SB3 PROB4.14.4              REC # / TYPE / VERS 
Unknown             Unknown                                 ANT # / TYPE        
  4127446.5825  1206915.9359  4695542.4558                  APPROX POSITION XYZ 
        0.0000        0.0000        0.0000                  ANTENNA: DELTA H/E/N
G   23 X1  C1C L1C D1C S1C C1W S1W C2W L2W D2W S2W C2L L2L  SYS / # / OBS TYPES 
       D2L S2L C5Q L5Q D5Q S5Q C1L L1L D1L S1L              SYS / # / OBS TYPES 
E   21 X1  C1C L1C D1C S1C C6C L6C D6C S6C C5Q L5Q D5Q S5Q  SYS / # / OBS TYPES 
       C7Q L7Q D7Q S7Q C8Q L8Q D8Q S8Q                      SYS / # / OBS TYPES 
S    9 X1  C1C L1C D1C S1C C5I L5I D5I S5I                  SYS / # / OBS TYPES 
R   17 X1  C1C L1C D1C S1C C2P L2P D2P S2P C2C L2C D2C S2C  SYS / # / OBS TYPES 
       C3Q L3Q D3Q S3Q                                      SYS / # / OBS TYPES 
C   25 X1  C1P L1P D1P S1P C5P L5P D5P S5P C2I L2I D2I S2I  SYS / # / OBS TYPES 
       C7I L7I D7I S7I C6I L6I D6I S6I C7D L7D D7D S7D      SYS / # / OBS TYPES 
J   17 X1  C1C L1C D1C S1C C2L L2L D2L S2L C5Q L5Q D5Q S5Q  SYS / # / OBS TYPES 
       C1L L1L D1L S1L                                      SYS / # / OBS TYPES 
I    5 X1  C5A L5A D5A S5A                                  SYS / # / OBS TYPES 
SEPTENTRIO RECEIVERS OUTPUT ALIGNED CARRIER PHASES.         COMMENT             
NO FURTHER PHASE SHIFT APPLIED IN THE RINEX ENCODER.        COMMENT             
G L1C                                                       SYS / PHASE SHIFT   
G L2W                                                       SYS / PHASE SHIFT   
G L2L  0.00000                                              SYS / PHASE SHIFT   
G L5Q  0.00000                                              SYS / PHASE SHIFT   
G L1L  0.00000                                              SYS / PHASE SHIFT   
E L1C  0.00000                                              SYS / PHASE SHIFT   
E L6C  0.00000                                              SYS / PHASE SHIFT   
E L5Q  0.00000                                              SYS / PHASE SHIFT   
E L7Q  0.00000                                              SYS / PHASE SHIFT   
E L8Q  0.00000                                              SYS / PHASE SHIFT   
S L1C                                                       SYS / PHASE SHIFT   
S L5I                                                       SYS / PHASE SHIFT   
R L1C                                                       SYS / PHASE SHIFT   
R L2P  0.00000                                              SYS / PHASE SHIFT   
R L2C                                                       SYS / PHASE SHIFT   
R L3Q  0.00000                                              SYS / PHASE SHIFT   
C L1P  0.00000                                              SYS / PHASE SHIFT   
C L5P  0.00000                                              SYS / PHASE SHIFT   
C L2I                                                       SYS / PHASE SHIFT   
C L7I                                                       SYS / PHASE SHIFT   
C L6I                                                       SYS / PHASE SHIFT   
C L7D                                                       SYS / PHASE SHIFT   
J L1C                                                       SYS / PHASE SHIFT   
J L2L  0.00000                                              SYS / PHASE SHIFT   
J L5Q  0.00000                                              SYS / PHASE SHIFT   
J L1L  0.00000                                              SYS / PHASE SHIFT   
I L5A                                                       SYS / PHASE SHIFT   
  2025     1     2    20    15    0.0000000     GPS         TIME OF FIRST OBS   
 C1C    0.000 C2C    0.000 C2P    0.000                     GLONASS COD/PHS/BIS 
DBHZ                                                        SIGNAL STRENGTH UNIT
    18                                                      LEAP SECONDS        
 24 R01  1 R02 -4 R03  5 R04  6 R05  1 R06 -4 R07  5 R08  6 GLONASS SLOT / FRQ #
    R09 -2 R10 -7 R11  0 R12 -1 R13 -2 R14 -7 R15  0 R16 -1 GLONASS SLOT / FRQ #
    R17  4 R18 -3 R19  3 R20  2 R21  4 R22 -3 R23  3 R24  2 GLONASS SLOT / FRQ #
                                                            END OF HEADER       
> 2025 01 02 20 15  0.0000000  0 45
G10         1.000    21020003.172 8 110461020.81308       475.730 8        53.060                                    21019999.276 8  86073438.80108       370.698 8        50.257    21020000.580 7  86073389.79607       370.630 7        44.032
G23         2.000    21223790.129 7 111531780.03107     -2350.290 7        43.103                                    21223785.193 5  86907864.29505     -1831.395 5        31.321    21223785.744 7  86907924.30807     -1831.359 7        42.705
G15         3.000    23962051.797 4                     -2277.720 4        24.511
G21         4.000    23374165.217 5 122832120.30905      1947.683 5        30.694
G08         5.000    21525469.899 6 113117069.24106      1552.385 6        37.062                                    21525463.051 3  88143308.28503      1209.628 3        19.701
G30         7.000    25743436.600 5                      -828.154 5        31.321
G07         8.000    25414742.769 4                     -2032.755 4        28.749                                                                                                    25414725.135 3                     -1584.215 3        22.190
E09        10.000    27205515.322 5                       167.947 5        30.868                                                                    27205496.400 5 106760238.48405       125.312 5        34.700
G18        12.000    23674806.820 5 124411788.37505     -3860.991 5        33.263                                                                                                    23674821.309 5  96944385.86705     -3008.500 5        34.000
G27        13.000    20104148.433 6 105648008.02906      -517.965 6        41.602                                    20104145.534 6  82323077.62006      -403.611 6        40.029    20104146.501 7  82323155.64507      -403.653 7        44.292
E27        14.000    25516997.655 5 134092706.89905       399.016 5        30.558                                                                    25516981.357 7 100134135.09007       298.136 7        45.517    25516978.772 6 102746371.02006       305.923 6        38.871
R03        15.000    23798715.752 3                     -4347.510 3        21.381
E15        16.000    25367516.738 6 133307206.18906      1104.536 6        40.572                                                                    25367517.781 7  99547603.41107       824.679 7        43.429    25367522.522 6 102144462.46506       846.283 6        40.074
G26        17.000    24375257.676 5                     -4497.250 5        30.913                                                                                                    24375274.412 4                     -3503.032 4        26.240
E06        18.000                                                                                                                                    27521162.221 3                      -691.356 3        20.405
E30        19.000    24659899.687 6 129588648.32306     -2434.178 6        39.877                                                                                                                                    24659933.877 5  99295233.60505     -1864.989 5        33.299
R20        20.000    19614828.729 6 104889290.18006     -1061.464 6        36.291                                                                    19614830.083 6  81580574.40906      -825.621 6        41.247
E02        21.000    27018036.883 4 141980765.80704     -4069.594 4        29.839                                                                    27018035.541 5 106024598.71505     -3039.026 5        35.319    27018034.898 4 108790427.87104     -3118.218 4        26.060
S23        22.000    38194295.386 6 200712389.93906      -861.773 6        40.625
R10        23.000    22153098.330 5                     -4585.500 5        32.317
E36        24.000    25825593.194 5 135714484.11605     -3069.970 5        31.155                                                                    25825608.410 5 101345355.43805     -2292.238 5        34.819    25825595.135 6 103989129.39606     -2352.174 6        39.156
G16        26.000    22102830.171 6 116151151.12006     -3849.273 6        39.976                                    22102825.180 2  90507379.47702     -2999.429 2        14.333
S21        27.000    38467588.383 5 202148844.59005      -861.857 5        31.924
R05        28.000    21295521.255 6 113836790.64606      2311.123 6        41.261
R12        30.000    23922590.723 5                      2476.194 5        35.524                                                                    23922592.523 4                      1925.846 4        29.100
S36        31.000    38236951.902 5 200936473.20005      -860.991 5        35.867
E34        32.000    23342445.915 7 122665368.15807     -1058.721 7        43.708                                                                    23342445.332 8  91600785.06608      -790.626 8        48.637    23342444.771 8  93990430.03708      -811.303 8        48.407
R11        33.000    21142179.243 7 112977498.70207     -1163.853 7        43.018                                                                    21142179.754 6  87871460.70706      -905.153 6        37.263
C08        36.000                                                                                                                                    39043951.627 3                     -2055.260 3        21.905    39043957.570 4 157213808.58504     -1587.946 4        29.147
C11        38.000                                                                                                                                    21796509.075 8 113500129.55408     -1624.383 8        48.692    21796505.700 8  87765554.44608     -1256.090 8        53.023    21796504.093 8  92228123.44708     -1319.947 8        50.407
R21        39.000    21681480.046 6 116021909.30206      1856.471 6        37.550                                                                    21681468.597 5  90239357.00305      1443.795 5        30.506
R04        40.000    21055975.888 7 112753972.46307     -1382.186 7        46.128                                                                    21055971.884 6  87697462.34906     -1075.146 6        38.508
C12        41.000                                                                                                                                    25369856.709 4                     -3492.573 4        25.083    25369849.397 5                     -2700.283 5        34.286
C14        42.000                                                                                                                                    25037053.479 5 130374497.75005      2517.261 5        34.538    25037048.479 7 100813832.61207      1946.557 7        43.663    25037046.062 6 105939987.94306      2045.583 6        40.391
C13        43.000                                                                                                                                    38552724.713 6 200754161.14406     -1818.723 6        40.017    38552722.716 5                     -1406.361 5        32.778    38552722.801 5 163129263.55705     -1477.425 5        31.079
C21        46.000                                                                                                                                    23696318.100 7 123392910.06307     -1188.696 7        44.825                                                                    23696311.872 7 100266830.84907      -965.947 7        47.649
C23        47.000                                                                                                                                                                                                                                                                    25172724.730 6 106514055.83406     -2668.781 6        37.077
C43        48.000                                                                                                                                    21589471.473 8 112422051.81908      -405.052 8        50.989                                                                    21589468.609 7  91352106.15407      -329.151 7        46.436
C42        50.000                                                                                                                                    23655645.775 6 123181411.06806      1627.039 6        41.964                                                                    23655651.030 6 100094814.19106      1322.155 6        38.703
C34        52.000                                                                                                                                    22787687.456 7 118661802.99807     -2793.620 7        44.220                                                                    22787684.579 7  96422145.81407     -2269.968 7        42.267
C37        54.000                                                                                                                                    25259043.482 6 131530549.67806      -980.830 6        37.856                                                                    25259040.921 5 106879310.18905      -796.745 5        31.509
C28        55.000                                                                                                                                    25199478.199 6 131220249.65406      1871.515 6        41.692                                                                    25199466.038 5                      1520.710 5        32.431
C22        57.000                                                                                                                                    26343836.796 3                     -3582.207 3        20.095
I06        58.000    38650477.017 5 151672903.91305      -568.667 5        33.263
I09        60.000    38450841.260 5 150889370.98605        44.395 5        35.500
> 2025 01 02 20 15  5.0000000  0 44
G10         1.000    21019551.791 8 110458649.56008       472.861 8        52.710                                    21019548.272 8  86071591.06708       368.461 8        50.407    21019549.233 7  86071542.05807       368.426 7        44.456
G23         2.000    21226027.860 7 111543538.68207     -2353.071 7        42.967                                    21226022.409 5  86917026.87005     -1833.565 5        30.151    21226023.164 7  86917086.89407     -1833.787 7        42.760
G15         3.000    23964213.080 3                     -2279.888 3        22.419
G21         4.000    23372313.827 4 122822383.30904      1947.432 4        28.787
G08         5.000    21523994.317 6 113109312.28806      1550.524 6        37.289                                    21523988.878 3  88137263.92203      1208.204 3        20.452    21524022.062 4                      1208.511 4        29.962
G30         7.000    25744224.478 5                      -830.833 5        31.781
G07         8.000    25416674.979 5                     -2034.452 5        32.186                                                                                                    25416649.757 4                     -1585.021 4        24.195
E09        10.000    27205355.082 5                       166.051 5        30.325                                                                    27205338.185 5 106759614.83005       123.912 5        34.014
G18        12.000    23678480.704 5 124431094.04605     -3861.383 5        34.062                                                                                                    23678500.699 5  96959429.23305     -3008.722 5        32.347
G27        13.000    20104640.956 6 105650604.91506      -520.827 6        40.205                                    20104639.715 6  82325101.16306      -405.842 6        40.095    20104640.196 7  82325179.15907      -405.728 7        43.736
E27        14.000                                                                                                                                    25516602.464 7 100132648.14607       296.560 7        45.719    25516599.383 6 102744845.26006       304.267 6        38.649
R03        15.000                                                                                                                                    23802754.248 3                     -3380.393 3        22.057
E15        16.000    25366466.739 6 133301685.95106      1103.568 6        41.070                                                                    25366467.342 7  99543481.15307       824.043 7        43.170    25366471.588 6 102140232.66206       845.757 6        38.904
G26        17.000    24379538.566 5                     -4496.141 5        30.445                                                                                                    24379552.789 4                     -3504.070 4        26.240
E30        19.000    24662216.780 6 129600824.31006     -2436.257 6        39.414                                                                                                                                    24662251.005 5  99304563.21205     -1866.228 5        30.664
R20        20.000    19615821.468 5 104894602.93105     -1063.538 5        34.333                                                                    19615823.241 6  81584706.54106      -827.199 6        41.278
E02        21.000    27021908.195 5 142001114.15305     -4069.848 5        30.755                                                                    27021907.622 5 106039793.89505     -3039.208 5        35.367    27021907.631 4 108806019.45104     -3118.873 4        25.519
S23        22.000    38195115.956 6 200716698.97806      -861.772 6        40.443
R10        23.000    22157403.925 5                     -4587.348 5        31.026
E36        24.000    25828514.860 5 135729834.06005     -3070.234 5        32.042                                                                    25828528.737 5 101356818.10005     -2292.812 5        35.267    25828515.803 6 104000891.05306     -2352.479 6        38.976
G16        26.000    22106493.022 6 116170402.29806     -3851.296 6        40.636                                    22106488.543 2  90522380.38902     -3000.997 2        15.238
S21        27.000    38468413.804 5 202153154.49705      -861.678 5        31.743
R05        28.000    21293357.919 6 113825242.64606      2307.903 6        36.442
R12        30.000    23920272.190 5                      2473.977 5        32.485                                                                    23920280.560 4                      1924.249 4        29.062
S36        31.000    38237764.208 5 200940778.69405      -861.038 5        35.833
E34        32.000    23343453.485 7 122670664.93107     -1059.897 7        43.179                                                                    23343453.165 8  91604740.44808      -791.568 8        48.701    23343452.847 8  93994488.60208      -812.200 8        48.836
R11        33.000    21143269.564 7 112983329.31907     -1168.423 7        42.059                                                                    21143275.515 6  87875995.64106      -908.804 6        37.357
C08        36.000                                                                                                                                    39045925.275 3                     -2051.543 3        21.738    39045927.975 4 157221749.04404     -1587.968 4        29.185
C11        38.000                                                                                                                                    21798069.187 8 113508254.97808     -1625.763 8        48.788    21798065.891 8  87771837.53408     -1257.168 8        52.936    21798064.430 8  92234726.02508     -1321.156 8        50.232
R21        39.000    21679748.260 6 116012629.58606      1855.656 6        36.601                                                                    21679735.594 5  90232139.46505      1442.895 5        32.647
R04        40.000    21057268.738 7 112760894.71807     -1386.796 7        46.209                                                                    21057265.294 6  87702846.33506     -1078.609 6        39.922
C12        41.000                                                                                                                                    25373204.300 4                     -3492.608 4        25.744    25373202.497 5 102167373.10915     -2700.910 5        34.248
C14        42.000                                                                                                                                    25034635.414 5 130361912.96305      2516.397 5        33.461    25034630.908 7 100804101.22107      1946.036 7        43.369    25034629.155 6 105929761.75406      2044.782 6        40.567
C13        43.000                                                                                                                                    38554471.127 6 200763255.24206     -1818.935 6        39.799    38554469.019 5                     -1406.466 5        33.060    38554469.233 5 163136653.26905     -1478.227 5        31.396
C21        46.000                                                                                                                                    23697460.721 7 123398861.20107     -1191.732 7        45.350                                                                    23697454.506 7 100271666.64407      -968.443 7        47.338
C23        47.000                                                                                                                                                                                                                                                                    25175879.668 6 106527403.43406     -2670.280 6        37.009
C43        48.000                                                                                                                                    21589861.032 8 112424080.99408      -406.622 8        50.557                                                                    21589858.336 7  91353755.02507      -330.532 7        46.716
C42        50.000                                                                                                                                    23654083.469 6 123173280.78306      1625.110 6        40.808                                                                    23654089.576 6 100088207.68106      1320.248 6        39.072
C34        52.000                                                                                                                                    22790370.249 7 118675773.38407     -2794.646 7        44.447                                                                    22790367.345 6  96433497.91006     -2270.990 6        41.912
C37        54.000                                                                                                                                    25259982.363 6 131535460.31206      -983.455 6        37.233                                                                    25259985.579 5 106883300.47105      -799.212 5        31.819
C28        55.000                                                                                                                                    25197682.674 6 131210892.02506      1871.411 6        41.802                                                                    25197670.162 5                      1520.741 5        32.389
C22        57.000                                                                                                                                    26347276.360 3                     -3586.222 3        20.310
I06        58.000    38651201.577 5 151675746.71205      -568.712 5        33.054
I09        60.000    38450785.575 5 150889150.59605        43.984 5        35.319
> 2025 01 02 20 15 10.0000000  0 44
G10         1.000    21019103.393 8 110456292.91008       470.096 8        52.303                                    21019100.086 8  86069754.71708       366.309 8        50.527    21019100.958 7  86069705.70807       366.411 7        44.746
G23         2.000    21228268.045 7 111555311.75407     -2355.663 7        43.196                                    21228262.459 4  86926200.69004     -1835.579 4        29.128    21228263.605 7  86926260.70807     -1835.617 7        42.201
G15         3.000    23966384.974 3                     -2284.534 3        23.505
G21         4.000    23370461.511 4 122812651.99004      1945.560 4        27.186
G08         5.000    21522520.108 6 113101563.95706      1549.082 6        36.681                                    21522516.677 3  88131226.26403      1207.084 3        20.643
G30         7.000    25745016.769 5                      -833.570 5        31.419
G07         8.000    25418611.934 5                     -2036.701 5        33.713                                                                                                    25418591.197 4                     -1587.141 4        25.744
E09        10.000    27205195.570 4                       163.657 4        29.687                                                                    27205182.941 5 106758999.56805       122.425 5        33.317
G18        12.000    23682153.744 5 124450402.53405     -3861.819 5        33.659                                                                                                    23682182.083 5  96974474.81705     -3009.278 5        30.891
G27        13.000    20105137.821 6 105653215.37206      -523.260 6        39.703                                    20105136.450 6  82327135.29706      -407.726 6        40.005    20105137.190 7  82327213.29407      -407.678 7        43.048
E27        14.000    25516244.706 3                       395.532 3        20.857                                                                    25516225.765 7 100131169.40207       295.144 7        45.800    25516222.288 6 102743327.94206       302.761 6        38.312
R03        15.000                                                                                                                                    23806816.574 4                     -3383.141 4        24.060
E15        16.000    25365417.528 6 133296170.26906      1103.037 6        41.743                                                                    25365417.689 7  99539362.31507       823.569 7        42.880    25365420.248 6 102136006.41206       845.183 6        37.233
G26        17.000    24383820.860 4                     -4496.243 4        29.507                                                                                                    24383832.529 4                     -3503.691 4        26.371
E06        18.000                                                                                                                                    27522940.102 3                      -694.024 3        23.943
E30        19.000    24664535.447 6 129613011.03106     -2438.163 6        38.820                                                                                                                                    24664575.670 4  99313901.25504     -1867.974 4        27.952
R20        20.000    19616816.363 5 104899925.66905     -1065.248 5        34.010                                                                    19616819.623 6  81588846.43406      -828.498 6        41.311
E02        21.000    27025781.081 5 142021464.46905     -4070.182 5        31.623                                                                    27025780.159 5 106054990.53005     -3039.251 5        35.500    27025779.680 4 108821612.51104     -3118.148 4        26.874
S23        22.000    38195934.777 6 200721008.08606      -861.479 6        40.653
R10        23.000    22161711.967 4                     -4589.610 4        28.389
E36        24.000    25831436.481 5 135745186.10105     -3070.241 5        33.102                                                                    25831449.431 5 101368282.31305     -2292.589 5        35.533    25831437.240 6 104012654.30606     -2352.452 6        38.763
G16        26.000    22110157.725 6 116189663.65306     -3852.890 6        40.546                                    22110153.677 2  90537389.22702     -3002.236 2        17.283
S21        27.000    38469228.440 5 202157464.58405      -862.019 5        31.751
R05        28.000    21291198.250 5                      2305.326 5        32.174                                                                    21291261.940 4                      1792.869 4        27.234
R12        30.000    23917958.976 5 127765493.13715      2471.630 5        31.751                                                                    23917966.183 4                      1922.471 4        26.311
S36        31.000    38238589.106 6 200945084.45006      -860.908 6        36.000
E34        32.000    23344462.156 7 122675968.01307     -1060.901 7        42.231                                                                    23344462.294 8  91608700.53808      -792.291 8        48.637    23344462.082 8  93998551.99708      -812.932 8        49.210
R11        33.000    21144365.080 6 112989183.10706     -1172.778 6        40.930
C08        36.000                                                                                                                                    39047897.167 3                     -2055.338 3        19.642    39047903.316 4 157229690.36504     -1588.372 4        29.735
C11        38.000                                                                                                                                    21799630.670 8 113516387.60808     -1626.968 8        48.689    21799627.542 8  87778126.19108     -1258.113 8        52.911    21799626.161 8  92241334.44208     -1322.247 8        50.042
R21        39.000    21678013.351 5 116003354.90605      1854.854 5        35.833                                                                    21678000.560 6  90224925.86606      1442.520 6        36.019
R04        40.000    21058565.396 7 112767840.36107     -1391.159 7        47.143                                                                    21058562.610 6  87708248.47606     -1082.043 6        40.169
C12        41.000                                                                                                                                    25376554.685 4                     -3494.475 4        24.165    25376558.184 5 102180878.01105     -2701.097 5        33.563
C14        42.000                                                                                                                                    25032215.794 5 130349331.97305      2516.366 5        32.359    25032214.831 7 100794372.79307      1945.661 7        42.912    25032213.223 6 105919538.66806      2044.226 6        40.594
C13        43.000                                                                                                                                    38556218.035 6 200772350.74506     -1818.939 6        39.381    38556216.802 5                     -1406.882 5        33.868    38556216.552 5 163144044.11005     -1478.235 5        32.461
C21        46.000                                                                                                                                    23698606.463 7 123404827.30107     -1194.483 7        45.657                                                                    23698600.130 7 100276514.58307      -970.799 7        47.197
C23        47.000                                                                                                                                    25179047.927 5                     -3287.260 5        31.947                                                                    25179035.558 6 106540756.94506     -2671.298 6        36.646
C43        48.000                                                                                                                                    21590251.980 8 112426118.00408      -407.846 8        50.196                                                                    21590249.585 7  91355410.25707      -331.638 7        46.977
C42        50.000                                                                                                                                    23652523.525 6 123165160.43306      1623.218 6        38.724                                                                    23652530.362 6 100081609.20306      1318.824 6        39.096
C34        52.000                                                                                                                                    22793053.896 7 118689749.69707     -2795.491 7        44.626                                                                    22793051.409 6  96444854.80606     -2271.879 6        41.511
C37        54.000                                                                                                                                    25260928.668 6 131540384.70506      -985.963 6        36.000                                                                    25260932.447 5 106887301.92905      -801.175 5        32.479
C28        55.000                                                                                                                                    25195887.244 6 131201535.94006      1871.459 6        40.806                                                                    25195875.244 5                      1520.450 5        31.275
I06        58.000    38651925.833 5 151678589.49505      -568.304 5        33.437
I09        60.000    38450728.313 5 150888931.24805        44.055 5        35.324
> 2025 01 02 20 15 15.0000000  0 42
G10         1.000    21018657.922 8 110453950.53908       467.127 8        52.003                                    21018654.636 8  86067929.49408       363.997 8        50.754    21018655.293 7  86067880.48607       363.976 7        44.978
G23         2.000    21230510.702 7 111567098.92607     -2358.742 7        42.525                                    21230505.376 4  86935385.49704     -1837.980 4        28.711    21230506.522 6  86935445.50006     -1838.013 6        41.738
G21         4.000    23368612.184 4 122802925.99204      1944.323 4        27.186
G08         5.000    21521045.134 5 113093823.87705      1547.245 5        34.700                                    21521046.335 3  88125195.05903      1205.641 3        20.810    21521037.553 4                      1205.418 4        27.245
G30         7.000    25745809.887 5                      -836.312 5        30.400
G07         8.000    25420554.264 5                     -2038.820 5        34.143
E09        10.000    27205040.145 5                       161.372 5        30.596                                                                    27205031.122 5 106758392.45205       120.642 5        32.659
G18        12.000    23685829.077 5 124469713.51405     -3862.484 5        34.338                                                                                                    23685862.608 4  96989522.30904     -3009.405 4        28.720
G27        13.000    20105638.694 6 105655839.14806      -526.161 6        39.850                                    20105635.657 6  82329179.80106      -409.991 6        40.029    20105636.961 7  82329257.80307      -409.964 7        43.547
E27        14.000    25515861.559 4                       392.780 4        27.222                                                                    25515851.120 7 100129698.61207       293.428 7        46.011    25515847.428 6 102741818.76806       301.191 6        38.015
R03        15.000                                                                                                                                    23810880.653 4                     -3384.519 4        26.790
E15        16.000    25364368.763 7 133290658.88207      1101.998 7        42.402                                                                    25364368.752 7  99535246.67507       822.792 7        42.703
G26        17.000    24388102.282 4                     -4496.748 4        28.711                                                                                                    24388111.792 4                     -3503.749 4        27.150
E06        18.000                                                                                                                                    27523820.301 3                      -696.477 3        22.971
E30        19.000    24666856.029 6 129625208.13206     -2440.314 6        37.868                                                                                                                                    24666897.731 4  99323247.20004     -1869.804 4        28.009
R20        20.000    19617812.436 5 104905258.17005     -1067.484 5        34.338                                                                    19617816.994 6  81592993.93906      -830.140 6        41.743
E02        21.000    27029654.084 5 142041816.41105     -4070.411 5        31.887                                                                    27029653.421 5 106070188.39705     -3039.892 5        35.938    27029653.411 4 108837206.89704     -3118.935 4        27.653
S23        22.000    38196754.090 6 200725316.85106      -861.599 6        40.737
E36        24.000    25834357.823 5 135760539.95205     -3070.796 5        34.414                                                                    25834370.899 5 101379747.86305     -2292.958 5        34.981    25834358.601 6 104024418.94806     -2352.969 6        38.162
G16        26.000    22113824.866 6 116208934.89506     -3855.091 6        38.808                                    22113820.855 2  90552405.77202     -3003.942 2        17.358
S21        27.000    38470050.047 5 202161774.52905      -862.117 5        32.329
R05        28.000    21289047.013 5 113802192.54115      2302.116 5        32.623
R12        30.000    23915650.748 5 127753143.38215      2468.809 5        32.497                                                                    23915647.959 4                      1920.634 4        25.338
S36        31.000    38239409.050 6 200949389.58706      -861.069 6        36.087
E34        32.000    23345471.878 6 122681277.08306     -1062.253 6        40.577                                                                    23345472.610 8  91612665.10608      -793.318 8        48.758    23345472.447 8  94002619.98808      -813.996 8        49.531
R11        33.000    21145465.381 6 112995059.70006     -1177.486 6        40.658                                                                    21145497.440 5  87885119.25205      -916.030 5        32.287
C08        36.000                                                                                                                                    39049864.507 3                     -2054.813 3        20.262    39049874.860 5 157237632.24905     -1587.723 5        30.430
C11        38.000                                                                                                                                    21801193.575 8 113524527.04208     -1628.476 8        48.795    21801190.522 8  87784420.11608     -1259.285 8        52.810    21801189.262 8  92247948.41808     -1323.424 8        49.962
R21        39.000    21676282.730 5 115994085.09005      1853.952 5        32.389                                                                    21676269.621 6  90217715.90306      1441.585 6        37.822
R04        40.000    21059867.392 7 112774808.96307     -1395.951 7        47.568                                                                    21059864.295 6  87713668.50006     -1085.681 6        40.763
C12        41.000                                                                                                                                    25379911.000 3                     -3493.992 3        21.381    25379911.543 5 102194384.65405     -2701.369 5        31.555
C14        42.000                                                                                                                                    25029797.294 4 130336754.53104      2515.360 4        29.744    25029798.961 7 100784647.11807      1944.798 7        42.514    25029797.801 6 105909318.47406      2043.643 6        40.870
C13        43.000                                                                                                                                    38557963.752 6 200781447.41406     -1819.519 6        38.724    38557963.369 5 155256941.00415     -1406.844 5        34.862    38557963.806 5 163151435.84405     -1478.128 5        32.533
C21        46.000                                                                                                                                    23699754.382 7 123410808.04307     -1197.502 7        45.354                                                                    23699748.709 7 100281374.43907      -973.182 7        47.323
C23        47.000                                                                                                                                    25182210.585 5                     -3288.800 5        30.377                                                                    25182192.927 6 106554116.19806     -2672.458 6        36.348
C43        48.000                                                                                                                                    21590644.615 8 112428162.56408      -409.577 8        50.029                                                                    21590642.324 7  91357071.63707      -332.949 7        47.387
C42        50.000                                                                                                                                    23650967.405 6 123157049.71306      1621.265 6        36.019                                                                    23650972.728 6 100075018.54506      1317.345 6        39.003
C34        52.000                                                                                                                                    22795738.209 7 118703731.62007     -2796.826 7        44.497                                                                    22795736.167 6  96456216.24906     -2272.858 6        41.144
C37        54.000                                                                                                                                    25261878.917 5 131545322.58405      -988.821 5        34.819                                                                    25261881.469 5 106891314.41305      -803.743 5        33.383
C28        55.000                                                                                                                                    25194089.088 6 131192181.10306      1871.039 6        39.793                                                                    25194081.752 5                      1520.262 5        30.792
I06        58.000    38652650.429 5 151681432.06905      -568.623 5        33.240
I09        60.000    38450673.640 5 150888712.67805        43.609 5        35.000
> 2025 01 02 20 15 20.0000000  0 43
G10         1.000    21018215.217 8 110451622.73108       464.278 8        52.139                                    21018211.941 8  86066115.62208       361.775 8        50.913    21018211.987 7  86066066.60707       361.781 7        45.202
G23         2.000    21232756.254 6 111578900.43706     -2361.654 6        41.416                                    21232751.168 4  86944581.47104     -1840.247 4        28.275    21232752.684 6  86944641.49606     -1840.433 6        41.690
G21         4.000    23366762.466 4 122793205.73904      1943.428 4        27.557
G08         5.000    21519572.732 5 113086092.33905      1545.636 5        34.895                                    21519577.631 3  88119170.53303      1204.397 3        20.548    21519571.214 3                      1202.823 3        22.171
G30         7.000    25746606.708 5                      -839.069 5        30.475
G07         8.000    25422493.210 5 133596113.57515     -2040.991 5        33.784                                                                                                    25422486.929 4                     -1590.688 4        27.042
E09        10.000    27204886.599 5                       159.262 5        30.966                                                                    27204880.783 5 106757793.75505       119.097 5        31.849
G18        12.000    23689508.534 5 124489027.25805     -3862.790 5        35.029                                                                                                    23689537.003 4  97004572.06904     -3010.659 4        26.766
G27        13.000    20106141.247 7 105658476.47407      -528.688 7        42.764                                    20106137.414 6  82331234.86506      -411.967 6        40.443    20106138.908 7  82331312.87807      -411.897 7        44.283
E27        14.000    25515480.760 5                       390.570 5        31.706                                                                    25515478.525 7 100128235.99007       291.813 7        45.741    25515474.424 6 102740317.97906       299.616 6        37.588
E15        16.000    25363320.960 7 133285152.03407      1101.083 7        42.997                                                                    25363320.763 7  99531134.40707       822.278 7        42.495    25363313.225 5 102127563.87705       843.878 5        35.986
G26        17.000    24392385.426 4                     -4496.749 4        25.940                                                                                                    24392387.991 4                     -3503.517 4        27.581
E06        18.000                                                                                                                                    27524699.583 3                      -697.356 3        23.276
E30        19.000    24669179.117 6 129637415.91406     -2442.589 6        36.268                                                                    24669186.642 5  96807185.37915     -1824.172 5        34.400    24669218.340 4  99332601.25704     -1871.031 4        29.678
R20        20.000    19618812.911 5 104910600.66505     -1069.585 5        34.010                                                                    19618816.194 7  81597149.23507      -831.728 7        42.832
E02        21.000    27033528.346 5 142062170.26105     -4070.883 5        33.024                                                                    27033526.788 5 106085387.66905     -3039.868 5        35.895    27033526.983 4 108852802.66004     -3118.926 4        28.427
S23        22.000    38197575.849 6 200729625.68806      -861.548 6        40.696
R10        23.000    22170337.351 4                     -4594.120 4        26.934
E36        24.000    25837280.177 5 135775895.84105     -3071.229 5        35.367                                                                    25837293.623 5 101391214.94705     -2293.235 5        34.290    25837280.456 6 104036185.14106     -2353.162 6        37.119
G16        26.000    22117493.491 6 116228216.23106     -3857.417 6        36.764                                    22117489.624 2  90567430.15702     -3005.793 2        16.226
S21        27.000    38470868.439 5 202166084.63305      -861.543 5        31.577
R05        28.000                                                                                                                                    21286930.736 3                      1784.399 3        20.667
R12        30.000    23913349.116 5 127740806.38805      2466.264 5        34.524
S36        31.000    38240224.025 5 200953694.58405      -860.959 5        35.957
E34        32.000    23346483.453 6 122686592.40606     -1063.514 6        39.168                                                                    23346484.014 8  91616634.33708      -794.201 8        48.706    23346483.947 8  94006692.76908      -814.960 8        49.871
R11        33.000    21146570.881 7 113000959.40907     -1182.104 7        43.900                                                                    21146604.355 5  87889707.86705      -919.726 5        32.431
C08        36.000                                                                                                                                                                                                    39051847.744 5 157245575.03505     -1588.383 5        30.981
C11        38.000                                                                                                                                    21802758.069 8 113532673.62108     -1629.897 8        49.159    21802754.826 8  87790719.56208     -1260.321 8        52.580    21802753.611 8  92254568.17708     -1324.485 8        49.836
R21        39.000    21674531.689 5 115984819.95005      1852.411 5        33.856                                                                    21674538.137 6  90210509.72806      1441.147 6        38.565
R04        40.000    21061172.584 7 112781800.84307     -1400.531 7        47.303                                                                    21061170.535 6  87719106.63706     -1089.366 6        41.080
C12        41.000                                                                                                                                    25383270.329 3                     -3496.394 3        20.429    25383260.404 4 102207893.30404     -2701.938 4        28.531
C14        42.000                                                                                                                                    25027379.775 4 130324180.86904      2514.272 4        28.787    25027384.669 6 100774924.33806      1944.477 6        41.697    25027383.148 6 105899101.33606      2043.234 6        41.189
C13        43.000                                                                                                                                    38559709.576 6 200790545.42306     -1819.590 6        38.414    38559710.468 5 155263976.18205     -1407.246 5        34.748    38559710.988 5 163158828.74305     -1478.612 5        32.886
C21        46.000                                                                                                                                    23700904.854 7 123416803.69307     -1200.477 7        44.531                                                                    23700900.205 7 100286246.39707      -975.580 7        47.438
C23        47.000                                                                                                                                    25185369.889 4                     -3290.295 4        28.948                                                                    25185351.069 5 106567481.35705     -2673.660 5        35.862
C43        48.000                                                                                                                                    21591038.575 8 112430214.92508      -411.124 8        49.818                                                                    21591036.552 7  91358739.34007      -334.151 7        47.848
C42        50.000                                                                                                                                    23649411.869 5 123148948.89305      1619.313 5        34.643                                                                    23649416.979 6 100068435.92506      1315.779 6        38.832
C34        52.000                                                                                                                                    22798423.884 7 118717719.39507     -2798.027 7        44.454                                                                    22798422.003 6  96467582.45406     -2273.784 6        40.868
C37        54.000                                                                                                                                    25262834.518 5 131550274.14705      -991.173 5        32.970                                                                    25262832.764 5 106895338.03005      -805.939 5        33.629
C28        55.000                                                                                                                                    25192290.751 6 131182827.74206      1870.642 6        38.571
C22        57.000                                                                                                                                    26357571.050 3                     -3581.717 3        20.714
I06        58.000    38653373.661 5 151684274.58005      -568.444 5        33.120
I09        60.000    38450617.835 5 150888495.14505        43.479 5        34.900
> 2025 01 02 20 15 25.0000000  0 42
G10         1.000    21017775.225 8 110449309.68308       461.001 8        52.291                                    21017772.028 8  86064313.25008       359.219 8        51.111    21017771.952 7  86064264.24207       359.212 7        45.023
G23         2.000    21235005.726 6 111590716.48306     -2364.691 6        40.870                                    21234999.844 4  86953788.77204     -1842.615 4        28.427    21235001.375 6  86953848.79406     -1842.627 6        41.356
G21         4.000    23364913.358 4 122783491.31404      1942.489 4        28.313
G08         5.000    21518104.506 6 113078369.60506      1543.627 6        36.405                                    21518110.474 3  88113152.84903      1202.819 3        20.190
G30         7.000    25747407.678 5                      -841.958 5        30.294
G07         8.000    25424433.209 5 133606324.98905     -2043.539 5        33.808                                                                                                    25424427.273 4                     -1592.422 4        27.641
E09        10.000    27204732.073 5                       157.043 5        30.611                                                                    27204730.199 5 106757203.52905       117.266 5        30.687
G18        12.000    23693183.931 5 124508343.96905     -3863.698 5        34.700                                                                                                    23693212.881 3  97019624.09603     -3011.086 3        23.714
G27        13.000    20106646.790 7 105661127.63507      -531.645 7        44.831                                    20106641.804 6  82333300.70806      -414.275 6        41.433    20106642.994 7  82333378.71607      -414.208 7        43.958
E27        14.000    25515112.634 5 134082821.18715       388.094 5        34.229                                                                    25515108.209 7 100126781.68207       289.975 7        45.731    25515103.720 6 102738825.72506       297.614 6        37.588
R03        15.000    23819042.983 4                     -4357.993 4        24.406                                                                    23819028.848 5                     -3388.731 5        30.891
E15        16.000    25362273.579 7 133279649.91907      1099.931 7        43.365                                                                    25362273.692 7  99527025.68907       821.383 7        42.404    25362268.843 5 102123347.98305       842.680 5        35.395
G26        17.000    24396669.746 4                     -4496.759 4        24.346                                                                                                    24396665.362 4                     -3504.096 4        26.898
E30        19.000    24671504.854 5 129649634.51705     -2444.755 5        34.543                                                                    24671514.609 5  96816309.60905     -1825.765 5        35.424    24671541.404 5  99341963.58205     -1873.126 5        30.015
R20        20.000    19619812.747 5 104915953.44505     -1071.381 5        34.224                                                                    19619817.779 7  81601312.49707      -833.469 7        44.254
E02        21.000    27037402.339 5 142082526.19105     -4071.554 5        33.371                                                                    27037400.582 5 106100588.49305     -3040.189 5        35.748    27037401.140 4 108868400.06904     -3119.755 4        29.299
S23        22.000    38198395.390 6 200733934.85006      -861.928 6        40.601
R10        23.000    22174649.306 3                     -4594.414 3        23.352
E36        24.000    25840203.270 6 135791254.00406     -3071.701 6        36.193                                                                    25840220.427 5 101402683.74905     -2293.913 5        33.838    25840202.811 6 104047953.07006     -2353.818 6        36.491
G16        26.000    22121165.258 6 116247507.81206     -3859.368 6        36.261                                    22121160.473 2  90582462.55902     -3007.282 2        16.000
S21        27.000    38471693.994 5 202170395.20505      -862.350 5        31.947
R12        30.000    23911046.739 5 127728482.52005      2463.591 5        35.405                                                                    23911049.991 4                      1915.195 4        24.857
S36        31.000    38241047.175 6 200958000.65806      -861.264 6        36.049
E34        32.000    23347496.578 6 122691914.19606     -1065.110 6        38.240                                                                    23347496.662 8  91620608.39708      -795.289 8        48.504    23347496.718 8  94010770.49708      -816.067 8        50.077
R11        33.000    21147680.016 7 113006882.42607     -1186.963 7        45.258                                                                    21147714.075 4  87894314.73204      -923.120 4        29.905
C08        36.000                                                                                                                                                                                                    39053820.555 5 157253518.76505     -1588.920 5        31.283
C11        38.000                                                                                                                                    21804323.910 8 113540827.51608     -1631.539 8        49.371    21804320.578 8  87797024.66308     -1261.606 8        52.520    21804319.371 8  92261193.84508     -1325.522 8        49.499
R21        39.000    21672806.960 6 115975560.01306      1851.456 6        40.427                                                                    21672806.335 6  90203307.60406      1439.950 6        37.384
