     3.04           OBSERVATION DATA    M                   RINEX VERSION / TYPE
ssrcrin-15.6.1x                         20250102 163000 UTC PGM / RUN BY / DATE 
(00000000023479385599111004) Septentrio proprietary         COMMENT             
ract                                                        MARKER NAME         
01                                                          MARKER NUMBER       
geodetic                                                    MARKER TYPE         
NFB                 CLIMERS@TUW                             OBSERVER / AGENCY   
3296359             SEPT ASTERX SB3 PROB4.14.4              REC # / TYPE / VERS 
Unknown             Unknown                                 ANT # / TYPE        
  4127450.1046  1206914.5396  4695544.5880                  APPROX POSITION XYZ 
        0.0000        0.0000        0.0000                  ANTENNA: DELTA H/E/N
G   23 X1  C1C L1C D1C S1C C1W S1W C2W L2W D2W S2W C2L L2L  SYS / # / OBS TYPES 
       D2L S2L C5Q L5Q D5Q S5Q C1L L1L D1L S1L              SYS / # / OBS TYPES 
E   21 X1  C1C L1C D1C S1C C6C L6C D6C S6C C5Q L5Q D5Q S5Q  SYS / # / OBS TYPES 
       C7Q L7Q D7Q S7Q C8Q L8Q D8Q S8Q                      SYS / # / OBS TYPES 
S    9 X1  C1C L1C D1C S1C C5I L5I D5I S5I                  SYS / # / OBS TYPES 
R   17 X1  C1C L1C D1C S1C C2P L2P D2P S2P C2C L2C D2C S2C  SYS / # / OBS TYPES 
       C3Q L3Q D3Q S3Q                                      SYS / # / OBS TYPES 
C   25 X1  C1P L1P D1P S1P C5P L5P D5P S5P C2I L2I D2I S2I  SYS / # / OBS TYPES 
       C7I L7I D7I S7I C6I L6I D6I S6I C7D L7D D7D S7D      SYS / # / OBS TYPES 
J   17 X1  C1C L1C D1C S1C C2L L2L D2L S2L C5Q L5Q D5Q S5Q  SYS / # / OBS TYPES 
       C1L L1L D1L S1L                                      SYS / # / OBS TYPES 
I    5 X1  C5A L5A D5A S5A                                  SYS / # / OBS TYPES 
SEPTENTRIO RECEIVERS OUTPUT ALIGNED CARRIER PHASES.         COMMENT             
NO FURTHER PHASE SHIFT APPLIED IN THE RINEX ENCODER.        COMMENT             
G L1C                                                       SYS / PHASE SHIFT   
G L2W                                                       SYS / PHASE SHIFT   
G L2L  0.00000                                              SYS / PHASE SHIFT   
G L5Q  0.00000                                              SYS / PHASE SHIFT   
G L1L  0.00000                                              SYS / PHASE SHIFT   
E L1C  0.00000                                              SYS / PHASE SHIFT   
E L6C  0.00000                                              SYS / PHASE SHIFT   
E L5Q  0.00000                                              SYS / PHASE SHIFT   
E L7Q  0.00000                                              SYS / PHASE SHIFT   
E L8Q  0.00000                                              SYS / PHASE SHIFT   
S L1C                                                       SYS / PHASE SHIFT   
S L5I                                                       SYS / PHASE SHIFT   
R L1C                                                       SYS / PHASE SHIFT   
R L2P  0.00000                                              SYS / PHASE SHIFT   
R L2C                                                       SYS / PHASE SHIFT   
R L3Q  0.00000                                              SYS / PHASE SHIFT   
C L1P  0.00000                                              SYS / PHASE SHIFT   
C L5P  0.00000                                              SYS / PHASE SHIFT   
C L2I                                                       SYS / PHASE SHIFT   
C L7I                                                       SYS / PHASE SHIFT   
C L6I                                                       SYS / PHASE SHIFT   
C L7D                                                       SYS / PHASE SHIFT   
J L1C                                                       SYS / PHASE SHIFT   
J L2L  0.00000                                              SYS / PHASE SHIFT   
J L5Q  0.00000                                              SYS / PHASE SHIFT   
J L1L  0.00000                                              SYS / PHASE SHIFT   
I L5A                                                       SYS / PHASE SHIFT   
  2025     1     2    16    30    0.0000000     GPS         TIME OF FIRST OBS   
 C1C    0.000 C2C    0.000 C2P    0.000                     GLONASS COD/PHS/BIS 
DBHZ                                                        SIGNAL STRENGTH UNIT
    18                                                      LEAP SECONDS        
 24 R01  1 R02 -4 R03  5 R04  6 R05  1 R06 -4 R07  5 R08  6 GLONASS SLOT / FRQ #
    R09 -2 R10 -7 R11  0 R12 -1 R13 -2 R14 -7 R15  0 R16 -1 GLONASS SLOT / FRQ #
    R17  4 R18 -3 R19  3 R20  2 R21  4 R22 -3 R23  3 R24  2 GLONASS SLOT / FRQ #
                                                            END OF HEADER       
> 2025 01 02 16 30  0.0000000  0 39
G20         1.000    23699484.063 5 124541511.51305     -1990.312 5        32.281
G25         3.000    21789477.026 7 114504380.59207     -3862.637 7        42.986                                    21789477.937 4  89224276.68404     -3009.842 4        26.623    21789478.223 5  89224270.72905     -3010.011 5        32.707
G05         4.000                                                                                                                                                                    23029302.344 5                       338.956 5        30.121
E25         6.000    24147452.101 6 126895775.78606     -2519.569 6        37.157                                                                    24147455.286 7  94759965.53007     -1881.663 7        44.786    24147454.510 6  97231859.87906     -1930.716 6        41.840
G31         7.000    21593364.107 7 113473894.83307     -1414.823 7        46.702                                    21593362.025 6  88421616.54606     -1102.465 6        40.079    21593361.628 6  88421230.57706     -1102.383 6        41.945
G28         8.000    21943970.951 6 115316465.36706     -3032.020 6        40.622                                    21943967.278 3  89856825.56203     -2362.604 3        21.929    21943966.896 6  89856903.55106     -2362.636 6        40.443
G29         9.000    20523668.296 8 107852686.85808     -1963.719 8        50.273                                    20523663.623 7  84041060.79307     -1530.170 7        45.523    20523664.821 7  84041012.79207     -1530.162 7        42.296
E11        10.000    24097160.911 6 126631429.02306     -1871.935 6        40.358                                                                    24097157.131 6  94562434.85906     -1397.914 6        41.776    24097157.064 6  97029333.29906     -1434.320 6        41.628
E10        11.000    26006475.035 6 136664937.70906     -3158.185 6        36.514                                                                    26006474.622 4 102055053.61804     -2358.397 4        29.583
G18        12.000    21582016.928 3                      1696.787 3        23.410                                                                                                    21581962.175 6  88374521.91106      1322.243 6        38.360
G04        14.000    25081502.990 5 131804200.72505     -1405.454 5        33.180
G26        17.000    21564946.125 4                      1554.133 4        24.767                                                                                                    21564935.300 6  88304922.89906      1209.715 6        36.798
E07        18.000                                                                                                                                    28071851.681 5 110159954.51705     -1590.709 5        31.781    28071848.509 4 113033704.61104     -1632.534 4        27.725
E30        19.000    27287148.976 4 143394930.60104      1771.682 4        29.564                                                                    27287141.353 6 107080663.06606      1323.018 6        37.962    27287137.989 5 109874015.73605      1357.464 5        33.455
E08        20.000                                                                                                                                                                                                    28728498.171 3                     -2662.796 3        19.254
E02        21.000    23337731.262 7 122640841.70707        56.598 7        45.604                                                                    23337730.672 7  91582349.12607        42.191 7        43.122    23337732.488 6  93971462.54206        43.396 6        40.923
S23        22.000    38069844.867 6 200058437.87906      -866.928 6        38.147
R08        23.000    24273634.133 4                     -3018.345 4        26.623
E36        24.000    24046971.683 7 126367690.06207       966.207 7        43.712                                                                    24046974.361 7  94365642.27807       721.530 7        43.970    24046974.013 7  96827337.44907       740.324 7        45.738
R18        25.000    19036510.801 7 101618246.32107     -1624.182 7        43.702                                                                    19036514.559 6  79036404.02006     -1263.335 6        40.961
S21        27.000    38347618.403 5 201518185.58905      -863.043 5        35.795
R19        29.000    20191756.734 4 108012281.98904      1692.591 4        24.045                                                                    20191750.974 5  84009553.76105      1316.523 5        35.343
R15        30.000    22273273.698 5 119021585.83605     -4920.851 5        35.548                                                                    22273273.761 4  92572370.60104     -3827.781 4        27.413
S36        31.000    38118785.694 6 200315550.35806      -862.985 6        36.503
R16        34.000    19118874.251 8 102130206.65508     -1880.392 8        48.674                                                                    19118875.770 7  79434296.34507     -1462.570 7        42.030
C44        35.000                                                                                                                                    21386611.789 7 111365809.93407     -1702.141 7        42.097                                                                    21386610.806 7  90493916.85807     -1383.220 7        44.366
R17        36.000    21573334.252 7 115443214.08507     -4499.720 7        47.882
R09        37.000    20704702.196 8 110562006.56008      2265.462 8        48.273                                                                    20704700.018 7  85992697.34507      1761.920 7        45.785
C11        38.000                                                                                                                                    24590709.131 5 128050362.85405      2049.222 5        34.900    24590706.845 6  99016553.37906      1584.699 6        39.159    24590697.596 5 104051323.12005      1665.089 5        30.989
C12        41.000                                                                                                                                    21613570.777 7 112547619.43507      -210.342 7        47.019    21613569.914 8  87028963.26908      -162.681 8        53.367    21613568.594 8  91454147.58608      -171.076 8        48.159
C35        42.000                                                                                                                                                                                                                                                                    24423324.721 5 103343116.47005     -2993.227 5        30.377
C38        44.000                                                                                                                                    38555397.820 6 200768033.61406      -503.980 6        40.994                                                                    38555392.585 5 163140506.66605      -409.700 5        34.043
C25        45.000                                                                                                                                    22427840.536 6 116787629.27706       516.437 6        41.702                                                                    22427839.992 6  94899731.77406       419.693 6        40.107
C08        46.000                                                                                                                                    38017600.964 6 197967668.28406       110.856 6        36.624    38017598.165 7 153081111.19607        85.849 7        43.786    38017596.520 6 160864918.83106        89.870 6        39.868
C23        47.000                                                                                                                                    26808687.598 5 139599880.50905      2341.160 5        30.181                                                                    26808686.708 5 113436322.77005      1902.546 5        32.102
C26        48.000                                                                                                                                    25832318.031 4                     -4303.351 4        24.932
C24        51.000                                                                                                                                    22023933.555 7 114684425.85307     -2745.478 7        43.609                                                                    22023933.285 8  93190554.53708     -2230.965 8        48.396
C34        52.000                                                                                                                                    22577455.947 8 117566778.61308      1287.118 8        49.317                                                                    22577457.022 7  95532712.25007      1045.830 7        42.339
I06        58.000    38621007.312 6 151557206.59106      -672.727 6        37.191
> 2025 01 02 16 30  5.0000000  0 37
G25         3.000    21793152.711 6 114523697.83106     -3864.275 6        40.672                                    21793154.022 4  89239329.04704     -3011.109 4        25.414    21793153.177 5  89239323.10005     -3011.096 5        32.030
G05         4.000                                                                                                                                                                    23028891.724 4                       336.028 4        26.778
E25         6.000    24149848.047 5 126908378.12505     -2521.219 5        34.052                                                                    24149853.215 7  94769376.35607     -1882.619 7        44.453    24149852.047 6  97241516.19806     -1931.811 6        40.970
G31         7.000    21594712.029 7 113480977.32907     -1418.081 7        46.797                                    21594709.786 6  88427135.39206     -1104.998 6        39.718    21594708.867 6  88426749.40506     -1105.021 6        41.318
G28         8.000    21946856.538 6 115331632.05506     -3034.673 6        41.230                                    21946854.243 3  89868643.75903     -2364.687 3        22.819    21946852.691 6  89868721.76806     -2364.756 6        39.925
G29         9.000    20525537.365 8 107862510.13108     -1965.538 8        50.424                                    20525532.931 7  84048715.29107     -1531.589 7        45.577    20525534.199 7  84048667.28107     -1531.492 7        42.669
E11        10.000    24098942.635 6 126640793.77506     -1873.992 6        40.639                                                                    24098939.230 6  94569428.01206     -1399.389 6        41.621    24098939.180 7  97036508.88007     -1435.928 7        42.042
E10        11.000    26009482.324 6 136680732.24806     -3159.415 6        36.858                                                                    26009480.597 4 102066848.23704     -2359.680 4        27.557
G18        12.000    21580397.105 5                      1694.664 5        30.143                                                                                                    21580349.004 6  88367914.82206      1320.482 6        38.258
G04        14.000    25082845.078 5 131811235.69405     -1408.238 5        33.886                                                                                                    25082851.106 4 102710077.24714     -1097.135 4        26.407
G26        17.000    21563464.909 4                      1550.807 4        29.640                                                                                                    21563459.476 6  88298876.55306      1208.519 6        37.225
E07        18.000    28073877.646 4                     -2132.202 4        26.611                                                                    28073879.414 5 110167912.15705     -1592.546 5        32.216    28073876.786 4 113041869.85404     -1634.271 4        26.742
E30        19.000    27285457.720 4 143386072.14204      1772.100 4        28.986                                                                    27285455.192 6 107074048.14806      1323.002 6        37.444    27285452.754 5 109867228.24605      1357.389 5        33.533
E02        21.000    23337677.947 7 122640562.56307        55.233 7        46.099                                                                    23337677.555 7  91582140.67107        41.343 7        42.876    23337679.164 6  93971248.64906        42.416 6        40.057
S23        22.000    38070673.303 6 200062772.66006      -866.847 6        38.610
R08        23.000    24276465.340 4                     -3021.189 4        28.436
E36        24.000    24046053.405 7 126362864.30107       964.174 7        44.004                                                                    24046056.060 7  94362038.64307       720.001 7        44.518    24046055.912 7  96823639.79907       738.743 7        46.081
R18        25.000    19038033.959 7 101626376.07407     -1627.628 7        42.516                                                                    19038037.676 6  79042727.17606     -1265.977 6        41.585
S21        27.000    38348433.450 5 201522501.53605      -863.077 5        35.609
R19        29.000    20190170.423 4 108003824.04804      1690.432 4        26.263                                                                    20190171.382 5  84002975.41805      1314.517 5        35.471
R15        30.000    22277879.524 6 119046194.86706     -4922.477 6        36.363                                                                    22277881.636 4  92591511.01704     -3829.104 4        29.772
S36        31.000    38119606.367 6 200319865.22006      -863.045 6        36.295
R16        34.000    19120636.162 8 102139618.53008     -1884.235 8        48.718                                                                    19120636.064 6  79441616.66806     -1465.520 6        40.184
C44        35.000                                                                                                                                    21388247.164 7 111374325.22607     -1703.897 7        42.677                                                                    21388246.168 7  90500836.26707     -1384.625 7        44.704
R17        36.000    21577539.159 7 115465715.57207     -4500.677 7        47.027
R09        37.000    20702582.944 8 110550685.48208      2263.066 8        48.432                                                                    20702580.497 7  85983892.08507      1760.151 7        45.685
C11        38.000                                                                                                                                    24588745.190 5 128040119.12605      2048.602 5        35.014    24588739.328 6  99008632.35206      1583.815 6        40.186    24588730.346 5 104042999.34605      1664.096 5        30.664
C12        41.000                                                                                                                                    21613774.349 7 112548676.61907      -212.458 7        47.371    21613772.984 8  87029780.75508      -164.232 8        53.383    21613771.570 7  91455006.64407      -172.673 7        47.818
C35        42.000                                                                                                                                                                                                                                                                    24426861.957 5 103358082.10805     -2993.270 5        30.136
C38        44.000                                                                                                                                    38555881.728 6 200770556.62306      -505.036 6        40.465                                                                    38555877.119 5 163142556.85105      -410.785 5        33.880
C25        45.000                                                                                                                                    22427345.582 6 116785052.83906       514.108 6        41.795                                                                    22427344.999 6  94897638.23006       417.756 6        39.526
C08        46.000                                                                                                                                    38017495.508 6 197967116.45706       109.855 6        36.964    38017492.129 7 153080684.51107        84.918 7        43.410    38017490.558 6 160864470.44706        89.293 6        39.577
C23        47.000                                                                                                                                    26806439.731 5 139588174.54505      2341.104 5        31.841                                                                    26806437.155 5 113426810.78905      1902.100 5        32.545
C26        48.000                                                                                                                                    25836452.905 4                     -4303.273 4        24.767
C24        51.000                                                                                                                                    22026572.353 7 114698158.56907     -2747.632 7        44.476                                                                    22026570.510 8  93201713.50208     -2232.586 8        48.683
C34        52.000                                                                                                                                    22576220.730 8 117560346.95708      1285.583 8        49.456                                                                    22576222.077 7  95527486.03307      1044.581 7        42.573
I06        58.000    38621864.355 6 151560570.30406      -672.756 6        36.658
> 2025 01 02 16 30 10.0000000  0 39
G20         1.000    23703254.289 4 124561444.76504     -1995.621 4        26.132
G25         3.000    21796830.066 6 114543023.02806     -3865.998 6        38.243                                    21796832.209 4  89254387.60504     -3012.456 4        24.165    21796830.147 5  89254381.68205     -3012.388 5        31.102
G05         4.000    23028520.210 4                       428.921 4        29.270                                                                                                    23028478.774 3                       334.691 3        18.896
E25         6.000    24152249.368 5 126920987.10805     -2522.283 5        31.374                                                                    24152252.422 7  94778792.18407     -1883.775 7        44.349    24152251.173 6  97251177.64506     -1932.962 6        39.898
G31         7.000    21596062.984 7 113488076.74107     -1421.614 7        46.842                                    21596060.632 6  88432667.41906     -1107.755 6        39.315    21596059.861 6  88432281.43106     -1107.723 6        40.546
G28         8.000    21949744.797 6 115346811.89206     -3037.292 6        41.967                                    21949743.309 3  89880472.20103     -2366.718 3        23.429    21949741.185 6  89880550.21706     -2366.828 6        40.000
G29         9.000    20527408.724 8 107872342.81508     -1967.549 8        50.496                                    20527404.207 7  84056377.12407     -1533.151 7        45.547    20527405.277 7  84056329.12707     -1533.190 7        42.561
E11        10.000    24100726.298 6 126650169.23106     -1876.224 6        40.346                                                                    24100723.241 6  94576429.16406     -1401.070 6        41.635    24100723.243 7  97043692.68107     -1437.670 7        42.307
E10        11.000    26012490.379 6 136696533.68706     -3161.158 6        37.040                                                                    26012494.209 4 102078648.13504     -2360.441 4        25.218
G18        12.000    21578774.751 5                      1692.082 5        34.690                                                                                                    21578737.826 6  88361316.64606      1318.667 6        38.850
G04        14.000    25084186.251 5 131818284.94805     -1411.287 5        33.653                                                                                                    25084194.160 4 102715570.12904     -1099.719 4        26.742
G26        17.000    21561989.367 5                      1549.306 5        33.425                                                                                                    21561987.229 6  88292837.39106      1207.093 6        37.422
E07        18.000    28075911.277 4                     -2134.452 4        25.218                                                                    28075908.453 5 110175877.15405     -1594.275 5        32.437
E30        19.000    27283761.606 5 143377214.70805      1771.242 5        30.506                                                                    27283769.327 6 107067433.90506      1322.785 6        36.684    27283767.110 5 109860441.45105      1357.360 5        33.024
E02        21.000    23337626.076 7 122640290.32707        53.667 7        46.447                                                                    23337625.825 7  91581937.39607        40.025 7        42.777    23337627.248 6  93971040.07606        40.994 6        39.009
S23        22.000    38071495.920 6 200067107.47406      -867.210 6        38.123
R08        23.000    24279291.473 4                     -3024.601 4        28.645                                                                    24279268.959 4                     -2352.487 4        28.047
E36        24.000    24045137.671 7 126358048.40607       962.067 7        44.656                                                                    24045139.518 7  94358442.37407       718.491 7        45.111    24045139.774 7  96819949.71307       737.228 7        46.484
R18        25.000    19039561.249 7 101634523.49007     -1631.327 7        43.141                                                                    19039563.664 6  79049064.04106     -1268.884 6        41.497
G16        26.000    23961447.700 4                      2667.698 4        25.248
S21        27.000    38349256.305 5 201526817.31105      -863.462 5        34.857
R19        29.000    20188589.970 4 107995381.27504      1687.720 4        26.814                                                                    20188594.454 5  83996408.90005      1311.973 5        35.300
R15        30.000    22282483.942 6 119070811.50106     -4924.015 6        36.423                                                                    22282486.633 5  92610657.28505     -3830.008 5        32.311
S36        31.000    38120426.270 6 200324180.08306      -863.011 6        36.106
R16        34.000    19122402.193 8 102149050.30608     -1888.402 8        48.783                                                                    19122401.220 6  79448952.49606     -1468.828 6        38.207
C44        35.000                                                                                                                                    21389884.352 7 111382850.08707     -1706.049 7        42.614                                                                    21389883.399 7  90507763.43607     -1386.187 7        44.798
R17        36.000    21581744.597 7 115488223.21707     -4502.207 7        45.096                                                                    21581736.769 6  89824310.69916     -3501.636 6        39.072
R09        37.000    20700465.788 7 110539376.30907      2260.590 7        47.796                                                                    20700462.666 7  85975096.06407      1758.252 7        45.657
C11        38.000                                                                                                                                    24586780.196 5 128029880.24705      2047.159 5        34.576    24586772.984 6  99000715.03906      1582.935 6        41.230    24586764.851 5 104034679.42305      1663.439 5        30.792
C12        41.000                                                                                                                                    21613979.617 7 112549744.37307      -214.656 7        47.674    21613978.137 8  87030606.43008      -166.001 8        53.445    21613976.591 7  91455874.28607      -174.318 7        47.494
C35        42.000                                                                                                                                    24430431.195 5 127215535.06315     -3684.524 5        35.595                                                                    24430400.054 5 103373050.08105     -2993.483 5        30.921
C38        44.000                                                                                                                                    38556367.007 6 200773084.85306      -506.275 6        40.532                                                                    38556362.867 5 163144611.23905      -411.386 5        33.150
C25        45.000                                                                                                                                    22426851.524 6 116782488.19006       511.838 6        41.647                                                                    22426851.921 6  94895554.26106       415.743 6        38.372
C08        46.000                                                                                                                                    38017390.665 6 197966570.25606       108.756 6        37.217    38017387.589 7 153080262.14207        83.912 7        43.477    38017385.529 6 160864026.60506        88.211 6        39.228
C23        47.000                                                                                                                                    26804193.403 5 139576471.17205      2339.939 5        32.982                                                                    26804188.465 5 113417300.86305      1901.505 5        32.934
C26        48.000                                                                                                                                    25840583.620 4                     -4303.607 4        25.414
C24        51.000                                                                                                                                    22029212.276 7 114711902.42007     -2750.022 7        44.915                                                                    22029209.875 8  93212881.53108     -2234.496 8        48.556
C34        52.000                                                                                                                                    22574987.265 8 117553923.17108      1283.907 8        49.666                                                                    22574988.839 7  95522266.18207      1043.469 7        42.912
I06        58.000    38622721.734 6 151563933.75806      -672.778 6        36.892
> 2025 01 02 16 30 15.0000000  0 38
G20         1.000    23705157.244 4 124571433.67304     -1999.027 4        27.880
G25         3.000    21800509.368 6 114562356.15906     -3867.336 6        36.268                                    21800512.117 3  89269452.35703     -3013.503 3        23.848    21800507.621 5  89269446.44705     -3013.636 5        30.906
E25         6.000    24154650.170 5 126933602.83905     -2523.898 5        31.351                                                                    24154653.164 7  94788212.99207     -1884.817 7        44.117    24154651.749 6  97260844.20806     -1933.935 6        39.009
G31         7.000    21597416.975 7 113495193.07207     -1425.143 7        46.752                                    21597414.603 6  88438212.62706     -1110.505 6        39.270    21597413.935 6  88437826.63606     -1110.541 6        40.029
G28         8.000    21952635.341 7 115362004.86107     -3039.991 7        42.866                                    21952634.548 4  89892310.87504     -2368.831 4        24.120    21952632.981 6  89892388.89706     -2368.877 6        40.265
G29         9.000    20529281.510 8 107882184.89308     -1969.443 8        50.199                                    20529277.369 7  84064046.28107     -1534.633 7        45.497    20529277.870 7  84063998.28607     -1534.652 7        42.607
E11        10.000    24102511.885 6 126659555.38806     -1878.481 6        40.620                                                                    24102509.561 6  94583438.31006     -1402.677 6        41.902    24102509.353 7  97050884.66407     -1439.216 7        42.673
E10        11.000    26015498.710 6 136712341.98806     -3162.426 6        38.183                                                                    26015505.598 4 102090453.09304     -2360.875 4        26.228
G18        12.000    21577154.934 5 113388779.27015      1689.823 5        35.814                                                                                                    21577129.160 6  88354727.37206      1316.846 6        39.565
G04        14.000    25085529.787 5 131825348.70105     -1414.503 5        33.707                                                                                                    25085541.787 4 102721074.50804     -1102.447 4        26.335
G26        17.000    21560517.361 6 113301279.95816      1547.104 6        36.749                                    21560506.446 4                      1205.627 4        25.263    21560515.414 6  88286805.41106      1205.695 6        38.844
E07        18.000    28077940.741 4                     -2136.687 4        25.534                                                                    28077940.619 5 110183849.45205     -1595.075 5        33.012    28077937.030 4 113058222.95004     -1637.182 4        25.023
E30        19.000    27282078.861 5 143368358.20405      1771.236 5        32.006                                                                    27282083.857 6 107060820.36306      1322.515 6        36.302    27282081.475 5 109853655.34205      1357.569 5        32.916
E02        21.000    23337575.320 7 122640025.00307        52.253 7        46.876                                                                    23337575.330 7  91581739.28307        38.973 7        42.813    23337576.552 6  93970836.74506        40.167 6        38.210
S23        22.000    38072319.522 6 200071442.18006      -867.084 6        38.288
R08        23.000    24282115.826 3                     -3028.307 3        23.733
E36        24.000    24044223.826 7 126353242.37707       960.064 7        45.371                                                                    24044224.791 7  94354853.46407       717.000 7        45.601    24044225.340 7  96816267.18407       735.657 7        46.614
R18        25.000    19041090.820 7 101642688.56807     -1634.854 7        43.378                                                                    19041093.423 6  79055414.68106     -1271.548 6        41.399
G16        26.000    23958903.669 4                      2666.722 4        24.361
S21        27.000    38350077.939 5 201531132.91405      -863.282 5        35.819
R19        29.000    20187017.472 4 107986953.61504      1683.659 4        29.109                                                                    20187019.396 5  83989854.06005      1309.693 5        35.395
R15        30.000    22287090.025 5 119095435.72705     -4925.564 5        34.852                                                                    22287094.230 5  92629809.48005     -3831.240 5        32.419
S36        31.000    38121246.576 5 200328494.71705      -862.930 5        35.981
R16        34.000    19124171.256 8 102158502.10608     -1892.452 8        48.449                                                                    19124171.206 6  79456303.90706     -1471.920 6        37.943
C44        35.000                                                                                                                                    21391523.464 7 111391384.46607     -1707.856 7        42.318                                                                    21391522.385 7  90514698.30607     -1387.753 7        45.064
R17        36.000    21585952.067 7 115510736.90707     -4503.370 7        42.212                                                                    21585948.114 6  89841821.37606     -3502.664 6        40.267
R09        37.000    20698347.790 7 110528078.81407      2258.176 7        46.154                                                                    20698346.930 7  85966309.12907      1756.335 7        45.714
C11        38.000                                                                                                                                    24584815.424 5 128019646.18805      2046.065 5        33.790    24584808.054 7  98992801.46607      1582.233 7        42.353    24584800.857 5 104026363.42405      1662.781 5        31.457
C12        41.000                                                                                                                                    21614186.631 7 112550822.69707      -216.779 7        47.802    21614185.386 8  87031440.27808      -167.694 8        53.668    21614183.622 7  91456750.50107      -176.134 7        47.242
C35        42.000                                                                                                                                    24433966.985 5 127233958.09805     -3684.791 5        35.800                                                                    24433938.659 5 103388020.31005     -2994.241 5        31.283
C38        44.000                                                                                                                                    38556853.485 6 200775618.32606      -507.351 6        40.229                                                                    38556849.571 5 163146669.85105      -412.197 5        33.114
C25        45.000                                                                                                                                    22426361.110 7 116779935.34307       509.206 7        42.413                                                                    22426360.993 6  94893479.83206       413.818 6        37.769
C08        46.000                                                                                                                                    38017288.098 6 197966029.52206       107.505 6        37.380    38017283.910 7 153079844.02407        83.138 7        43.137    38017281.590 6 160863587.20506        87.443 6        39.321
C23        47.000                                                                                                                                    26801946.703 5 139564770.36705      2339.839 5        34.100                                                                    26801942.196 5 113407793.02705      1901.326 5        33.784
C26        48.000                                                                                                                                    25844715.636 4                     -4304.772 4        25.053
C24        51.000                                                                                                                                    22031853.526 7 114725657.41107     -2752.220 7        44.918                                                                    22031851.346 8  93224058.56508     -2236.317 8        48.762
C34        52.000                                                                                                                                    22573755.686 8 117547507.23308      1282.309 8        50.119                                                                    22573757.190 7  95517052.70707      1042.045 7        43.736
I06        58.000    38623579.016 6 151567296.94906      -672.726 6        36.790
> 2025 01 02 16 30 20.0000000  0 39
G20         1.000    23707069.622 4 124581437.74504     -2002.558 4        29.488
G25         3.000    21804189.094 5 114581697.57405     -3869.524 5        34.029                                    21804193.403 3  89284523.57603     -3015.204 3        22.552    21804188.189 5  89284517.64705     -3015.005 5        32.359
G05         4.000                                                                                                                                                                    23027689.282 3                       329.113 3        22.609
E25         6.000    24157053.090 5 126946225.50005     -2525.246 5        32.958                                                                    24157055.040 7  94797639.02107     -1885.737 7        43.399    24157053.600 6  97270516.12506     -1934.793 6        38.399
G31         7.000    21598775.093 7 113502326.61107     -1428.317 7        46.826                                    21598771.776 6  88443771.24406     -1112.974 6        39.126    21598771.759 6  88443385.25806     -1112.962 6        39.901
G28         8.000    21955529.094 7 115377211.22907     -3042.503 7        44.128                                    21955528.153 3  89904159.99603     -2370.780 3        23.810    21955526.858 6  89904238.01706     -2370.781 6        40.355
G29         9.000    20531155.750 8 107892036.70308     -1971.264 8        49.594                                    20531152.356 7  84071723.02007     -1536.052 7        45.177    20531153.047 7  84071675.03107     -1536.063 7        42.427
E11        10.000    24104299.867 6 126668952.57506     -1880.318 6        40.691                                                                    24104297.990 6  94590455.68706     -1404.110 6        41.797    24104297.499 7  97058085.10907     -1440.785 7        42.921
E10        11.000    26018508.783 6 136728157.46806     -3163.849 6        38.808
G18        12.000                                                                                                                                                                    21575522.246 6  88348147.23906      1315.336 6        38.787
G04        14.000    25086878.864 5 131832427.15505     -1416.980 5        34.738                                                                                                    25086887.795 4 102726590.24604     -1103.646 4        26.958
G26        17.000    21559044.806 6 113293548.41806      1545.431 6        39.853                                    21559036.490 4  88280644.85314      1204.225 4        26.910    21559043.648 6  88280780.84006      1204.211 6        39.751
E07        18.000    28079971.211 4                     -2138.402 4        26.168                                                                    28079974.859 5 110191829.35605     -1596.928 5        33.263    28079969.965 4 113066410.91504     -1638.371 4        24.932
E30        19.000    27280398.601 5 143359502.99505      1771.140 5        32.964                                                                    27280398.575 5 107054207.69905      1322.474 5        35.257    27280396.361 5 109846870.17805      1357.178 5        33.018
E02        21.000    23337526.253 7 122639766.91207        50.951 7        47.211                                                                    23337526.359 7  91581546.55907        38.106 7        42.317    23337526.941 6  93970639.00306        38.992 6        37.535
S23        22.000    38073142.729 6 200075776.98706      -866.874 6        38.201
R08        23.000    24284940.371 3                     -3034.625 3        19.821                                                                    24284901.424 3                     -2357.524 3        23.752
E36        24.000    24043311.018 7 126348446.52307       958.216 7        45.431                                                                    24043312.179 7  94351272.16607       715.491 7        45.433    24043312.875 7  96812592.45007       734.266 7        46.901
R18        25.000    19042623.458 7 101650871.60707     -1638.335 7        44.035                                                                    19042625.846 6  79061779.28406     -1274.258 6        40.834
G16        26.000    23956357.102 4                      2666.666 4        28.815
S21        27.000    38350903.163 5 201535448.63205      -863.108 5        35.748
R19        29.000    20185446.636 5 107978541.53805      1680.794 5        31.283                                                                    20185445.855 6  83983311.32406      1307.388 6        37.361
R15        30.000    22291698.310 5 119120067.67305     -4927.045 5        32.419                                                                    22291710.658 5  92648967.73005     -3832.050 5        32.138
S36        31.000    38122068.818 6 200332809.40906      -862.863 6        36.064
R16        34.000    19125944.044 7 102167974.05507     -1896.381 7        47.806                                                                    19125945.170 6  79463670.97406     -1474.854 6        38.315
C44        35.000                                                                                                                                    21393164.809 6 111399928.71606     -1709.787 6        41.659                                                                    21393163.258 7  90521641.21407     -1389.326 7        45.258
R17        36.000    21590161.029 6 115533256.98106     -4504.701 6        38.841                                                                    21590158.490 6  89859337.05506     -3503.562 6        40.753
R09        37.000    20696230.343 7 110516793.33707      2255.932 7        44.474                                                                    20696233.740 7  85957531.58407      1754.592 7        46.355
C11        38.000                                                                                                                                    24582854.967 5 128009417.19405      2045.475 5        31.789    24582843.917 7  98984891.85907      1581.503 7        42.823    24582837.488 5 104018051.59405      1662.075 5        32.407
C12        41.000                                                                                                                                    21614395.807 7 112551911.90707      -218.864 7        47.523    21614394.775 8  87032282.54008      -169.240 8        53.954    21614392.759 7  91457635.59107      -177.902 7        47.236
C35        42.000                                                                                                                                    24437495.618 5 127252384.36605     -3685.877 5        35.414                                                                    24437478.061 5 103402993.13905     -2994.693 5        31.132
C38        44.000                                                                                                                                    38557340.948 6 200778157.32406      -508.183 6        39.414                                                                    38557336.944 5 163148733.02805      -413.136 5        33.395
C25        45.000                                                                                                                                    22425874.211 7 116777394.59207       507.033 7        43.054                                                                    22425872.703 6  94891415.29706       411.990 6        37.240
C08        46.000                                                                                                                                    38017184.516 6 197965494.72406       106.427 6        36.922    38017181.328 7 153079430.49407        82.263 7        43.009    38017178.990 6 160863152.64506        86.548 6        39.408
C23        47.000                                                                                                                                    26799699.782 5 139553072.44205      2339.385 5        34.948                                                                    26799696.303 5 113398287.59105      1900.917 5        34.219
C26        48.000                                                                                                                                    25848849.025 3                     -4304.263 3        23.124
C24        51.000                                                                                                                                    22034497.640 7 114739423.83207     -2754.371 7        44.531                                                                    22034495.123 8  93235244.91308     -2238.146 8        48.915
C34        52.000                                                                                                                                    22572525.351 8 117541099.45208      1280.793 8        50.297                                                                    22572526.988 7  95511845.87907      1040.730 7        44.429
I06        58.000    38624435.304 6 151570660.13906      -672.620 6        36.620
> 2025 01 02 16 30 25.0000000  0 37
G20         1.000    23708977.435 5 124591456.40305     -2005.243 5        30.581
G25         3.000    21807871.957 5 114601046.59905     -3871.079 5        33.347                                    21807875.797 3  89299600.74603     -3016.434 3        20.667    21807873.322 5  89299594.81905     -3016.336 5        33.581
G05         4.000    23027247.322 5                       419.849 5        31.683                                                                                                    23027282.490 4                       326.506 4        24.150
E25         6.000    24159458.883 5 126958854.59505     -2526.777 5        35.333                                                                    24159458.000 7  94807069.85307     -1886.791 7        42.995    24159456.843 6  97280192.99506     -1936.000 6        37.422
G31         7.000    21600136.339 7 113509476.82707     -1431.867 7        46.469                                    21600132.156 6  88449342.85406     -1115.741 6        39.477    21600132.709 6  88448956.84206     -1115.832 6        39.661
G28         8.000    21958424.635 7 115392430.48007     -3045.255 7        44.688                                    21958424.021 4  89916019.14704     -2372.929 4        24.090    21958422.883 6  89916097.16606     -2373.030 6        40.234
G29         9.000    20533031.913 8 107901897.70108     -1973.261 8        48.654                                    20533029.029 7  84079406.92507     -1537.608 7        44.853    20533029.744 7  84079358.92807     -1537.560 7        42.127
E11        10.000    24106090.183 6 126678360.18206     -1882.632 6        41.261                                                                    24106088.240 7  94597480.85207     -1406.004 7        42.148    24106087.690 7  97065293.54207     -1442.548 7        42.978
E10        11.000    26021520.216 6 136743979.53006     -3165.089 6        39.216                                                                    26021525.044 3                     -2362.343 3        23.371
G18        12.000                                                                                                                                                                    21573917.535 6  88341575.83906      1313.195 6        37.947
G04        14.000    25088229.381 6 131839519.55606     -1419.798 6        37.055                                                                                                    25088236.847 4 102732116.91604     -1106.047 4        24.481
G26        17.000    21557576.218 6 113285825.85106      1543.494 6        40.060                                    21557568.425 4  88274627.27504      1202.723 4        28.114    21557574.235 6  88274763.26306      1202.631 6        39.865
E07        18.000    28082005.361 4                     -2140.175 4        28.322                                                                    28082010.416 5 110199816.41005     -1598.523 5        34.048    28082004.495 3 113074606.35903     -1640.751 3        23.600
E30        19.000    27278713.743 5 143350648.41805      1770.695 5        33.970                                                                    27278713.458 5 107047595.55805      1322.269 5        34.910    27278712.251 5 109840085.50305      1356.948 5        32.461
E02        21.000    23337478.412 7 122639515.49807        49.459 7        47.486                                                                    23337478.582 7  91581358.83207        36.891 7        42.245    23337479.088 6  93970446.35906        37.867 6        37.233
S23        22.000    38073968.119 6 200080111.68806      -867.210 6        37.743
E36        24.000    24042399.612 7 126343660.31407       956.133 7        45.184                                                                    24042401.299 7  94347698.05907       713.981 7        45.713    24042402.193 7  96808925.11607       732.544 7        46.885
R18        25.000    19044159.694 7 101659072.06007     -1642.020 7        44.597                                                                    19044161.715 6  79068157.41106     -1277.290 6        39.628
S21        27.000    38351719.172 6 201539764.15506      -863.036 6        36.083
R19        29.000    20183874.891 5 107970144.32405      1677.644 5        32.551                                                                    20183876.969 6  83976780.17206      1304.763 6        38.946
R15        30.000    22296308.082 5 119144706.93805     -4928.485 5        34.200
S36        31.000    38122885.340 6 200337123.52806      -862.946 6        36.367
R16        34.000    19127721.310 7 102177465.71907     -1900.468 7        47.898                                                                    19127721.710 6  79471053.39306     -1478.274 6        39.231
C44        35.000                                                                                                                                    21394807.083 6 111408482.27106     -1711.797 6        39.480                                                                    21394805.820 7  90528591.64107     -1391.047 7        45.282
R17        36.000    21594369.901 5 115555782.79005     -4505.710 5        33.970                                                                    21594367.775 6  89876857.17606     -3504.374 6        40.250
R09        37.000    20694120.706 7 110505519.61307      2253.393 7        45.216                                                                    20694122.656 7  85948763.15207      1752.616 7        47.413
C11        38.000                                                                                                                                    24580900.177 4 127999192.73704      2044.768 4        26.407    24580880.793 7  98976985.79207      1580.617 7        43.016    24580875.642 5 104009743.52605      1660.894 5        33.491
C12        41.000                                                                                                                                    21614606.738 7 112553011.47107      -221.145 7        47.198    21614605.964 8  87033132.81108      -171.001 8        53.929    21614603.909 7  91458529.07307      -179.700 7        47.154
C35        42.000                                                                                                                                    24441031.005 5 127270813.13905     -3686.469 5        34.376                                                                    24441017.564 5 103417968.01605     -2995.324 5        31.917
C38        44.000                                                                                                                                    38557829.326 6 200780701.33706      -509.386 6        38.769                                                                    38557825.946 5 163150800.20405      -414.200 5        33.096
C25        45.000                                                                                                                                    22425388.547 7 116774865.42207       504.499 7        43.200                                                                    22425386.716 6  94889360.12506       409.875 6        36.609
C08        46.000                                                                                                                                    38017082.403 6 197964965.18206       105.441 6        36.953    38017079.432 7 153079021.03007        81.417 7        42.629    38017077.109 6 160862722.36806        85.372 6        39.222
C23        47.000                                                                                                                                    26797453.475 5 139541376.91005      2338.748 5        35.819                                                                    26797450.077 5 113388784.04305      1900.469 5        34.476
C26        48.000                                                                                                                                    25852973.515 3                     -4306.322 3        20.762
C24        51.000                                                                                                                                    22037144.272 7 114753201.14407     -2756.742 7        44.787                                                                    22037140.965 8  93246440.09308     -2240.118 8        48.953
C34        52.000                                                                                                                                    22571296.025 8 117534699.29708      1279.051 8        50.260                                                                    22571298.179 7  95506645.22207      1039.364 7        45.189
I06        58.000    38625292.974 6 151574022.86606      -672.584 6        36.537
> 2025 01 02 16 30 30.0000000  0 38
G20         1.000    23710887.878 5 124601490.10405     -2008.421 5        30.355
G25         3.000    21811554.314 5 114620403.77505     -3871.896 5        33.629                                    21811559.091 2  89314684.24702     -3017.056 2        17.547    21811557.316 5  89314678.31905     -3017.065 5        33.168
