     3.04           OBSERVATION DATA    M                   RINEX VERSION / TYPE
ssrcrin-15.6.1x                         20250102 044500 UTC PGM / RUN BY / DATE 
(00000000023479385599111004) Septentrio proprietary         COMMENT             
ract                                                        MARKER NAME         
01                                                          MARKER NUMBER       
geodetic                                                    MARKER TYPE         
NFB                 CLIMERS@TUW                             OBSERVER / AGENCY   
3296359             SEPT ASTERX SB3 PROB4.14.4              REC # / TYPE / VERS 
Unknown             Unknown                                 ANT # / TYPE        
  4127446.2207  1206914.5263  4695542.4286                  APPROX POSITION XYZ 
        0.0000        0.0000        0.0000                  ANTENNA: DELTA H/E/N
G   23 X1  C1C L1C D1C S1C C1W S1W C2W L2W D2W S2W C2L L2L  SYS / # / OBS TYPES 
       D2L S2L C5Q L5Q D5Q S5Q C1L L1L D1L S1L              SYS / # / OBS TYPES 
E   21 X1  C1C L1C D1C S1C C6C L6C D6C S6C C5Q L5Q D5Q S5Q  SYS / # / OBS TYPES 
       C7Q L7Q D7Q S7Q C8Q L8Q D8Q S8Q                      SYS / # / OBS TYPES 
S    9 X1  C1C L1C D1C S1C C5I L5I D5I S5I                  SYS / # / OBS TYPES 
R   17 X1  C1C L1C D1C S1C C2P L2P D2P S2P C2C L2C D2C S2C  SYS / # / OBS TYPES 
       C3Q L3Q D3Q S3Q                                      SYS / # / OBS TYPES 
C   25 X1  C1P L1P D1P S1P C5P L5P D5P S5P C2I L2I D2I S2I  SYS / # / OBS TYPES 
       C7I L7I D7I S7I C6I L6I D6I S6I C7D L7D D7D S7D      SYS / # / OBS TYPES 
J   17 X1  C1C L1C D1C S1C C2L L2L D2L S2L C5Q L5Q D5Q S5Q  SYS / # / OBS TYPES 
       C1L L1L D1L S1L                                      SYS / # / OBS TYPES 
I    5 X1  C5A L5A D5A S5A                                  SYS / # / OBS TYPES 
SEPTENTRIO RECEIVERS OUTPUT ALIGNED CARRIER PHASES.         COMMENT             
NO FURTHER PHASE SHIFT APPLIED IN THE RINEX ENCODER.        COMMENT             
G L1C                                                       SYS / PHASE SHIFT   
G L2W                                                       SYS / PHASE SHIFT   
G L2L  0.00000                                              SYS / PHASE SHIFT   
G L5Q  0.00000                                              SYS / PHASE SHIFT   
G L1L  0.00000                                              SYS / PHASE SHIFT   
E L1C  0.00000                                              SYS / PHASE SHIFT   
E L6C  0.00000                                              SYS / PHASE SHIFT   
E L5Q  0.00000                                              SYS / PHASE SHIFT   
E L7Q  0.00000                                              SYS / PHASE SHIFT   
E L8Q  0.00000                                              SYS / PHASE SHIFT   
S L1C                                                       SYS / PHASE SHIFT   
S L5I                                                       SYS / PHASE SHIFT   
R L1C                                                       SYS / PHASE SHIFT   
R L2P  0.00000                                              SYS / PHASE SHIFT   
R L2C                                                       SYS / PHASE SHIFT   
R L3Q  0.00000                                              SYS / PHASE SHIFT   
C L1P  0.00000                                              SYS / PHASE SHIFT   
C L5P  0.00000                                              SYS / PHASE SHIFT   
C L2I                                                       SYS / PHASE SHIFT   
C L7I                                                       SYS / PHASE SHIFT   
C L6I                                                       SYS / PHASE SHIFT   
C L7D                                                       SYS / PHASE SHIFT   
J L1C                                                       SYS / PHASE SHIFT   
J L2L  0.00000                                              SYS / PHASE SHIFT   
J L5Q  0.00000                                              SYS / PHASE SHIFT   
J L1L  0.00000                                              SYS / PHASE SHIFT   
I L5A                                                       SYS / PHASE SHIFT   
  2025     1     2     4    45    0.0000000     GPS         TIME OF FIRST OBS   
 C1C    0.000 C2C    0.000 C2P    0.000                     GLONASS COD/PHS/BIS 
DBHZ                                                        SIGNAL STRENGTH UNIT
    18                                                      LEAP SECONDS        
 24 R01  1 R02 -4 R03  5 R04  6 R05  1 R06 -4 R07  5 R08  6 GLONASS SLOT / FRQ #
    R09 -2 R10 -7 R11  0 R12 -1 R13 -2 R14 -7 R15  0 R16 -1 GLONASS SLOT / FRQ #
    R17  4 R18 -3 R19  3 R20  2 R21  4 R22 -3 R23  3 R24  2 GLONASS SLOT / FRQ #
                                                            END OF HEADER       
> 2025 01 02 04 45  0.0000000  0 44
G16         2.000    23419387.016 4 123069756.05904      -859.414 4        27.928
G20         4.000    22465134.166 7 118055101.96607      2117.724 7        46.753                                    22465129.902 5  91990977.34305      1650.174 5        31.343
G07         5.000    21036156.011 8 110545776.22008       528.120 8        48.851                                    21036151.340 7  86139574.44607       411.522 7        44.930    21036151.395 7  86139520.45607       411.538 7        42.595
G09         6.000    20242441.138 7 106374748.49307     -2073.605 7        44.628                                    20242439.444 7  82889428.65107     -1615.795 7        42.662    20242438.603 6  82889415.63906     -1615.907 6        41.566
G30         7.000    22873577.803 6 120201645.64506      2393.491 6        40.274                                    22873576.889 3  93663538.66603      1865.048 3        23.162    22873576.281 5                      1865.057 5        32.102
E27         9.000    27237761.943 4                     -1190.511 4        24.617                                                                    27237808.490 4                      -889.476 4        28.445
E21        10.000                                                                                                                                    26642540.416 5 104551062.03105       877.784 5        33.617    26642547.246 5 107278499.48305       900.570 5        35.233
E06        11.000    25658815.564 5 134837979.78105      1272.449 5        35.024                                                                    25658812.330 7 100690721.71507       950.175 7        42.070    25658810.326 6 103317414.86206       974.919 6        36.147
G04        12.000    21924001.760 4 115211467.70704     -3386.948 4        29.128                                    21924000.895 2  89775165.31402     -2639.149 2        17.245    21923998.988 7  89775107.24707     -2638.800 7        43.435
E12        13.000    25742755.650 4 135279163.10904     -3600.019 4        26.946                                                                    25742749.896 5 101020067.27705     -2688.084 5        31.698    25742741.172 5 103655341.83405     -2758.654 5        32.401
G05        14.000    25553143.647 6 134282672.26806      2851.783 6        37.486                                    25553141.848 1 104635837.68701      2222.174 1         6.750
G06        15.000    21880981.215 7 114985697.88007     -3089.472 7        43.973                                    21880979.695 6  89599054.22206     -2407.385 6        38.532    21880980.142 6  89598955.26606     -2407.447 6        40.815
E11        16.000    24502150.023 6 128759646.94706     -1031.403 6        37.130                                                                    24502142.672 5  96151692.04105      -770.523 5        30.302    24502143.869 4  98659985.32304      -790.312 4        29.754
E04        17.000    23937983.259 7 125794958.92607       418.988 7        43.172                                                                    23937980.806 7  93937849.76107       312.992 7        47.794    23937978.827 7  96388346.14607       321.138 7        45.490
R08        18.000    19516101.078 6 104508008.24806     -1383.637 6        40.327                                                                    19516101.498 6  81283860.67206     -1076.303 6        40.596
E19        20.000    23554779.738 7 123781206.26707     -2210.314 7        44.631                                                                    23554776.655 6  92434029.13306     -1650.504 6        38.495    23554777.083 6  94845338.70306     -1693.503 6        41.902
E09        21.000    27996407.754 4                      1619.734 4        26.180                                                                    27996390.120 4                      1209.754 4        26.527    27996390.805 4 112729966.47104      1241.859 4        29.697
E36        22.000    27127424.309 5 142555628.20805      1412.606 5        32.371                                                                    27127426.768 6 106453830.85206      1054.629 6        40.226    27127449.944 4 109230909.51304      1081.846 4        29.886
S36        23.000    38120923.738 5 200326965.82205      -846.518 5        34.019
S23        24.000    38060420.950 6 200008782.84106      -842.819 6        41.163
G11        25.000                                                                                                                                                                    22031773.650 4  90216405.27504      -444.309 4        25.910
R17        27.000    22968415.598 5 122908457.47205      1733.982 5        33.012                                                                    22968380.264 5  95595462.39605      1348.952 5        35.457
E10        29.000    24654068.770 7 129558093.04507     -2599.287 7        45.306                                                                    24654067.111 8  96747909.44508     -1941.039 8        48.016    24654065.440 7  99271855.20807     -1991.641 7        45.193
R11        30.000    22567325.750 5 120593078.12105      3531.268 5        31.351                                                                    22567326.060 6  93794376.39606      2746.408 6        36.495
C20        31.000                                                                                                                                    22007916.616 7 114601141.28607     -1706.844 7        43.299                                                                    22007908.846 6  93122692.86406     -1386.942 6        41.373
R10        32.000    20329338.930 6 108367023.09506       712.885 6        37.539
R23        33.000    22876548.521 4                     -5098.706 4        28.398
R07        34.000    22085428.630 5                     -3785.262 5        31.985                                                                    22085428.750 4                     -2944.396 4        28.796
C32        36.000                                                                                                                                    25745638.262 4                     -3593.071 4        26.491
R09        37.000    21323561.629 7 113866587.51007     -2817.529 7        43.462                                                                    21323559.008 6  88562942.02106     -2191.456 6        41.559
C23        40.000                                                                                                                                    25633910.420 5                     -3265.068 5        33.263                                                                    25633903.442 4                     -2653.503 4        26.419
C35        41.000                                                                                                                                    25039230.456 6 130385777.82606     -2508.091 6        37.274                                                                    25039281.674 3                     -2035.052 3        19.284
C37        42.000                                                                                                                                    23033664.656 4                      -645.156 4        29.147
R24        43.000    21312205.018 7 113965893.13207     -1960.384 7        45.819                                                                    21312197.482 6  88640138.67806     -1524.815 6        40.362
R01        44.000    21156008.883 6 113091028.28306      1854.502 6        41.013                                                                    21156000.288 5                      1442.240 5        33.479
C16        45.000                                                                                                                                    39996009.444 4                     -1871.172 4        29.706    39996006.571 5 161047348.64105     -1446.772 5        30.113
C09        47.000                                                                                                                                    38899773.795 4                     -1532.670 4        28.114    38899763.446 6 156633215.06406     -1184.717 6        37.270    38899764.715 4 164597613.03004     -1245.023 4        29.488
C19        48.000                                                                                                                                    22661252.371 8 118003141.04508       845.441 8        50.469                                                                    22661245.846 7  95887153.38007       687.017 7        44.333
C06        50.000                                                                                                                                                                                                    39420549.292 5                     -1449.761 5        30.392
C22        51.000                                                                                                                                                                                                                                                                    26535465.978 4 112280315.64104      1671.512 4        25.744
C44        52.000                                                                                                                                    25633563.313 4 133480669.69304      -337.131 4        29.972                                                                    25633573.063 4                      -273.756 4        25.669
C12        54.000                                                                                                                                                                                                    26780789.397 6 107835143.81006       722.118 6        36.284
I01        58.000   383882029.867 6 203294720.56206     -3167.356 6        36.287
I06        59.000    37881091.306 6 148653539.08606      -609.716 6        36.113
> 2025 01 02 04 45  5.0000000  0 44
G16         2.000    23420206.029 4 123074061.85704      -862.793 4        24.075
G20         4.000    22463120.463 7 118044518.13707      2116.120 7        46.399                                    22463115.423 5  91982730.20505      1648.930 5        30.974
G07         5.000    21035655.010 8 110543143.29908       525.379 8        48.356                                    21035650.200 7  86137522.81707       409.387 7        44.319    21035650.395 7  86137468.82507       409.375 7        42.032
G09         6.000    20244416.058 7 106385123.03007     -2075.835 7        45.049                                    20244413.540 7  82897512.70507     -1617.529 7        42.379    20244413.174 6  82897499.69306     -1617.519 6        41.719
G30         7.000    22871302.673 6 120189682.78306      2391.919 6        40.291                                    22871298.884 3  93654216.97703      1863.834 3        23.695    22871302.680 5                      1863.918 5        33.228
E27         9.000    27238902.176 4                     -1193.148 4        25.865                                                                    27238940.356 4                      -891.135 4        27.796    27238911.131 4                      -914.716 4        24.812
E21        10.000    26641432.375 5 140001670.84815      1173.734 5        32.515                                                                    26641422.502 5 104546676.43605       876.529 5        33.192    26641431.192 6 107273999.47106       899.442 6        36.151
E06        11.000    25657605.596 5 134831621.11605      1271.207 5        34.814                                                                    25657602.280 7 100685973.38307       949.393 7        42.102    25657600.484 6 103312542.68806       974.092 6        36.359
G04        12.000    21927224.221 5 115228404.43505     -3387.833 5        30.113                                    21927223.772 2  89788362.74702     -2639.844 2        17.698    21927221.759 7  89788304.72407     -2639.862 7        43.181
E12        13.000                                                                                                                                    25746174.793 5 101033512.98205     -2689.690 5        31.623    25746167.418 5 103669138.28805     -2759.693 5        32.114
G05        14.000    25550429.340 5 134268414.86905      2851.694 5        35.929                                    25550431.347 1 104624727.92701      2222.149 1         5.857
G06        15.000    21883922.504 7 115001153.37507     -3092.374 7        44.000                                    21883920.882 6  89611097.47106     -2409.646 6        38.607    21883921.549 6  89610998.51306     -2409.604 6        41.168
E11        16.000    24503132.414 6 128764811.82106     -1034.302 6        37.622                                                                    24503125.656 5  96155548.93605      -772.641 5        31.449    24503128.825 5  98663942.89705      -792.778 5        31.464
E04        17.000    23937585.323 7 125792867.58707       417.833 7        43.657                                                                    23937582.733 7  93936288.05707       311.985 7        47.313    23937580.929 7  96386743.70007       320.089 7        45.701
R08        18.000    19517392.991 6 104514933.46106     -1385.932 6        40.100                                                                    19517393.846 6  81289246.94406     -1078.019 6        40.334
E19        20.000    23556883.295 7 123792261.32507     -2211.367 7        44.513                                                                    23556880.383 6  92442284.52406     -1651.198 6        38.628    23556880.721 7  94853809.46207     -1694.487 7        42.419
E09        21.000    27994869.055 4                      1619.657 4        28.882                                                                    27994846.623 4                      1209.432 4        26.419    27994850.312 4 112723759.82904      1241.167 4        29.374
E36        22.000    27126077.670 5 142548572.12505      1410.701 5        31.215                                                                    27126084.803 6 106448561.69606      1053.189 6        40.749    27126107.041 4 109225502.85404      1080.712 4        28.749
S36        23.000    38121730.173 5 200331200.00305      -846.938 5        34.233
S23        24.000    38061221.567 6 200012997.97106      -843.086 6        41.333
G11        25.000    22032388.492 4                      -574.933 4        25.053                                                                                                    22032317.826 3                      -447.873 3        21.762
R17        27.000    22966791.424 5 122899796.60205      1730.169 5        30.800                                                                    22966761.140 5  95588726.26505      1345.809 5        34.948
E10        29.000    24656543.712 7 129571096.42007     -2601.696 7        45.884                                                                    24656541.562 7  96757619.76707     -1942.851 7        47.854    24656539.870 7  99281818.83507     -1993.436 7        45.085
R11        30.000    22564019.185 4 120575426.79304      3529.900 4        27.784                                                                    22564023.019 5  93780647.56705      2745.448 5        35.519
C20        31.000                                                                                                                                    22009555.572 7 114609680.92507     -1708.721 7        43.888                                                                    22009548.692 6  93129632.04406     -1388.362 6        40.784
R10        32.000    20328673.354 6 108363471.53906       708.216 6        38.243
R23        33.000    22881314.166 4                     -5099.581 4        27.293
R07        34.000    22088973.348 5                     -3786.536 5        32.245                                                                    22088952.827 4                     -2945.513 4        28.635
C32        36.000                                                                                                                                    25749083.817 4                     -3594.134 4        25.564
R09        37.000    21326203.689 7 113880686.41407     -2821.708 7        42.965                                                                    21326199.729 6  88573907.82706     -2194.595 6        41.461
C23        40.000                                                                                                                                    25637047.536 5                     -3266.804 5        33.713                                                                    25637040.795 4                     -2654.633 4        26.515
C35        41.000                                                                                                                                    25041637.376 5 130398324.08405     -2510.301 5        35.076
C37        42.000                                                                                                                                    23034289.950 4                      -647.653 4        27.569                                                                    23034290.689 6  97465626.73416      -526.525 6        38.664
R24        43.000    21314036.244 7 113975707.38407     -1964.950 7        44.811                                                                    21314033.350 6  88647771.99706     -1528.263 6        39.871
R01        44.000    21154273.803 6 113081760.04606      1853.095 6        38.979                                                                    21154266.863 5  87952417.76315      1441.166 5        34.152
C16        45.000                                                                                                                                    39997806.147 4                     -1871.385 4        29.479    39997805.389 4 161054583.01104     -1446.844 4        29.943
C09        47.000                                                                                                                                    38901246.757 4                     -1533.090 4        27.174    38901234.956 6 156639140.64406     -1185.148 6        37.096    38901236.186 5 164603839.95705     -1245.519 5        30.234
C19        48.000                                                                                                                                    22660441.396 8 117998918.06308       844.081 8        49.970                                                                    22660434.278 7  95883721.86607       685.968 7        43.505
C06        50.000                                                                                                                                                                                                    39422349.920 4                     -1450.056 4        29.412
C22        51.000                                                                                                                                                                                                                                                                    26533492.243 4 112271960.06404      1671.209 4        25.038
C44        52.000                                                                                                                                    25633887.032 4 133482362.25704      -339.830 4        29.005                                                                    25633896.683 3                      -275.702 3        22.171
C12        54.000                                                                                                                                                                                                    26779893.692 6 107831539.30306       719.991 6        36.083
I01        58.000   383886066.237 5 203310559.63005     -3167.924 5        35.967
I06        59.000    37881868.224 6 148656589.03706      -610.074 6        36.197
> 2025 01 02 04 45 10.0000000  0 44
G16         2.000    23421036.021 3                      -867.940 3        23.124
G20         4.000    22461107.819 7 118033941.47907      2114.974 7        46.077                                    22461102.325 5  91974488.65705      1648.030 5        30.626
G07         5.000    21035156.593 7 110540523.06507       523.089 7        47.484                                    21035151.525 7  86135481.07807       407.604 7        43.638    21035151.824 6  86135427.07806       407.547 6        41.571
G09         6.000    20246391.766 7 106395507.07307     -2077.450 7        44.582                                    20246389.331 7  82905604.16107     -1618.792 7        42.082    20246388.905 6  82905591.14706     -1618.808 6        41.371
G30         7.000    22869026.809 6 120177726.73006      2390.915 6        39.772                                    22869022.662 3  93644900.59803      1863.044 3        23.219    22869031.521 5                      1862.834 5        33.617
E27         9.000    27240043.200 4                     -1195.615 4        27.257                                                                    27240071.069 4                      -893.471 4        26.922    27240050.241 4                      -916.015 4        26.707
E21        10.000    26640314.880 5 139995806.34605      1172.299 5        32.874                                                                    26640306.291 5 104542297.14305       875.491 5        32.790    26640316.181 6 107269505.94706       898.053 6        37.062
E06        11.000    25656395.541 5 134825266.26605      1270.813 5        34.895                                                                    25656392.863 7 100681227.88907       949.078 7        42.171    25656390.893 6 103307673.40206       973.883 6        36.234
G04        12.000    21930450.448 5 115245346.61905     -3389.036 5        32.844                                    21930447.750 3  89801564.44103     -2640.818 3        18.239    21930445.598 7  89801506.43107     -2640.393 7        42.840
E12        13.000                                                                                                                                    25749602.826 5 101046963.92505     -2690.201 5        31.917    25749594.981 5 103682940.16605     -2760.920 5        31.555
G05        14.000    25547716.922 5 134254157.57305      2851.782 5        33.701                                    25547719.652 1 104613618.33501      2222.390 1         4.000
G06        15.000    21886866.417 7 115016622.30907     -3094.802 7        44.278                                    21886864.766 6  89623151.18906     -2411.534 6        38.898    21886865.392 7  89623052.22607     -2411.608 7        42.334
E11        16.000    24504117.174 6 128769989.91106     -1036.721 6        37.671                                                                    24504111.839 5  96159415.67105      -774.059 5        30.800    24504115.741 5  98667910.50705      -794.485 5        32.808
E04        17.000    23937188.522 7 125790781.86307       416.885 7        43.827                                                                    23937185.741 7  93934730.52407       311.380 7        47.039    23937184.130 7  96385145.53107       319.470 7        45.776
R08        18.000    19518688.527 6 104521869.19506     -1387.859 6        41.018                                                                    19518688.605 6  81294641.37606     -1079.453 6        38.637
E19        20.000    23558987.957 7 123803321.06807     -2212.223 7        44.226                                                                    23558984.897 6  92450543.43006     -1652.016 6        39.012    23558985.342 7  94862283.79607     -1694.969 7        42.645
E09        21.000    27993330.536 4                      1619.713 4        29.469                                                                    27993303.864 4                      1209.448 4        27.449    27993309.090 4 112717554.61504      1241.228 4        29.403
E36        22.000    27124738.709 4 142541524.66804      1408.608 4        28.711                                                                    27124743.890 6 106443298.92806      1052.147 6        41.201    27124766.995 4 109220102.80704      1079.818 4        27.760
S36        23.000    38122539.764 5 200335434.78305      -846.637 5        34.514
S23        24.000    38062024.201 6 200017213.59306      -842.873 6        41.487
G11        25.000                                                                                                                                                                    22032872.155 4                      -450.323 4        27.042
R17        27.000    22965173.329 5 122891153.56405      1727.166 5        35.376                                                                    22965143.157 5  95582003.99105      1343.303 5        33.240
E10        29.000    24659020.513 7 129584110.92007     -2603.669 7        46.741                                                                    24659018.174 7  96767338.39707     -1944.299 7        47.810    24659016.605 7  99291790.99507     -1995.017 7        45.169
R11        30.000    22560718.752 4 120557780.96004      3529.893 4        24.662                                                                    22560720.359 5  93766923.07105      2744.952 5        34.886
C20        31.000                                                                                                                                    22011196.506 7 114618228.69507     -1710.036 7        43.922                                                                    22011189.681 6  93136577.79406     -1389.721 6        40.002
R10        32.000    20328013.507 6 108359942.18106       704.021 6        39.336
R23        33.000    22886085.821 4                     -5100.493 4        26.132
R07        34.000    22092515.400 5                     -3787.517 5        30.234                                                                    22092491.959 5                     -2945.676 5        30.483
C32        36.000                                                                                                                                    25752535.275 4                     -3593.364 4        25.293
R09        37.000    21328845.399 7 113894805.50507     -2825.502 7        42.034                                                                    21328843.730 6  88584889.32606     -2197.561 6        41.583
C23        40.000                                                                                                                                    25640182.622 5 133515170.86515     -3268.723 5        34.248                                                                    25640180.714 4                     -2656.319 4        26.838
C35        41.000                                                                                                                                    25044038.340 5 130410881.18605     -2512.215 5        34.286
C37        42.000                                                                                                                                    23034908.478 4                      -650.776 4        28.303                                                                    23034910.914 6  97468265.97606      -529.069 6        38.769
R24        43.000    21315871.679 7 113985543.56307     -1969.107 7        42.373                                                                    21315870.654 6  88655422.39306     -1531.435 6        38.264
R01        44.000    21152540.778 6 113072497.11706      1852.288 6        36.934                                                                    21152535.724 5  87945213.23105      1440.559 5        35.071
C16        45.000                                                                                                                                    39999603.909 4                     -1871.162 4        29.820    39999608.159 4 161061818.01604     -1446.812 4        29.422
C09        47.000                                                                                                                                    38902720.018 4                     -1533.212 4        28.474    38902707.627 6 156645067.57706     -1185.210 6        36.435    38902708.828 4 164610068.19904     -1246.237 4        29.554
C19        48.000                                                                                                                                    22659631.137 8 117994701.09808       843.093 8        49.350                                                                    22659623.802 7  95880295.20707       684.878 7        42.940
C06        50.000                                                                                                                                                                                                    39424152.404 4                     -1450.044 4        29.839
C22        51.000                                                                                                                                    26531521.377 5 138156896.56715      2056.758 5        31.623                                                                    26531516.691 4 112263604.37704      1671.300 4        24.150
C44        52.000                                                                                                                                    25634215.745 5 133484068.62305      -342.434 5        30.113                                                                    25634227.208 3                      -275.672 3        20.833
C12        54.000                                                                                                                                                                                                    26779001.508 5 107827943.73505       718.622 5        35.838
I01        58.000   383890103.289 5 203326399.63105     -3167.886 5        35.767
I06        59.000    37882644.911 6 148659639.43406      -609.746 6        36.620
> 2025 01 02 04 45 15.0000000  0 42
G20         4.000    22459096.783 7 118023371.53307      2113.393 7        46.536                                    22459090.493 5  91966252.34205      1646.800 5        30.415
G07         5.000    21034659.992 7 110537915.04707       520.409 7        46.470                                    21034655.179 7  86133448.85207       405.513 7        42.779    21034655.339 6  86133394.86606       405.379 6        41.743
G09         6.000    20248369.601 7 106405900.23007     -2079.567 7        45.461                                    20248366.772 6  82913702.71606     -1620.446 6        41.869    20248366.087 6  82913689.71806     -1620.488 6        40.534
G30         7.000    22866752.326 6 120165777.04006      2389.360 6        39.423                                    22866747.760 3  93635589.17203      1861.849 3        22.552    22866758.465 5                      1861.577 5        32.976
E27         9.000    27241183.177 4                     -1198.218 4        28.559                                                                                                                                    27241186.749 4                      -918.063 4        27.820
E21        10.000    26639205.381 5 139989949.90805      1170.342 5        32.964                                                                    26639192.124 5 104537923.87005       874.234 5        32.748    26639202.555 6 107265018.59206       896.652 6        37.955
E06        11.000    25655185.814 6 134818914.77006      1270.215 6        36.578                                                                    25655184.305 7 100676484.92207       948.369 7        42.207    25655182.088 6 103302806.68706       972.934 6        36.352
G04        12.000    21933677.367 6 115262293.78506     -3389.786 6        36.783                                    21933672.259 3  89814770.03603     -2641.401 3        19.104    21933669.899 7  89814712.02507     -2641.439 7        42.250
E12        13.000    25753045.593 4                     -3604.544 4        27.796                                                                    25753032.854 5 101060419.73605     -2691.501 5        30.936    25753024.427 5 103696747.01305     -2761.882 5        30.951
G05        14.000    25545005.670 5 134239899.94005      2851.460 5        33.066                                    25545006.974 1 104602508.22401      2221.976 1         1.556
G06        15.000    21889812.484 7 115032104.19107     -3097.635 7        45.141                                    21889811.225 6  89635214.99506     -2413.742 6        39.577    21889811.380 7  89635116.01607     -2413.674 7        42.593
E11        16.000    24505103.556 6 128775180.70306     -1039.359 6        37.206                                                                    24505099.760 5  96163291.96005      -776.583 5        30.906    24505103.430 5  98671887.88205      -796.362 5        34.219
E04        17.000    23936792.568 7 125788701.31707       415.719 7        44.190                                                                    23936789.659 7  93933176.87507       310.427 7        46.822    23936788.526 7  96383551.34707       318.466 7        45.664
R08        18.000    19519987.413 7 104528815.00107     -1390.079 7        42.580                                                                    19519985.832 6  81300043.67606     -1081.317 6        38.829
E19        20.000    23561093.444 7 123814385.12007     -2213.262 7        44.227                                                                    23561090.351 6  92458805.53306     -1652.675 6        39.162    23561090.683 7  94870761.45007     -1695.912 7        43.168
E09        21.000    27991791.175 4                      1619.282 4        29.052                                                                    27991762.751 4                      1209.148 4        28.948    27991767.601 4 112711350.54604      1240.903 4        28.085
E36        22.000    27123400.836 4 142534485.33604      1407.275 4        28.161                                                                    27123404.923 6 106438042.23606      1050.709 6        41.661    27123432.427 4 109214709.00904      1077.635 4        26.539
S36        23.000    38123351.516 5 200339669.35205      -847.055 5        34.543
S23        24.000    38062826.276 6 200021429.20406      -842.991 6        41.313
G11        25.000                                                                                                                                                                    22033426.672 5                      -453.292 5        30.762
R17        27.000    22963567.364 6 122882528.06106      1723.250 6        37.274                                                                    22963528.874 4  95575295.31704      1340.085 4        28.720
E10        29.000    24661499.314 8 129597136.10208     -2606.043 8        48.217                                                                    24661496.863 7  96777065.00207     -1946.093 7        47.845    24661495.602 7  99301771.34107     -1996.882 7        45.583
R11        30.000    22557417.602 4 120540140.40204      3527.102 4        24.195                                                                    22557418.965 5  93753202.61905      2743.764 5        34.538
C20        31.000                                                                                                                                    22012838.846 7 114626784.13607     -1711.864 7        44.047                                                                    22012832.124 6  93143529.79606     -1391.054 6        38.817
R10        32.000    20327354.912 6 108356434.39006       699.538 6        39.535
R07        34.000    22096049.386 4                     -3788.853 4        25.654                                                                    22096036.583 5                     -2946.591 5        31.992
C32        36.000                                                                                                                                    25755984.707 3                     -3595.190 3        22.724
R09        37.000    21331488.829 6 113908944.20406     -2829.738 6        40.338                                                                    21331491.556 7  88595886.14107     -2200.929 7        42.174
C23        40.000                                                                                                                                    25643320.418 5 133531520.09505     -3270.671 5        33.713                                                                    25643319.753 4                     -2657.935 4        25.684
C35        41.000                                                                                                                                    25046445.910 5 130423448.70205     -2514.715 5        33.371                                                                    25046443.769 5                     -2043.216 5        30.883
C37        42.000                                                                                                                                    23035540.470 5                      -653.840 5        31.185                                                                    23035537.243 6  97470916.86906      -531.406 6        38.988
R24        43.000    21317714.996 7 113995401.58007     -1973.687 7        42.916                                                                    21317714.237 6  88663089.73806     -1535.182 6        37.361
R01        44.000    21150807.408 5 113063239.03005      1851.055 5        33.347                                                                    21150802.555 5  87938012.49505      1439.614 5        35.567
C16        45.000                                                                                                                                    40001400.021 4                     -1871.462 4        29.545
C09        47.000                                                                                                                                    38904190.676 4                     -1533.401 4        28.844    38904179.507 6 156650995.44506     -1185.547 6        36.147    38904181.319 4 164616297.50904     -1245.967 4        28.360
C19        48.000                                                                                                                                    22658822.117 8 117990489.70808       841.726 8        48.524                                                                    22658814.576 7  95876873.11807       683.924 7        42.032
C06        50.000                                                                                                                                                                                                    39425954.853 5                     -1450.281 5        30.362
C22        51.000                                                                                                                                    26529555.031 5 138146613.03405      2056.910 5        30.008                                                                    26529542.298 4 112255248.29304      1670.735 4        24.767
C44        52.000                                                                                                                                    25634545.223 4 133485788.29804      -345.310 4        29.896
C12        54.000                                                                                                                                                                                                    26778110.716 5 107824356.84405       716.355 5        35.505
I01        58.000   383894139.773 5 203342240.27705     -3168.026 5        35.048
I06        59.000    37883422.637 6 148662689.98606      -610.201 6        36.643
> 2025 01 02 04 45 20.0000000  0 41
G20         4.000    22457086.964 7 118012808.61307      2111.884 7        47.117                                    22457080.092 5  91958021.49605      1645.623 5        30.513
G07         5.000    21034166.021 7 110535319.57607       517.807 7        45.178                                    21034161.168 6  86131426.40706       403.487 6        41.938    21034161.131 6  86131372.42506       403.439 6        41.776
G09         6.000    20250349.853 7 106416302.78207     -2081.477 7        46.340                                    20250345.970 6  82921808.59706     -1621.926 6        41.883    20250345.330 6  82921795.59206     -1622.031 6        39.456
G30         7.000    22864478.893 6 120153834.03006      2387.867 6        38.994                                    22864474.338 3  93626282.92703      1860.659 3        21.524    22864483.764 5                      1860.867 5        32.766
E27         9.000    27242323.276 4                     -1200.576 4        29.602                                                                    27242332.838 4                      -896.573 4        27.174
E21        10.000    26638093.951 5 139984101.81105      1168.738 5        32.958                                                                    26638079.446 5 104533556.83605       873.018 5        31.924    26638090.170 6 107260537.60406       895.636 6        38.303
E06        11.000    25653977.557 6 134812567.01106      1268.965 6        38.294                                                                    25653976.005 7 100671744.69707       947.795 7        42.038    25653973.607 6 103297942.79606       972.505 6        36.197
G04        12.000    21936901.472 6 115279246.26406     -3391.078 6        39.333                                    21936897.573 3  89827979.74903     -2642.398 3        20.833    21936895.387 6  89827921.75506     -2642.440 6        41.614
E12        13.000    25756472.399 5                     -3605.692 5        31.268                                                                    25756465.606 4 101073880.67404     -2692.086 4        29.374    25756455.312 5 103710559.09005     -2762.783 5        30.204
G06        15.000    21892761.394 7 115047599.35207     -3100.385 7        46.124                                    21892760.233 6  89647289.15106     -2415.888 6        40.410    21892759.717 7  89647190.17707     -2415.925 7        42.222
E11        16.000    24506094.125 6 128780384.58606     -1041.978 6        37.584                                                                    24506089.496 5  96167177.99205      -778.671 5        30.898    24506093.309 5  98675875.31005      -798.411 5        35.076
E04        17.000    23936397.945 7 125786626.26907       414.394 7        44.584                                                                    23936394.786 7  93931627.32707       309.447 7        46.426    23936393.955 7  96381961.37107       317.534 7        45.643
R08        18.000    19521288.212 7 104535771.29007     -1392.313 7        44.823                                                                    19521285.311 6  81305454.08006     -1082.696 6        39.444
E19        20.000    23563199.801 7 123825453.72907     -2214.264 7        44.612                                                                    23563196.802 6  92467071.05106     -1653.486 6        39.336    23563196.969 7  94879242.59607     -1696.645 7        43.526
E09        21.000    27990251.604 4                      1619.066 4        27.281                                                                    27990221.472 4                      1209.090 4        29.725    27990226.243 4 112705147.92304      1240.626 4        27.677
E36        22.000    27122061.769 4 142527454.38304      1405.343 4        29.668                                                                    27122067.705 7 106432791.85907      1049.460 7        42.002
S36        23.000    38124149.222 5 200343904.44705      -847.046 5        34.490
S23        24.000    38063628.078 6 200025644.86906      -843.234 6        41.094
G11        25.000                                                                                                                                                                    22033980.438 5                      -455.757 5        32.054
R17        27.000    22961968.640 6 122873920.44706      1719.625 6        37.471
E10        29.000    24663980.179 8 129610172.28808     -2608.378 8        49.141                                                                    24663977.558 7  96786799.82207     -1947.844 7        47.737    24663976.656 7  99311760.09907     -1998.604 7        46.169
R11        30.000    22554108.440 4                      3526.907 4        24.406                                                                    22554119.403 5  93739486.42505      2742.530 5        34.233
C20        31.000                                                                                                                                    22014482.992 7 114635347.58907     -1713.516 7        44.916                                                                    22014476.061 6  93150488.27806     -1392.415 6        37.974
R10        32.000    20326700.641 6 108352948.86206       694.802 6        39.562
R07        34.000    22099597.453 4                     -3789.027 4        26.970                                                                    22099577.549 5                     -2947.204 5        31.185
C32        36.000                                                                                                                                    25759432.002 3                     -3598.905 3        21.000
R09        37.000    21334142.199 6 113923102.78506     -2833.821 6        36.295                                                                    21334142.751 6  88606898.39506     -2204.020 6        41.893
C23        40.000                                                                                                                                    25646462.005 5 133547878.59205     -3272.628 5        34.095                                                                    25646461.748 4                     -2658.241 4        26.347
C35        41.000                                                                                                                                    25048865.620 5 130436026.85505     -2516.823 5        33.521                                                                    25048860.220 5                     -2044.854 5        31.675
C37        42.000                                                                                                                                    23036171.376 5                      -656.682 5        32.245                                                                    23036166.905 6  97473579.58306      -533.909 6        38.934
R24        43.000    21319563.518 7 114005281.39907     -1978.174 7        44.531                                                                    21319561.142 6  88670774.03606     -1538.565 6        36.378
R01        44.000    21149079.280 4 113053986.45804      1849.833 4        27.521                                                                    21149072.480 6  87930816.02806      1438.684 6        36.076
C16        45.000                                                                                                                                    40003194.640 4                     -1871.464 4        28.616    40003218.350 4 161076289.01304     -1447.586 4        28.521
C09        47.000                                                                                                                                    38905663.799 4                     -1533.082 4        28.910    38905653.165 5 156656924.54305     -1185.929 5        35.567    38905653.830 4 164622528.08004     -1245.767 4        28.275
C19        48.000                                                                                                                                    22658014.942 7 117986284.21007       840.507 7        47.847                                                                    22658006.632 6  95873455.80406       682.917 6        41.395
C06        50.000                                                                                                                                                                                                    39427754.422 4                     -1450.262 4        29.953
C22        51.000                                                                                                                                    26527585.877 4 138136329.32404      2056.575 4        27.964                                                                    26527566.377 3                      1671.046 3        23.124
C44        52.000                                                                                                                                    25634875.882 5 133487521.57605      -348.137 5        30.068
C12        54.000                                                                                                                                                                                                    26777221.666 5 107820778.80405       714.769 5        35.395
I01        58.000   383898176.291 5 203358081.79305     -3168.340 5        35.019
I06        59.000    37884201.064 6 148665740.89006      -610.117 6        36.813
> 2025 01 02 04 45 25.0000000  0 42
G20         4.000    22455078.571 7 118002252.74007      2110.467 7        47.360                                    22455071.072 5  91949796.14105      1644.521 5        30.853
G07         5.000    21033674.731 7 110532736.64007       515.365 7        44.027                                    21033669.491 6  86129413.72406       401.584 6        40.923    21033669.447 6  86129359.74206       401.514 6        41.101
G09         6.000    20252330.969 7 106426714.69407     -2083.329 7        47.215                                    20252327.006 6  82929921.77606     -1623.369 6        41.895    20252327.135 6  82929908.74506     -1623.191 6        39.234
G30         7.000    22862206.895 6 120141897.69106      2386.590 6        38.357                                    22862202.606 3  93616981.90003      1859.688 3        20.190    22862209.170 5                      1859.724 5        31.577
E27         9.000    27243468.047 5                     -1203.405 5        31.291                                                                    27243477.757 4                      -898.277 4        28.389    27243451.849 5                      -921.924 5        31.125
E21        10.000    26636977.038 5 139978262.05605      1167.493 5        33.299                                                                    26636968.973 5 104529196.02905       871.630 5        31.540    26636978.982 6 107256063.01506       894.320 6        38.601
E06        11.000    25652771.406 6 134806222.85206      1268.442 6        39.988                                                                    25652768.689 6 100667007.20006       947.287 6        41.809    25652766.093 6 103293081.70406       972.083 6        36.329
G04        12.000    21940128.648 6 115296204.00606     -3391.997 6        41.144                                    21940123.590 3  89841193.56003     -2643.127 3        21.857    21940122.432 6  89841135.56406     -2643.142 6        40.818
E12        13.000    25759897.317 5 135369176.71015     -3607.104 5        34.271                                                                    25759899.200 4 101087346.77304     -2693.805 4        28.730    25759886.196 4 103724376.44204     -2764.220 4        29.592
G06        15.000    21895712.614 7 115063107.75807     -3102.982 7        46.241                                    21895711.630 6  89659373.62806     -2417.910 6        41.216    21895710.875 6  89659274.65606     -2417.967 6        41.223
E11        16.000    24507087.278 6 128785601.54906     -1044.605 6        38.105                                                                    24507081.705 5  96171073.74405      -780.194 5        30.362    24507085.540 5  98679872.71105      -800.303 5        35.605
E04        17.000    23936004.149 7 125784556.68007       413.420 7        44.650                                                                    23936000.844 7  93930081.87007       308.667 7        46.090    23936000.474 7  96380375.59907       316.649 7        45.654
R08        18.000    19522589.672 7 104542737.89607     -1394.327 7        45.150                                                                    19522586.415 6  81310872.55506     -1084.575 6        40.393
E19        20.000    23565306.568 7 123836526.95107     -2215.090 7        44.548                                                                    23565304.379 6  92475340.01506     -1654.091 6        39.589    23565303.983 7  94887727.27107     -1697.326 7        43.901
E09        21.000    27988714.788 4                      1618.588 4        26.204                                                                    27988682.093 5                      1208.561 5        30.053    27988685.876 4 112698946.68404      1240.025 4        27.138
E36        22.000    27120726.784 5 142520431.88805      1404.086 5        31.336                                                                    27120731.937 7 106427547.78807      1048.106 7        42.303    27120777.975 4 109203940.56404      1075.626 4        28.853
S36        23.000    38124954.704 5 200348139.96405      -847.199 5        34.500
S23        24.000    38064427.912 6 200029860.72406      -843.309 6        40.749
G11        25.000                                                                                                                                                                    22034533.184 5                      -458.480 5        33.946
R17        27.000                                                                                                                                    22960315.924 3                      1336.706 3        22.400
