     3.04           OBSERVATION DATA    M                   RINEX VERSION / TYPE
ssrcrin-15.6.1x                         20250102 170000 UTC PGM / RUN BY / DATE 
(00000000023479385599111004) Septentrio proprietary         COMMENT             
ract                                                        MARKER NAME         
01                                                          MARKER NUMBER       
geodetic                                                    MARKER TYPE         
NFB                 CLIMERS@TUW                             OBSERVER / AGENCY   
3296359             SEPT ASTERX SB3 PROB4.14.4              REC # / TYPE / VERS 
Unknown             Unknown                                 ANT # / TYPE        
  4127447.3998  1206914.7095  4695544.0402                  APPROX POSITION XYZ 
        0.0000        0.0000        0.0000                  ANTENNA: DELTA H/E/N
G   23 X1  C1C L1C D1C S1C C1W S1W C2W L2W D2W S2W C2L L2L  SYS / # / OBS TYPES 
       D2L S2L C5Q L5Q D5Q S5Q C1L L1L D1L S1L              SYS / # / OBS TYPES 
E   21 X1  C1C L1C D1C S1C C6C L6C D6C S6C C5Q L5Q D5Q S5Q  SYS / # / OBS TYPES 
       C7Q L7Q D7Q S7Q C8Q L8Q D8Q S8Q                      SYS / # / OBS TYPES 
S    9 X1  C1C L1C D1C S1C C5I L5I D5I S5I                  SYS / # / OBS TYPES 
R   17 X1  C1C L1C D1C S1C C2P L2P D2P S2P C2C L2C D2C S2C  SYS / # / OBS TYPES 
       C3Q L3Q D3Q S3Q                                      SYS / # / OBS TYPES 
C   25 X1  C1P L1P D1P S1P C5P L5P D5P S5P C2I L2I D2I S2I  SYS / # / OBS TYPES 
       C7I L7I D7I S7I C6I L6I D6I S6I C7D L7D D7D S7D      SYS / # / OBS TYPES 
J   17 X1  C1C L1C D1C S1C C2L L2L D2L S2L C5Q L5Q D5Q S5Q  SYS / # / OBS TYPES 
       C1L L1L D1L S1L                                      SYS / # / OBS TYPES 
I    5 X1  C5A L5A D5A S5A                                  SYS / # / OBS TYPES 
SEPTENTRIO RECEIVERS OUTPUT ALIGNED CARRIER PHASES.         COMMENT             
NO FURTHER PHASE SHIFT APPLIED IN THE RINEX ENCODER.        COMMENT             
G L1C                                                       SYS / PHASE SHIFT   
G L2W                                                       SYS / PHASE SHIFT   
G L2L  0.00000                                              SYS / PHASE SHIFT   
G L5Q  0.00000                                              SYS / PHASE SHIFT   
G L1L  0.00000                                              SYS / PHASE SHIFT   
E L1C  0.00000                                              SYS / PHASE SHIFT   
E L6C  0.00000                                              SYS / PHASE SHIFT   
E L5Q  0.00000                                              SYS / PHASE SHIFT   
E L7Q  0.00000                                              SYS / PHASE SHIFT   
E L8Q  0.00000                                              SYS / PHASE SHIFT   
S L1C                                                       SYS / PHASE SHIFT   
S L5I                                                       SYS / PHASE SHIFT   
R L1C                                                       SYS / PHASE SHIFT   
R L2P  0.00000                                              SYS / PHASE SHIFT   
R L2C                                                       SYS / PHASE SHIFT   
R L3Q  0.00000                                              SYS / PHASE SHIFT   
C L1P  0.00000                                              SYS / PHASE SHIFT   
C L5P  0.00000                                              SYS / PHASE SHIFT   
C L2I                                                       SYS / PHASE SHIFT   
C L7I                                                       SYS / PHASE SHIFT   
C L6I                                                       SYS / PHASE SHIFT   
C L7D                                                       SYS / PHASE SHIFT   
J L1C                                                       SYS / PHASE SHIFT   
J L2L  0.00000                                              SYS / PHASE SHIFT   
J L5Q  0.00000                                              SYS / PHASE SHIFT   
J L1L  0.00000                                              SYS / PHASE SHIFT   
I L5A                                                       SYS / PHASE SHIFT   
  2025     1     2    17     0    0.0000000     GPS         TIME OF FIRST OBS   
 C1C    0.000 C2C    0.000 C2P    0.000                     GLONASS COD/PHS/BIS 
DBHZ                                                        SIGNAL STRENGTH UNIT
    18                                                      LEAP SECONDS        
 24 R01  1 R02 -4 R03  5 R04  6 R05  1 R06 -4 R07  5 R08  6 GLONASS SLOT / FRQ #
    R09 -2 R10 -7 R11  0 R12 -1 R13 -2 R14 -7 R15  0 R16 -1 GLONASS SLOT / FRQ #
    R17  4 R18 -3 R19  3 R20  2 R21  4 R22 -3 R23  3 R24  2 GLONASS SLOT / FRQ #
                                                            END OF HEADER       
> 2025 01 02 17 00  0.0000000  0 38
G20         1.000    24256664.783 3                     -2985.496 3        20.286
G25         3.000    22901432.278 5 120347848.54505     -4349.546 5        34.819                                    22901432.176 4  93777486.34404     -3389.254 4        25.113    22901433.582 5  93777553.32805     -3389.269 5        35.186
G05         4.000    22780551.118 5                      -758.454 5        31.019                                                                                                    22780580.953 5  93282691.95105      -591.213 5        33.401
E25         6.000    24792443.260 7 130285160.00307     -2991.048 7        42.787                                                                                                                                    24792444.667 6  99829031.22106     -2291.939 6        36.499
G31         7.000                                                                                                                                                                    21979738.967 4  90003358.68604     -1996.681 4        27.976
G28         8.000    22827786.842 6 119960812.17506     -3823.899 6        38.550                                    22827776.094 1  93475919.78101     -2979.661 1        10.815    22827771.726 5  93475913.74605     -2979.502 5        30.438
G29         9.000    21006880.298 7 110391987.80707     -2588.901 7        47.280                                    21006874.185 6  86019738.49306     -2017.323 6        38.976    21006876.040 6  86019690.47606     -2017.273 6        38.231
E11        10.000    24562816.712 5 129078503.09705     -2570.462 5        35.333                                                                    24562799.169 6  96389712.43506     -1919.454 6        38.183    24562797.347 5  98904278.84005     -1969.209 5        30.536
E10        11.000    26862382.495 5 141162783.22605     -3555.944 5        31.577                                                                    26862389.079 5                     -2655.414 5        30.317    26862371.355 5                     -2724.411 5        30.302
G18        12.000    20853538.362 7 109586296.42407       777.319 7        47.808                                    20853535.120 5  85391794.17105       605.697 5        34.305    20853535.002 7  85391758.17507       605.767 7        43.427
G04        14.000    25431900.086 5                     -2358.382 5        30.189
G26        17.000    20860813.268 6 109624333.80306       769.149 6        38.553                                    20860816.800 4  85421571.91904       599.337 4        24.466    20860818.113 5  85421565.92605       599.296 5        34.543
E07        18.000    28613837.663 3                     -2753.352 3        20.452                                                                    28613860.551 3                     -2056.013 3        23.276    28613865.704 4                     -2109.698 4        29.498
E30        19.000    26398767.605 7 138726578.96007      1644.451 7        44.725                                                                    26398770.230 7 103594569.05207      1227.988 7        45.637    26398769.157 7 106296978.42407      1259.966 7        43.738
E02        21.000    23110692.477 7 121447756.12007      -499.023 7        45.634                                                                    23110691.502 7  90691411.67107      -372.711 7        45.798    23110690.915 7  93057282.78907      -382.376 7        42.288
S23        22.000    38066799.210 6 200042404.04406      -865.723 6        38.324
R10        23.000    23257612.918 5 123976180.05505      3271.848 5        34.586
E36        24.000    23543353.239 8 123721167.51308       213.130 8        50.057                                                                    23543354.057 8  92389347.12308       159.133 8        48.906    23543352.314 7  94799486.24007       163.318 7        46.917
R18        25.000    19483936.846 7 104006630.78207     -2757.053 7        46.342                                                                    19483935.506 6  80894038.19006     -2144.387 6        37.217
G16        26.000    22795434.330 7 119790845.46007      2379.610 7        42.874                                    22795428.515 3  93343496.29803      1854.235 3        22.171
S21        27.000    38343364.441 5 201495904.96405      -862.558 5        35.971
R19        29.000    19514665.955 6 104390355.44106       532.511 6        40.226                                                                    19514667.690 7  81192504.47507       414.375 7        42.409
S36        31.000    38114399.779 5 200292517.33905      -862.384 5        35.457
E34        32.000    26530753.515 4 139419996.87004      2168.391 4        25.383                                                                    26530748.108 6 104112370.83606      1619.256 6        36.949    26530752.594 5 106828365.88205      1661.610 5        34.224
R16        34.000    19690654.958 7 105184556.08907     -3270.116 7        45.604                                                                    19690651.918 5  81809902.45005     -2543.408 5        35.790
C44        35.000                                                                                                                                    21786656.878 7 113448774.85007     -2323.239 7        47.854                                                                    21786655.730 7  92186646.56407     -1887.736 7        44.886
R17        36.000    22841823.836 4                     -4769.313 4        28.265                                                                    22841886.912 4                     -3709.214 4        24.571
R09        37.000    19808913.678 7 105778574.70807      1200.068 7        47.218                                                                    19808912.351 6  82272254.99506       933.386 6        40.677
C11        38.000                                                                                                                                    23648818.077 7 123145721.13507      1650.894 7        44.537    23648809.404 6  95224207.81506      1276.594 6        37.422    23648808.942 6 100065934.87506      1341.258 6        36.310
C12        41.000                                                                                                                                    21515876.781 7 112038906.42207      -948.080 7        47.623    21515874.369 8  86635596.92408      -733.061 8        53.400    21515872.987 8  91040778.85608      -770.281 8        49.727
C13        43.000                                                                                                                                    37834403.719 7 197013675.14807       -91.434 7        44.856    37834408.350 7 152343487.47107       -70.676 7        42.049    37834403.613 6 160089746.51606       -74.200 6        41.194
C38        44.000                                                                                                                                    38494802.931 3                      -874.928 3        19.642                                                                    38494848.602 4                      -712.846 4        27.689
C25        45.000                                                                                                                                    22105896.504 7 115111255.54507      -410.514 7        44.927                                                                    22105894.606 6  93537498.47506      -333.469 6        39.796
C08        46.000                                                                                                                                    37749892.579 6 196573637.33506      -297.504 6        38.814    37749887.502 7 152003253.01607      -230.203 7        43.936    37749885.180 6 159732156.82506      -241.746 6        38.228
C23        47.000                                                                                                                                    25745312.145 5                      2037.340 5        31.268                                                                    25745288.020 6 108936857.30806      1655.571 6        40.546
C24        51.000                                                                                                                                    22803583.967 5 118744256.66105     -3470.755 5        30.611                                                                    22803582.091 7  96489501.17307     -2820.531 7        42.282
C34        52.000                                                                                                                                    21934390.543 7 114218183.82907       691.340 7        45.651                                                                    21934390.521 7  92811708.87307       561.831 7        46.363
I06        58.000    38626262.802 6 151577846.44706      -657.159 6        36.431
> 2025 01 02 17 00  5.0000000  0 38
G20         1.000    24259498.691 4                     -2984.397 4        25.323
G25         3.000    22905572.477 5 120369599.14505     -4350.477 5        35.886                                    22905571.995 4  93794434.84904     -3389.984 4        25.639    22905572.925 5  93794501.85605     -3390.148 5        34.843
G05         4.000    22781298.965 5                      -762.038 5        34.710                                                                                                    22781305.963 5  93285654.04605      -593.594 5        34.310
E25         6.000    24795289.679 7 130300118.07707     -2992.294 7        43.026                                                                    24795312.971 5                     -2234.485 5        31.464    24795290.659 5  99840492.59105     -2292.864 5        34.776
G31         7.000    21982169.968 4 115517147.49814     -2565.083 4        29.488                                    21982206.298 1  90013765.50711     -1998.737 1         7.500    21982177.071 4  90013346.70604     -1998.642 4        26.575
G28         8.000    22831425.968 6 119979935.25206     -3825.543 6        39.501                                    22831415.244 2  93490820.87002     -2980.938 2        12.545    22831411.942 5  93490814.85405     -2981.046 5        31.525
G29         9.000    21009344.088 7 110404936.03707     -2590.332 7        46.587                                    21009338.456 6  86029828.02806     -2018.438 6        39.024    21009339.892 6  86029780.02406     -2018.506 6        39.174
E11        10.000    24565259.841 5 129091358.75305     -2571.947 5        34.638                                                                    24565245.551 6  96399312.43806     -1920.606 6        37.947    24565243.805 5  98914129.29905     -1970.504 5        31.245
E10        11.000    26865766.207 5 141180565.20505     -3556.871 5        31.675                                                                    26865772.130 4                     -2656.231 4        29.498    26865760.751 5                     -2725.430 5        30.385
G18        12.000    20852799.986 7 109582416.71207       774.513 7        47.464                                    20852796.435 5  85388771.02705       603.510 5        33.395    20852796.713 7  85388735.03107       603.580 7        43.340
G04        14.000    25434154.504 5                     -2361.059 5        31.291                                                                                                    25434128.182 3                     -1839.220 3        22.419
G26        17.000    20860083.647 6 109620494.03506       766.671 6        38.814                                    20860085.976 3  85418579.91503       597.412 3        23.257    20860079.514 5  85418573.91305       597.291 5        32.114
E07        18.000                                                                                                                                    28616471.165 3                     -2055.096 3        21.262    28616492.862 5                     -2110.745 5        30.143
E30        19.000    26397202.906 7 138718357.93507      1643.993 7        44.603                                                                    26397205.746 7 103588430.00107      1227.607 7        45.452    26397204.877 7 106290679.23107      1259.627 7        43.964
E02        21.000    23111167.965 7 121450255.33707      -500.671 7        45.698                                                                    23111167.168 7  90693277.97807      -373.907 7        45.859    23111166.412 7  93059197.78507      -383.676 7        42.216
S23        22.000    38067617.297 6 200046732.47506      -865.708 6        37.868
R10        23.000    23254543.995 5 123959822.81105      3270.955 5        34.438
E36        24.000    23543151.416 8 123720107.12608       211.008 8        50.144                                                                    23543152.356 8  92388555.29208       157.549 8        48.934    23543150.353 7  94798673.74507       161.630 7        46.422
R18        25.000    19486519.981 7 104020422.67907     -2759.736 7        46.457                                                                    19486519.411 6  80904765.22506     -2146.332 6        38.207
G16        26.000    22793171.671 7 119778950.01807      2378.503 7        43.736                                    22793164.568 3  93334227.16003      1853.365 3        22.076
S21        27.000    38344186.249 6 201500217.22406      -862.345 6        36.261
R19        29.000    19514169.206 6 104387700.55806       529.456 6        39.423                                                                    19514171.742 6  81190439.58706       411.730 6        41.189
S36        31.000    38115224.847 5 200296828.54005      -862.086 5        35.171
E34        32.000    26528687.913 4 139409156.17004      2167.760 4        26.455                                                                    26528685.068 6 104104275.58606      1618.740 6        37.138    26528688.581 5 106820059.39505      1661.089 5        33.245
R16        34.000    19693717.289 7 105200915.48907     -3273.631 7        45.293                                                                    19693714.191 5  81822626.44105     -2546.174 5        35.300
C44        35.000                                                                                                                                    21788888.167 7 113460394.68407     -2324.692 7        47.866                                                                    21788887.016 7  92196088.63207     -1888.969 7        44.521
R17        36.000    22846278.968 4                     -4769.337 4        26.036                                                                    22846341.913 4                     -3709.248 4        26.431
R09        37.000    19807792.021 7 105772583.06707      1196.584 7        47.842                                                                    19807790.307 6  82267594.85806       930.501 6        41.535
C11        38.000                                                                                                                                    23647233.228 7 123137469.89207      1649.607 7        43.619    23647224.581 5  95217827.44205      1275.662 5        35.567    23647224.669 6 100059230.07206      1340.441 6        36.140
C12        41.000                                                                                                                                    21516787.219 7 112043651.29907      -949.930 7        47.472    21516785.557 8  86639265.97308      -734.578 8        53.373    21516784.179 8  91044634.45808      -771.801 8        49.379
C13        43.000                                                                                                                                    37834491.709 7 197014134.69007       -92.413 7        44.688    37834496.819 7 152343842.80907       -71.369 7        42.051    37834491.888 6 160090119.93106       -74.936 6        41.154
C38        44.000                                                                                                                                                                                                                                                                    38495691.489 4                      -713.020 4        27.138
C25        45.000                                                                                                                                    22106291.863 7 115113314.86807      -413.277 7        44.773                                                                    22106290.021 6  93539171.82806      -335.647 6        39.547
C08        46.000                                                                                                                                    37750178.391 6 196575127.95306      -298.685 6        38.643    37750173.516 7 152004405.65607      -230.874 7        43.645    37750171.156 6 159733368.07706      -242.548 6        38.072
C23        47.000                                                                                                                                    25743353.941 5                      2036.183 5        31.940                                                                    25743332.076 6 108928582.41306      1654.578 6        39.724
C24        51.000                                                                                                                                    22806922.619 5 118761617.00105     -3473.106 5        35.219                                                                    22806916.587 7  96503607.92107     -2821.928 7        42.722
C34        52.000                                                                                                                                    21933726.336 7 114214731.01107       689.661 7        45.899                                                                    21933727.493 7  92808903.17407       560.568 7        46.259
I06        58.000    38627099.926 6 151581132.70506      -657.359 6        36.473
> 2025 01 02 17 00 10.0000000  0 38
G20         1.000    24262331.326 4                     -2986.734 4        27.940
G25         3.000    22909712.868 6 120391355.22506     -4351.553 6        37.251                                    22909712.405 4  93811387.62504     -3390.823 4        25.774    22909713.502 5  93811454.62905     -3391.089 5        34.167
G05         4.000                                                                                                                                                                    22782032.770 5  93288629.78005      -596.556 5        34.514
E25         6.000    24798137.464 7 130315082.45807     -2993.395 7        43.536                                                                    24798158.238 5                     -2235.516 5        30.747    24798137.864 5  99851958.84305     -2293.903 5        33.168
G31         7.000    21984621.026 5 115529980.19005     -2568.348 5        30.075                                    21984647.884 1  90023764.88701     -2001.349 1         9.333
G28         8.000    22835065.892 6 119999066.95606     -3827.088 6        39.300                                    22835056.021 2  93505728.70202     -2982.148 2        13.636    22835054.277 5  93505722.67605     -2982.487 5        32.922
G29         9.000    21011809.717 7 110417892.17707     -2591.954 7        46.392                                    21011804.421 6  86039923.71906     -2019.707 6        39.216    21011805.914 6  86039875.72006     -2019.637 6        39.565
E11        10.000    24567705.076 5 129104222.96505     -2573.400 5        34.795                                                                    24567693.585 6  96408918.83606     -1921.729 6        38.060    24567691.340 5  98923986.31905     -1972.037 5        30.853
E10        11.000    26869150.855 5 141198351.30605     -3557.542 5        30.649                                                                    26869156.791 4                     -2656.386 4        28.256
G18        12.000    20852063.883 7 109578550.88507       771.863 7        46.629                                    20852060.366 5  85385758.70105       601.451 5        32.461    20852060.819 7  85385722.70807       601.463 7        43.488
G04        14.000    25436406.047 5                     -2363.433 5        30.234                                                                                                    25436380.829 4                     -1841.127 4        24.030
G26        17.000    20859355.289 6 109616666.83006       764.404 6        38.192                                    20859357.092 3  85415597.69403       595.626 3        21.214    20859350.501 4  85415591.65704       595.417 4        26.826
E07        18.000                                                                                                                                    28619097.313 3                     -2059.220 3        20.714    28619114.154 4                     -2111.886 4        28.284
E30        19.000    26395639.178 7 138710139.61607      1643.570 7        44.892                                                                    26395641.825 7 103582292.96907      1227.325 7        45.500    26395640.494 7 106284382.09507      1259.311 7        43.725
E02        21.000    23111644.473 7 121452763.02807      -502.214 7        45.989                                                                    23111644.350 7  90695150.61907      -375.156 7        45.914    23111643.845 7  93061119.28107      -384.950 7        42.256
S23        22.000    38068445.965 6 200051060.78106      -865.518 6        38.147
R10        23.000    23251472.840 5 123943469.91405      3270.617 5        33.156
E36        24.000    23542951.648 8 123719057.61708       208.919 8        50.527                                                                    23542952.632 8  92387771.57408       156.035 8        49.308    23542950.784 7  94797869.58107       160.130 7        46.204
R18        25.000    19489105.399 7 104034228.11907     -2762.280 7        45.866                                                                    19489106.938 6  80915502.81006     -2148.313 6        38.817
G16        26.000    22790909.169 7 119767060.33207      2377.461 7        44.464                                    22790901.641 3  93324962.49103      1852.554 3        21.762
S21        27.000    38345010.454 5 201504529.55305      -862.636 5        35.514
R19        29.000    19513677.362 6 104385062.44306       526.067 6        39.051                                                                    19513677.752 6  81188387.74606       409.011 6        41.011
S36        31.000    38116042.206 5 200301139.14105      -862.046 5        35.910
E34        32.000    26526624.770 4 139398319.45204      2167.383 4        26.443                                                                    26526622.984 6 104096183.30506      1618.105 6        37.516    26526624.674 5 106811755.98805      1660.650 5        32.245
R16        34.000    19696783.228 7 105217292.93407     -3277.271 7        45.884                                                                    19696779.945 5  81835364.46605     -2548.919 5        34.762
C44        35.000                                                                                                                                    21791121.002 7 113472022.18307     -2326.208 7        47.809                                                                    21791119.592 7  92205536.92607     -1890.199 7        44.029
R17        36.000    22850734.081 4                     -4770.765 4        25.759                                                                    22850794.804 4                     -3709.912 4        28.540
R09        37.000    19806674.301 8 105766609.00708      1193.153 8        48.165                                                                    19806671.884 7  82262948.35307       928.015 7        43.094
C11        38.000                                                                                                                                    23645647.907 7 123129224.81207      1648.567 7        42.347    23645640.048 5  95211451.86705      1274.643 5        34.252    23645641.060 5 100052530.29005      1339.523 5        35.633
C12        41.000                                                                                                                                    21517699.964 7 112048405.93807      -951.746 7        47.154    21517698.625 8  86642942.56208      -735.951 8        53.124    21517697.267 8  91048497.99808      -773.375 8        49.197
C13        43.000                                                                                                                                    37834580.423 7 197014599.41407       -93.321 7        45.067    37834586.456 7 152344202.15907       -72.197 7        42.021    37834581.212 6 160090497.56506       -75.795 6        41.416
C38        44.000                                                                                                                                    38496463.737 3                      -878.406 3        22.914                                                                    38496536.706 4                      -714.094 4        26.371
C25        45.000                                                                                                                                    22106690.674 7 115115387.91507      -415.910 7        44.533                                                                    22106687.796 6  93540856.34006      -337.759 6        39.018
C08        46.000                                                                                                                                    37750465.548 6 196576624.21206      -299.647 6        38.492    37750460.861 7 152005562.66107      -231.746 7        43.454    37750458.550 6 159734583.91906      -243.469 6        38.078
C23        47.000                                                                                                                                    25741394.762 5                      2035.009 5        34.676                                                                    25741377.098 6 108920312.36306      1653.593 6        39.000
C24        51.000                                                                                                                                    22810259.643 6 118778986.17406     -3474.688 6        38.177                                                                    22810252.482 7  96517721.83807     -2823.315 7        42.995
C34        52.000                                                                                                                                    21933063.903 7 114211286.76907       688.128 7        46.538                                                                    21933066.228 7  92806104.45907       559.162 7        46.412
I06        58.000    38627937.647 6 151584418.77006      -657.321 6        36.567
> 2025 01 02 17 00 15.0000000  0 38
G20         1.000    24265174.263 4                     -2989.332 4        29.687
G25         3.000    22913855.242 6 120413116.86306     -4352.596 6        38.243                                    22913853.825 4  93828344.73304     -3391.634 4        26.132    22913855.454 5  93828411.72405     -3391.601 5        34.224
G05         4.000    22782768.207 5 119724172.98915      -768.543 5        35.705                                    22782754.593 3  93291560.06313      -598.885 3        20.357    22782764.237 5  93291619.08505      -598.840 5        35.429
E25         6.000    24800986.671 7 130330053.21407     -2994.583 7        43.989                                                                    24801004.529 5                     -2236.191 5        31.857    24800984.542 5  99863429.91705     -2294.211 5        30.385
G31         7.000    21987069.212 5 115542827.40005     -2570.499 5        32.006                                    21987092.310 1  90033775.66801     -2002.963 1        10.444
G28         8.000    22838708.659 6 120018207.35806     -3828.631 6        38.477                                    22838698.403 2  93520643.31702     -2983.353 2        14.143    22838696.508 5  93520637.28705     -2983.324 5        33.132
G29         9.000    21014276.756 7 110430856.25707     -2593.385 7        46.848                                    21014271.930 6  86050025.59906     -2020.821 6        39.384    21014272.900 6  86049977.60606     -2020.829 6        39.559
E11        10.000    24570153.915 5 129117095.79105     -2575.351 5        34.824                                                                    24570143.544 6  96418531.67306     -1922.975 6        38.303    24570140.194 4  98933849.89104     -1972.936 4        29.782
E10        11.000    26872537.341 5 141216141.68205     -3558.128 5        30.128                                                                    26872541.326 4                     -2657.228 4        29.242    26872549.014 5                     -2726.398 5        30.483
G18        12.000    20851330.684 7 109574698.99607       769.254 7        46.023                                    20851326.988 5  85382757.24305       599.417 5        31.834    20851327.869 7  85382721.25007       599.308 7        43.683
G04        14.000    25438650.823 4                     -2365.053 4        26.192                                                                                                    25438631.334 3                     -1843.753 3        23.752
G26        17.000    20858628.997 5 109612852.22805       761.966 5        35.514                                    20858630.360 3  85412625.28403       593.754 3        19.612    20858624.895 4  85412619.15004       594.001 4        24.767
E07        18.000                                                                                                                                    28621720.720 3                     -2056.267 3        21.762    28621732.884 4                     -2112.630 4        27.018
E30        19.000    26394075.494 7 138701924.08207      1643.189 7        44.340                                                                    26394078.664 7 103576158.02007      1226.907 7        45.577    26394076.873 7 106278087.10207      1259.000 7        43.945
E02        21.000    23112122.824 7 121455279.26807      -503.856 7        46.092                                                                    23112123.237 7  90697029.64507      -376.263 7        46.019    23112122.751 7  93063047.31307      -386.004 7        42.660
S23        22.000    38069267.094 6 200055389.27406      -865.468 6        38.201
R10        23.000    23248401.868 5 123927121.84605      3269.481 5        31.585
E36        24.000    23542754.155 8 123718019.03308       206.930 8        50.865                                                                    23542755.030 8  92386996.02508       154.499 8        49.463    23542753.199 7  94797073.79407       158.542 7        46.265
R18        25.000    19491693.899 7 104048047.19107     -2764.984 7        46.324                                                                    19491695.130 6  80926251.00506     -2150.587 6        38.177
G16        26.000    22788647.253 7 119755176.46307      2376.555 7        44.916                                    22788639.926 3  93315702.36403      1851.858 3        21.429
S21        27.000    38345831.619 5 201508842.00305      -862.253 5        35.871
R19        29.000    19513187.706 6 104382441.10306       522.957 6        39.748                                                                    19513188.447 6  81186348.91706       406.660 6        41.764
S36        31.000    38116862.007 5 200305449.47505      -861.738 5        35.929
E34        32.000    26524565.211 4 139387486.86304      2166.093 4        27.772                                                                    26524561.552 6 104088094.05306      1617.819 6        38.135    26524559.251 5 106803455.69705      1660.073 5        31.457
R16        34.000    19699852.546 7 105233688.48307     -3280.745 7        46.867                                                                    19699850.807 5  81848116.56105     -2551.541 5        35.467
C44        35.000                                                                                                                                    21793355.697 7 113483657.39907     -2327.531 7        47.932                                                                    21793353.688 7  92214991.48807     -1891.217 7        43.668
R17        36.000    22855192.275 4                     -4770.328 4        26.790                                                                    22855250.821 4                     -3710.167 4        27.725
R09        37.000    19805558.532 8 105760652.86308      1189.615 8        48.029                                                                    19805557.069 7  82258315.80207       925.240 7        43.871
C11        38.000                                                                                                                                    23644063.243 6 123120986.01106      1647.452 6        39.931    23644058.310 5  95205081.10105      1273.926 5        34.348    23644058.631 5 100045835.61405      1338.689 5        34.838
C12        41.000                                                                                                                                    21518614.650 7 112053170.41807      -953.581 7        46.647    21518613.673 8  86646626.77108      -737.417 8        53.004    21518612.142 8  91052369.52808      -774.735 8        48.933
C13        43.000                                                                                                                                    37834671.123 7 197015069.37107       -94.315 7        45.567    37834676.719 6 152344565.57406       -72.947 6        41.948    37834671.328 6 160090879.44306       -76.407 6        41.771
C38        44.000                                                                                                                                                                                                                                                                    38497381.235 4                      -713.886 4        25.489
C25        45.000                                                                                                                                    22107090.235 7 115117474.75807      -418.532 7        43.151                                                                    22107088.267 6  93542552.06406      -339.849 6        38.934
C08        46.000                                                                                                                                    37750754.659 6 196578126.36306      -300.687 6        38.342    37750749.323 7 152006724.21607      -232.574 7        43.113    37750746.932 6 159735804.51906      -244.152 6        38.222
C23        47.000                                                                                                                                    25739437.842 5                      2033.713 5        35.700                                                                    25739423.303 6 108912047.22806      1652.910 6        38.333
C24        51.000                                                                                                                                    22813594.889 6 118796364.28206     -3476.240 6        39.706                                                                    22813589.978 7  96531842.98007     -2824.631 7        42.936
C34        52.000                                                                                                                                    21932403.577 7 114207851.18007       686.511 7        46.487                                                                    21932406.658 7  92803312.75807       557.993 7        46.667
I06        58.000    38628774.333 6 151587704.70206      -657.010 6        36.609
> 2025 01 02 17 00 20.0000000  0 38
G20         1.000    24268021.644 5                     -2992.115 5        30.181
G25         3.000    22917997.446 6 120434884.33306     -4354.262 6        38.955                                    22917996.341 4  93845306.39804     -3392.931 4        26.527    22917995.987 5  93845373.38005     -3392.899 5        33.156
G05         4.000    22783503.432 5 119728027.17205      -772.494 5        33.551                                    22783490.251 3  93294563.33103      -601.955 3        20.214    22783498.251 6  93294622.31506      -601.902 6        36.147
E25         6.000    24803836.775 7 130345030.62307     -2996.305 7        43.299                                                                    24803848.320 5                     -2237.405 5        32.024    24803833.931 4  99874906.15504     -2295.441 4        28.493
G31         7.000    21989518.571 6 115555689.48106     -2574.108 6        36.983                                    21989539.732 1  90043798.07201     -2005.740 1        10.148
G28         8.000    22842352.445 5 120037356.76305     -3830.917 5        35.929                                    22842342.664 2  93535564.89902     -2985.177 2        13.636    22842342.606 5  93535558.86605     -2985.145 5        32.826
G29         9.000    21016745.575 7 110443828.58607     -2595.394 7        47.083                                    21016740.999 6  86060133.91206     -2022.384 6        39.970    21016741.026 6  86060085.91306     -2022.359 6        39.556
E11        10.000    24572606.949 5 129129977.53705     -2577.425 5        34.971                                                                    24572594.737 6  96428151.15306     -1924.620 6        38.345    24572590.803 4  98943720.29904     -1974.975 4        29.147
E10        11.000    26875924.862 5 141233936.55905     -3559.707 5        30.151                                                                    26875926.653 4                     -2657.988 4        29.043    26875934.068 5                     -2727.453 5        31.064
G18        12.000    20850600.591 7 109570861.36907       765.972 7        45.463                                    20850596.468 5  85379766.88905       596.861 5        31.600    20850597.336 7  85379730.89607       596.841 7        44.530
G04        14.000    25440905.424 4                     -2368.020 4        28.986                                                                                                    25440890.313 4                     -1846.124 4        25.143
G26        17.000    20857903.246 5 109609050.45705       759.305 5        32.970                                    20857905.644 3  85409662.85503       591.688 3        18.358
E07        18.000                                                                                                                                    28624345.835 3                     -2061.449 3        18.985    28624360.423 4                     -2113.983 4        26.551
E30        19.000    26392512.429 7 138693711.61207      1642.069 7        43.454                                                                    26392516.007 7 103570025.34507      1226.266 7        45.454    26392513.991 7 106271794.45507      1258.327 7        43.989
E02        21.000    23112603.368 7 121457804.36107      -505.961 7        46.337                                                                    23112603.640 7  90698915.27507      -377.919 7        45.925    23112603.399 7  93064982.12707      -387.606 7        42.936
S23        22.000    38070087.748 6 200059718.03306      -865.757 6        37.716
R10        23.000    23245336.380 5 123910778.71905      3267.923 5        30.664
E36        24.000    23542558.629 8 123716991.67908       204.269 8        50.732                                                                    23542559.303 8  92386228.86208       152.467 8        49.122    23542557.673 7  94796286.61107       156.476 7        46.295
R18        25.000    19494285.920 7 104061880.12307     -2768.116 7        46.973                                                                    19494286.370 6  80937009.95006     -2152.823 6        37.637
G16        26.000    22786386.402 7 119743298.75207      2374.832 7        44.646                                    22786379.409 3  93306447.03403      1850.516 3        21.643
S21        27.000    38346649.425 5 201513154.93705      -862.794 5        35.605
R19        29.000    19512702.231 6 104379836.69406       519.091 6        40.482                                                                    19512701.629 7  81184323.28807       403.739 7        42.411
S36        31.000    38117675.144 5 200309759.07205      -862.216 5        35.367
E34        32.000    26522505.392 4 139376658.63304      2165.377 4        29.308                                                                    26522501.385 6 104080008.07806      1616.721 6        38.486    26522498.486 5 106795158.76405      1658.855 5        31.826
R16        34.000    19702926.434 7 105250102.64107     -3284.808 7        47.062                                                                    19702924.408 6  81860883.13806     -2554.884 6        36.934
C44        35.000                                                                                                                                    21795591.631 7 113495300.61507     -2329.563 7        47.511                                                                    21795589.713 7  92224452.58907     -1892.968 7        43.295
R17        36.000    22859657.119 4                     -4770.552 4        27.545                                                                    22859710.370 4                     -3710.513 4        27.066
R09        37.000    19804446.603 8 105754714.88908      1185.632 8        48.852                                                                    19804445.514 7  82253697.37907       922.208 7        44.742
C11        38.000                                                                                                                                    23642479.977 6 123112753.70706      1645.735 6        38.246    23642477.158 5  95198715.40005      1272.543 5        34.176    23642477.270 5 100039146.25005      1337.410 5        34.700
C12        41.000                                                                                                                                    21519531.578 7 112057945.00607      -956.116 7        46.558    21519530.637 8  86650318.79408      -739.271 8        52.915    21519528.984 8  91056249.29908      -776.755 8        48.549
C13        43.000                                                                                                                                    37834762.446 7 197015544.86607       -95.775 7        45.729    37834767.952 6 152344933.26206       -74.016 6        41.938    37834762.679 6 160091265.84906       -77.678 6        41.459
C38        44.000                                                                                                                                                                                                                                                                    38498228.142 3                      -716.495 3        23.943
C25        45.000                                                                                                                                    22107492.476 7 115119575.71107      -421.669 7        42.112                                                                    22107491.363 6  93544259.28206      -342.467 6        38.075
C08        46.000                                                                                                                                    37751044.779 6 196579634.56306      -302.357 6        38.910    37751039.006 7 152007890.45607      -233.818 7        43.052    37751036.667 6 159737030.07206      -245.693 6        38.000
C23        47.000                                                                                                                                    25737483.507 6                      2032.360 6        36.095                                                                    25737469.997 6 108903787.27406      1651.491 6        36.284
C24        51.000                                                                                                                                    22816931.579 6 118813751.60906     -3478.565 6        40.231                                                                    22816928.417 7  96545971.57607     -2826.489 7        42.533
C34        52.000                                                                                                                                    21931745.409 7 114204424.53607       684.295 7        46.665                                                                    21931748.797 7  92800528.35607       556.191 7        46.630
I06        58.000    38629612.289 6 151590990.71606      -657.138 6        36.654
> 2025 01 02 17 00 25.0000000  0 37
G20         1.000    24270867.349 5                     -2994.783 5        30.392
G25         3.000    22922140.697 6 120456657.83806     -4355.431 6        39.171                                    22922139.764 4  93862272.75304     -3393.843 4        26.958    22922139.622 5  93862339.70205     -3393.445 5        32.204
G05         4.000    22784241.011 4 119731899.39204      -776.124 4        27.976                                    22784228.740 3  93297580.64003      -604.785 3        19.134    22784234.489 6  93297639.65206      -604.918 6        36.881
E25         6.000    24806687.510 7 130360014.90807     -2997.678 7        42.610                                                                    24806696.953 5                     -2238.368 5        32.419    24806686.231 4  99886387.66104     -2296.877 4        26.802
G31         7.000    21991969.538 6 115568566.66906     -2576.953 6        39.324                                    21991990.083 1  90053832.24301     -2008.082 1         7.625    21992028.740 5  90053413.55205     -2008.048 5        31.796
G28         8.000    22845998.058 5 120056515.36905     -3832.689 5        33.078                                    22845988.593 1  93550493.67301     -2986.467 1        11.704    22845989.057 5  93550487.59305     -2986.648 5        32.623
G29         9.000    21019215.251 7 110456809.42007     -2597.047 7        46.794                                    21019211.543 6  86070248.84706     -2023.674 6        40.112    21019211.345 6  86070200.85606     -2023.631 6        38.964
E11        10.000    24575061.127 5 129142868.39305     -2578.994 5        35.052                                                                    24575047.401 6  96437777.44806     -1925.947 6        37.981    24575043.679 4  98953597.69604     -1976.451 4        29.336
E10        11.000    26879308.945 4 141251736.15804     -3560.519 4        28.578                                                                    26879312.320 4                     -2658.758 4        28.863    26879318.966 5                     -2728.089 5        30.996
G18        12.000    20849872.862 7 109567038.21507       763.193 7        44.265                                    20849868.904 5  85376787.81705       594.696 5        31.351    20849869.485 7  85376751.81607       594.714 7        45.278
G26        17.000    20857183.147 5 109605261.83305       756.498 5        34.552                                    20857183.508 3  85406710.64903       589.472 3        18.090    20857183.750 5  85406704.64305       589.032 5        30.815
E07        18.000                                                                                                                                    28626968.974 3                     -2062.039 3        21.286    28626989.572 4                     -2115.489 4        26.479
E30        19.000    26390950.236 7 138685502.45407      1641.381 7        42.540                                                                    26390953.793 7 103563895.15307      1225.711 7        45.389    26390951.674 7 106265504.33907      1257.740 7        44.090
E02        21.000    23113085.727 7 121460338.52107      -507.835 7        46.302                                                                    23113085.833 7  90700807.67107      -379.244 7        45.603    23113085.655 7  93066923.90707      -389.229 7        43.137
S23        22.000    38070908.872 6 200064047.31706      -865.908 6        37.520
R10        23.000    23242277.825 5 123894440.76205      3267.121 5        30.302
E36        24.000    23542364.892 8 123715975.76908       201.975 8        50.341                                                                    23542365.816 8  92385470.23308       150.836 8        49.064    23542364.262 7  94795508.18807       154.737 7        46.256
R18        25.000    19496879.789 7 104075727.22707     -2770.877 7        47.230                                                                    19496881.107 6  80947779.93506     -2155.180 6        38.763
G16        26.000    22784126.939 7 119731427.38707      2373.591 7        44.512                                    22784120.126 3  93297196.66103      1849.534 3        21.714
S21        27.000    38347471.001 5 201517468.40205      -862.864 5        35.495
R19        29.000    19512218.094 6 104377249.59606       515.587 6        40.973                                                                    19512218.240 7  81182311.11707       401.078 7        43.071
S36        31.000    38118503.969 6 200314069.54806      -862.009 6        36.049
E34        32.000    26520447.672 5 139365834.97805      2164.380 5        31.479                                                                    26520441.776 6 104071925.52306      1616.141 6        38.565    26520439.704 5 106786865.35305      1658.097 5        31.366
R16        34.000    19706002.458 7 105266535.56307     -3288.469 7        45.976                                                                    19706002.292 6  81873664.31506     -2557.976 6        38.955
C44        35.000                                                                                                                                    21797829.400 7 113506952.03607     -2331.119 7        47.295                                                                    21797827.186 7  92233920.30007     -1894.007 7        43.202
R17        36.000                                                                                                                                    22864171.860 4                     -3710.745 4        25.820
R09        37.000    19803338.192 8 105748795.21608      1182.069 8        48.169                                                                    19803336.515 7  82249093.18907       919.347 7        44.731
C11        38.000                                                                                                                                    23640902.454 6 123104528.15306      1644.328 6        37.921    23640897.901 5  95192354.94205      1271.253 5        33.653    23640897.994 5 100032462.28705      1336.283 5        35.267
C12        41.000                                                                                                                                    21520451.498 7 112062729.92807      -958.138 7        46.506    21520449.297 8  86654018.80508      -740.848 8        53.051    21520447.792 8  91060137.42308      -778.438 8        48.284
C13        43.000                                                                                                                                    37834854.857 7 197016026.12907       -96.874 7        45.511    37834860.248 6 152345305.40406       -74.876 6        41.783    37834855.044 6 160091656.88906       -78.590 6        41.623
C38        44.000                                                                                                                                    38499016.277 4                      -881.809 4        25.985                                                                    38499078.005 3                      -716.581 3        22.838
C25        45.000                                                                                                                                    22107899.029 6 115121690.96906      -424.516 6        41.209                                                                    22107897.245 6  93545978.08506      -344.893 6        37.429
C08        46.000                                                                                                                                    37751336.239 6 196581149.10006      -303.599 6        39.523    37751329.905 7 152009061.60207      -234.699 7        43.039    37751327.404 6 159738260.73306      -246.433 6        38.078
C23        47.000                                                                                                                                    25735529.611 6 134011700.32516      2030.965 6        36.374                                                                    25735516.895 5 108895532.61705      1650.435 5        35.000
C24        51.000                                                                                                                                    22820271.354 6 118831148.31106     -3480.342 6        40.391                                                                    22820267.697 6  96560107.75806     -2827.843 6        41.816
C34        52.000                                                                                                                                    21931089.365 7 114201007.04307       682.533 7        47.804                                                                    21931092.542 7  92797751.34407       554.735 7        46.832
I06        58.000    38630449.084 6 151594276.99606      -657.446 6        36.991
> 2025 01 02 17 00 30.0000000  0 38
G20         1.000    24273716.300 4                     -2997.281 4        27.593
