     3.04           OBSERVATION DATA    M                   RINEX VERSION / TYPE
ssrcrin-15.6.1x                         20250102 221500 UTC PGM / RUN BY / DATE 
(00000000023479385599111004) Septentrio proprietary         COMMENT             
ract                                                        MARKER NAME         
01                                                          MARKER NUMBER       
geodetic                                                    MARKER TYPE         
NFB                 CLIMERS@TUW                             OBSERVER / AGENCY   
3296359             SEPT ASTERX SB3 PROB4.14.4              REC # / TYPE / VERS 
Unknown             Unknown                                 ANT # / TYPE        
  4127447.0715  1206914.4111  4695541.4830                  APPROX POSITION XYZ 
        0.0000        0.0000        0.0000                  ANTENNA: DELTA H/E/N
G   23 X1  C1C L1C D1C S1C C1W S1W C2W L2W D2W S2W C2L L2L  SYS / # / OBS TYPES 
       D2L S2L C5Q L5Q D5Q S5Q C1L L1L D1L S1L              SYS / # / OBS TYPES 
E   21 X1  C1C L1C D1C S1C C6C L6C D6C S6C C5Q L5Q D5Q S5Q  SYS / # / OBS TYPES 
       C7Q L7Q D7Q S7Q C8Q L8Q D8Q S8Q                      SYS / # / OBS TYPES 
S    9 X1  C1C L1C D1C S1C C5I L5I D5I S5I                  SYS / # / OBS TYPES 
R   17 X1  C1C L1C D1C S1C C2P L2P D2P S2P C2C L2C D2C S2C  SYS / # / OBS TYPES 
       C3Q L3Q D3Q S3Q                                      SYS / # / OBS TYPES 
C   25 X1  C1P L1P D1P S1P C5P L5P D5P S5P C2I L2I D2I S2I  SYS / # / OBS TYPES 
       C7I L7I D7I S7I C6I L6I D6I S6I C7D L7D D7D S7D      SYS / # / OBS TYPES 
J   17 X1  C1C L1C D1C S1C C2L L2L D2L S2L C5Q L5Q D5Q S5Q  SYS / # / OBS TYPES 
       C1L L1L D1L S1L                                      SYS / # / OBS TYPES 
I    5 X1  C5A L5A D5A S5A                                  SYS / # / OBS TYPES 
SEPTENTRIO RECEIVERS OUTPUT ALIGNED CARRIER PHASES.         COMMENT             
NO FURTHER PHASE SHIFT APPLIED IN THE RINEX ENCODER.        COMMENT             
G L1C                                                       SYS / PHASE SHIFT   
G L2W                                                       SYS / PHASE SHIFT   
G L2L  0.00000                                              SYS / PHASE SHIFT   
G L5Q  0.00000                                              SYS / PHASE SHIFT   
G L1L  0.00000                                              SYS / PHASE SHIFT   
E L1C  0.00000                                              SYS / PHASE SHIFT   
E L6C  0.00000                                              SYS / PHASE SHIFT   
E L5Q  0.00000                                              SYS / PHASE SHIFT   
E L7Q  0.00000                                              SYS / PHASE SHIFT   
E L8Q  0.00000                                              SYS / PHASE SHIFT   
S L1C                                                       SYS / PHASE SHIFT   
S L5I                                                       SYS / PHASE SHIFT   
R L1C                                                       SYS / PHASE SHIFT   
R L2P  0.00000                                              SYS / PHASE SHIFT   
R L2C                                                       SYS / PHASE SHIFT   
R L3Q  0.00000                                              SYS / PHASE SHIFT   
C L1P  0.00000                                              SYS / PHASE SHIFT   
C L5P  0.00000                                              SYS / PHASE SHIFT   
C L2I                                                       SYS / PHASE SHIFT   
C L7I                                                       SYS / PHASE SHIFT   
C L6I                                                       SYS / PHASE SHIFT   
C L7D                                                       SYS / PHASE SHIFT   
J L1C                                                       SYS / PHASE SHIFT   
J L2L  0.00000                                              SYS / PHASE SHIFT   
J L5Q  0.00000                                              SYS / PHASE SHIFT   
J L1L  0.00000                                              SYS / PHASE SHIFT   
I L5A                                                       SYS / PHASE SHIFT   
  2025     1     2    22    15    0.0000000     GPS         TIME OF FIRST OBS   
 C1C    0.000 C2C    0.000 C2P    0.000                     GLONASS COD/PHS/BIS 
DBHZ                                                        SIGNAL STRENGTH UNIT
    18                                                      LEAP SECONDS        
 24 R01  1 R02 -4 R03  5 R04  6 R05  1 R06 -4 R07  5 R08  6 GLONASS SLOT / FRQ #
    R09 -2 R10 -7 R11  0 R12 -1 R13 -2 R14 -7 R15  0 R16 -1 GLONASS SLOT / FRQ #
    R17  4 R18 -3 R19  3 R20  2 R21  4 R22 -3 R23  3 R24  2 GLONASS SLOT / FRQ #
                                                            END OF HEADER       
> 2025 01 02 22 15  0.0000000  0 31
G10         1.000    21912419.456 6 115150653.68306     -3173.372 6        39.787                                    21912417.701 4  89727758.17504     -2472.803 4        24.782    21912418.492 6  89727706.26406     -2472.733 6        38.171
G32         3.000    22081411.778 7 116038569.41507       371.148 7        44.321                                    22081404.785 6  90419689.21406       289.207 6        37.573    22081408.725 6  90419672.20906       289.342 6        40.708
G21         4.000    20797849.411 6 109293435.91806       -54.149 6        36.435                                    20797844.370 2  85163683.07002       -42.216 2        17.924
G08         5.000    20569635.494 7 108094216.56907     -2230.863 7        44.957                                    20569633.474 7  84229219.06807     -1738.317 7        42.152    20569634.739 6  84229201.06506     -1738.460 6        40.744
G02         6.000    22065358.489 7 115954267.14607      1166.281 7        45.493                                    22065349.076 4  90353921.85804       908.774 4        25.444
G14         7.000    24094292.057 4                       349.748 4        26.994                                                                                                    24094295.874 5                       272.440 5        32.383
E03         9.000    25745359.175 6 135292748.24606      1775.933 6        38.237                                                                    25745357.354 7 101030297.74807      1326.258 7        42.533    25745353.647 6 103665901.60306      1360.857 6        36.994
E05        11.000    23776846.799 7 124948160.47007      -627.411 7        42.078                                                                    23776845.414 7  93305477.61607      -468.502 7        43.632    23776845.845 7  95739502.46807      -480.750 7        43.581
E13        12.000    26760656.714 5 140628201.36705      1434.468 5        33.299                                                                    26760657.162 6 105014565.90106      1071.387 6        39.027    26760654.599 5 107754121.93305      1099.129 5        34.438
G27        13.000    22266541.256 6 117011464.65106     -4118.707 6        40.038                                    22266539.703 3  91177765.90403     -3209.399 3        23.105    22266535.822 5  91177763.99305     -3209.269 5        34.109
E27        14.000    26090722.180 6 137107669.76506     -2876.730 6        38.766                                                                    26090729.281 6 102385617.34906     -2148.032 6        36.144    26090721.744 5 105056518.50305     -2204.004 5        31.079
E21        15.000    26804947.521 6 140860980.53506      -351.091 6        41.249                                                                    26804945.563 6 105188414.05106      -262.129 6        40.489    26804945.972 7 107932475.01307      -269.088 7        44.141
E15        16.000    23538241.085 7 123694391.74207      -200.437 7        47.439                                                                    23538241.622 8  92369114.06308      -149.713 8        49.105    23538240.684 8  94778758.83708      -153.624 8        48.984
S23        17.000    38175613.824 6 200614174.95706      -859.897 6        41.642
R20        20.000                                                                                                                                    21705602.249 5  90276613.91205     -2922.253 5        35.252
R06        25.000    19850876.601 5                      1364.724 5        30.634
R07        27.000    22947974.218 5                      3615.805 5        30.234                                                                    22947981.269 5                      2812.247 5        30.604
R05        28.000    20990072.075 7 112203975.33107     -3691.576 7        44.552                                                                    20990071.912 6  87269731.03106     -2871.364 6        40.496
R12        30.000    22963273.536 6                     -3045.006 6        38.745                                                                    22963274.826 4                     -2368.331 4        27.689
E34        32.000    24606485.257 6 129307927.61306     -2431.147 6        41.387                                                                    24606510.003 4  96561142.56504     -1816.013 4        27.186
R22        35.000    21760678.942 7 116159949.41307      2352.224 7        46.310                                                                    21760674.327 7  90346652.16107      1829.457 7        42.159
C33        37.000                                                                                                                                    22691770.348 7 118162015.22107      1201.542 7        46.531                                                                    22691781.348 6  96016322.61006       975.917 6        40.291
C11        38.000                                                                                                                                    24209287.251 5 126064077.21405     -3531.614 5        35.871    24209279.058 5  97480729.54205     -2730.430 5        30.868    24209279.279 6 102437372.06506     -2869.848 6        36.348
R21        39.000    19369514.095 7 103650190.40707      -626.013 7        42.167                                                                    19369515.542 7  80616814.27007      -486.960 7        42.411
C27        41.000                                                                                                                                    25292065.240 5 131702347.88605      2148.846 5        33.665                                                                    25292057.626 4                      1745.338 4        25.398
C14        42.000                                                                                                                                    22037421.637 6 114754668.44706      -435.679 6        40.472    22037418.640 8  88735526.65308      -336.799 8        50.138    22037414.325 6  93247540.27206      -354.222 6        41.089
C43        48.000                                                                                                                                    22634722.017 6 117864994.21106     -2882.835 6        39.517                                                                    22634721.556 5  95774950.69905     -2343.147 5        32.916
C42        50.000                                                                                                                                    22750526.832 8 118467977.27008     -2175.365 8        49.358                                                                    22750534.099 8  96265046.13608     -1767.966 8        51.541
I01        53.000   414963073.101 7 325263464.88307     -2436.890 7        42.063
C28        55.000                                                                                                                                    22036858.683 7 114751658.03007       633.690 7        43.046                                                                    22036853.470 6  93245142.86506       514.414 6        36.556
I06        58.000    38465224.013 6 150945931.58706      -539.955 6        39.318
> 2025 01 02 22 15  5.0000000  0 33
G10         1.000    21915445.027 6 115166525.50606     -3175.079 6        40.498                                    21915439.150 4  89740125.78804     -2474.033 4        29.640    21915440.050 6  89740073.77706     -2474.208 6        39.198
G32         3.000    22081060.394 7 116036721.51607       368.242 7        46.526                                    22081053.870 6  90418249.32706       286.962 6        38.093    22081057.515 6  90418232.29006       286.990 6        41.101
G21         4.000    20797902.555 6 109293711.60906       -55.746 6        39.291                                    20797896.746 3  85163897.87303       -43.471 3        18.149
G08         5.000    20571760.112 7 108105379.48107     -2233.740 7        43.998                                    20571757.374 6  84237917.42906     -1740.562 6        41.714    20571759.609 7  84237899.42107     -1740.727 7        43.253
G02         6.000    22064248.807 7 115948439.99107      1165.080 7        45.001                                    22064239.890 3  90349381.26103       907.821 3        21.786
G14         7.000    24093971.571 6                       346.518 6        38.249
E03         9.000    25743669.211 6 135283872.84606      1774.619 6        39.315                                                                    25743667.620 7 101023670.04607      1325.179 7        42.760    25743663.698 6 103659101.01906      1359.692 6        36.219
E05        11.000    23777445.791 7 124951305.11907      -630.037 7        42.027                                                                    23777445.002 7  93307825.85507      -470.543 7        44.251    23777444.398 7  95741911.98107      -482.743 7        44.578
E13        12.000    26759295.593 5 140621030.85705      1434.171 5        35.500                                                                    26759292.399 6 105009211.33406      1070.882 6        38.607    26759291.904 5 107748627.66605      1099.031 5        35.714
G27        13.000    22270462.136 6 117032063.08506     -4120.495 6        41.714                                    22270458.217 3  91193816.67103     -3210.767 3        23.371    22270455.074 5  91193814.73505     -3210.699 5        34.429
E27        14.000    26093461.371 6 137122058.55606     -2878.339 6        37.924                                                                                                                                    26093459.375 5 105067543.71705     -2205.517 5        32.078
E21        15.000    26805281.908 6 140862743.56506      -353.655 6        38.766                                                                    26805280.134 6 105189730.63206      -264.146 6        39.366    26805281.241 7 107933825.93407      -270.949 7        43.096
E15        16.000    23538432.008 7 123695398.07107      -201.514 7        47.112                                                                    23538433.024 8  92369865.54908      -150.567 8        49.547    23538432.150 7  94779529.92407      -154.475 7        47.402
S23        17.000    38176431.804 7 200618476.39907      -860.243 7        43.208
R20        20.000                                                                                                                                    21709116.151 6  90291229.48316     -2923.550 6        38.616
R06        25.000    19849598.657 5 105921265.54315      1360.657 5        33.952
R13        26.000    23272698.706 4                      -281.155 4        24.797
R07        27.000    22944598.630 5 122824232.96715      3615.013 5        33.210                                                                    22944604.876 4                      2811.333 4        27.617
R05        28.000    20993529.265 6 112222442.99006     -3695.005 6        40.503                                                                    20993525.701 6  87284094.74706     -2873.839 6        38.132
R12        30.000    22966133.290 6 122680886.67116     -3048.653 6        41.504                                                                    22966128.065 5  95418523.17015     -2371.125 5        34.852
E34        32.000    24608797.321 6 129320086.34706     -2432.025 6        41.418                                                                    24608819.204 4  96570222.38704     -1814.992 4        28.597
R22        35.000    21758475.274 7 116148191.78207      2351.383 7        45.807                                                                    21758472.727 6  90337507.38606      1828.846 6        39.114
C33        37.000                                                                                                                                    22690617.977 7 118156014.96107      1198.950 7        44.545                                                                    22690622.765 6  96011446.95406       974.575 6        36.060
C11        38.000                                                                                                                                                                                                                                                                    24212670.140 5 102451724.22005     -2870.622 5        34.948
R21        39.000    19370100.273 6 103653329.30706      -628.880 6        39.369                                                                    19370102.415 7  80619255.65907      -489.185 7        42.025
C27        41.000                                                                                                                                    25290007.679 5 131691610.48905      2147.659 5        33.934                                                                    25290004.686 5                      1744.952 5        31.826
C14        42.000                                                                                                                                    22037841.904 6 114756854.92506      -438.383 6        37.743    22037837.010 8  88737217.39708      -339.146 8        49.834    22037834.214 6  93249316.90706      -356.384 6        39.252
C13        43.000                                                                                                                                    39938086.742 3                     -1809.482 3        19.582    39938100.829 4                     -1400.636 4        25.083
C43        48.000                                                                                                                                    22637492.541 6 117879415.82106     -2884.898 6        36.526                                                                    22637490.497 4  95786669.25204     -2343.747 4        27.868
C42        50.000                                                                                                                                    22752617.569 8 118478861.46808     -2177.940 8        50.072                                                                    22752623.371 8  96273890.43008     -1769.771 8        50.022
I01        53.000   414966178.734 7 325275651.66807     -2437.421 7        43.894
C28        55.000                                                                                                                                    22036252.243 7 114748495.44407       631.829 7        44.819                                                                    22036247.230 6  93242572.86806       513.279 6        36.495
I06        58.000    38465911.163 6 150948632.62506      -540.216 6        36.677
> 2025 01 02 22 15 10.0000000  0 32
G10         1.000    21918464.452 6 115182405.07806     -3176.567 6        40.584                                    21918461.734 5  89752499.48805     -2475.255 5        30.400    21918462.547 6  89752447.51906     -2475.165 6        38.189
G32         3.000    22080711.339 7 116034888.76107       365.332 7        46.189                                    22080705.928 6  90416821.21906       284.681 6        38.664    22080709.148 6  90416804.18606       284.558 6        40.684
G21         4.000    20797957.535 6 109293995.80306       -57.231 6        36.949                                    20797951.032 3  85164119.33903       -44.566 3        19.343
G08         5.000    20573887.988 7 108116557.33507     -2236.848 7        46.252                                    20573884.274 7  84246627.46107     -1742.984 7        42.127    20573885.727 7  84246609.41907     -1742.939 7        42.193
G02         6.000    22063142.291 6 115942618.35906      1164.172 6        41.042                                    22063132.801 3  90344844.89303       907.137 3        22.190
G14         7.000                                                                                                                                                                    24093650.905 5  98659480.39415       267.697 5        30.951
E03         9.000    25741981.253 6 135275004.13806      1773.342 6        41.690                                                                    25741980.324 7 101017047.31207      1324.198 7        44.311    25741977.654 6 103652305.49606      1358.619 6        36.783
E05        11.000    23778046.454 6 124954462.44406      -632.322 6        41.159                                                                    23778045.390 7  93310183.63807      -472.332 7        44.593    23778045.297 7  95744331.30407      -484.662 7        44.545
E13        12.000    26757928.746 5 140613861.81405      1433.763 5        34.814                                                                    26757931.221 6 105003857.82306      1070.910 6        38.282    26757927.123 5 107743134.51105      1098.443 5        30.634
G27        13.000    22274379.561 6 117052669.97806     -4121.906 6        36.998                                    22274378.846 4  91209873.95704     -3211.870 4        25.053    22274376.768 5  91209872.05305     -3211.911 5        33.982
E27        14.000    26096201.228 6 137136456.21406     -2879.927 6        36.994                                                                    26096214.027 5 102407138.61815     -2151.077 5        30.551    26096202.057 5 105078575.76205     -2206.795 5        35.919
E21        15.000    26805619.797 6 140864519.25206      -356.038 6        39.111                                                                    26805618.051 6 105191056.62106      -266.040 6        39.075    26805619.544 7 107935186.45207      -272.716 7        42.480
E15        16.000    23538624.860 7 123696409.64907      -202.549 7        47.670                                                                    23538625.258 8  92370620.95308      -151.290 8        49.704    23538624.545 8  94780305.04708      -155.237 8        48.421
S23        17.000    38177252.821 6 200622778.26706      -860.126 6        40.846
R20        20.000    21712634.651 3                     -3759.261 3        23.429                                                                    21712632.880 6  90305851.78316     -2924.866 6        37.448
R06        25.000    19848324.495 5 105914473.04905      1356.537 5        34.852
R13        26.000    23272960.636 5                      -285.336 5        30.075
R07        27.000                                                                                                                                    22941222.827 3                      2808.386 3        21.667
R05        28.000    20996984.381 6 112240927.51106     -3698.225 6        40.694                                                                    20996986.225 6  87298471.57606     -2876.371 6        39.117
R12        30.000    22968988.492 7 122696138.16307     -3051.742 7        42.203                                                                    22968985.891 5  95430385.51505     -2373.539 5        35.786
E34        32.000    24611111.343 6 129332249.49906     -2432.801 6        38.721                                                                    24611126.698 5  96579305.38605     -1816.626 5        32.132    24611124.516 4  99098797.33114     -1863.328 4        29.156
R22        35.000    21756271.212 6 116136438.37806      2350.335 6        40.462                                                                    21756272.797 7  90328365.76607      1828.227 7        42.311
C33        37.000                                                                                                                                    22689467.467 7 118150026.44207      1196.834 7        44.984                                                                    22689474.284 6  96006580.71006       972.454 6        37.289
C11        38.000                                                                                                                                    24216071.230 4                     -3534.236 4        29.355                                                                    24216064.742 6 102466081.16806     -2871.819 6        37.221
R21        39.000    19370689.354 6 103656482.05006      -631.710 6        37.773                                                                    19370690.825 7  80621707.77607      -491.298 7        43.615
C27        41.000                                                                                                                                                                                                                                                                    25287934.888 4                      1744.427 4        29.820
C14        42.000                                                                                                                                    22038266.046 7 114759055.68207      -441.281 7        44.119    22038259.070 8  88738919.19008      -341.250 8        50.187    22038256.551 6  93251105.29906      -358.691 6        39.517
C43        48.000                                                                                                                                    22640263.357 6 117893846.48506     -2886.706 6        39.300
C42        50.000                                                                                                                                    22754710.058 8 118489758.32108     -2180.322 8        51.300                                                                    22754716.448 8  96282745.03108     -1771.781 8        50.912
I01        53.000   414969285.355 7 325287840.24607     -2437.727 7        44.841
C28        55.000                                                                                                                                    22035643.435 7 114745341.40007       630.204 7        47.945                                                                    22035644.046 6  93240010.09906       511.848 6        38.114
I06        58.000    38466599.244 6 150951333.88306      -540.172 6        37.187
> 2025 01 02 22 15 15.0000000  0 33
G10         1.000    21921486.316 6 115198292.14106     -3178.310 6        41.924                                    21921485.414 4  89764879.03904     -2476.630 4        29.905    21921485.142 6  89764827.09206     -2476.556 6        38.387
G32         3.000    22080365.801 7 116033070.36107       361.890 7        45.079                                    22080360.460 6  90415404.29206       281.984 6        38.811    22080362.358 6  90415387.28206       282.056 6        40.036
G21         4.000    20798010.507 5 109294287.62605       -59.795 5        30.589                                    20798006.636 2  85164346.69702       -46.634 2        16.717
G08         5.000    20576017.914 7 108127749.32607     -2240.186 7        45.607                                    20576014.157 7  84255348.52307     -1745.604 7        42.284    20576016.494 7  84255330.49007     -1745.400 7        42.629
G02         6.000    22062034.635 6 115936801.80106      1162.532 6        40.722                                    22062026.414 3  90340312.49503       905.879 3        22.724
G14         7.000    24093324.845 5 126611271.97315       341.279 5        31.909
E03         9.000    25740295.927 6 135266141.36806      1771.756 6        41.561                                                                    25740293.431 7 101010429.01207      1323.006 7        44.614    25740292.604 6 103645514.55306      1357.659 6        39.264
E05        11.000    23778649.622 7 124957631.93007      -635.337 7        42.728                                                                    23778647.840 7  93312550.44707      -474.427 7        44.179    23778647.838 7  95746759.83807      -486.794 7        43.490
E13        12.000    26756563.883 5 140606693.70605      1433.180 5        33.425                                                                    26756570.901 6 104998504.99906      1070.246 6        40.052    26756558.726 5 107737642.05605      1098.251 5        32.234
G27        13.000                                                                                                                                                                    22278300.313 6  91225935.39606     -3213.317 6        36.480
E27        14.000    26098944.594 6 137150862.23306     -2882.619 6        36.189                                                                    26098965.135 5 102417896.45105     -2152.175 5        30.340    26098940.045 5 105089614.00805     -2208.594 5        31.275
E21        15.000    26805960.113 6 140866306.68306      -358.973 6        41.557                                                                    26805958.673 6 105192391.35406      -268.014 6        40.112    26805960.161 7 107936556.03207      -274.995 7        42.707
E15        16.000    23538817.664 7 123697425.80607      -204.004 7        47.802                                                                    23538818.295 8  92371379.76308      -152.340 8        48.166    23538818.651 8  94781083.64308      -156.272 8        48.668
S23        17.000    38178064.505 6 200627079.69606      -860.419 6        39.477
R20        20.000                                                                                                                                    21716147.157 5  90320480.26005     -2926.341 5        33.036
R06        25.000    19847057.898 6 105907699.72406      1352.315 6        37.274
R13        26.000    23273233.507 5                      -289.296 5        31.170
R07        27.000    22937864.425 4                      3612.966 4        26.707                                                                    22937845.979 5                      2809.853 5        30.038
R05        28.000    21000447.830 7 112259428.12007     -3702.076 7        42.504                                                                    21000446.122 6  87312860.93806     -2879.171 6        39.586
R12        30.000    22971842.067 6 122711405.97006     -3055.439 6        39.805                                                                    22971853.205 5  95442260.32305     -2376.471 5        34.933
E34        32.000    24613426.229 6 129344416.30506     -2433.955 6        37.724                                                                    24613423.950 4  96588391.11204     -1817.419 4        29.687    24613444.604 4                     -1865.267 4        29.450
R22        35.000    21754070.744 7 116124688.39207      2349.213 7        44.739                                                                    21754070.622 7  90319226.89707      1827.218 7        42.193
C33        37.000                                                                                                                                    22688318.453 7 118144048.90607      1194.182 7        45.750                                                                    22688328.833 6  96001723.46606       970.581 6        36.147
C11        38.000                                                                                                                                    24219463.774 4                     -3535.261 4        29.915                                                                    24219459.711 6 102480442.23806     -2872.599 6        37.550
R21        39.000    19371283.236 6 103659647.83606      -634.824 6        41.883                                                                    19371283.186 7  80624170.04007      -493.673 7        44.646
C27        41.000                                                                                                                                                                                                                                                                    25285876.109 4                      1744.522 4        29.943
C14        42.000                                                                                                                                    22038693.211 7 114761270.25807      -444.537 7        42.518    22038685.157 8  88740631.61208      -343.727 8        50.657    22038683.538 6  93252904.74606      -361.156 6        41.697
C13        43.000                                                                                                                                                                                                    39941560.810 4                     -1399.554 4        27.904
C43        48.000                                                                                                                                    22643038.028 6 117908284.97206     -2888.781 6        40.477
C42        50.000                                                                                                                                    22756804.087 8 118500667.07508     -2183.201 8        50.436                                                                    22756812.155 8  96291609.25508     -1773.965 8        51.004
I01        53.000   414972391.364 7 325300030.09907     -2438.345 7        44.456
C28        55.000                                                                                                                                    22035040.229 8 114742195.32208       628.177 8        49.207                                                                    22035040.258 7  93237453.59307       510.449 7        42.364
I06        58.000    38467287.959 5 150954034.84405      -540.318 5        35.886
> 2025 01 02 22 15 20.0000000  0 33
G10         1.000    21924514.064 7 115214187.29207     -3179.713 7        42.083                                    21924510.601 5  89777264.88305     -2477.681 5        31.562    21924509.938 6  89777212.88606     -2477.752 6        39.517
G32         3.000    22080022.418 7 116031267.03607       359.241 7        45.469                                    22080017.764 6  90413999.10006       279.924 6        39.348    22080019.693 6  90413982.10206       279.884 6        41.514
G08         5.000    20578149.679 7 108138956.22307     -2242.917 7        47.126                                    20578147.009 7  84264081.18207     -1747.746 7        42.216    20578149.163 7  84264063.17707     -1747.596 7        43.966
G02         6.000    22060929.120 6 115930990.61106      1161.735 6        41.580                                    22060921.025 3  90335784.29203       905.234 3        22.552
G14         7.000    24092998.126 5 126609575.94905       337.446 5        34.819                                                                                                    24092982.487 5  98656731.01015       263.214 5        32.665
E03         9.000    25738609.323 6 135257285.19206      1770.461 6        40.040                                                                    25738607.991 7 101003815.63107      1322.119 7        44.247    25738607.821 6 103638728.68806      1356.630 6        41.108
E05        11.000    23779255.218 7 124960814.04207      -637.610 7        43.464                                                                    23779253.374 7  93314926.68807      -476.102 7        44.922    23779254.285 7  95749198.08907      -488.551 7        46.029
E13        12.000    26755197.661 5 140599527.05905      1433.705 5        32.413                                                                    26755207.127 6 104993153.29406      1070.186 6        39.781    26755195.652 5 107732150.71005      1098.209 5        31.826
G27        13.000                                                                                                                                                                    22282226.309 5  91242005.22905     -3214.610 5        34.929
E27        14.000    26101685.648 6 137165277.07906     -2883.785 6        37.323                                                                    26101709.079 5 102428660.79805     -2153.560 5        32.772    26101685.128 5 105100659.21905     -2209.917 5        34.276
E21        15.000    26806304.013 6 140868106.53206      -361.282 6        40.548                                                                    26806301.377 6 105193735.39606      -269.849 6        39.483    26806302.879 7 107937935.15007      -276.731 7        43.774
E15        16.000    23539012.311 7 123698447.17407      -204.826 7        47.863                                                                    23539012.943 8  92372142.49608      -152.917 8        48.667    23539012.777 8  94781866.25208      -156.942 8        49.010
S23        17.000    38178882.638 6 200631381.36606      -860.179 6        41.189
R20        20.000                                                                                                                                    21719666.072 4  90335115.47904     -2927.446 4        29.554
R06        25.000    19845791.504 5 105900946.43505      1348.598 5        35.295
R13        26.000    23273509.599 5                      -293.763 5        33.329
R07        27.000    22934491.538 5                      3612.116 5        30.664                                                                    22934472.739 5                      2809.215 5        30.060
R05        28.000    21003914.149 7 112277945.34907     -3705.126 7        44.760                                                                    21003909.763 6  87327263.22506     -2881.898 6        39.399
R12        30.000    22974703.606 6 122726690.70106     -3058.785 6        37.970
E34        32.000    24615742.765 6 129356587.38906     -2434.592 6        38.306                                                                    24615743.728 5  96597479.82005     -1817.856 5        34.210    24615743.970 5                     -1865.210 5        31.532
R22        35.000    21751872.555 7 116112942.48707      2348.688 7        44.903                                                                    21751870.050 7  90310091.24407      1826.766 7        43.858
C33        37.000                                                                                                                                    22687173.160 7 118138083.07307      1191.932 7        46.814                                                                    22687182.924 6  95996875.81406       968.532 6        37.947
C11        38.000                                                                                                                                    24222863.182 4                     -3536.621 4        26.742    24222863.801 4                     -2735.004 4        28.929    24222853.245 6 102494808.11006     -2873.676 6        36.820
R21        39.000    19371878.786 7 103662827.25107      -637.085 7        43.300                                                                    19371877.152 7  80626642.94707      -495.591 7        43.818
C27        41.000                                                                                                                                    25283817.524 5                      2146.277 5        33.844                                                                    25283817.070 5                      1744.085 5        32.599
C14        42.000                                                                                                                                    22039120.217 7 114763499.07807      -447.172 7        42.808    22039113.085 8  88742355.09908      -345.872 8        49.689    22039111.482 6  93254715.87006      -363.362 6        39.270
C13        43.000                                                                                                                                    39943287.516 4                     -1810.473 4        26.228    39943299.372 4                     -1401.000 4        25.158
C21        46.000                                                                                                                                    26548026.624 3                     -4061.271 3        19.254
C43        48.000                                                                                                                                    22645814.645 6 117922732.15606     -2890.239 6        40.255
C42        50.000                                                                                                                                    22758900.145 8 118511588.39508     -2185.510 8        49.348                                                                    22758909.197 8  96300483.73308     -1775.938 8        51.093
I01        53.000   414975498.255 7 325312221.61407     -2438.459 7        44.241
C28        55.000                                                                                                                                    22034437.407 8 114739057.87708       626.666 8        49.371                                                                    22034436.217 6  93234904.16606       509.149 6        41.928
I06        58.000    38467975.927 5 150956735.96505      -540.179 5        34.167
> 2025 01 02 22 15 25.0000000  0 34
G10         1.000    21927539.130 6 115230090.14206     -3181.199 6        39.096                                    21927536.686 5  89789656.66105     -2478.815 5        31.343    21927534.875 6  89789604.61906     -2478.856 6        36.730
G32         3.000    22079681.694 7 116029478.41707       356.468 7        45.050                                    22079677.571 6  90412605.37306       277.760 6        38.628    22079678.818 6  90412588.36506       277.701 6        39.754
G21         4.000    20798141.368 5 109294972.72315       -62.190 5        35.019
G08         5.000    20580284.896 7 108150177.58507     -2245.615 7        46.860                                    20580282.723 7  84272825.10007     -1749.841 7        42.343    20580283.716 7  84272807.11107     -1749.800 7        43.325
G02         6.000    22059826.453 6 115925184.57906      1160.756 6        40.670                                    22059816.194 3  90331260.08303       904.469 3        22.933
G14         7.000    24092674.625 5 126607894.55205       334.752 5        35.067
E03         9.000    25736924.350 6 135248435.29306      1769.353 6        40.911                                                                    25736923.179 7 100997206.95107      1321.300 7        42.715    25736923.154 6 103631947.59706      1355.748 6        40.791
E05        11.000    23779862.891 7 124964008.48607      -640.036 7        44.292                                                                    23779861.186 7  93317312.15607      -477.971 7        45.600    23779861.869 7  95751645.78407      -490.459 7        45.913
E13        12.000    26753835.954 5 140592361.50105      1433.258 5        32.778                                                                    26753839.847 6 104987802.38906      1070.261 6        36.605    26753832.262 5 107726660.21805      1098.234 5        33.257
G27        13.000                                                                                                                                                                    22286149.350 5  91258081.36105     -3215.741 5        31.585
E27        14.000    26104427.060 5 137179700.45205     -2885.221 5        35.743                                                                                                                                    26104431.749 6 105111710.92506     -2210.963 6        36.892
E21        15.000    26806648.126 6 140869918.51906      -363.667 6        39.315                                                                    26806646.238 6 105195088.53706      -271.520 6        40.415    26806647.226 7 107939323.55007      -278.542 7        43.689
E15        16.000    23539207.740 7 123699473.40307      -205.602 7        47.705                                                                    23539208.000 8  92372908.84808      -153.595 8        48.535    23539208.179 8  94782652.59808      -157.571 8        50.541
S23        17.000    38179713.761 7 200635682.90707      -860.181 7        42.980
R20        20.000                                                                                                                                    21723184.756 4  90349757.06604     -2929.283 4        27.844
S21        22.000    38454582.007 5 202080231.46215      -862.212 5        33.030
R06        25.000    19844527.146 5 105894212.71105      1344.853 5        33.952
R13        26.000    23273779.739 5 124280731.01415      -297.713 5        33.186
R07        27.000                                                                                                                                    22931100.961 4                      2808.747 4        28.474
R05        28.000    21007382.787 7 112296478.99107     -3708.327 7        42.303                                                                    21007377.069 6  87341678.15006     -2884.218 6        39.703
R12        30.000    22977568.537 6 122741991.68006     -3061.954 6        39.769                                                                    22977567.363 6  95466049.24106     -2381.349 6        37.633
E34        32.000    24618060.099 6 129368762.47006     -2435.210 6        40.725                                                                    24618063.919 5  96606571.56905     -1818.589 5        33.030    24618061.639 3                     -1866.409 3        18.806
R22        35.000    21749673.892 7 116101200.36807      2348.099 7        47.082                                                                    21749670.032 6  90300958.48006      1826.415 6        41.645
C33        37.000                                                                                                                                    22686029.856 7 118132128.58307      1189.764 7        45.989                                                                    22686041.314 5  95992037.25705       966.978 5        34.443
C11        38.000                                                                                                                                                                                                                                                                    24226250.055 6 102509178.27806     -2874.450 6        36.715
R21        39.000    19372475.695 6 103666020.02206      -639.914 6        41.154                                                                    19372473.605 7  80629126.21607      -497.573 7        44.826
C27        41.000                                                                                                                                                                                                                                                                    25281760.432 5                      1743.813 5        34.071
C14        42.000                                                                                                                                    22039551.104 7 114765741.90807      -449.927 7        43.953    22039543.908 8  88744089.36808      -347.823 8        49.277    22039541.799 6  93256538.25706      -365.374 6        40.024
C13        43.000                                                                                                                                    39945037.696 4                     -1809.348 4        29.554    39945039.817 4                     -1399.255 4        26.695
C43        48.000                                                                                                                                    22648591.684 7 117937187.69207     -2892.006 7        43.139                                                                    22648644.122 3                     -2348.650 3        23.276
C42        50.000                                                                                                                                    22760999.992 7 118522521.88707     -2187.929 7        47.592                                                                    22761008.811 8  96309368.04108     -1777.734 8        51.305
I01        53.000   414978605.272 7 325324414.60507     -2438.653 7        44.486
C28        55.000                                                                                                                                    22033836.823 8 114735928.67508       625.083 8        49.975                                                                    22033835.957 6  93232361.40206       508.015 6        39.826
I06        58.000    38468662.936 5 150959437.05005      -540.248 5        33.293
> 2025 01 02 22 15 30.0000000  0 35
G10         1.000    21930564.215 7 115246000.67407     -3183.025 7        42.900                                    21930563.845 5  89802054.51505     -2480.278 5        30.325    21930562.976 6  89802002.49006     -2480.358 6        38.676
G32         3.000    22079343.693 7 116027704.74507       353.077 7        43.848                                    22079339.852 6  90411223.32506       275.128 6        36.979    22079340.936 6  90411206.25406       275.230 6        39.042
G21         4.000    20798197.907 5 109295289.42205       -64.042 5        30.936                                    20798195.687 1  85165137.95211       -49.908 1        11.259
G08         5.000    20582422.553 7 108161413.61707     -2248.843 7        45.673                                    20582420.865 6  84281580.48306     -1752.357 6        41.013    20582421.144 6  84281562.49106     -1752.293 6        41.862
G02         6.000    22058721.208 7 115919383.90407      1159.438 7        43.143                                    22058712.575 3  90326740.07203       903.442 3        23.581
G14         7.000                                                                                                                                                                    24092334.463 5  98654122.41105       258.262 5        31.132
E03         9.000    25735241.456 7 135239591.79707      1767.882 7        42.144                                                                    25735241.269 7 100990603.07207      1320.189 7        44.190    25735240.167 7 103625171.45307      1354.528 7        42.011
E05        11.000    23780472.196 7 124967215.47307      -642.838 7        44.692                                                                    23780471.578 7  93319707.00107      -480.049 7        45.704    23780471.683 7  95754103.09007      -492.528 7        46.452
E13        12.000    26752475.290 6 140585197.25106      1432.418 6        37.569                                                                    26752471.239 6 104982452.50906      1069.873 6        37.399    26752469.349 5 107721170.75105      1097.561 5        33.102
G27        13.000    22290126.468 6 117135178.48606     -4128.815 6        36.087                                    22290079.527 1  91274167.04201     -3217.049 1         9.714    22290078.481 5  91274163.75305     -3217.227 5        31.291
E27        14.000    26107175.247 6 137194132.46106     -2887.386 6        37.996                                                                    26107182.159 5 102450208.69605     -2156.324 5        32.156    26107176.865 6 105122769.24906     -2212.424 6        37.134
E21        15.000    26806995.063 6 140871742.78206      -366.254 6        37.573                                                                    26806993.769 6 105196450.78106      -273.533 6        40.698    26806994.179 7 107940721.35007      -280.660 7        43.380
E15        16.000    23539404.598 8 123700504.73208      -206.962 8        48.939                                                                    23539404.371 8  92373678.97708      -154.554 8        48.633    23539404.566 8  94783442.82008      -158.587 8        50.278
S23        17.000    38180526.237 7 200639984.46807      -860.583 7        43.649
R20        20.000                                                                                                                                    21726706.010 5  90364404.99205     -2930.079 5        32.539
S21        22.000    38455399.156 5 202084543.90005      -862.690 5        30.596
R06        25.000    19843269.085 5 105887498.91905      1340.854 5        35.143
R13        26.000    23274054.755 5 124282230.79905      -302.079 5        33.407
R07        27.000    22927736.383 3                      3610.385 3        22.857                                                                    22927727.301 5                      2807.871 5        31.200
R05        28.000    21010852.074 7 112315028.96007     -3711.783 7        42.267                                                                    21010846.353 6  87356105.91806     -2886.888 6        40.257
R12        30.000    22980432.923 6 122757309.28906     -3065.412 6        41.857                                                                    22980438.171 6  95477963.00306     -2384.083 6        38.796
E34        32.000    24620379.106 6 129380941.58006     -2436.500 6        40.398                                                                    24620383.055 6  96615666.35806     -1819.264 6        38.571
R22        35.000    21747474.601 7 116089462.16107      2347.105 7        46.770                                                                    21747470.739 7  90291828.76107      1825.396 7        43.752
C33        37.000                                                                                                                                    22684887.827 7 118126185.69207      1187.173 7        44.309                                                                    22684898.504 5  95987208.19805       964.729 5        32.838
C11        38.000                                                                                                                                    24229689.995 4                     -3538.713 4        28.616    24229656.080 5                     -2736.161 5        33.563    24229646.970 6 102523552.98906     -2875.654 6        37.255
R21        39.000    19373074.195 7 103669226.37607      -642.765 7        44.020                                                                    19373072.285 7  80631620.00907      -499.870 7        43.549
C27        41.000                                                                                                                                    25279699.118 6 131638051.27916      2145.795 6        36.000                                                                    25279701.425 5                      1743.443 5        34.657
C14        42.000                                                                                                                                    22039984.623 7 114767998.77807      -452.979 7        42.889    22039976.968 7  88745834.55807      -350.237 7        47.609    22039975.892 6  93258372.18606      -368.017 6        39.541
C13        43.000                                                                                                                                    39946776.419 4                     -1809.486 4        27.401    39946768.667 4                     -1398.669 4        25.338
C21        46.000                                                                                                                                    26555839.429 3                     -4067.853 3        18.985
C43        48.000                                                                                                                                    22651369.396 7 117951651.64307     -2893.831 7        44.265
C42        50.000                                                                                                                                    22763101.841 7 118533467.71707     -2190.654 7        47.113                                                                    22763110.747 8  96318262.42208     -1779.940 8        50.831
I01        53.000   414981713.408 7 325336609.19107     -2439.262 7        45.216
C28        55.000                                                                                                                                    22033237.190 7 114732807.94807       623.072 7        47.536                                                                    22033236.492 6  93229825.48506       506.425 6        40.348
I06        58.000    38469352.909 5 150962138.15305      -540.316 5        35.638
> 2025 01 02 22 15 35.0000000  0 33
G10         1.000    21933593.773 6 115261918.83906     -3184.688 6        40.048                                    21933592.287 5  89814458.27105     -2481.590 5        30.883    21933591.843 6  89814406.28306     -2481.507 6        39.213
G32         3.000    22079009.324 7 116025945.69307       350.178 7        44.315                                    22079004.713 6  90409852.63306       272.877 6        36.541    22079006.781 6  90409835.56906       272.861 6        40.086
G21         4.000    20798257.553 5 109295614.19305       -66.104 5        35.295                                    20798254.073 2  85165390.91702       -51.514 2        13.212
G08         5.000    20584563.138 7 108172664.04707     -2251.726 7        44.247                                    20584561.673 6  84290347.07706     -1754.606 6        39.610    20584562.023 6  84290329.09906     -1754.661 6        41.192
G02         6.000    22057618.318 7 115913588.31607      1158.320 7        43.460                                    22057610.101 3  90322224.01003       902.569 3        23.771
G14         7.000    24092022.888 6 126604576.58106       328.442 6        41.309                                    24092011.219 1  98652748.50011       255.860 1         9.048    24092020.527 5  98652835.53905       255.838 5        30.181
E03         9.000    25733560.556 7 135230754.53907      1766.593 7        42.212                                                                    25733559.580 7 100984003.83107      1319.313 7        43.192    25733558.455 7 103618400.07007      1353.634 7        42.262
E05        11.000    23781085.341 7 124970434.71307      -645.317 7        45.341                                                                    23781083.603 7  93322111.00507      -481.955 7        44.226    23781084.753 7  95756569.75807      -494.411 7        47.680
