     3.04           OBSERVATION DATA    M                   RINEX VERSION / TYPE
ssrcrin-15.6.1x                         20250102 101500 UTC PGM / RUN BY / DATE 
(00000000023479385599111004) Septentrio proprietary         COMMENT             
ract                                                        MARKER NAME         
01                                                          MARKER NUMBER       
geodetic                                                    MARKER TYPE         
NFB                 CLIMERS@TUW                             OBSERVER / AGENCY   
3296359             SEPT ASTERX SB3 PROB4.14.4              REC # / TYPE / VERS 
Unknown             Unknown                                 ANT # / TYPE        
  4127447.4354  1206914.9453  4695544.8103                  APPROX POSITION XYZ 
        0.0000        0.0000        0.0000                  ANTENNA: DELTA H/E/N
G   23 X1  C1C L1C D1C S1C C1W S1W C2W L2W D2W S2W C2L L2L  SYS / # / OBS TYPES 
       D2L S2L C5Q L5Q D5Q S5Q C1L L1L D1L S1L              SYS / # / OBS TYPES 
E   21 X1  C1C L1C D1C S1C C6C L6C D6C S6C C5Q L5Q D5Q S5Q  SYS / # / OBS TYPES 
       C7Q L7Q D7Q S7Q C8Q L8Q D8Q S8Q                      SYS / # / OBS TYPES 
S    9 X1  C1C L1C D1C S1C C5I L5I D5I S5I                  SYS / # / OBS TYPES 
R   17 X1  C1C L1C D1C S1C C2P L2P D2P S2P C2C L2C D2C S2C  SYS / # / OBS TYPES 
       C3Q L3Q D3Q S3Q                                      SYS / # / OBS TYPES 
C   25 X1  C1P L1P D1P S1P C5P L5P D5P S5P C2I L2I D2I S2I  SYS / # / OBS TYPES 
       C7I L7I D7I S7I C6I L6I D6I S6I C7D L7D D7D S7D      SYS / # / OBS TYPES 
J   17 X1  C1C L1C D1C S1C C2L L2L D2L S2L C5Q L5Q D5Q S5Q  SYS / # / OBS TYPES 
       C1L L1L D1L S1L                                      SYS / # / OBS TYPES 
I    5 X1  C5A L5A D5A S5A                                  SYS / # / OBS TYPES 
SEPTENTRIO RECEIVERS OUTPUT ALIGNED CARRIER PHASES.         COMMENT             
NO FURTHER PHASE SHIFT APPLIED IN THE RINEX ENCODER.        COMMENT             
G L1C                                                       SYS / PHASE SHIFT   
G L2W                                                       SYS / PHASE SHIFT   
G L2L  0.00000                                              SYS / PHASE SHIFT   
G L5Q  0.00000                                              SYS / PHASE SHIFT   
G L1L  0.00000                                              SYS / PHASE SHIFT   
E L1C  0.00000                                              SYS / PHASE SHIFT   
E L6C  0.00000                                              SYS / PHASE SHIFT   
E L5Q  0.00000                                              SYS / PHASE SHIFT   
E L7Q  0.00000                                              SYS / PHASE SHIFT   
E L8Q  0.00000                                              SYS / PHASE SHIFT   
S L1C                                                       SYS / PHASE SHIFT   
S L5I                                                       SYS / PHASE SHIFT   
R L1C                                                       SYS / PHASE SHIFT   
R L2P  0.00000                                              SYS / PHASE SHIFT   
R L2C                                                       SYS / PHASE SHIFT   
R L3Q  0.00000                                              SYS / PHASE SHIFT   
C L1P  0.00000                                              SYS / PHASE SHIFT   
C L5P  0.00000                                              SYS / PHASE SHIFT   
C L2I                                                       SYS / PHASE SHIFT   
C L7I                                                       SYS / PHASE SHIFT   
C L6I                                                       SYS / PHASE SHIFT   
C L7D                                                       SYS / PHASE SHIFT   
J L1C                                                       SYS / PHASE SHIFT   
J L2L  0.00000                                              SYS / PHASE SHIFT   
J L5Q  0.00000                                              SYS / PHASE SHIFT   
J L1L  0.00000                                              SYS / PHASE SHIFT   
I L5A                                                       SYS / PHASE SHIFT   
  2025     1     2    10    15    0.0000000     GPS         TIME OF FIRST OBS   
 C1C    0.000 C2C    0.000 C2P    0.000                     GLONASS COD/PHS/BIS 
DBHZ                                                        SIGNAL STRENGTH UNIT
    18                                                      LEAP SECONDS        
 24 R01  1 R02 -4 R03  5 R04  6 R05  1 R06 -4 R07  5 R08  6 GLONASS SLOT / FRQ #
    R09 -2 R10 -7 R11  0 R12 -1 R13 -2 R14 -7 R15  0 R16 -1 GLONASS SLOT / FRQ #
    R17  4 R18 -3 R19  3 R20  2 R21  4 R22 -3 R23  3 R24  2 GLONASS SLOT / FRQ #
                                                            END OF HEADER       
> 2025 01 02 10 15  0.0000000  0 38
G13         1.000    21254335.339 6 111692252.41706     -3504.464 6        37.025                                    21254342.824 1  87032920.92101     -2730.748 1         9.524
G17         2.000    22139154.892 7 116342045.36507      -490.034 7        42.155                                    22139145.988 4  90656162.28404      -381.849 4        27.293    22139148.717 5  90656140.31405      -381.787 5        35.138
G19         4.000    22586434.587 6 118692476.97606      1804.632 6        37.202                                    22586436.810 2  92487705.57602      1406.228 2        16.830
G10         7.000    25013060.583 5                       976.017 5        30.792                                                                                                    25013057.693 3                       763.072 3        21.167
G14         8.000    22464325.181 7 118050788.46407     -3671.448 7        43.164                                    22464323.537 3  91987611.51903     -2860.857 3        21.048    22464324.774 5  91987628.50405     -2861.115 5        34.919
G15         9.000    20521456.368 7 107841199.71507     -2133.193 7        46.658                                    20521455.228 7  84032007.17207     -1662.224 7        42.379    20521456.069 7  84031928.14307     -1662.079 7        43.338
G23        10.000    23235873.869 4 122105316.37804     -1418.982 4        28.256
E06        11.000    25523191.155 6 134125235.67406     -3462.690 6        36.862                                                                    25523193.281 6 100158426.30106     -2585.892 6        39.024    25523189.214 6 102771343.88906     -2653.058 6        36.087
G24        12.000    21299738.778 7 111931111.54807      1409.401 7        42.246                                    21299743.701 5  87218969.35605      1098.225 5        30.423    21299741.888 5  87218900.32905      1098.125 5        34.052
E31        13.000    23780419.899 7 124966922.59907     -1887.728 7        46.891                                                                    23780423.158 8  93319512.85108     -1409.648 8        52.566    23780422.206 8  95753908.97808     -1446.371 8        51.318
G12        15.000    24077392.695 5 126527540.30805      2805.721 5        30.226                                    24077403.789 1  98592968.23901      2186.241 1        10.370
E24        16.000    24526463.585 7 128887398.69207       854.159 7        46.398                                                                    24526465.261 8  96247149.29308       637.865 8        48.380    24526464.896 8  98757970.34608       654.501 8        50.862
E04        17.000    27747168.434 3                     -3904.970 3        19.701                                                                                                                                    27747176.867 4                     -2990.857 4        26.611
E05        18.000    22707626.949 7 119329391.66807       354.268 7        46.247                                                                    22707629.704 6  89109608.44906       264.403 6        36.098    22707637.028 5  91434348.72905       271.738 5        34.100
E09        21.000    24270778.537 7 127543893.82107     -2545.466 7        43.189                                                                    24270780.908 7  95243693.36707     -1900.794 7        43.797    24270781.857 7  97728372.89407     -1950.373 7        47.766
R14        23.000    21594951.467 7 115113372.60507      1972.946 7        45.646                                                                    21594957.806 7  89532859.35707      1534.449 7        42.057
S23        24.000    38269584.949 6 201107960.92206      -858.829 6        37.372
E03        26.000    28091778.241 6 147623296.98406      2010.547 6        36.321                                                                    28091781.780 6 110238184.89106      1501.449 6        37.675    28091782.934 6 113113959.28606      1540.765 6        40.338
R13        27.000    19485432.136 6 104051129.17106     -1613.476 6        39.351
R21        28.000    23521358.887 4                     -2269.492 4        25.519                                                                    23521363.733 4                     -1765.169 4        28.474
R04        29.000    20933437.248 8 112097638.36208      1735.643 8        48.529                                                                    20933437.849 7  87187098.64407      1349.932 7        44.561
S36        31.000    38336240.869 5 201458335.91305      -857.105 5        35.495
C07        32.000                                                                                                                                    39043792.430 6 203311280.95206     -1239.966 6        36.548    39043790.695 7 157213108.17207      -958.676 7        42.978    39043781.792 3                     -1004.730 3        23.543
C10        33.000                                                                                                                                    38615691.866 6 201082028.57106      -859.333 6        38.060    38615689.709 6 155489403.72506      -664.383 6        38.988    38615688.437 5                      -698.224 5        33.419
C36        34.000                                                                                                                                    22956101.686 7 119538407.14107     -2856.283 7        43.621                                                                    22956108.347 6  97134846.66406     -2321.001 6        40.224
R02        35.000    22566332.659 6 120418245.65006     -5295.467 6        39.754                                                                    22566340.530 5  93658692.84305     -4118.518 5        33.413
R03        36.000    19731217.129 8 105622769.37508     -2316.640 8        51.485                                                                    19731215.792 7  82151097.22707     -1801.833 7        44.330
C45        37.000                                                                                                                                    21804143.608 6 113539849.84806      -337.902 6        40.048                                                                    21804136.480 6  92260477.28606      -274.607 6        40.858
R12        38.000                                                                                                                                    21805885.496 3                     -3174.286 3        23.352
C40        40.000                                                                                                                                    39133692.818 5                     -1424.658 5        30.808                                                                    39133658.880 5 165587292.97505     -1157.626 5        32.192
C30        43.000                                                                                                                                                                                                                                                                    24928877.696 5 105482245.91405       325.882 5        33.623
C42        45.000                                                                                                                                    24924555.419 7 129788972.36807      1164.753 7        47.946                                                                    24924567.584 7 105464045.15507       946.401 7        44.534
C26        48.000                                                                                                                                                                                                                                                                    25165775.602 5 106484616.84305      1486.640 5        32.048
C22        51.000                                                                                                                                    24451975.576 5 127327849.23705     -4122.668 5        33.677                                                                    24451975.895 5 103464365.42305     -3350.230 5        35.262
C14        53.000                                                                                                                                                                                                                                                                    26915504.200 5 113888300.77505      1686.293 5        35.290
C21        55.000                                                                                                                                    23104694.923 6 120312209.14106     -1699.006 6        38.688                                                                    23104693.349 7  97763510.01707     -1380.727 7        45.094
I06        58.000    38333827.862 5 150430188.40805      -742.511 5        35.586
I02        59.000    37129901.172 6 145705696.14606      -441.645 6        40.110
> 2025 01 02 10 15  5.0000000  0 38
G13         1.000    21257671.542 6 111709779.32406     -3506.249 6        39.568                                    21257678.323 1  87046578.27801     -2732.175 1         9.905
G17         2.000    22139622.383 7 116344503.16107      -492.814 7        42.961                                    22139613.134 4  90658077.41104      -384.021 4        25.820    22139614.642 5  90658055.42905      -383.937 5        32.587
G19         4.000    22584716.849 5 118683459.54405      1802.673 5        32.120                                    22584720.963 2  92480678.99802      1404.661 2        15.048
G10         7.000    25012132.426 5                       973.911 5        33.102                                                                                                    25012128.365 3                       759.521 3        23.295
G14         8.000    22467817.674 7 118069148.86307     -3672.524 7        44.035                                    22467817.068 3  92001918.27503     -2861.687 3        21.857    22467819.192 6  92001935.25406     -2861.648 6        36.733
G15         9.000    20523487.119 7 107851873.44007     -2136.176 7        46.435                                    20523486.695 6  84040324.35306     -1664.549 6        41.948    20523487.111 7  84040245.32007     -1664.539 7        43.511
G23        10.000    23237219.072 4 122112419.07704     -1421.903 4        24.060                                                                                                    23237273.217 4                     -1108.496 4        24.662
E06        11.000    25526484.841 6 134142552.06306     -3463.515 6        36.113                                                                    25526488.291 6 100171357.34806     -2586.671 6        38.817    25526485.897 6 102784612.27006     -2653.853 6        36.813
G24        12.000    21298400.891 6 111924069.02106      1407.798 6        41.297                                    21298403.247 4  87213481.65804      1096.982 4        29.422    21298402.829 5  87213412.63905      1096.941 5        33.527
E31        13.000    23782216.628 7 124976364.88207     -1888.955 7        46.037                                                                    23782220.103 8  93326563.89608     -1410.661 8        52.595    23782219.020 8  95761143.96608     -1447.456 8        51.243
G12        15.000    24074722.816 5 126513513.50205      2805.173 5        31.879                                    24074734.382 1  98582038.28501      2185.787 1         6.000
E24        16.000    24525651.613 7 128883131.90207       852.691 7        46.649                                                                    24525653.212 8  96243963.07208       636.725 8        48.473    24525652.715 8  98754700.99808       653.377 8        50.478
E04        17.000    27750889.424 3                     -3906.375 3        21.000                                                                                                                                    27750892.311 4                     -2991.285 4        26.251
E05        18.000    22707290.777 7 119327624.50907       352.852 7        45.645                                                                    22707293.488 6  89108288.81306       263.265 6        37.006    22707292.076 5  91432994.72605       270.223 5        34.900
E09        21.000    24273200.819 7 127556625.14207     -2546.934 7        44.229                                                                    24273203.619 7  95253200.50907     -1901.898 7        43.638    24273204.647 8  97738128.05608     -1951.569 8        48.041
R14        23.000    21593103.365 7 115103511.70807      1971.537 7        46.047                                                                    21593106.845 6  89525189.78506      1533.440 6        41.561
S23        24.000    38270400.954 6 201112253.92506      -858.342 6        38.339
E03        26.000    28089865.965 6 147613244.38906      2010.521 6        36.669                                                                    28089869.016 6 110230678.06606      1501.287 6        37.372    28089869.700 6 113106256.62406      1540.626 6        40.772
R13        27.000    19486941.548 6 104059202.09206     -1615.551 6        38.402
R21        28.000    23523481.050 5 125878895.96415     -2272.709 5        31.155                                                                    23523487.812 5                     -1767.857 5        30.098
R04        29.000    20931817.839 7 112088968.67807      1732.423 7        47.405                                                                    20931818.344 7  87180355.54907      1347.473 7        44.056
S36        31.000    38337044.102 5 201462620.37105      -857.045 5        35.333
C07        32.000                                                                                                                                    39044984.700 6 203317481.24806     -1240.203 6        36.401    39044980.827 7 157217902.61107      -958.955 7        42.536    39044976.341 4                     -1007.684 4        24.241
C10        33.000                                                                                                                                    38616518.116 6 201086325.97506      -859.515 6        38.793    38616514.735 6 155492726.76006      -664.725 6        39.919    38616514.069 5 163399107.52315      -698.356 5        33.467
C36        34.000                                                                                                                                    22958844.917 7 119552690.32007     -2856.822 7        44.239                                                                    22958851.610 6  97146452.92706     -2321.425 6        40.958
R02        35.000    22571295.874 6 120444725.45706     -5296.352 6        39.423                                                                    22571302.752 5  93679288.15505     -4119.012 5        30.317
R03        36.000    19733382.494 8 105634363.32108     -2320.749 8        50.816                                                                    19733382.727 7  82160114.75007     -1805.036 7        44.807
C45        37.000                                                                                                                                    21804468.825 6 113541542.82806      -339.189 6        40.367                                                                    21804460.676 6  92261853.01306      -275.613 6        39.991
R12        38.000    21809699.291 5 116503483.94715     -4079.537 5        32.563                                                                    21809702.419 4                     -3173.116 4        29.611
C40        40.000                                                                                                                                    39135058.760 5                     -1425.247 5        30.513                                                                    39135025.341 5 165593082.36005     -1158.075 5        33.299
C30        43.000                                                                                                                                    24928537.341 4                       399.272 4        28.180                                                                    24928493.256 5 105480620.69405       324.373 5        33.395
C42        45.000                                                                                                                                    24923438.490 8 129783153.90408      1162.844 8        48.535                                                                    24923450.093 7 105459317.19407       944.944 7        44.349
C26        48.000                                                                                                                                                                                                                                                                    25164017.820 5 106477186.26305      1486.145 5        31.932
C22        51.000                                                                                                                                    24455935.789 5 127348465.04705     -4123.387 5        35.548                                                                    24455935.863 5 103481117.47605     -3350.510 5        35.324
C14        53.000                                                                                                                                    26913507.387 3                      2079.594 3        19.493    26913598.682 5 108369914.64715      1603.802 5        33.234    26913512.184 6 113879871.26206      1685.636 6        37.187
C21        55.000                                                                                                                                    23106327.665 6 120320712.09006     -1701.694 6        37.316                                                                    23106326.209 7  97770419.37207     -1382.909 7        45.220
I06        58.000    38334774.455 6 150433901.38806      -742.496 6        36.465
I02        59.000    37130463.944 6 145707904.55106      -441.403 6        39.886
> 2025 01 02 10 15 10.0000000  0 38
G13         1.000    21261007.496 6 111727316.89506     -3508.502 6        41.640                                    21261015.678 1  87060243.85601     -2733.935 1        11.111
G17         2.000    22140094.273 7 116346976.34907      -496.030 7        42.017                                    22140083.084 4  90660004.55204      -386.518 4        24.887    22140084.769 5  90659982.58905      -386.578 5        32.413
G19         4.000    22583005.705 5 118674451.73505      1800.898 5        32.593                                    22583006.896 2  92473659.95002      1403.308 2        14.857
G10         7.000    25011200.545 5 131434783.15815       970.893 5        35.538                                                                                                    25011206.343 4                       756.655 4        26.683
G14         8.000    22471312.898 7 118087515.26307     -3673.720 7        44.898                                    22471311.959 3  92016229.71903     -2862.626 3        22.590    22471313.700 6  92016246.71806     -2862.704 6        37.728
G15         9.000    20525521.316 7 107862563.59807     -2139.517 7        47.216                                    20525521.216 6  84048654.34806     -1667.155 6        41.604    20525521.619 7  84048575.31807     -1667.215 7        43.304
E06        11.000    25529780.044 5 134159873.84505     -3464.754 5        33.120                                                                    25529784.331 6 100184292.47606     -2587.461 6        38.994    25529782.926 6 102797884.82806     -2654.926 6        37.739
G24        12.000    21297064.792 6 111917034.73506      1406.121 6        37.406                                    21297064.376 4  87208000.34804      1095.667 4        27.377    21297064.678 5  87207931.36905      1095.765 5        34.533
E31        13.000    23784015.158 7 124985814.92907     -1890.657 7        45.139                                                                    23784018.439 8  93333620.73508     -1411.875 8        52.506    23784017.276 8  95768384.89308     -1448.643 8        51.110
G12        15.000    24072052.912 5 126499490.63905      2804.447 5        30.725                                    24072065.695 1  98571111.53801      2185.101 1         3.600
E24        16.000    24524841.009 7 128878872.74607       851.118 7        46.892                                                                    24524842.712 8  96240782.54008       635.615 8        48.231    24524842.104 8  98751437.49308       652.185 8        50.377
E04        17.000    27754608.003 3                     -3904.758 3        20.524                                                                                                                                    27754607.290 4                     -2991.474 4        26.491
E05        18.000    22706956.141 7 119325865.96307       350.968 7        44.391                                                                    22706958.812 6  89106975.60006       262.231 6        37.206    22706956.807 5  91431647.26105       268.938 5        35.867
E09        21.000    24275625.419 7 127569365.12507     -2548.796 7        44.447                                                                    24275627.993 7  95262714.10907     -1903.227 7        43.994    24275629.055 8  97747889.85108     -1952.890 8        48.264
R14        23.000    21591256.417 7 115093658.66907      1970.034 7        45.968                                                                    21591258.042 6  89517526.31806      1532.118 6        40.267
S23        24.000    38271213.859 6 201116546.41606      -858.399 6        38.159
E03        26.000    28087950.156 6 147603193.05706      2010.350 6        38.006                                                                    28087956.254 6 110223172.21206      1501.355 6        36.265    28087957.096 6 113098554.97206      1540.352 6        40.179
R13        27.000    19488455.485 6 104067287.03106     -1618.135 6        37.153
R21        28.000    23525608.205 5 125890271.46015     -2277.178 5        33.689                                                                    23525618.375 4                     -1770.690 4        28.095
R04        29.000    20930202.163 7 112080316.11907      1728.928 7        46.863                                                                    20930202.476 7  87173625.79207      1344.749 7        43.471
S36        31.000    38337855.071 5 201466904.66005      -856.668 5        34.748
C07        32.000                                                                                                                                    39046178.174 6 203323684.08406     -1240.720 6        36.359    39046171.926 6 157222699.02806      -959.249 6        41.688    39046170.130 4                     -1008.568 4        25.609
C10        33.000                                                                                                                                    38617344.972 6 201090626.16206      -859.921 6        39.541    38617340.864 6 155496051.92006      -665.177 6        40.875    38617338.004 5 163402601.73905      -699.194 5        33.988
C36        34.000                                                                                                                                    22961589.167 7 119566977.98507     -2857.849 7        44.865                                                                    22961595.255 6  97158062.78006     -2322.301 6        41.340
R02        35.000    22576257.815 6 120471211.34106     -5297.669 6        38.706                                                                    22576265.773 5  93699888.26405     -4120.672 5        30.068
R03        36.000    19735551.413 8 105645978.78208     -2325.115 8        50.130                                                                    19735552.435 7  82169148.98507     -1808.455 7        45.323
C45        37.000                                                                                                                                    21804796.089 6 113543243.54706      -340.887 6        41.113                                                                    21804787.155 6  92263234.96006      -276.939 6        39.601
R12        38.000    21813520.423 6 116523886.20316     -4080.759 6        37.732                                                                    21813527.244 5                     -3173.999 5        33.389
C40        40.000                                                                                                                                    39136428.221 4                     -1426.056 4        28.654                                                                    39136396.549 5 165598874.36805     -1158.484 5        32.790
R22        41.000    22988957.774 5 122716369.31915      1223.206 5        31.343
C30        43.000                                                                                                                                    24928147.071 4                       396.474 4        29.100                                                                    24928109.739 5 105479004.97205       321.858 5        31.200
C42        45.000                                                                                                                                    24922323.778 8 129777346.23008      1160.599 8        49.627                                                                    24922334.682 7 105454597.95607       943.038 7        44.322
C26        48.000                                                                                                                                                                                                                                                                    25162256.968 5 106469757.84705      1485.561 5        32.090
C22        51.000                                                                                                                                    24459896.109 5 127369085.51605     -4124.309 5        35.167                                                                    24459895.285 5 103497873.28005     -3351.611 5        34.443
C14        53.000                                                                                                                                    26911514.170 3                      2074.417 3        23.162    26911604.066 5 108361897.23205      1603.089 5        31.675    26911521.536 6 113871446.33606      1684.466 6        37.043
C21        55.000                                                                                                                                    23107963.228 6 120329228.93006     -1704.640 6        38.114                                                                    23107961.792 7  97777339.96607     -1385.164 7        45.231
I06        58.000    38335720.807 6 150437614.12506      -742.536 6        38.081
I02        59.000    37131027.218 6 145710113.81606      -441.720 6        40.198
> 2025 01 02 10 15 15.0000000  0 39
G13         1.000    21264346.180 7 111744865.55807     -3510.528 7        44.277                                    21264355.104 1  87073918.17001     -2735.462 1        11.333
G17         2.000    22140566.983 6 116349465.38306      -499.222 6        40.496                                    22140556.190 4  90661944.03004      -389.002 4        24.932    22140557.190 5  90661922.05505      -388.652 5        31.653
G19         4.000    22581294.150 5 118665454.06105      1798.836 5        33.647                                    22581294.788 2  92466648.77002      1401.704 2        15.952
G10         7.000    25010278.908 5 131429935.24605       968.161 5        32.096                                    25010283.217 1 102412928.47111       754.374 1         7.500    25010288.511 4                       754.346 4        28.218
G14         8.000    22474808.920 7 118105888.06707     -3675.031 7        45.535                                    22474808.388 4  92030546.15104     -2863.660 4        24.301    22474810.687 6  92030563.16706     -2863.514 6        38.943
G15         9.000    20527558.877 7 107873270.57207     -2142.774 7        47.298                                    20527558.894 6  84056997.44406     -1669.691 6        41.518    20527558.736 7  84056918.41607     -1669.684 7        42.682
G23        10.000    23239949.691 5                     -1428.543 5        33.317
E06        11.000    25533077.107 5 134177201.57005     -3465.876 5        30.747                                                                    25533081.997 6 100197231.98906     -2588.062 6        38.571    25533081.166 6 102811161.88806     -2655.721 6        38.273
G24        12.000    21295734.771 5 111910009.04105      1404.649 5        34.681                                    21295727.263 4  87202525.83904      1094.526 4        25.489    21295729.728 5  87202456.84105      1094.547 5        35.724
E31        13.000    23785814.936 7 124995273.12407     -1892.149 7        44.382                                                                    23785818.290 8  93340683.66008     -1412.950 8        52.350    23785817.054 8  95775632.07608     -1449.866 8        50.758
G12        15.000    24069382.376 5 126485472.14405      2803.536 5        30.423                                    24069397.733 1  98560188.28201      2184.415 1         2.000
E24        16.000    24524031.668 7 128874621.60307       849.720 7        46.837                                                                    24524033.710 8  96237607.99908       634.545 8        48.311    24524033.236 8  98748180.13708       651.038 8        50.298
E04        17.000                                                                                                                                                                                                    27758323.857 4                     -2992.479 4        26.515
E05        18.000    22706623.343 7 119324116.42207       349.285 7        43.862                                                                    22706625.239 6  89105669.12306       260.836 6        37.860    22706624.585 5  91430306.69105       267.561 5        35.743
E09        21.000    24278052.094 7 127582114.15707     -2550.416 7        45.338                                                                    24278054.253 7  95272234.47007     -1904.469 7        44.299    24278054.976 8  97757658.57708     -1954.231 8        48.320
R14        23.000    21589408.919 7 115083814.01607      1968.423 7        44.271                                                                    21589411.564 6  89509869.40406      1530.893 6        38.763
S23        24.000    38272034.938 6 201120838.71606      -858.141 6        38.808
E03        26.000    28086034.682 6 147593143.46206      2010.007 6        38.811                                                                    28086043.715 5 110215667.63805      1501.067 5        35.229    28086044.206 6 113090854.60606      1540.029 6        40.012
R13        27.000    19489971.562 6 104075384.23306     -1620.490 6        38.048
R21        28.000    23527736.120 6 125901667.38306     -2280.824 6        36.877                                                                    23527749.796 4                     -1774.692 4        24.827
R04        29.000    20928590.257 7 112071681.08407      1725.529 7        47.088                                                                    20928590.164 7  87166909.65707      1341.988 7        43.744
S36        31.000    38338674.975 5 201471188.93105      -856.650 5        35.590
C07        32.000                                                                                                                                    39047367.877 6 203329889.89206     -1241.130 6        36.144    39047363.736 6 157227497.73106      -959.642 6        41.378    39047360.235 4                     -1008.654 4        26.192
C10        33.000                                                                                                                                    38618170.578 6 201094929.43506      -860.607 6        40.427    38618168.244 6 155499379.46606      -665.493 6        41.013    38618164.243 5 163406098.49705      -699.422 5        34.514
C36        34.000                                                                                                                                    22964334.361 7 119581270.49807     -2858.719 7        44.462                                                                    22964340.256 6  97169676.62906     -2323.101 6        41.926
R02        35.000    22581221.170 6 120497703.66806     -5298.800 6        37.361                                                                    22581229.639 4  93720493.30704     -4121.313 4        28.967
R03        36.000    19737725.067 8 105657616.44608     -2329.468 8        49.215                                                                    19737726.192 7  82178200.47607     -1811.739 7        45.795
C45        37.000                                                                                                                                    21805124.853 7 113544952.32907      -342.289 7        42.436                                                                    21805115.296 6  92264623.55006      -278.197 6        39.090
R12        38.000    21817341.749 6 116544292.19616     -4081.221 6        36.994                                                                    21817346.587 5                     -3174.477 5        33.491
C40        40.000                                                                                                                                    39137800.025 5                     -1426.587 5        31.902                                                                    39137767.194 5 165604669.37405     -1159.325 5        33.533
R22        41.000    22987809.846 4 122710261.93804      1220.423 4        26.096
C30        43.000                                                                                                                                    24927716.459 4                       392.528 4        24.586                                                                    24927728.950 4 105477398.97904       320.473 4        28.199
C42        45.000                                                                                                                                    24921211.081 8 129771549.73308      1158.463 8        50.096                                                                    24921221.404 7 105449887.84007       941.362 7        44.108
C26        48.000                                                                                                                                    25160490.793 5 131017101.43115      1827.758 5        35.390                                                                    25160497.807 5 106462332.16105      1484.469 5        31.721
C22        51.000                                                                                                                                    24463856.642 5 127389711.06605     -4125.250 5        34.543                                                                    24463855.690 5 103514633.20405     -3352.113 5        34.443
C14        53.000                                                                                                                                    26909532.311 4                      2072.965 4        24.692    26909607.423 4 108353884.81104      1602.095 4        29.735    26909531.329 6 113863026.54406      1683.718 6        36.715
C21        55.000                                                                                                                                    23109602.717 6 120337760.06506     -1707.292 6        40.074                                                                    23109599.920 7  97784272.22707     -1387.517 7        45.175
I06        58.000    38336666.868 6 150441326.90706      -742.287 6        37.766
I02        59.000    37131590.576 6 145712324.46706      -442.055 6        39.535
> 2025 01 02 10 15 20.0000000  0 39
G13         1.000    21267688.709 7 111762425.80507     -3513.348 7        44.739                                    21267696.573 2  87087601.45602     -2737.654 2        12.182
G17         2.000    22141041.036 6 116351970.68906      -503.090 6        38.348                                    22141033.147 4  90663896.18604      -392.011 4        25.053    22141036.498 5  90663874.22105      -391.699 5        33.671
G19         4.000    22579586.098 6 118656466.86206      1796.237 6        36.284                                    22579584.750 2  92459645.80302      1399.661 2        17.283
G10         7.000    25009360.253 5 131425101.36205       965.226 5        32.198                                    25009362.943 1 102409161.78101       752.220 1         6.250    25009367.616 4                       751.928 4        29.782
G14         8.000    22478306.579 7 118124267.74507     -3676.847 7        46.434                                    22478306.395 4  92044867.95304     -2865.066 4        25.504    22478308.199 6  92044884.95406     -2865.067 6        39.291
G15         9.000    20529599.541 7 107883994.84007     -2146.832 7        47.767                                    20529599.779 6  84065354.01206     -1672.850 6        41.993    20529598.545 6  84065274.97606     -1672.865 6        41.523
G23        10.000    23241304.163 5                     -1432.225 5        33.168                                                                                                    23241330.244 4                     -1115.786 4        28.673
E06        11.000    25536376.979 5 134194535.59305     -3467.668 5        32.174                                                                    25536380.899 6 100210176.23206     -2589.534 6        37.546    25536378.607 6 102824443.77506     -2657.049 6        37.800
G24        12.000    21294403.578 4 111902992.30104      1402.459 4        27.545                                    21294391.965 4  87197058.41504      1092.820 4        24.752    21294393.467 6  87196989.43506      1092.602 6        36.265
E31        13.000    23787616.966 7 125004739.93307     -1894.315 7        44.439                                                                    23787619.839 8  93347753.02508     -1414.683 8        52.264    23787618.364 8  95782885.85708     -1451.592 8        50.516
G12        15.000    24066717.961 4 126471458.52104      2802.392 4        29.545                                    24066731.112 1  98549269.03101      2183.649 1         3.000
E24        16.000    24523223.719 7 128870378.95307       847.438 7        45.913                                                                    24523226.408 8  96234439.80108       632.926 8        48.279    24523225.922 8  98744929.28408       649.373 8        49.971
E04        17.000                                                                                                                                                                                                    27762040.791 4                     -2992.785 4        26.515
E05        18.000    22706291.572 7 119322376.34807       346.888 7        42.415                                                                    22706294.422 6  89104369.71506       258.991 6        38.934    22706294.956 6  91428973.39006       265.705 6        37.066
E09        21.000    24280479.643 7 127594872.70407     -2552.856 7        44.688                                                                    24280482.468 7  95281761.94407     -1906.351 7        44.584    24280482.842 8  97767434.59708     -1956.090 8        48.386
R14        23.000    21587560.843 6 115073978.08106      1966.103 6        39.802                                                                    21587567.429 6  89502219.26806      1529.276 6        39.559
S23        24.000    38272847.356 6 201125131.43306      -858.908 6        38.384
E03        26.000    28084122.167 6 147583096.00906      2009.124 6        38.934                                                                    28084130.885 5 110208164.67305      1500.467 5        34.076    28084130.873 6 113083155.89806      1539.452 6        39.186
R13        27.000    19491491.264 6 104083494.46206     -1623.628 6        37.214
R21        28.000    23529872.126 6 125913084.23706     -2285.607 6        39.117                                                                    23529886.105 4                     -1777.894 4        26.419
R04        29.000    20926979.645 7 112063064.07307      1721.327 7        46.778                                                                    20926980.758 7  87160207.54307      1338.870 7        43.657
S36        31.000    38339487.477 5 201475473.34605      -857.296 5        34.362
C07        32.000                                                                                                                                    39048561.552 5 203336099.07105     -1242.330 5        35.133    39048555.347 6 157232299.03906      -960.576 6        41.249    39048554.377 4                     -1009.133 4        25.504
C10        33.000                                                                                                                                    38618997.813 6 201099236.27506      -861.683 6        39.270    38618993.985 6 155502709.77506      -666.451 6        40.682    38618990.572 5 163409598.10905      -700.520 5        33.563
C36        34.000                                                                                                                                    22967079.611 7 119595568.31807     -2860.315 7        43.882                                                                    22967085.890 7  97181294.72507     -2324.276 7        42.531
R02        35.000    22586186.735 6 120524203.00806     -5300.680 6        37.565                                                                    22586196.263 5  93741103.87905     -4122.682 5        31.743
R03        36.000    19739903.690 8 105669276.42508     -2334.423 8        48.596                                                                    19739904.611 7  82187269.34407     -1815.700 7        46.310
C45        37.000                                                                                                                                    21805454.379 7 113546669.73507      -344.480 7        42.440                                                                    21805444.924 6  92266019.06806      -280.046 6        38.535
R12        38.000    21821162.529 6 116564702.38106     -4082.661 6        38.898                                                                    21821167.483 5  90661479.33215     -3175.065 5        33.168
C40        40.000                                                                                                                                    39139174.007 5                     -1427.635 5        31.109                                                                    39139140.233 5 165610467.73005     -1160.310 5        31.917
R22        41.000    22986652.407 4                      1216.068 4        29.896
C30        43.000                                                                                                                                                                                                                                                                    24927354.359 4 105475803.16504       317.917 4        28.834
C42        45.000                                                                                                                                    24920100.152 8 129765764.89508      1155.641 8        50.118                                                                    24920110.794 7 105445187.16007       938.961 7        44.161
C26        48.000                                                                                                                                    25158735.254 6 131007966.67106      1826.415 6        36.847                                                                    25158742.271 5 106454909.28005      1484.146 5        30.370
C22        51.000                                                                                                                                    24467819.872 6 127410342.04006     -4126.747 6        36.888                                                                    24467817.770 5 103531397.57205     -3353.551 5        34.414
C14        53.000                                                                                                                                    26907542.488 4                      2070.257 4        24.677    26907614.282 5 108345877.65605      1600.530 5        32.814    26907542.675 6 113854612.26306      1682.199 6        36.620
C21        55.000                                                                                                                                    23111245.296 7 120346305.93307     -1710.878 7        42.906                                                                    23111240.724 7  97791216.43807     -1390.277 7        44.605
I06        58.000    38337611.977 6 150445040.11406      -742.659 6        37.248
I02        59.000    37132153.847 6 145714536.67906      -442.828 6        39.895
> 2025 01 02 10 15 25.0000000  0 38
G13         1.000    21271031.828 7 111779996.60807     -3515.217 7        45.535                                    21271040.059 2  87101292.98302     -2739.131 2        13.758
G17         2.000    22141520.852 6 116354491.22206      -505.890 6        36.026                                    22141513.900 4  90665860.22004      -394.204 4        24.692    22141521.984 6  90665838.25706      -393.980 6        38.045
G19         4.000    22577878.194 6 118647489.25906      1794.736 6        39.282                                    22577876.662 3  92452650.29103      1398.502 3        19.701
G10         7.000                                                                                                                                                                    25008449.257 4                       750.253 4        29.896
G14         8.000    22481805.077 7 118142653.25107     -3677.631 7        45.442                                    22481805.413 4  92059194.28104     -2865.671 4        25.970    22481807.152 6  92059211.28206     -2865.713 6        39.844
G15         9.000    20531643.710 7 107894735.42307     -2149.670 7        47.701                                    20531643.565 6  84073723.28706     -1675.057 6        41.864    20531642.565 6  84073644.24706     -1675.017 6        40.765
G23        10.000    23242668.196 5 122141042.50615     -1435.144 5        34.824                                                                                                    23242692.135 5                     -1118.270 5        32.371
E06        11.000    25539677.844 5 134211875.00005     -3468.584 5        31.992                                                                    25539679.288 6 100223124.43106     -2589.919 6        37.323    25539679.215 6 102837729.73506     -2657.427 6        38.288
G24        12.000    21293072.301 3                      1401.057 3        19.731                                                                                                    21293059.555 6  87191528.38506      1091.465 6        36.756
E31        13.000    23789420.227 7 125014214.37107     -1895.600 7        45.204                                                                    23789422.735 8  93354828.07208     -1415.562 8        52.469    23789421.260 8  95790145.47008     -1452.436 8        50.545
G12        15.000    24064050.476 4 126457448.75704      2801.924 4        28.445                                    24064065.073 1  98538352.37001      2183.345 1         4.429
E24        16.000    24522417.525 7 128866143.77107       846.321 7        45.538                                                                    24522420.345 8  96231277.17608       632.029 8        48.344    24522420.082 8  98741684.16708       648.496 8        50.014
E04        17.000                                                                                                                                                                                                    27765760.264 4                     -2992.976 4        27.593
E05        18.000    22705961.885 6 119320644.74806       345.538 6        41.781                                                                    22705965.386 6  89103076.66306       258.028 6        39.150    22705967.082 6  91427646.57706       264.616 6        37.410
E09        21.000    24282908.651 7 127607639.74307     -2554.205 7        43.956                                                                    24282912.015 7  95291295.76207     -1907.344 7        44.969    24282912.502 8  97777217.13308     -1957.040 8        48.497
R14        23.000    21585715.701 6 115064149.94206      1964.849 6        37.747                                                                    21585723.870 6  89494575.16006      1528.046 6        39.706
S23        24.000    38273657.037 6 201129423.57806      -858.293 6        36.771
E03        26.000    28082210.796 6 147573049.75206      2009.261 6        38.471                                                                    28082218.479 5 110200662.60005      1500.145 5        33.449    28082217.406 6 113075458.07506      1539.641 6        38.850
R13        27.000    19493011.345 6 104091616.25706     -1625.493 6        38.940
R21        28.000    23532006.869 5 125924520.90415     -2289.229 5        34.386
R04        29.000    20925374.291 7 112054464.07707      1718.356 7        46.948                                                                    20925374.531 7  87153518.65707      1336.484 7        43.733
S36        31.000    38340308.664 5 201479757.68905      -857.123 5        32.551
C07        32.000                                                                                                                                    39049754.829 5 203342310.61205     -1242.549 5        33.784    39049748.295 6 157237102.21706      -960.780 6        40.520    39049749.253 4                     -1009.840 4        28.180
C10        33.000                                                                                                                                    38619823.863 6 201103545.74006      -862.049 6        38.934    38619822.569 7 155506042.05907      -666.573 7        42.882    38619817.768 5 163413099.86205      -700.402 5        33.862
C36        34.000                                                                                                                                    22969826.140 7 119609870.47707     -2860.711 7        43.244                                                                    22969833.246 7  97192916.38807     -2324.647 7        42.885
R02        35.000    22591154.946 6 120550708.32506     -5301.505 6        38.841                                                                    22591163.859 5  93761719.04105     -4123.447 5        31.721
R03        36.000    19742086.052 8 105680957.81008     -2338.331 8        49.191                                                                    19742087.251 7  82196354.85807     -1818.692 7        46.575
C45        37.000                                                                                                                                    21805785.309 7 113548394.72207      -345.766 7        42.432                                                                    21805776.288 6  92267420.77306      -280.945 6        37.750
R12        38.000    21824982.643 6 116585115.81306     -4082.887 6        40.493                                                                    21824988.851 5  90677356.37605     -3175.476 5        30.966
C40        40.000                                                                                                                                    39140545.754 4                     -1428.445 4        28.512                                                                    39140504.102 5 165616268.79805     -1160.364 5        31.313
R22        41.000    22985519.584 4                      1212.894 4        28.663
C42        45.000                                                                                                                                    24918991.333 8 129759990.72708      1153.864 8        50.125                                                                    24919002.146 7 105440495.18607       937.544 7        44.131
C26        48.000                                                                                                                                    25156981.379 6 130998834.60306      1826.457 6        36.824                                                                    25156982.493 3                      1483.864 3        20.262
C22        51.000                                                                                                                                    24471783.431 6 127430977.56506     -4127.560 6        40.620                                                                    24471781.097 5 103548165.62205     -3354.038 5        34.876
C14        53.000                                                                                                                                    26905548.610 4                      2068.729 4        26.395    26905628.412 5 108337874.97405      1600.042 5        32.311    26905554.504 6 113846202.71606      1681.495 6        36.586
C21        55.000                                                                                                                                    23112889.650 7 120354865.57907     -1713.302 7        43.928                                                                    23112884.671 7  97798171.87107     -1392.172 7        44.272
