     3.04           OBSERVATION DATA    M                   RINEX VERSION / TYPE
ssrcrin-15.6.1x                         20250102 020000 UTC PGM / RUN BY / DATE 
(00000000023479385599111004) Septentrio proprietary         COMMENT             
ract                                                        MARKER NAME         
01                                                          MARKER NUMBER       
geodetic                                                    MARKER TYPE         
NFB                 CLIMERS@TUW                             OBSERVER / AGENCY   
3296359             SEPT ASTERX SB3 PROB4.14.4              REC # / TYPE / VERS 
Unknown             Unknown                                 ANT # / TYPE        
  4127446.2641  1206914.4629  4695543.2054                  APPROX POSITION XYZ 
        0.0000        0.0000        0.0000                  ANTENNA: DELTA H/E/N
G   23 X1  C1C L1C D1C S1C C1W S1W C2W L2W D2W S2W C2L L2L  SYS / # / OBS TYPES 
       D2L S2L C5Q L5Q D5Q S5Q C1L L1L D1L S1L              SYS / # / OBS TYPES 
E   21 X1  C1C L1C D1C S1C C6C L6C D6C S6C C5Q L5Q D5Q S5Q  SYS / # / OBS TYPES 
       C7Q L7Q D7Q S7Q C8Q L8Q D8Q S8Q                      SYS / # / OBS TYPES 
S    9 X1  C1C L1C D1C S1C C5I L5I D5I S5I                  SYS / # / OBS TYPES 
R   17 X1  C1C L1C D1C S1C C2P L2P D2P S2P C2C L2C D2C S2C  SYS / # / OBS TYPES 
       C3Q L3Q D3Q S3Q                                      SYS / # / OBS TYPES 
C   25 X1  C1P L1P D1P S1P C5P L5P D5P S5P C2I L2I D2I S2I  SYS / # / OBS TYPES 
       C7I L7I D7I S7I C6I L6I D6I S6I C7D L7D D7D S7D      SYS / # / OBS TYPES 
J   17 X1  C1C L1C D1C S1C C2L L2L D2L S2L C5Q L5Q D5Q S5Q  SYS / # / OBS TYPES 
       C1L L1L D1L S1L                                      SYS / # / OBS TYPES 
I    5 X1  C5A L5A D5A S5A                                  SYS / # / OBS TYPES 
SEPTENTRIO RECEIVERS OUTPUT ALIGNED CARRIER PHASES.         COMMENT             
NO FURTHER PHASE SHIFT APPLIED IN THE RINEX ENCODER.        COMMENT             
G L1C                                                       SYS / PHASE SHIFT   
G L2W                                                       SYS / PHASE SHIFT   
G L2L  0.00000                                              SYS / PHASE SHIFT   
G L5Q  0.00000                                              SYS / PHASE SHIFT   
G L1L  0.00000                                              SYS / PHASE SHIFT   
E L1C  0.00000                                              SYS / PHASE SHIFT   
E L6C  0.00000                                              SYS / PHASE SHIFT   
E L5Q  0.00000                                              SYS / PHASE SHIFT   
E L7Q  0.00000                                              SYS / PHASE SHIFT   
E L8Q  0.00000                                              SYS / PHASE SHIFT   
S L1C                                                       SYS / PHASE SHIFT   
S L5I                                                       SYS / PHASE SHIFT   
R L1C                                                       SYS / PHASE SHIFT   
R L2P  0.00000                                              SYS / PHASE SHIFT   
R L2C                                                       SYS / PHASE SHIFT   
R L3Q  0.00000                                              SYS / PHASE SHIFT   
C L1P  0.00000                                              SYS / PHASE SHIFT   
C L5P  0.00000                                              SYS / PHASE SHIFT   
C L2I                                                       SYS / PHASE SHIFT   
C L7I                                                       SYS / PHASE SHIFT   
C L6I                                                       SYS / PHASE SHIFT   
C L7D                                                       SYS / PHASE SHIFT   
J L1C                                                       SYS / PHASE SHIFT   
J L2L  0.00000                                              SYS / PHASE SHIFT   
J L5Q  0.00000                                              SYS / PHASE SHIFT   
J L1L  0.00000                                              SYS / PHASE SHIFT   
I L5A                                                       SYS / PHASE SHIFT   
  2025     1     2     2     0    0.0000000     GPS         TIME OF FIRST OBS   
 C1C    0.000 C2C    0.000 C2P    0.000                     GLONASS COD/PHS/BIS 
DBHZ                                                        SIGNAL STRENGTH UNIT
    18                                                      LEAP SECONDS        
 24 R01  1 R02 -4 R03  5 R04  6 R05  1 R06 -4 R07  5 R08  6 GLONASS SLOT / FRQ #
    R09 -2 R10 -7 R11  0 R12 -1 R13 -2 R14 -7 R15  0 R16 -1 GLONASS SLOT / FRQ #
    R17  4 R18 -3 R19  3 R20  2 R21  4 R22 -3 R23  3 R24  2 GLONASS SLOT / FRQ #
                                                            END OF HEADER       
> 2025 01 02 02 00  0.0000000  0 37
G03         1.000    20184850.509 7 106072089.36907     -1649.580 7        45.354                                    20184847.809 7  82653586.21107     -1285.387 7        42.677    20184849.290 7  82653613.22307     -1285.262 7        43.983
G19         2.000    22394684.928 6 117684837.02206      -925.220 6        40.303                                    22394677.635 1  91702426.86501      -720.984 1         8.190
G28         3.000    23816379.134 4                     -2780.943 4        24.917                                                                                                    23816400.091 4  97524390.12104     -2168.308 4        27.305
G02         4.000    22774349.960 7 119680094.62107     -3757.194 7        43.263                                    22774344.676 4  93257184.11804     -2927.690 4        27.485
E07         5.000    27678814.670 3                     -3650.199 3        23.886                                                                    27678817.176 4                     -2725.890 4        26.168
G09         6.000    22100800.204 6 116140473.66006      2116.932 6        39.829                                    22100792.926 5  90499082.09705      1649.552 5        30.370    22100797.783 6  90499068.07706      1649.456 6        36.333
G21         8.000    24507607.368 5                     -4089.589 5        30.574
G31        10.000    22325537.628 7 117321504.85207     -1101.011 7        43.911                                    22325531.957 6  91419274.31106      -857.931 6        37.516    22325532.132 6  91419345.29606      -857.896 6        41.802
G17        11.000    22891511.086 6 120296348.09706     -2625.577 6        37.425                                    22891503.260 3  93736912.97403     -2045.911 3        20.333
G04        12.000    20564077.299 7 108064998.36607       646.322 7        42.724                                    20564070.899 4  84206414.43104       503.626 4        26.527    20564072.706 6  84206438.43706       503.494 6        40.396
E12        13.000    24461857.087 6 128547969.76706       458.673 6        38.315                                                                    24461856.572 6  95993577.71306       342.481 6        41.139    24461857.563 5  98497831.46405       351.476 5        34.076
E29        14.000    23801930.749 8 125079979.46308     -1839.040 8        51.187                                                                    23801928.082 8  93403873.83908     -1373.304 8        51.774    23801927.950 8  95840541.45408     -1409.154 8        52.182
G06        15.000    23522378.108 6 123610964.16606      2349.113 6        37.482                                    23522375.830 5  96320251.89505      1830.485 5        34.505    23522379.416 6  96320244.90706      1830.300 6        37.633
E11        16.000    28081227.517 6 147567849.23706      2066.052 6        36.223                                                                    28081223.090 6 110196759.27706      1542.627 6        36.745    28081222.353 5 113071485.77405      1583.011 5        34.033
R08        18.000    22279273.019 4 119304556.24004      2291.096 4        29.943
E19        20.000    23548577.109 6 123748606.75406       634.602 6        41.273                                                                    23548574.166 7  92409684.79007       473.799 7        42.116    23548573.392 6  94820359.35406       486.259 6        41.342
R06        21.000    20642604.333 6 110152910.58706     -3444.434 6        36.155
S36        23.000    38317032.540 6 201357392.97206      -851.486 6        36.393
S23        24.000    38264296.031 6 201080187.12806      -847.572 6        41.240
E33        28.000    24030799.894 7 126282696.85307     -2524.160 7        44.959                                                                    24030798.051 7  94302060.81307     -1884.937 7        45.645    24030796.246 7  96762068.97907     -1934.132 7        43.289
E10        29.000    25801079.220 7 135585823.34107      1483.240 7        44.969                                                                    25801077.988 7 101249045.87407      1107.617 7        46.695    25801077.821 8 103890265.11808      1136.494 8        48.502
R21        30.000    22170675.919 7 118640027.38207     -5153.200 7        43.046                                                                    22170673.994 7  92275382.75307     -4008.115 7        42.089
C20        31.000                                                                                                                                    23299455.416 7 121326526.24907      1094.585 7        46.858                                                                    23299447.688 7  98587595.98207       889.478 7        44.661
C25        32.000                                                                                                                                    25499918.957 4                      -804.071 4        24.466
R23        33.000    21214674.552 8 113484162.26408      2151.117 8        48.700
R07        34.000    19500935.138 8 104389992.76908      -330.908 8        48.519                                                                    19500931.310 6  81192252.71606      -257.375 6        38.249
R22        35.000    19550060.462 8 104359551.38408     -1569.544 8        51.817                                                                    19550058.022 7  81168527.56907     -1220.721 7        44.786
C32        36.000                                                                                                                                    22146697.132 8 115323626.87808     -1781.525 8        50.775                                                                    22146696.780 7  93709941.82207     -1447.672 7        46.993
C30        38.000                                                                                                                                    23504600.272 5 122394638.11705     -3489.959 5        34.819                                                                    23504601.913 6  99455656.21306     -2835.753 6        40.279
C35        41.000                                                                                                                                                                                                                                                                    26786693.362 5                      1699.216 5        30.770
C16        45.000                                                                                                                                    38846246.196 5 202282705.53605      -969.000 5        34.433                                                                    38846239.739 4                      -787.522 4        27.952
C39        46.000                                                                                                                                    39175721.421 5 203998350.07705     -1396.692 5        34.971                                                                    39175762.886 3                     -1132.818 3        23.505
C09        47.000                                                                                                                                    38713708.334 6 201592444.80606      -353.081 6        37.860    38713705.648 7 155884068.78807      -272.826 7        44.382    38713703.388 7 163810340.15007      -286.755 7        42.190
C41        49.000                                                                                                                                    25747567.229 5 134074326.20705     -3627.737 5        32.952                                                                    25747547.316 3                     -2947.932 3        22.019
C06        50.000                                                                                                                                    38371354.138 5 199809703.16505      -864.506 5        35.795    38371345.293 6 154505649.87306      -668.493 6        38.339    38371345.270 6 162361718.26406      -702.544 6        36.344
C29        54.000                                                                                                                                    23057065.085 6 120064170.69906      -399.716 6        40.403                                                                    23057059.448 6  97561993.82406      -324.755 6        38.129
I09        58.000    37364452.694 5 146626137.22905      -819.568 5        34.557
> 2025 01 02 02 00  5.0000000  0 37
G03         1.000    20186420.655 7 106080342.59407     -1651.575 7        45.607                                    20186418.306 7  82660017.30107     -1286.945 7        43.107    20186419.868 7  82660044.33407     -1286.958 7        44.132
G19         2.000    22395566.470 6 117689472.40806      -928.830 6        39.330                                    22395559.555 1  91706038.83901      -723.752 1        11.037
G28         3.000                                                                                                                                                                    23819054.147 4  97535235.64004     -2170.199 4        28.123
G02         4.000    22777925.128 7 119698885.11607     -3758.752 7        43.805                                    22777920.538 4  93271826.07204     -2928.898 4        27.904
E07         5.000    27682284.711 3                     -3650.651 3        22.876                                                                    27682289.239 4                     -2725.777 4        26.000
G09         6.000    22098786.320 6 116129893.22706      2115.491 6        38.471                                    22098779.981 4  90490837.60504      1648.427 4        29.431    22098784.887 6  90490823.59906      1648.218 6        36.306
G21         8.000    24511497.447 5                     -4090.213 5        30.143
G31        10.000    22326587.065 7 117327019.15607     -1104.638 7        43.304                                    22326581.612 6  91423571.18506      -860.764 6        36.926    22326581.089 6  91423642.17406      -860.812 6        40.720
G17        11.000    22894008.107 5 120309482.79105     -2627.816 5        35.305                                    22894002.969 3  93747147.81803     -2047.714 3        19.224
G04        12.000    20563464.492 7 108061773.88707       643.648 7        42.176                                    20563456.865 4  84203901.85904       501.542 4        26.934    20563459.480 6  84203925.85506       501.359 6        39.453
E12        13.000    24461421.953 6 128545681.41606       456.717 6        38.823                                                                    24461421.041 6  95991868.86306       341.181 6        40.815    24461421.952 5  98496078.04205       350.236 5        34.029
E29        14.000    23803681.431 8 125089179.60208     -1840.857 8        51.315                                                                    23803678.832 8  93410744.06808     -1374.645 8        51.786    23803678.612 8  95847590.90508     -1410.525 8        52.081
G06        15.000    23520144.063 6 123599222.00906      2347.584 6        37.909                                    23520141.437 5  96311102.15505      1829.291 5        34.505    23520143.831 6  96311095.13506      1829.699 6        38.405
E11        16.000    28079262.325 5 147557520.88905      2065.576 5        35.995                                                                    28079258.002 6 110189046.55106      1542.597 6        36.896    28079257.201 5 113063571.84005      1582.765 5        34.262
R08        18.000    22277145.022 5 119293106.53705      2289.179 5        34.848
E19        20.000    23547974.145 6 123745438.84306       632.844 6        41.759                                                                    23547971.284 6  92407319.14306       472.449 6        41.874    23547970.871 6  94817932.01206       484.721 6        41.194
R06        21.000    20645831.843 6 110170136.99606     -3445.967 6        36.707
R15        22.000                                                                                                                                    23355592.888 4                     -1189.868 4        27.617
S36        23.000    38317846.353 6 201361651.65706      -852.006 6        36.507
S23        24.000    38265101.119 6 201084425.52906      -847.694 6        41.275
E33        28.000    24033202.786 7 126295322.88007     -2526.011 7        45.005                                                                    24033200.488 7  94311489.33207     -1886.302 7        45.163    24033198.742 7  96771743.46207     -1935.617 7        43.145
E10        29.000    25799668.795 7 135578410.39307      1482.032 7        45.312                                                                    25799667.348 7 101243510.21907      1106.684 7        46.732    25799667.147 8 103884585.05108      1135.603 8        48.383
R21        30.000    22175488.691 6 118665798.09006     -5155.000 6        41.359                                                                    22175489.481 6  92295426.63706     -4009.332 6        41.905
C20        31.000                                                                                                                                    23298405.218 7 121321057.29607      1093.160 7        46.118                                                                    23298397.383 7  98583151.98707       888.302 7        44.611
R23        33.000    21212666.358 8 113473414.68308      2148.044 8        49.290
R07        34.000    19501245.960 8 104391654.70108      -333.712 8        48.701                                                                    19501239.533 5  81193545.30905      -259.532 5        34.581
R22        35.000    19551532.726 8 104367410.62208     -1574.043 8        51.628                                                                    19551530.251 7  81174640.31207     -1224.245 7        45.108
C32        36.000                                                                                                                                    22148408.608 8 115332538.57008     -1783.053 8        50.840                                                                    22148408.167 7  93717183.27007     -1448.744 7        47.099
C30        38.000                                                                                                                                    23507953.095 5 122412092.64905     -3491.738 5        35.681                                                                    23507953.877 6  99469839.44306     -2837.269 6        40.396
C35        41.000                                                                                                                                                                                                                                                                    26784685.966 5                      1698.287 5        32.126
C16        45.000                                                                                                                                    38847176.622 5 202287553.53205      -970.052 5        34.638                                                                    38847171.048 4                      -788.213 4        28.455
C39        46.000                                                                                                                                    39177063.859 5 204005337.03605     -1397.832 5        35.181                                                                    39177105.589 4                     -1134.438 4        24.180
C09        47.000                                                                                                                                    38714047.659 6 201594211.83306      -353.622 6        38.679    38714044.775 7 155885435.17507      -273.550 7        44.438    38714042.764 7 163811775.99807      -287.474 7        42.197
C41        49.000                                                                                                                                    25751047.390 5 134092466.09005     -3627.704 5        31.638                                                                    25751035.674 3                     -2949.408 3        22.038
C06        50.000                                                                                                                                    38372183.801 6 199814028.56806      -865.512 6        36.223    38372175.838 6 154508994.54806      -669.144 6        38.264    38372175.901 6 162365233.00106      -703.307 6        36.140
C29        54.000                                                                                                                                    23057453.220 6 120066177.20606      -402.805 6        40.696                                                                    23057445.118 6  97563624.28206      -327.225 6        38.126
I09        58.000    37365498.102 5 146630235.49105      -819.643 5        34.548
> 2025 01 02 02 00 10.0000000  0 35
G03         1.000    20187992.532 7 106088606.28407     -1653.682 7        45.678                                    20187990.792 7  82666456.54307     -1288.586 7        43.505    20187992.400 7  82666483.56907     -1288.504 7        44.081
G19         2.000    22396453.090 6 117694126.19706      -932.373 6        39.664                                    22396445.089 2  91709665.17302      -726.559 2        13.273
G02         4.000    22781501.967 7 119717683.90807     -3760.362 7        44.281                                    22781498.087 4  93286474.48904     -2930.157 4        28.455
E07         5.000    27685760.168 3                     -3651.452 3        22.686                                                                    27685763.099 4                     -2726.476 4        25.549
G09         6.000    22096774.030 6 116119321.75206      2113.533 6        36.355                                    22096768.998 4  90482600.09404      1646.909 4        28.332    22096773.189 6  90482586.05906      1647.035 6        36.571
G21         8.000    24515388.680 4                     -4090.889 4        29.393
G31        10.000    22327640.153 7 117332552.16807     -1108.406 7        43.225                                    22327634.541 6  91427882.63806      -863.699 6        36.257    22327633.900 6  91427953.62806      -863.582 6        39.955
G04        12.000    20562853.892 7 108058562.99507       640.970 7        42.595                                    20562845.536 4  84201399.87804       499.453 4        27.665    20562849.034 6  84201423.85806       499.463 6        39.676
E12        13.000    24460987.923 6 128543402.19706       455.195 6        38.168                                                                    24460987.120 6  95990166.85106       339.811 6        40.653    24460989.884 5  98494331.66205       348.476 5        33.653
E29        14.000    23805433.988 8 125098388.91508     -1842.676 8        51.187                                                                    23805431.294 8  93417621.15508     -1375.996 8        51.963    23805431.111 8  95854647.39608     -1411.915 8        52.046
G06        15.000    23517912.638 6 123587486.35006      2346.568 6        39.604                                    23517908.246 5  96301957.49105      1828.499 5        34.324    23517911.059 6  96301950.48906      1828.494 6        38.937
E11        16.000    28077297.177 5 147547194.13205      2065.384 5        35.676                                                                    28077292.723 6 110181335.01906      1542.264 6        36.684    28077292.175 5 113055659.12805      1582.491 5        34.019
R08        18.000    22275007.676 6 119281664.84106      2287.616 6        37.887                                                                    22275075.579 4                      1779.660 4        26.108
E19        20.000    23547372.749 6 123742280.29906       630.930 6        41.478                                                                    23547370.208 6  92404960.48606       471.148 6        41.914    23547370.122 6  94815511.83106       483.382 6        41.440
R06        21.000    20649061.816 6 110187371.62306     -3447.485 6        37.070
R15        22.000                                                                                                                                    23357028.212 4                     -1193.719 4        27.234
S36        23.000    38318657.121 6 201365910.06506      -851.676 6        36.420
S23        24.000    38265910.470 6 201088664.59006      -847.744 6        41.209
E33        28.000    24035607.490 7 126307958.51107     -2527.861 7        44.725                                                                    24035604.869 7  94320925.02907     -1887.693 7        44.926    24035602.973 7  96781425.30607     -1936.997 7        43.054
E10        29.000    25798259.447 7 135571003.19307      1481.014 7        45.258                                                                    25798257.805 7 101237978.87807      1105.947 7        46.892    25798257.575 8 103878909.41208      1134.838 8        48.288
R21        30.000    22180307.693 6 118691577.80006     -5156.497 6        38.958                                                                    22180306.929 6  92315477.53606     -4010.736 6        41.628
C20        31.000                                                                                                                                    23297356.510 7 121315595.33307      1091.871 7        45.860                                                                    23297348.482 7  98578713.69407       887.229 7        44.655
R23        33.000    21210661.060 8 113462683.04308      2144.886 8        50.508
R07        34.000    19501558.194 8 104393330.77208      -336.518 8        49.055                                                                    19501552.978 5  81194848.94405      -261.472 5        30.536
R22        35.000    19553009.364 8 104375292.70808     -1578.575 8        51.197                                                                    19553006.557 7  81180770.82507     -1227.744 7        45.180
C32        36.000                                                                                                                                    22150121.547 8 115341458.22308     -1784.610 8        50.814                                                                    22150121.077 7  93724431.22907     -1450.151 7        47.219
C30        38.000                                                                                                                                    23511308.609 6 122429556.45006     -3493.609 6        37.977                                                                    23511307.575 6  99484030.22106     -2838.846 6        40.534
C35        41.000                                                                                                                                                                                                                                                                    26782680.948 5                      1697.147 5        32.162
C16        45.000                                                                                                                                    38848108.588 5 202292406.19005      -970.718 5        33.820                                                                    38848103.279 4                      -789.071 4        28.559
C39        46.000                                                                                                                                    39178406.577 5 204012328.26005     -1398.386 5        35.481                                                                    39178447.188 3                     -1137.119 3        22.552
C09        47.000                                                                                                                                    38714388.067 6 201595983.63306      -354.568 6        38.814    38714385.218 7 155886805.24207      -274.302 7        44.549    38714383.092 7 163813215.72607      -288.184 7        42.353
C41        49.000                                                                                                                                    25754531.350 5 134110607.48805     -3628.179 5        31.608                                                                    25754526.920 3                     -2948.713 3        23.200
C06        50.000                                                                                                                                    38373014.743 6 199818358.85706      -866.207 6        36.344    38373008.220 6 154512343.01506      -669.976 6        38.486    38373007.484 6 162368751.74106      -704.454 6        36.060
C29        54.000                                                                                                                                    23057842.771 6 120068198.54706      -405.656 6        40.200                                                                    23057833.471 6  97565266.80506      -329.561 6        38.625
I09        58.000    37366542.409 5 146634334.89605      -819.815 5        34.190
> 2025 01 02 02 00 15.0000000  0 37
G03         1.000    20189567.179 7 106096879.21007     -1655.442 7        46.074                                    20189565.040 7  82672902.98207     -1289.955 7        44.018    20189566.395 7  82672930.00707     -1289.993 7        43.854
G19         2.000    22397343.484 6 117698797.10606      -935.767 6        41.440                                    22397333.922 2  91713304.84602      -729.164 2        15.429
G28         3.000    23824371.570 4                     -2790.625 4        27.808
G02         4.000    22785080.544 7 119736489.77707     -3761.816 7        44.730                                    22785076.999 4  93301128.41704     -2931.286 4        28.995
E07         5.000    27689234.646 3                     -3651.641 3        20.738                                                                    27689236.477 4                     -2726.753 4        26.024
G09         6.000    22094763.930 5 116108757.96505      2111.969 5        34.381                                    22094759.599 4  90474368.56104      1645.686 4        26.874    22094763.311 6  90474354.59306      1645.683 6        36.397
G21         8.000    24519280.051 4                     -4091.051 4        29.175
G31        10.000    22328696.563 7 117338102.63507     -1111.727 7        43.441                                    22328690.635 5  91432207.70505      -866.284 5        35.719    22328690.689 6  91432278.66906      -866.305 6        39.318
G17        11.000                                                                                                                                                                    22899007.103 5  93767630.46315     -2051.323 5        34.148
G04        12.000    20562246.001 7 108055364.46407       638.541 7        44.439                                    20562236.765 4  84198907.53304       497.550 4        28.237    20562240.593 6  84198931.54306       497.503 6        40.605
E12        13.000    24460555.539 6 128541130.92806       453.441 6        37.497                                                                    24460554.534 6  95988470.76606       338.608 6        40.143    24460559.259 5  98492591.31405       347.495 5        33.701
E29        14.000    23807188.046 8 125107606.17308     -1844.155 8        51.002                                                                    23807185.257 8  93424504.18108     -1377.146 8        52.015    23807185.084 8  95861709.97808     -1413.084 8        52.066
G06        15.000    23515681.961 6 123575756.04006      2345.542 6        41.085                                    23515676.070 5  96292816.99405      1827.695 5        34.457    23515677.874 6  96292810.00306      1827.736 6        39.207
E11        16.000    28075332.065 5 147536867.82505      2065.409 5        35.348                                                                    28075327.843 6 110173623.78606      1542.455 6        36.752    28075327.489 5 113047746.74905      1582.715 5        34.362
R08        18.000    22272868.249 6                      2286.235 6        37.459                                                                    22272932.299 4                      1778.436 4        27.629
E19        20.000    23546772.292 6 123739129.86406       629.341 6        40.720                                                                    23546770.612 6  92402607.90806       470.024 6        41.740    23546770.800 6  94813097.86806       482.238 6        41.595
R06        21.000    20652293.529 6 110204613.34706     -3449.197 6        37.569
S36        23.000    38319464.902 6 201370168.47806      -851.629 6        36.386
S23        24.000    38266714.593 6 201092902.85006      -847.422 6        40.927
E33        28.000    24038013.668 7 126320602.52707     -2529.643 7        44.528                                                                    24038010.929 7  94330366.99107     -1889.017 7        44.840    24038008.842 7  96791113.57807     -1938.319 7        43.058
E10        29.000    25796850.822 7 135563600.60807      1480.151 7        45.023                                                                    25796849.056 7 101232450.96907      1105.309 7        46.874    25796848.878 8 103873237.28508      1134.187 8        48.252
R21        30.000    22185127.517 6 118717365.23606     -5158.403 6        37.070                                                                    22185125.713 6  92335534.43706     -4012.015 6        40.832
C20        31.000                                                                                                                                    23296308.597 7 121310139.17107      1090.725 7        45.652                                                                    23296300.914 7  98574280.11207       886.152 7        44.399
C25        32.000                                                                                                                                    25502280.779 4                      -812.375 4        25.263
R23        33.000    21208658.440 8 113451966.36508      2141.910 8        50.985
R07        34.000    19501874.227 8 104395019.76108      -339.073 8        49.648                                                                    19501872.396 5  81196162.57505      -263.613 5        30.875
R22        35.000    19554489.660 8 104383196.37508     -1582.788 8        51.069                                                                    19554487.015 7  81186918.14107     -1231.102 7        45.347
C32        36.000                                                                                                                                    22151835.802 8 115350384.62908     -1785.882 8        50.833                                                                    22151835.263 7  93731684.67307     -1451.361 7        47.004
C30        38.000                                                                                                                                    23514666.659 6 122447028.23406     -3495.153 6        40.696                                                                    23514662.799 6  99498227.50506     -2840.074 6        40.243
C35        41.000                                                                                                                                    26780670.966 5                      2087.610 5        34.000                                                                    26780675.587 5                      1696.272 5        32.659
C16        45.000                                                                                                                                    38849041.039 5 202297262.37605      -971.797 5        33.269                                                                    38849036.676 4                      -789.669 4        28.645
C39        46.000                                                                                                                                    39179751.098 5 204019322.57705     -1399.097 5        35.781                                                                    39179788.415 3                     -1136.178 3        21.667
C09        47.000                                                                                                                                    38714729.437 6 201597758.99606      -355.413 6        39.036    38714726.123 7 155888178.07307      -274.820 7        44.396    38714724.065 7 163814658.35807      -288.865 7        42.182
C41        49.000                                                                                                                                    25758015.702 5 134128749.12405     -3628.601 5        32.257                                                                    25758009.638 3                     -2948.500 3        21.357
C06        50.000                                                                                                                                    38373846.978 6 199822692.82606      -867.075 6        36.718    38373840.322 6 154515694.32306      -670.831 6        38.165    38373839.957 5 162372273.43905      -704.828 5        35.543
C29        54.000                                                                                                                                    23058232.880 6 120070233.49006      -408.269 6        39.799                                                                    23058224.614 6  97566920.36606      -331.703 6        38.871
I09        58.000    37367587.409 5 146638434.52905      -820.136 5        34.281
> 2025 01 02 02 00 20.0000000  0 37
G03         1.000    20191143.777 7 106105162.03407     -1657.802 7        46.525                                    20191141.243 7  82679357.13207     -1291.792 7        44.333    20191142.854 7  82679384.16107     -1291.837 7        43.954
G19         2.000    22398236.749 7 117703485.87807      -939.731 7        43.084                                    22398226.297 2  91716958.41902      -732.295 2        17.094
G28         3.000    23827037.627 5                     -2793.545 5        32.719
G02         4.000    22788660.635 7 119755303.39807     -3763.764 7        45.081                                    22788657.302 4  93315788.38404     -2932.799 4        28.872
E07         5.000    27692708.095 3                     -3651.769 3        20.476                                                                    27692710.798 4                     -2727.059 4        25.248
G09         6.000    22092759.306 5 116098202.56005      2110.049 5        35.567                                    22092751.894 4  90466143.60204      1644.185 4        25.729    22092755.364 6  90466129.61606      1644.349 6        36.091
G21         8.000    24523171.669 4                     -4092.562 4        28.540
G31        10.000    22329755.829 7 117343671.29307     -1115.863 7        44.355                                    22329750.075 5  91436546.94305      -869.509 5        35.543    22329750.085 6  91436617.91106      -869.707 6        38.991
G17        11.000    22901552.322 7 120348957.79907     -2635.375 7        43.791                                    22901516.337 4  93777907.70904     -2053.537 4        24.571    22901517.828 5  93777892.74305     -2053.622 5        33.802
G04        12.000    20561639.268 7 108052179.02607       635.554 7        45.982                                    20561630.744 4  84196425.38404       495.232 4        29.346    20561634.574 6  84196449.38606       495.148 6        41.280
E12        13.000    24460125.253 6 128538868.27606       451.407 6        37.134                                                                    24460123.474 6  95986781.12006       337.067 6        39.688    24460130.246 5  98490857.63105       345.641 5        33.677
E29        14.000    23808943.521 8 125116832.07708     -1846.340 8        50.577                                                                    23808940.804 8  93431393.65408     -1378.738 8        52.230    23808940.716 8  95868779.17708     -1414.698 8        52.144
G06        15.000    23513451.238 7 123564031.81107      2343.999 7        42.493                                    23513445.079 5  96283681.22005      1826.493 5        34.767    23513446.529 6  96283674.22206      1826.581 6        38.817
E11        16.000    28073366.819 5 147526542.61205      2064.541 5        35.500                                                                    28073363.012 6 110165913.41706      1541.738 6        36.692    28073362.836 5 113039835.22305      1582.031 5        34.443
E19        20.000    23546174.578 6 123735988.30106       627.194 6        39.655                                                                    23546172.820 6  92400261.94006       468.223 6        41.793    23546173.284 6  94810690.70606       480.569 6        41.864
R06        21.000    20655526.156 6 110221862.81406     -3450.988 6        37.955
R15        22.000                                                                                                                                    23359892.756 4                     -1199.950 4        28.218
S36        23.000    38320275.209 6 201374426.58406      -851.713 6        36.231
S23        24.000    38267521.658 6 201097141.07306      -847.898 6        40.913
E33        28.000    24040421.553 7 126333255.60407     -2531.732 7        44.293                                                                    24040418.704 7  94339815.72107     -1890.623 7        44.837    24040416.635 7  96800808.79707     -1939.948 7        43.287
E10        29.000    25795443.152 7 135556203.28807      1478.651 7        44.606                                                                    25795441.365 7 101226926.99407      1104.162 7        46.950    25795441.302 8 103867569.21108      1132.974 8        48.295
R21        30.000    22189946.539 6 118743161.02306     -5160.082 6        36.665                                                                    22189946.275 6  92355597.86806     -4013.572 6        40.296
C20        31.000                                                                                                                                    23295260.662 7 121304689.47407      1089.067 7        44.951                                                                    23295254.471 7  98569851.75907       884.978 7        44.384
C25        32.000                                                                                                                                    25503068.321 4                      -815.434 4        27.772
R23        33.000    21206657.103 8 113441265.06108      2138.497 8        50.708
R07        34.000    19502192.372 8 104396722.55308      -342.153 8        49.485                                                                    19502188.090 5  81197486.98205      -266.132 5        32.605
R22        35.000    19555974.629 8 104391122.35408     -1587.685 8        51.438                                                                    19555971.333 7  81193082.79007     -1234.956 7        44.579
C32        36.000                                                                                                                                    22153551.524 8 115359318.46408     -1787.832 8        50.782                                                                    22153550.806 7  93738944.11107     -1452.673 7        47.097
C30        38.000                                                                                                                                    23518024.534 7 122464508.73807     -3497.239 7        42.751                                                                    23518019.835 6  99512431.86306     -2841.755 6        40.012
C35        41.000                                                                                                                                                                                                                                                                    26778671.888 5                      1695.167 5        33.293
C16        45.000                                                                                                                                    38849974.481 5 202302122.68605      -972.814 5        32.395                                                                    38849969.381 4                      -790.338 4        29.156
C39        46.000                                                                                                                                    39181095.221 5 204026320.62805     -1400.178 5        35.790                                                                    39181128.377 3                     -1135.206 3        22.000
C09        47.000                                                                                                                                    38715071.468 6 201599538.55506      -356.733 6        39.631    38715067.559 7 155889554.13107      -275.708 7        44.271    38715065.892 7 163816104.38007      -289.715 7        42.277
C41        49.000                                                                                                                                    25761500.833 5 134146891.68305     -3628.977 5        32.186                                                                    25761484.040 3                     -2947.981 3        23.143
C06        50.000                                                                                                                                    38374680.111 6 199827031.13406      -868.331 6        36.771    38374673.904 6 154519048.94306      -671.396 6        38.360    38374673.198 5 162375798.64405      -705.365 5        35.590
C29        54.000                                                                                                                                    23058625.914 6 120072282.73306      -411.474 6        39.414                                                                    23058618.074 6  97568585.52106      -334.281 6        39.237
I09        58.000    37368631.426 5 146642534.87605      -820.609 5        34.038
> 2025 01 02 02 00 25.0000000  0 37
G03         1.000    20192721.907 7 106113453.98107     -1659.213 7        46.049                                    20192719.238 7  82685818.39407     -1292.892 7        44.594    20192721.038 7  82685845.41207     -1292.853 7        44.507
G19         2.000    22399132.048 7 117708191.70507      -942.640 7        43.247                                    22399122.120 2  91720625.29902      -734.522 2        17.962
G28         3.000    23829695.161 5                     -2796.027 5        32.832
G02         4.000    22792241.866 7 119774123.97607     -3764.785 7        45.157                                    22792238.898 4  93330453.77104     -2933.599 4        28.246
E07         5.000    27696182.528 3                     -3649.406 3        20.048                                                                    27696184.864 4                     -2726.803 4        25.083
G09         6.000    22090762.023 6 116087654.73206      2108.912 6        37.667                                    22090745.611 4  90457924.61404      1643.306 4        27.389    22090748.807 6  90457910.59406      1643.386 6        37.051
G21         8.000    24527065.052 4                     -4092.376 4        27.880
G31        10.000    22330818.774 7 117349257.34507     -1118.814 7        45.026                                    22330812.890 5  91440899.72905      -871.807 5        35.395    22330813.738 6  91440970.68606      -871.950 6        39.180
G17        11.000    22904059.625 7 120362138.65007     -2637.096 7        42.402                                    22904025.024 4  93788178.50204     -2054.884 4        24.992    22904026.178 5  93788163.51205     -2054.824 5        33.018
G04        12.000    20561034.881 7 108049005.86607       633.544 7        46.696                                    20561027.298 5  84193952.80405       493.667 5        30.302    20561030.867 7  84193976.80107       493.526 7        42.290
E12        13.000    24459697.523 6 128536613.46106       450.260 6        36.594                                                                    24459694.085 6  95985097.31606       336.313 6        39.009    24459703.177 5  98489129.89205       345.102 5        33.359
E29        14.000    23810700.458 8 125126065.82108     -1847.416 8        50.180                                                                    23810697.878 8  93438288.99208     -1379.521 8        52.096    23810697.866 8  95875854.39308     -1415.549 8        52.102
G06        15.000    23511220.021 7 123552312.83807      2343.497 7        43.560                                    23511215.085 5  96274549.55105      1826.109 5        34.995    23511215.846 6  96274542.55506      1826.075 6        38.520
E11        16.000    28071402.045 5 147516217.68405      2064.915 5        34.443                                                                    28071398.370 6 110158203.22506      1541.981 6        36.696    28071397.759 5 113031923.93705      1582.074 5        34.786
R08        18.000    22268620.452 5 119247381.67515      2283.846 5        31.774
E19        20.000    23545578.586 6 123732854.80606       625.965 6        38.997                                                                    23545576.619 6  92397921.98806       467.401 6        41.628    23545577.332 6  94808289.72606       479.548 6        41.998
R06        21.000    20658759.880 6 110239119.08506     -3451.681 6        38.192
R15        22.000                                                                                                                                    23361334.501 4                     -1203.201 4        27.054
S36        23.000    38321085.239 6 201378683.85506      -851.193 6        36.522
S23        24.000    38268329.219 6 201101378.64806      -847.360 6        40.927
E33        28.000    24042831.150 7 126345916.96907     -2533.041 7        44.253                                                                    24042828.200 7  94349270.62507     -1891.554 7        44.760    24042826.170 7  96810510.36507     -1940.829 7        43.486
E10        29.000    25794036.438 7 135548810.45907      1478.136 7        44.209                                                                    25794034.505 7 101221406.37007      1103.880 7        46.643    25794034.434 8 103861904.56908      1132.637 8        48.265
R21        30.000    22194766.887 6 118768964.42406     -5161.341 6        37.815                                                                    22194768.078 6  92375667.16106     -4014.444 6        40.298
C20        31.000                                                                                                                                    23294212.999 7 121299245.48807      1088.307 7        44.504                                                                    23294209.160 7  98565428.07507       884.301 7        44.474
R23        33.000    21204658.486 8 113430578.46508      2135.986 8        50.135
R07        34.000    19502512.914 8 104398438.03808      -344.289 8        49.285                                                                    19502507.450 5  81198821.28705      -267.805 5        34.805
R22        35.000    19557463.764 8 104399069.80808     -1591.530 8        52.053                                                                    19557459.777 7  81199264.13807     -1237.849 7        43.765
C32        36.000                                                                                                                                    22155268.622 8 115368258.93508     -1788.635 8        51.003                                                                    22155267.645 7  93746208.99407     -1453.498 7        47.233
C30        38.000                                                                                                                                    23521383.639 7 122481997.16607     -3498.323 7        44.218                                                                    23521378.338 6  99526642.67706     -2842.761 6        39.745
C35        41.000                                                                                                                                    26776678.312 6 139433120.07316      2085.437 6        36.159                                                                    26776669.098 5                      1694.441 5        33.611
C16        45.000                                                                                                                                    38850907.623 5 202306986.37405      -972.901 5        31.608                                                                    38850904.303 4                      -790.781 4        29.640
C39        46.000                                                                                                                                    39182439.095 6 204033321.61506     -1400.299 6        36.238
C09        47.000                                                                                                                                    38715414.239 6 201601321.57406      -356.841 6        40.169    38715409.827 7 155890932.87407      -275.866 7        44.051    38715408.212 7 163817553.25907      -290.039 7        42.396
C41        49.000                                                                                                                                    25764983.448 5 134165034.35005     -3628.277 5        33.371                                                                    25764967.425 4                     -2948.767 4        24.030
C06        50.000                                                                                                                                    38375513.434 6 199831373.06406      -868.762 6        37.229    38375508.079 6 154522406.38506      -671.499 6        38.060    38375506.623 5 162379326.82005      -705.689 5        35.695
C29        54.000                                                                                                                                    23059019.394 6 120074345.49306      -413.823 6        39.829                                                                    23059013.879 6  97570261.68806      -336.260 6        39.159
I09        58.000    37369677.191 5 146646635.34905      -820.156 5        34.095
> 2025 01 02 02 00 30.0000000  0 36
G03         1.000    20194301.655 7 106121755.71607     -1661.480 7        45.381                                    20194299.187 7  82692287.28107     -1294.660 7        45.117    20194300.952 7  82692314.30007     -1294.723 7        44.766
G19         2.000    22400029.067 7 117712915.24507      -946.602 7        42.853                                    22400021.135 3  91724305.99703      -737.612 3        18.716
G02         4.000    22795825.110 7 119792952.14307     -3766.465 7        45.207                                    22795821.714 4  93345125.06104     -2934.918 4        27.401
E07         5.000                                                                                                                                    27699660.911 4                     -2727.582 4        24.632
G09         6.000    22088758.373 6 116077115.26206      2106.986 6        36.760                                    22088741.126 4  90449712.05104      1641.810 4        28.370    22088744.179 6  90449698.04906      1641.839 6        37.716
G21         8.000    24530957.005 4                     -4092.744 4        27.653
G31        10.000    22331884.678 7 117354861.42107     -1122.785 7        45.011                                    22331879.251 5  91445266.56005      -874.902 5        35.333    22331880.143 6  91445337.51906      -874.860 6        38.976
G17        11.000    22906563.864 6 120375331.18406     -2639.863 6        38.982                                    22906535.648 4  93798458.36304     -2057.035 4        24.180    22906536.918 5  93798443.40005     -2057.111 5        31.721
G04        12.000    20560433.373 7 108045845.62807       630.659 7        46.851                                    20560426.518 5  84191490.29605       491.420 5        31.396    20560429.481 7  84191514.29507       491.400 7        42.760
E12        13.000    24459271.350 6 128534367.15006       448.325 6        37.138                                                                    24459266.620 6  95983419.86506       334.825 6        38.375    24459277.078 5  98487408.68405       343.404 5        32.880
E29        14.000    23812458.996 8 125135308.06108     -1849.456 8        49.896                                                                    23812456.544 8  93445190.66808     -1381.052 8        52.149    23812456.651 8  95882936.11308     -1417.062 8        52.170
G06        15.000    23508991.163 7 123540599.79207      2341.936 7        44.375                                    23508986.245 5  96265422.50305      1824.882 5        35.376    23508987.124 6  96265415.50506      1824.988 6        37.822
E11        16.000    28069437.443 5 147505893.71405      2064.627 5        34.267                                                                    28069433.866 6 110150493.77906      1541.529 6        36.359    28069433.649 5 113024013.36105      1581.815 5        35.114
E19        20.000    23544984.184 6 123729729.96606       623.851 6        38.523                                                                    23544982.073 6  92395588.49106       465.846 6        41.685    23544983.036 7  94805895.35407       478.080 7        42.326
R06        21.000    20661994.333 6 110256382.94206     -3453.706 6        37.474
R15        22.000                                                                                                                                    23362776.366 4                     -1206.033 4        27.162
