     3.04           OBSERVATION DATA    M                   RINEX VERSION / TYPE
ssrcrin-15.6.1x                         20250102 193000 UTC PGM / RUN BY / DATE 
(00000000023479385599111004) Septentrio proprietary         COMMENT             
ract                                                        MARKER NAME         
01                                                          MARKER NUMBER       
geodetic                                                    MARKER TYPE         
NFB                 CLIMERS@TUW                             OBSERVER / AGENCY   
3296359             SEPT ASTERX SB3 PROB4.14.4              REC # / TYPE / VERS 
Unknown             Unknown                                 ANT # / TYPE        
  4127447.4847  1206915.2859  4695544.4666                  APPROX POSITION XYZ 
        0.0000        0.0000        0.0000                  ANTENNA: DELTA H/E/N
G   23 X1  C1C L1C D1C S1C C1W S1W C2W L2W D2W S2W C2L L2L  SYS / # / OBS TYPES 
       D2L S2L C5Q L5Q D5Q S5Q C1L L1L D1L S1L              SYS / # / OBS TYPES 
E   21 X1  C1C L1C D1C S1C C6C L6C D6C S6C C5Q L5Q D5Q S5Q  SYS / # / OBS TYPES 
       C7Q L7Q D7Q S7Q C8Q L8Q D8Q S8Q                      SYS / # / OBS TYPES 
S    9 X1  C1C L1C D1C S1C C5I L5I D5I S5I                  SYS / # / OBS TYPES 
R   17 X1  C1C L1C D1C S1C C2P L2P D2P S2P C2C L2C D2C S2C  SYS / # / OBS TYPES 
       C3Q L3Q D3Q S3Q                                      SYS / # / OBS TYPES 
C   25 X1  C1P L1P D1P S1P C5P L5P D5P S5P C2I L2I D2I S2I  SYS / # / OBS TYPES 
       C7I L7I D7I S7I C6I L6I D6I S6I C7D L7D D7D S7D      SYS / # / OBS TYPES 
J   17 X1  C1C L1C D1C S1C C2L L2L D2L S2L C5Q L5Q D5Q S5Q  SYS / # / OBS TYPES 
       C1L L1L D1L S1L                                      SYS / # / OBS TYPES 
I    5 X1  C5A L5A D5A S5A                                  SYS / # / OBS TYPES 
SEPTENTRIO RECEIVERS OUTPUT ALIGNED CARRIER PHASES.         COMMENT             
NO FURTHER PHASE SHIFT APPLIED IN THE RINEX ENCODER.        COMMENT             
G L1C                                                       SYS / PHASE SHIFT   
G L2W                                                       SYS / PHASE SHIFT   
G L2L  0.00000                                              SYS / PHASE SHIFT   
G L5Q  0.00000                                              SYS / PHASE SHIFT   
G L1L  0.00000                                              SYS / PHASE SHIFT   
E L1C  0.00000                                              SYS / PHASE SHIFT   
E L6C  0.00000                                              SYS / PHASE SHIFT   
E L5Q  0.00000                                              SYS / PHASE SHIFT   
E L7Q  0.00000                                              SYS / PHASE SHIFT   
E L8Q  0.00000                                              SYS / PHASE SHIFT   
S L1C                                                       SYS / PHASE SHIFT   
S L5I                                                       SYS / PHASE SHIFT   
R L1C                                                       SYS / PHASE SHIFT   
R L2P  0.00000                                              SYS / PHASE SHIFT   
R L2C                                                       SYS / PHASE SHIFT   
R L3Q  0.00000                                              SYS / PHASE SHIFT   
C L1P  0.00000                                              SYS / PHASE SHIFT   
C L5P  0.00000                                              SYS / PHASE SHIFT   
C L2I                                                       SYS / PHASE SHIFT   
C L7I                                                       SYS / PHASE SHIFT   
C L6I                                                       SYS / PHASE SHIFT   
C L7D                                                       SYS / PHASE SHIFT   
J L1C                                                       SYS / PHASE SHIFT   
J L2L  0.00000                                              SYS / PHASE SHIFT   
J L5Q  0.00000                                              SYS / PHASE SHIFT   
J L1L  0.00000                                              SYS / PHASE SHIFT   
I L5A                                                       SYS / PHASE SHIFT   
  2025     1     2    19    30    0.0000000     GPS         TIME OF FIRST OBS   
 C1C    0.000 C2C    0.000 C2P    0.000                     GLONASS COD/PHS/BIS 
DBHZ                                                        SIGNAL STRENGTH UNIT
    18                                                      LEAP SECONDS        
 24 R01  1 R02 -4 R03  5 R04  6 R05  1 R06 -4 R07  5 R08  6 GLONASS SLOT / FRQ #
    R09 -2 R10 -7 R11  0 R12 -1 R13 -2 R14 -7 R15  0 R16 -1 GLONASS SLOT / FRQ #
    R17  4 R18 -3 R19  3 R20  2 R21  4 R22 -3 R23  3 R24  2 GLONASS SLOT / FRQ #
                                                            END OF HEADER       
> 2025 01 02 19 30  0.0000000  0 38
G10         1.000    22234677.293 5 116844372.26405      1846.281 5        35.214                                    22234677.278 4  91047337.70404      1438.664 4        28.246    22234677.881 5  91047363.79305      1438.594 5        32.006
G23         2.000    21043813.587 6 110585988.45406      -639.211 6        41.573                                    21043811.494 3  86170920.41403      -498.091 3        23.524    21043810.741 6  86170946.42106      -498.065 6        40.396
G08         5.000    23113104.190 5 121460247.32705      2214.916 5        33.234                                    23113095.252 3  94644280.85503      1725.900 3        20.381    23113093.933 5  94644256.86105      1726.014 5        33.689
G07         8.000    25305131.008 6 132979346.36706      -680.711 6        40.410                                                                                                    25305126.223 6 103620295.56106      -530.397 6        36.291
G18        12.000    22390035.501 7 117660656.29907     -3416.792 7        47.705                                    22390031.757 5  91683505.99405     -2662.439 5        32.467    22390031.880 7  91683706.01007     -2662.395 7        44.650
G27        13.000    20785835.981 7 109230936.28207       782.711 7        45.705                                    20785828.204 3  85114524.09203       609.897 3        21.429    20785845.299 4                       610.183 4        25.444
E27        14.000    26589977.501 7 139731338.06807      1377.912 7        45.741                                                                    26589977.380 7 104344799.28307      1029.048 7        46.953    26589977.575 8 107066878.82208      1055.780 8        48.549
E15        16.000    26653350.929 5 140064287.19205      1558.204 5        34.557                                                                    26653347.649 4 104593450.47904      1164.048 4        27.760    26653345.595 6 107321966.77806      1194.074 6        39.465
G26        17.000    22749170.933 5 119547656.21505     -4049.917 5        30.664                                    22749156.658 2  93154033.11302     -3155.771 2        16.113
E30        19.000    24318191.164 7 127792953.93407     -1208.540 7        44.600                                                                    24318190.164 8  95429844.77908      -902.493 8        49.388    24318189.823 8  97919311.55608      -925.998 8        49.896
R20        20.000    19951142.824 6 106687711.52606        26.465 6        38.321                                                                    19951144.743 6  82979346.17106        20.785 6        38.595
E02        21.000    25613450.882 6 134599694.87706     -3660.754 6        41.125                                                                    25613445.606 6 100512678.38706     -2733.729 6        38.715    25613445.064 6 103134842.40306     -2805.073 6        38.177
S23        22.000    38350311.353 6 201532264.66706      -865.008 6        40.717
R10        23.000    20808757.013 6 110922381.11906     -2912.433 6        36.514
E36        24.000    24917593.579 7 130942917.40207     -2761.721 7        44.787                                                                    24917593.121 6  97782172.68106     -2062.296 6        39.504    24917599.574 4 100332995.01904     -2116.272 4        28.825
G16        26.000    21060908.937 5 110675831.10705     -2440.406 5        35.143                                    21060904.312 4  86240895.67204     -1901.618 4        24.316
S21        27.000    38623673.373 5 202969048.94005      -864.590 5        32.569
C22        28.000                                                                                                                                    25353008.309 5 132019766.39005     -2463.440 5        34.929                                                                    25352998.822 5 107276826.72005     -2001.629 5        30.181
R19        29.000    21568470.449 5 115376795.39505     -3588.298 5        32.707                                                                    21568465.607 6  89737457.62906     -2790.718 6        37.996
S36        31.000    38393476.243 6 201759054.60206      -863.961 6        36.302
E34        32.000    23579916.724 7 123913313.96907      -327.984 7        47.063                                                                    23579917.074 8  92532674.48108      -244.962 8        49.584    23579916.237 8  94946629.64608      -251.302 8        48.212
R11        33.000    21772387.427 5                      1227.700 5        34.876                                                                    21772367.048 6  90490821.00706       954.691 6        39.715
C38        35.000                                                                                                                                    40041053.629 5                     -2060.655 5        30.619                                                                    40041022.025 4                     -1674.527 4        28.796
C08        36.000                                                                                                                                    38616983.812 5                     -1881.184 5        31.698    38616961.290 6 155494556.69706     -1454.582 6        38.553    38616957.683 5 163401014.29705     -1528.630 5        32.557
R09        37.000    22657306.093 6 120988768.80806     -5174.140 6        38.622                                                                    22657305.610 5  94102361.95805     -4024.531 5        34.700
C11        38.000                                                                                                                                    21748714.301 7 113251253.52407      -872.789 7        46.088    21748709.712 7  87573107.73907      -674.862 7        44.155    21748709.889 7  92025891.26307      -709.183 7        44.110
R04        40.000    21580461.426 6 115562339.50006      1024.114 6        38.492                                                                    21580454.070 5  89881833.42605       796.301 5        32.030
C12        41.000                                                                                                                                    24234893.145 5 126197576.34605     -3182.744 5        34.029    24234891.328 7  97583851.35407     -2461.100 7        46.282    24234888.181 5 102545746.94505     -2586.186 5        35.462
C13        43.000                                                                                                                                    38255574.896 6 199206823.35606     -1617.585 6        37.932    38255574.205 5 154039331.73005     -1250.771 5        35.224    38255573.199 5 161871923.58705     -1314.506 5        34.843
C25        45.000                                                                                                                                    25416962.890 5 132352794.98805     -4038.053 5        32.940                                                                    25416957.055 6 107547462.79706     -3281.519 6        39.408
C21        46.000                                                                                                                                    24090728.470 5 125446741.98505       372.864 5        35.652                                                                    24090726.908 5 101935754.77205       302.853 5        31.502
C23        47.000                                                                                                                                    24322227.373 5 126652090.60605     -2216.520 5        33.988                                                                    24322220.427 6 102915349.73106     -1801.042 6        41.442
C43        48.000                                                                                                                                    22182375.912 8 115509543.82108       358.598 8        49.817                                                                    22182375.807 7  93860930.35007       291.353 7        43.591
C42        50.000                                                                                                                                    25316413.779 5 131829208.18405      2356.541 5        32.665
C34        52.000                                                                                                                                    22106043.285 7 115112042.17107     -2134.804 7        47.895                                                                    22106043.555 7  93538046.09207     -1734.735 7        45.603
C37        54.000                                                                                                                                    25730799.986 5 133987096.00405       469.081 5        33.096                                                                    25730795.262 6 108875404.08006       381.207 6        40.377
I09        57.000    39109915.803 5 153475708.43105       122.843 5        34.733
I06        58.000    38852552.416 5 152465892.06605      -587.574 5        34.452
> 2025 01 02 19 30  5.0000000  0 39
G10         1.000    22232921.993 6 116835145.95406      1844.141 6        36.439                                    22232921.393 4  91040148.36004      1437.005 4        26.479    22232923.952 5  91040174.40005      1437.309 5        31.464
G23         2.000    21044424.001 7 110589192.28207      -642.418 7        43.154                                    21044421.638 3  86173416.91703      -500.577 3        22.933    21044419.619 6  86173442.92906      -500.744 6        38.928
G08         5.000    23110996.855 5 121449173.64305      2214.960 5        30.121                                    23110987.454 3  94635652.07203      1725.937 3        21.500    23110986.919 5  94635628.04805      1725.521 5        34.295
G07         8.000    25305780.720 6 132982756.44206      -683.401 6        40.872                                                                                                    25305774.990 6 103622952.73606      -532.255 6        37.225
G18        12.000    22393286.591 7 117677742.79207     -3417.828 7        47.793                                    22393283.758 5  91696820.14405     -2663.245 5        32.491    22393283.166 7  91697020.16007     -2663.330 7        44.758
G27        13.000    20785091.652 7 109227027.83607       780.752 7        44.072                                    20785085.972 3  85111478.57903       608.370 3        22.457    20785086.522 3                       606.803 3        21.452
E27        14.000    26588667.215 7 139724451.97807      1376.584 7        45.696                                                                    26588667.008 7 104339657.08907      1027.961 7        47.001    26588667.028 8 107061602.47708      1054.687 8        48.290
E15        16.000    26651867.486 5 140056497.39505      1557.446 5        35.895                                                                    26651876.502 4 104587633.63304      1162.808 4        28.019    26651862.519 6 107315998.00906      1193.399 6        38.997
G26        17.000    22753027.587 4 119567908.65604     -4051.252 4        29.156                                    22753010.316 2  93169814.19602     -3156.823 2        15.286
E30        19.000    24319341.752 7 127799002.20307     -1210.740 7        44.926                                                                    24319340.996 8  95434361.34108      -904.213 8        49.202    24319340.597 8  97923945.93008      -927.780 8        49.673
R20        20.000    19951120.011 6 106687583.86606        24.525 6        38.655                                                                    19951121.317 6  82979246.87506        18.933 6        38.270
E02        21.000    25616934.607 6 134618001.85006     -3661.979 6        40.994                                                                    25616929.255 6 100526349.17106     -2734.547 6        37.924    25616928.826 6 103148869.82206     -2805.944 6        38.489
S23        22.000    38351130.550 6 201536589.74106      -864.881 6        40.384
R10        23.000    20811492.081 6 110936952.76106     -2916.198 6        36.934
E36        24.000    24920221.550 7 130956728.04907     -2762.430 7        44.859                                                                    24920221.138 6  97792485.83806     -2063.077 6        38.979
G16        26.000    21063232.907 6 110688040.62606     -2443.645 6        36.000                                    21063227.566 3  86250409.60403     -1904.159 3        23.143
S21        27.000    38624500.329 5 202973371.58105      -864.169 5        33.401
C22        28.000                                                                                                                                    25355377.294 5 132032089.94005     -2465.931 5        35.967                                                                    25355369.637 4 107286840.70604     -2003.519 4        28.995
R19        29.000    21571820.616 5 115394737.86405     -3589.149 5        30.717                                                                    21571820.050 6  89751412.92706     -2791.482 6        38.153
S36        31.000    38394301.083 5 201763373.39005      -864.002 5        35.762
E34        32.000    23580229.887 7 123914957.81507      -329.507 7        47.132                                                                    23580229.880 8  92533902.01808      -246.039 8        49.794    23580229.102 8  94947889.21408      -252.463 8        48.136
R11        33.000    21771236.914 6 116338925.17316      1223.650 6        37.108                                                                    21771219.638 6  90486054.85706       951.766 6        39.399
C38        35.000                                                                                                                                    40043028.959 5                     -2060.819 5        31.819                                                                    40043000.669 4                     -1674.469 4        29.782
C08        36.000                                                                                                                                    38618788.827 5                     -1881.695 5        33.551    38618767.921 6 155501830.59006     -1454.887 6        38.159    38618763.498 5 163408658.05805     -1529.264 5        31.268
R09        37.000    22662151.863 6 121014642.21006     -5175.308 6        39.072                                                                    22662151.149 5  94122485.69605     -4025.137 5        33.599
C11        38.000                                                                                                                                    21749553.402 7 113255620.61607      -874.051 7        46.259    21749547.908 7  87576484.65407      -675.893 7        43.659    21749548.517 7  92029439.89707      -710.301 7        44.239
R21        39.000    23331994.248 4                      2290.674 4        26.323
R04        40.000    21579506.542 6 115557228.64106      1020.357 6        39.865                                                                    21579500.019 5  89877858.33405       793.436 5        33.012
C12        41.000                                                                                                                                    24237949.584 5 126213491.59805     -3183.423 5        33.317    24237948.025 7  97596158.03307     -2461.574 7        46.581    24237944.763 5 102558679.37905     -2586.798 5        35.676
C13        43.000                                                                                                                                    38257127.530 6 199214912.07906     -1617.897 6        38.036    38257127.219 6 154045586.43106     -1251.039 6        36.087    38257126.311 5 161878496.35405     -1314.744 5        34.833
C25        45.000                                                                                                                                    25420842.469 5 132372987.80805     -4038.734 5        34.638                                                                    25420835.047 6 107563871.14406     -3281.774 6        39.465
C21        46.000                                                                                                                                    24090372.290 6 125444884.23006       370.371 6        37.338                                                                    24090368.693 5 101934245.22605       300.864 5        30.181
C23        47.000                                                                                                                                    24324355.275 5 126663178.94005     -2218.753 5        32.090                                                                    24324349.355 6 102924359.90706     -1802.979 6        41.707
C43        48.000                                                                                                                                    22182032.215 8 115507753.61308       357.350 8        49.477                                                                    22182031.788 7  93859475.68007       290.274 7        43.568
C42        50.000                                                                                                                                    25314147.979 5 131817426.52205      2355.563 5        30.883
C34        52.000                                                                                                                                    22108093.208 7 115122719.50507     -2136.105 7        47.323                                                                    22108093.963 7  93546722.31507     -1735.782 7        45.672
C37        54.000                                                                                                                                    25730348.423 5 133984756.39605       466.521 5        32.533                                                                    25730345.838 6 108873502.93106       379.194 6        40.122
I09        57.000    39109759.354 5 153475095.05305       122.303 5        35.252
I06        58.000    38853301.702 5 152468829.52505      -587.663 5        34.771
> 2025 01 02 19 30 10.0000000  0 40
G10         1.000    21931378.864 6 115250508.66706      1841.905 6        39.814                                    21931374.883 4  89805366.03404      1435.256 4        25.383    21931377.081 5  89805392.14905      1435.082 5        30.989
G23         2.000    20745244.583 7 109016993.91707      -646.029 7        43.628                                    20745242.302 3  84948327.30103      -503.396 3        22.152    20745239.121 6  84948353.32806      -503.745 6        37.108
G08         5.000    22809087.616 3                      2214.044 3        21.881                                                                                                    22809087.772 5  93399401.06705      1724.693 5        34.814
G07         8.000    25006640.284 6 131410761.15006      -686.421 6        40.224                                                                                                    25006634.947 6 102398021.35006      -534.840 6        38.165
G18        12.000    22096747.673 8 116119418.98608     -3419.389 8        48.157                                    22096745.246 5  90482541.85805     -2664.460 5        32.940    22096743.991 7  90482741.86507     -2664.467 7        44.921
G27        13.000    20484556.841 7 107647709.50507       778.195 7        43.568                                    20484552.182 3  83880840.96003       606.386 3        23.048
E27        14.000    26287565.546 7 138142152.16307      1374.715 7        45.470                                                                    26287565.383 7 103158069.56607      1026.542 7        46.830    26287565.447 8 105849190.92508      1053.360 8        48.331
R03        15.000    22326990.574 6 119518593.18116     -2556.764 6        40.155                                                                    22327048.290 3                     -1987.932 3        20.167
E15        16.000    26350592.610 6 138473290.43506      1556.623 6        36.752                                                                    26350604.457 4 103405368.80404      1161.552 4        25.895    26350587.903 6 106102891.40306      1192.589 6        38.429
G26        17.000    22457092.769 4 118012753.12904     -4053.718 4        25.308                                    22457073.756 2  91958004.60002     -3158.694 2        13.879    22457064.083 5  91957962.62515     -3158.397 5        30.143
E30        19.000    24020702.634 7 126229643.87507     -1213.421 7        45.553                                                                    24020702.088 8  94262437.90908      -906.148 8        48.948    24020701.536 8  96721450.58108      -929.747 8        49.399
R20        20.000    19651304.688 6 105084341.86006        22.109 6        38.727                                                                    19651307.167 6  81732280.91106        17.025 6        37.584
E02        21.000    25320627.194 6 133060898.66006     -3663.502 6        40.594                                                                    25320622.715 6  99363577.32206     -2735.961 6        37.701    25320622.089 6 101955764.78006     -2807.133 6        39.036
S23        22.000    38052162.140 6 199965495.98206      -865.227 6        40.548
R10        23.000    20514437.686 5 109353485.30105     -2920.617 5        32.952
E36        24.000    24623058.322 7 129395125.89707     -2763.665 7        44.894                                                                    24623058.504 6  96626354.34406     -2063.792 6        39.318    24623081.112 5  99147024.89005     -2117.402 5        32.030
G16        26.000    20765767.804 6 109124848.62806     -2447.077 6        38.060                                    20765762.230 3  85032337.94003     -1906.816 3        22.095
S21        27.000    38325528.883 5 201402275.50505      -864.841 5        33.216
C22        28.000                                                                                                                                    25057959.044 5 130483331.07405     -2468.861 5        35.871                                                                    25057952.584 4 106028347.30604     -2006.227 4        28.948
R19        29.000    21275383.600 4 113809001.75204     -3589.686 4        29.052                                                                    21275383.281 6  88518062.62606     -2792.343 6        37.887
S36        31.000    38095327.786 6 200192273.93606      -863.943 6        36.049
E34        32.000    23280751.591 7 122341189.82507      -331.306 7        46.993                                                                    23280751.721 8  91358685.66308      -247.389 8        49.853    23280751.033 8  93742015.03808      -253.842 8        48.067
R11        33.000    21470297.102 6 114730816.42306      1219.260 6        40.040                                                                    21470284.557 6  89235303.59006       948.362 6        39.637
C38        35.000                                                                                                                                    39745212.627 5                     -2061.221 5        31.366                                                                    39745187.771 5                     -1674.902 5        30.234
C08        36.000                                                                                                                                    38320804.098 5 199546477.27015     -1882.513 5        34.376    38320783.081 6 154301968.13006     -1455.705 6        37.739    38320777.754 5 162147785.57105     -1529.131 5        30.604
R09        37.000    22367206.582 6 119439651.92406     -5176.721 6        40.098                                                                    22367207.360 5  92897493.21905     -4026.315 5        32.545
C11        38.000                                                                                                                                    21450600.761 7 111698898.05707      -875.793 7        46.784    21450595.989 7  86372728.03007      -677.187 7        43.991    21450596.268 7  90764475.28507      -711.647 7        44.144
R21        39.000    23030057.097 4                      2290.364 4        26.156
R04        40.000    21278765.335 6 113946762.07406      1016.000 6        39.745                                                                    21278758.855 5  88625273.20705       790.339 5        34.433
C12        41.000                                                                                                                                    23941214.199 5 124668315.81905     -3184.303 5        32.994    23941213.283 7  96401330.09507     -2462.349 7        46.883    23941210.638 5 101303097.46405     -2587.393 5        35.481
C13        43.000                                                                                                                                    37958887.991 6 197661907.37506     -1618.798 6        37.365    37958888.460 6 152844704.68706     -1252.089 6        36.113    37958887.967 5 160616552.75605     -1315.147 5        35.076
C25        45.000                                                                                                                                    25124927.816 6 130832088.97206     -4039.421 6        36.261                                                                    25124921.804 6 106311764.61606     -3282.281 6        39.661
C21        46.000                                                                                                                                    23790225.950 6 123881942.01306       367.290 6        38.102                                                                    23790220.435 4 100664226.67704       298.547 4        27.772
C23        47.000                                                                                                                                    24026699.833 5 125113184.25105     -2221.624 5        31.441                                                                    24026688.886 7 101664862.19407     -1805.161 7        42.032
C43        48.000                                                                                                                                    21881897.827 8 113944872.04308       355.806 8        49.265                                                                    21881896.759 7  92589506.36407       289.098 7        43.314
C42        50.000                                                                                                                                    25012092.073 5 130244548.56905      2355.147 5        30.528
C34        52.000                                                                                                                                    21810352.492 7 113572307.93907     -2137.688 7        47.028                                                                    21810353.477 7  92286885.89207     -1736.984 7        45.383
C37        54.000                                                                                                                                    25430106.034 5 132421331.37505       463.844 5        32.144                                                                    25430106.507 6 107603091.99206       376.893 6        40.265
I09        57.000    38809811.360 5 152298032.42105       122.442 5        35.529
I06        58.000    38554257.242 5 151295317.78905      -587.597 5        34.271
> 2025 01 02 19 30 15.0000000  0 41
G10         1.000    21929628.316 7 115241303.58007      1840.047 7        42.150                                    21929623.603 4  89798193.22104      1433.815 4        24.782    21929627.492 5  89798219.34805      1434.053 5        30.596
G23         2.000    20745859.635 7 109020231.53207      -649.006 7        44.020                                    20745857.902 3  84950850.11803      -505.735 3        20.643    20745853.406 5  84950876.14305      -505.751 5        34.176
G08         5.000    22806984.862 5                      2212.586 5        32.784                                                                                                    22806982.341 6  93390778.93606      1724.096 6        36.057
G07         8.000    25007294.044 6 131414198.54706      -688.664 6        39.526                                                                                                    25007289.949 6 102400699.83806      -536.572 6        38.501
G18        12.000    22100001.718 8 116136517.47508     -3420.166 8        48.612                                    22099999.496 5  90495865.35805     -2665.064 5        33.317    22099997.990 7  90496065.35507     -2665.082 7        45.243
G27        13.000    20483818.660 7 107643822.30307       776.456 7        44.065                                    20483812.839 4  83877811.99504       605.041 4        24.602
E27        14.000    26286258.017 7 138135280.79207      1373.706 7        45.753                                                                    26286257.668 7 103152938.35807      1025.770 7        46.747    26286257.947 8 105843925.86808      1052.457 8        48.216
R03        15.000    22329380.197 7 119531385.81407     -2560.547 7        42.626
E15        16.000    26349111.198 5 138465508.87205      1555.912 5        35.462                                                                    26349123.507 4 103399557.88204      1161.576 4        25.023    26349107.068 6 106096928.91506      1192.229 6        38.393
G26        17.000                                                                                                                                                                    22460924.292 4  91973755.49104     -3158.872 4        28.787
E30        19.000    24021857.875 7 126235715.95507     -1215.567 7        45.970                                                                    24021857.453 8  94266972.25308      -907.688 8        48.943    24021856.864 8  96726103.21308      -931.404 8        49.442
R20        20.000    19651284.077 6 105084235.09806        20.362 6        38.901                                                                    19651285.305 6  81732197.84806        15.899 6        36.779
E02        21.000    25324113.429 6 133079217.42806     -3664.209 6        38.937                                                                    25324109.232 6  99377256.91006     -2736.287 6        38.150    25324108.027 6 101969801.22606     -2807.677 6        39.429
S23        22.000    38052985.102 6 199969821.38706      -864.911 6        40.651
R10        23.000    20517172.568 4 109368097.17704     -2923.210 4        24.105
E36        24.000    24625687.856 7 129408944.84007     -2764.085 7        44.789                                                                    24625688.574 6  96636673.66806     -2063.925 6        38.787    24625706.802 5  99157613.34605     -2117.673 5        32.078
G16        26.000    20768096.419 6 109137089.62406     -2449.613 6        38.994                                    20768091.569 3  85041876.40803     -1908.790 3        21.810
S21        27.000    38326354.438 5 201406598.31105      -864.324 5        32.886
C22        28.000                                                                                                                                    25060330.148 5 130495680.22805     -2471.220 5        32.766                                                                    25060329.008 4 106038382.07504     -2007.839 4        27.868
R19        29.000    21278739.607 4 113826954.30204     -3590.504 4        28.531                                                                    21278738.252 6  88532025.67706     -2792.973 6        36.204
S36        31.000    38096145.690 5 200196592.73305      -863.704 5        35.581
E34        32.000    23281067.154 7 122342848.78007      -332.405 7        47.344                                                                    23281067.350 8  91359924.49008      -248.277 8        49.826    23281066.804 8  93743286.17608      -254.696 8        48.254
R11        33.000    21469155.938 6 114724728.61206      1215.531 6        40.276                                                                    21469145.140 6  89230568.65906       945.400 6        39.853
C38        35.000                                                                                                                                    39747190.743 5                     -2061.311 5        31.796                                                                    39747166.594 5                     -1675.247 5        30.128
C08        36.000                                                                                                                                    38322610.069 5 199555889.18105     -1882.502 5        34.762    38322590.070 6 154309245.91706     -1455.507 6        37.357    38322585.398 5 162155433.46305     -1529.855 5        30.709
R09        37.000    22372054.512 6 119465536.86706     -5177.386 6        40.102                                                                    22372053.631 5  92917625.92705     -4027.126 5        31.698
C11        38.000                                                                                                                                    21451442.775 7 111703279.49007      -876.924 7        46.711    21451438.391 7  86376116.03207      -678.053 7        44.193    21451437.628 7  90768035.56607      -712.699 7        44.083
R21        39.000    23027912.024 5                      2289.496 5        33.126                                                                    23027935.744 5                      1780.737 5        30.566
R04        40.000    21277817.398 7 113941691.36207      1012.214 7        42.152                                                                    21277814.385 5  88621329.35605       787.314 5        33.030
C12        41.000                                                                                                                                    23944272.702 5 124684238.08405     -3184.711 5        33.485    23944271.045 7  96413642.20207     -2462.676 7        46.714    23944268.265 5 101316035.62705     -2587.878 5        35.871
C13        43.000                                                                                                                                    37960442.437 6 197670001.48206     -1618.787 6        36.817    37960442.301 6 152850963.55506     -1251.879 6        36.314    37960442.670 5 160623129.93405     -1315.743 5        35.076
C25        45.000                                                                                                                                    25128804.687 6 130852285.90206     -4039.495 6        36.824                                                                    25128800.552 6 106328176.30506     -3282.554 6        39.865
C21        46.000                                                                                                                                    23789874.304 6 123880111.53106       364.854 6        38.147
C23        47.000                                                                                                                                    24028841.869 5 125124297.36405     -2223.574 5        35.310                                                                    24028823.009 7 101673892.59707     -1807.148 7        42.468
C43        48.000                                                                                                                                    21881556.575 7 113943095.26807       354.830 7        47.735                                                                    21881555.331 7  92588062.60207       288.147 7        43.221
C42        50.000                                                                                                                                    25009829.994 5 130232774.60005      2354.468 5        31.872
C28        51.000                                                                                                                                    26490404.992 4                      1954.366 4        25.684
C34        52.000                                                                                                                                    21812406.121 7 113582998.61707     -2138.669 7        46.707                                                                    21812406.308 7  92295572.96907     -1738.058 7        45.160
C37        54.000                                                                                                                                    25429661.188 5 132419017.26305       461.793 5        33.389                                                                    25429662.297 6 107601211.64306       375.014 6        40.584
I09        57.000    38809655.576 5 152297420.44505       122.466 5        35.609
I06        58.000    38555006.207 5 151298255.19205      -587.339 5        34.433
> 2025 01 02 19 30 20.0000000  0 41
G10         1.000    21927877.241 7 115232108.57407      1838.095 7        43.680                                    21927874.729 4  89791028.27704      1432.281 4        24.707    21927881.932 5  89791054.39305      1431.872 5        30.211
G23         2.000    20746478.415 7 109023485.48707      -652.322 7        44.277                                    20746476.251 3  84953385.69903      -508.326 3        18.388    20746469.220 5  84953411.71005      -508.143 5        30.800
G08         5.000    22804880.490 5 119840456.65815      2211.797 5        33.449                                    22804871.107 2  93382134.67612      1723.474 2        17.321    22804879.318 6  93382159.67006      1723.757 6        36.881
G07         8.000    25007950.493 6 131417649.05706      -691.242 6        39.150                                                                                                    25007946.542 6 102403388.53706      -538.750 6        38.426
G18        12.000    22103256.425 8 116153621.37308     -3421.195 8        48.254                                    22103254.726 5  90509193.07005     -2665.866 5        34.119    22103252.812 7  90509393.07107     -2665.917 7        45.511
G27        13.000    20483080.031 7 107639945.13207       774.500 7        43.230                                    20483075.505 4  83874790.84704       603.509 4        25.338
E27        14.000    26284951.640 7 138128416.24307      1372.282 7        45.979                                                                    26284951.351 7 103147812.23607      1024.756 7        46.476    26284951.603 8 105838666.00908      1051.462 8        48.115
R03        15.000    22331782.871 7 119544198.65507     -2564.479 7        43.663
E15        16.000    26347630.461 5 138457730.84805      1555.393 5        34.976                                                                    26347647.895 3                      1160.449 3        23.029    26347627.104 6 106090969.15406      1191.654 6        38.357
G26        17.000    22464820.665 4 118053295.47404     -4055.771 4        28.768                                    22464788.042 1  91989595.88601     -3160.044 1         7.250    22464783.390 4  91989553.87004     -3160.706 4        27.533
E30        19.000    24023015.476 7 126241799.37607     -1217.685 7        45.997                                                                    24023015.133 8  94271515.07308      -909.334 8        48.854    24023014.470 8  96730764.53608      -933.075 8        49.507
R20        20.000    19651266.959 6 105084138.23306        18.556 6        39.661                                                                    19651269.409 6  81732122.55706        14.250 6        38.462
E02        21.000    25327602.444 6 133097541.51306     -3665.203 6        36.136                                                                    25327596.920 6  99390940.46706     -2737.002 6        38.483    25327594.889 6 101983841.73706     -2808.269 6        39.850
S23        22.000    38053806.315 6 199974146.42606      -864.900 6        40.222
R10        23.000    20519921.358 4                     -2928.290 4        26.144
E36        24.000    24628318.031 7 129422767.35907     -2764.761 7        44.813                                                                    24628318.621 6  96646995.66906     -2064.593 6        37.819    24628331.965 5  99168204.58705     -2118.317 5        33.216
G16        26.000    20770427.363 6 109149345.78506     -2452.554 6        39.562                                    20770424.106 3  85051426.68903     -1911.076 3        23.086
S21        27.000    38327174.641 5 201410920.81405      -864.316 5        32.790
C22        28.000                                                                                                                                                                                                                                                                    25062700.411 4 106048426.79504     -2009.931 4        27.545
R19        29.000    21282095.941 4 113844911.08304     -3591.636 4        29.431                                                                    21282094.006 5  88545992.06205     -2793.506 5        34.681
S36        31.000    38096967.780 5 200200910.80805      -863.330 5        35.257
E34        32.000    23281384.419 7 122344514.72807      -333.841 7        47.731                                                                    23281384.347 8  91361168.53908      -249.259 8        49.843    23281383.981 8  93744562.68008      -255.793 8        48.507
R11        33.000    21468018.432 6 114718660.30706      1211.826 6        39.273                                                                    21468009.671 6  89225848.89706       942.446 6        40.937
C38        35.000                                                                                                                                    39749173.895 5                     -2061.498 5        31.155                                                                    39749146.060 4                     -1674.707 4        29.924
C08        36.000                                                                                                                                    38324415.925 5 199565302.89605     -1882.932 5        35.824    38324398.999 6 154316525.21506     -1456.103 6        37.229    38324392.590 5 162163082.88105     -1530.104 5        30.355
R09        37.000    22376903.242 6 119491427.13206     -5178.429 6        40.246                                                                    22376900.754 5  92937762.77405     -4027.428 5        32.473
C11        38.000                                                                                                                                    21452286.271 7 111707667.52407      -878.112 7        46.604    21452281.763 7  86379509.15507      -679.058 7        43.903    21452280.071 7  90771601.18407      -713.599 7        43.903
R21        39.000    23025771.208 5                      2289.145 5        33.856                                                                    23025807.306 4                      1780.951 4        28.275
R04        40.000    21276874.614 6 113936640.08906      1008.267 6        41.607                                                                    21276868.046 5  88617400.54805       784.350 5        32.395
C12        41.000                                                                                                                                    23947331.578 5 124700163.30205     -3185.063 5        33.629    23947329.444 7  96425956.59207     -2463.049 7        46.672    23947326.791 6 101328976.17106     -2588.246 6        36.170
C13        43.000                                                                                                                                    37961997.036 6 197678097.67106     -1619.470 6        36.227    37961996.589 6 152857224.03606     -1252.059 6        36.204    37961997.291 5 160629708.71705     -1315.601 5        35.248
C25        45.000                                                                                                                                    25132683.023 6 130872484.31706     -4039.799 6        36.892                                                                    25132679.532 6 106344589.15506     -3282.635 6        40.017
C21        46.000                                                                                                                                    23789525.922 6 123878294.11806       362.218 6        38.156                                                                    23789515.178 4                       293.913 4        24.992
C23        47.000                                                                                                                                    24030978.552 5 125135422.32005     -2226.021 5        35.352                                                                    24030959.647 7 101682932.60707     -1808.916 7        43.198
C43        48.000                                                                                                                                    21881216.648 7 113941324.65807       353.604 7        46.704                                                                    21881215.124 7  92586623.81707       287.306 7        42.882
C42        50.000                                                                                                                                    25007567.854 5 130221003.91505      2353.878 5        32.832
C28        51.000                                                                                                                                    26488528.243 4                      1955.433 4        26.096
C34        52.000                                                                                                                                    21814460.864 7 113593695.40307     -2139.831 7        46.274                                                                    21814460.292 7  92304264.97207     -1738.963 7        44.954
C37        54.000                                                                                                                                    25429219.419 5 132416715.40705       459.277 5        34.267                                                                    25429220.308 6 107599341.21906       373.042 6        40.717
I09        57.000    38809499.856 5 152296808.75205       122.218 5        35.524
I06        58.000    38555753.234 5 151301192.09505      -587.116 5        34.281
> 2025 01 02 19 30 25.0000000  0 41
G10         1.000    21926129.120 7 115222924.10707      1835.896 7        43.712                                    21926128.073 4  89783871.54104      1430.571 4        24.812    21926137.553 4  89783897.60004      1430.632 4        29.848
G23         2.000    20747101.086 7 109026756.21207      -655.788 7        44.963                                    20747097.440 2  84955934.34602      -511.036 2        16.189
G08         5.000    22802772.987 5 119829399.40905      2210.871 5        33.443                                    22802768.876 3  93373518.66203      1722.769 3        19.164    22802775.878 6  93373543.63906      1722.999 6        36.628
G07         8.000    25008610.594 6 131421113.10206      -694.013 6        40.613                                                                                                    25008604.800 6 102406087.76106      -540.584 6        38.363
G18        12.000    22106511.812 7 116170731.13407     -3422.441 7        47.682                                    22106510.961 5  90522525.35605     -2666.838 5        34.448    22106508.967 7  90522725.35607     -2666.868 7        45.819
G27        13.000    20482344.040 7 107636078.49907       772.325 7        42.214                                    20482339.972 4  83871777.89904       601.799 4        26.072    20482343.594 4                       601.696 4        29.801
E27        14.000    26283646.874 7 138121558.93307      1370.828 7        45.860                                                                    26283646.453 7 103142691.53507      1023.648 7        46.273    26283646.651 7 105833411.71807      1050.391 7        47.876
R03        15.000    22334189.701 7 119557031.76907     -2568.576 7        43.314                                                                    22334186.422 4                     -1998.561 4        26.443
E15        16.000    26346151.458 5 138449956.82405      1554.562 5        33.078                                                                                                                                    26346148.262 6 106085012.44506      1191.180 6        37.985
G26        17.000                                                                                                                                                                    22468644.286 4  92005358.00404     -3161.602 4        27.174
E30        19.000    24024175.420 7 126247894.59307     -1220.086 7        45.580                                                                    24024175.203 8  94276066.69508      -911.102 8        48.742    24024174.301 8  96735434.89708      -934.880 8        49.481
R20        20.000    19651253.127 6 105084051.76306        16.398 6        40.160                                                                    19651254.817 6  81732055.30006        12.670 6        40.095
E02        21.000    25331094.791 5 133115871.38505     -3666.279 5        34.281                                                                    25331084.809 6  99404628.34106     -2738.022 6        38.730    25331083.046 6 101997886.67206     -2809.240 6        40.067
S23        22.000    38054628.951 6 199978471.53106      -864.911 6        40.048
R10        23.000    20522673.172 4                     -2932.413 4        29.204
E36        24.000    24630949.006 7 129436593.89007     -2765.635 7        44.819                                                                    24630949.420 6  96657320.67006     -2065.190 6        37.550
G16        26.000    20772761.953 6 109161617.57206     -2455.791 6        40.143                                    20772759.559 4  85060989.14004     -1913.603 4        24.662
S21        27.000    38327992.975 5 201415243.44605      -864.238 5        33.054
C22        28.000                                                                                                                                    25065066.032 4 130520415.62304     -2475.544 4        28.967                                                                    25065066.847 4 106058481.67604     -2011.669 4        28.000
R19        29.000    21285454.022 5 113862872.68105     -3592.883 5        30.649                                                                    21285451.800 5  88559962.18305     -2794.602 5        33.269
S36        31.000    38097791.614 5 200205228.87205      -863.525 5        35.671
E34        32.000    23281702.962 7 122346188.10807      -335.285 7        47.616                                                                    23281702.772 8  91362418.14108      -250.374 8        49.964    23281702.550 8  93745844.87508      -256.941 8        48.859
R11        33.000    21466884.104 6 114712612.01006      1207.647 6        38.249                                                                    21466878.289 7  89221144.67407       939.304 7        42.034
C38        35.000                                                                                                                                    39751157.940 5                     -2061.876 5        30.883                                                                    39751126.055 4                     -1675.094 4        29.308
C08        36.000                                                                                                                                    38326222.529 6 199574718.93606     -1883.355 6        37.051    38326207.046 6 154323806.28006     -1456.181 6        37.040    38326200.483 5 162170734.20205     -1530.333 5        30.196
R09        37.000    22381752.776 6 119517322.82806     -5179.654 6        39.712                                                                    22381752.541 5  92957903.89005     -4028.669 5        33.796
C11        38.000                                                                                                                                    21453130.188 7 111712062.64107      -879.672 7        46.197    21453124.941 7  86382907.72807      -680.104 7        43.426    21453123.846 7  90775172.55607      -714.696 7        43.469
R21        39.000    23023629.658 5 123204111.28115      2288.525 5        31.509                                                                    23023675.406 3                      1778.055 3        22.152
R04        40.000    21275937.515 6 113931608.82206      1004.449 6        41.161                                                                    21275923.834 5  88613487.27205       781.403 5        32.096
C12        41.000                                                                                                                                    23950389.652 5 124716091.93005     -3185.777 5        32.216    23950388.701 7  96438273.62107     -2463.559 7        46.789    23950386.191 5 101341919.49605     -2588.960 5        35.967
C13        43.000                                                                                                                                    37963551.703 6 197686196.45306     -1619.998 6        36.166    37963551.578 6 152863486.53406     -1252.844 6        36.212    37963552.598 5 160636289.63405     -1316.435 5        35.071
