     3.04           OBSERVATION DATA    M                   RINEX VERSION / TYPE
ssrcrin-15.6.1x                         20250102 181500 UTC PGM / RUN BY / DATE 
(00000000023479385599111004) Septentrio proprietary         COMMENT             
ract                                                        MARKER NAME         
01                                                          MARKER NUMBER       
geodetic                                                    MARKER TYPE         
NFB                 CLIMERS@TUW                             OBSERVER / AGENCY   
3296359             SEPT ASTERX SB3 PROB4.14.4              REC # / TYPE / VERS 
Unknown             Unknown                                 ANT # / TYPE        
  4127446.6075  1206914.6213  4695543.4179                  APPROX POSITION XYZ 
        0.0000        0.0000        0.0000                  ANTENNA: DELTA H/E/N
G   23 X1  C1C L1C D1C S1C C1W S1W C2W L2W D2W S2W C2L L2L  SYS / # / OBS TYPES 
       D2L S2L C5Q L5Q D5Q S5Q C1L L1L D1L S1L              SYS / # / OBS TYPES 
E   21 X1  C1C L1C D1C S1C C6C L6C D6C S6C C5Q L5Q D5Q S5Q  SYS / # / OBS TYPES 
       C7Q L7Q D7Q S7Q C8Q L8Q D8Q S8Q                      SYS / # / OBS TYPES 
S    9 X1  C1C L1C D1C S1C C5I L5I D5I S5I                  SYS / # / OBS TYPES 
R   17 X1  C1C L1C D1C S1C C2P L2P D2P S2P C2C L2C D2C S2C  SYS / # / OBS TYPES 
       C3Q L3Q D3Q S3Q                                      SYS / # / OBS TYPES 
C   25 X1  C1P L1P D1P S1P C5P L5P D5P S5P C2I L2I D2I S2I  SYS / # / OBS TYPES 
       C7I L7I D7I S7I C6I L6I D6I S6I C7D L7D D7D S7D      SYS / # / OBS TYPES 
J   17 X1  C1C L1C D1C S1C C2L L2L D2L S2L C5Q L5Q D5Q S5Q  SYS / # / OBS TYPES 
       C1L L1L D1L S1L                                      SYS / # / OBS TYPES 
I    5 X1  C5A L5A D5A S5A                                  SYS / # / OBS TYPES 
SEPTENTRIO RECEIVERS OUTPUT ALIGNED CARRIER PHASES.         COMMENT             
NO FURTHER PHASE SHIFT APPLIED IN THE RINEX ENCODER.        COMMENT             
G L1C                                                       SYS / PHASE SHIFT   
G L2W                                                       SYS / PHASE SHIFT   
G L2L  0.00000                                              SYS / PHASE SHIFT   
G L5Q  0.00000                                              SYS / PHASE SHIFT   
G L1L  0.00000                                              SYS / PHASE SHIFT   
E L1C  0.00000                                              SYS / PHASE SHIFT   
E L6C  0.00000                                              SYS / PHASE SHIFT   
E L5Q  0.00000                                              SYS / PHASE SHIFT   
E L7Q  0.00000                                              SYS / PHASE SHIFT   
E L8Q  0.00000                                              SYS / PHASE SHIFT   
S L1C                                                       SYS / PHASE SHIFT   
S L5I                                                       SYS / PHASE SHIFT   
R L1C                                                       SYS / PHASE SHIFT   
R L2P  0.00000                                              SYS / PHASE SHIFT   
R L2C                                                       SYS / PHASE SHIFT   
R L3Q  0.00000                                              SYS / PHASE SHIFT   
C L1P  0.00000                                              SYS / PHASE SHIFT   
C L5P  0.00000                                              SYS / PHASE SHIFT   
C L2I                                                       SYS / PHASE SHIFT   
C L7I                                                       SYS / PHASE SHIFT   
C L6I                                                       SYS / PHASE SHIFT   
C L7D                                                       SYS / PHASE SHIFT   
J L1C                                                       SYS / PHASE SHIFT   
J L2L  0.00000                                              SYS / PHASE SHIFT   
J L5Q  0.00000                                              SYS / PHASE SHIFT   
J L1L  0.00000                                              SYS / PHASE SHIFT   
I L5A                                                       SYS / PHASE SHIFT   
  2025     1     2    18    15    0.0000000     GPS         TIME OF FIRST OBS   
 C1C    0.000 C2C    0.000 C2P    0.000                     GLONASS COD/PHS/BIS 
DBHZ                                                        SIGNAL STRENGTH UNIT
    18                                                      LEAP SECONDS        
 24 R01  1 R02 -4 R03  5 R04  6 R05  1 R06 -4 R07  5 R08  6 GLONASS SLOT / FRQ #
    R09 -2 R10 -7 R11  0 R12 -1 R13 -2 R14 -7 R15  0 R16 -1 GLONASS SLOT / FRQ #
    R17  4 R18 -3 R19  3 R20  2 R21  4 R22 -3 R23  3 R24  2 GLONASS SLOT / FRQ #
                                                            END OF HEADER       
> 2025 01 02 18 15  0.0000000  0 38
G23         2.000    22292822.121 6 117149582.02006      1951.278 6        41.821                                    22292816.760 3  91285355.76103      1520.475 3        21.119    22292818.955 6  91285380.73706      1520.125 6        37.028
G05         4.000    24116946.412 5                     -3584.930 5        30.257                                                                                                    24116966.699 4                     -2793.303 4        25.293
E25         6.000                                                                                                                                    27171270.890 4                     -2885.634 4        25.985
G31         7.000                                                                                                                                                                    24417255.174 4                     -3248.379 4        25.158
E11        10.000    26657276.041 3                     -3531.854 3        22.248                                                                    26657265.557 5 104608842.84305     -2637.525 5        34.990
G18        12.000    20688443.434 6 108718738.87706     -1750.807 6        39.312                                    20688441.697 4  84715779.79304     -1364.255 4        26.012    20688441.085 7  84715979.76707     -1364.321 7        43.287
G27        13.000                                                                                                                                                                    22704074.987 6  92969333.56406      1653.989 6        36.843
E27        14.000    28749487.339 4 151079695.62504      2072.291 4        29.365                                                                    28749496.304 5 112819230.80905      1547.182 5        32.060
G26        17.000    20703232.280 8 108796263.86508     -1888.478 8        49.229                                    20703229.559 7  84776708.48207     -1471.543 7        44.503    20703232.685 6  84776282.48006     -1471.521 6        41.182
R02        18.000                                                                                                                                    23350629.124 3                     -1596.234 3        23.524
E30        19.000    24734338.429 7 129979814.35207       673.001 7        42.957                                                                    24734336.384 7  97063023.81507       502.576 7        43.553    24734337.289 7  99595043.86807       515.703 7        44.349
R20        20.000    21356104.102 4 114200671.51504      1865.487 4        29.204                                                                    21356101.034 6  88822812.28806      1450.737 6        36.741
E02        21.000    23651276.911 8 124288557.39308     -2202.102 8        48.516                                                                    23651274.469 8  92812792.04308     -1644.414 8        48.820    23651275.181 8  95234003.20808     -1687.322 8        50.582
S23        22.000    38208773.736 6 200788484.02606      -865.385 6        40.801
R10        23.000    20630771.121 6 109973658.56906      1059.843 6        40.100
E36        24.000    23577224.741 7 123899174.09407     -1625.341 7        46.220                                                                    23577223.981 7  92522277.66007     -1213.599 7        45.694    23577224.098 7  94935884.18507     -1245.330 7        47.763
R18        25.000    21943349.276 6 117134976.08606     -4178.715 6        36.276
G16        26.000    20841498.422 6 109522811.77106       503.654 6        38.541                                    20841495.600 3  85342438.44703       392.453 3        22.781
S21        27.000    38483145.382 5 202230526.03605      -863.842 5        35.843
C22        28.000                                                                                                                                    24901211.065 4                        53.063 4        28.133                                                                    24901178.379 4 105365069.30104        42.945 4        28.076
R19        29.000    19663138.389 5 105184550.36405     -2155.913 5        35.424                                                                    19663138.103 7  81810510.73607     -1676.745 7        43.850
S36        31.000    38253654.597 6 201024287.00706      -863.167 6        36.662
E34        32.000    24495812.786 7 128726364.06107      1074.266 7        44.432                                                                    24495811.665 7  96126834.01307       802.313 7        42.569    24495808.996 6  98634550.02006       823.055 6        40.272
R16        34.000    22925227.684 4                     -5416.180 4        25.203                                                                    22925213.816 4                     -4212.179 4        25.850
C44        35.000                                                                                                                                    23663865.859 7 123223899.23707     -3276.294 7        44.224                                                                    23663864.698 7 100129549.77407     -2662.240 7        42.736
C08        36.000                                                                                                                                    37833910.542 5 197011104.24705     -1249.840 5        34.590    37833897.306 5 152341456.32105      -966.484 5        30.589    37833901.163 6 160087644.13506     -1015.477 6        36.631
R09        37.000    19767204.429 8 105555861.14708     -2632.039 8        50.063                                                                    19767204.093 7  82099037.50707     -2047.087 7        46.565
C11        38.000                                                                                                                                    22145016.207 8 115314949.10808       410.440 8        48.494    22145012.387 8  89168945.32008       317.423 8        50.634    22145011.231 8  93702817.31908       333.524 8        48.665
C21        40.000                                                                                                                                    25853545.631 3                      2033.629 3        23.562
C12        41.000                                                                                                                                    22400554.297 5 116645545.61705     -2371.303 5        33.006    22400549.514 8  90197828.94408     -1833.405 8        50.431    22400548.749 8  94784140.71108     -1926.604 8        48.971
C13        43.000                                                                                                                                    37707592.906 6 196353340.43506      -980.296 6        41.986    37707594.025 6 151832849.64206      -757.889 6        38.721    37707590.008 6 159553172.79806      -796.432 6        36.556
C38        44.000                                                                                                                                    39008727.357 4                     -1650.050 4        27.245                                                                    39008710.688 3                     -1340.402 3        22.743
C25        45.000                                                                                                                                    22932111.200 6 119413582.22106     -2814.204 6        41.974                                                                    22932107.938 6  97033492.56306     -2286.797 6        40.105
C23        47.000                                                                                                                                    24059573.731 6 125284783.52106       250.764 6        39.943                                                                    24059552.609 6 101803848.44806       203.853 6        39.348
C43        48.000                                                                                                                                    23558985.269 6 122677900.37806      1394.103 6        38.204                                                                    23558985.615 7  99685806.52507      1132.902 7        44.223
C24        51.000                                                                                                                                    25682556.657 3                     -4326.711 3        19.612                                                                    25682534.735 3                     -3515.052 3        21.000
C34        52.000                                                                                                                                    21403966.803 8 111456142.15208      -832.404 8        50.111                                                                    21403965.646 7  90567328.04307      -676.354 7        46.313
I06        58.000    38759680.400 7 152101433.23607      -620.866 7        43.443
> 2025 01 02 18 15  5.0000000  0 39
G23         2.000    22290965.621 6 117139830.70606      1949.388 6        39.766                                    22290962.221 3  91277757.32503      1519.021 3        20.262    22290965.288 6  91277782.32206      1519.112 6        36.454
G05         4.000    24120366.394 4                     -3587.531 4        28.825                                                                                                    24120376.360 4                     -2795.052 4        27.245
E25         6.000                                                                                                                                    27174948.017 4                     -2885.544 4        27.222
G31         7.000    24421242.786 4                     -4168.322 4        29.953                                                                                                    24421216.379 4                     -3248.953 4        24.692
G29         9.000                                                                                                                                                                    23142297.061 3                     -2874.929 3        23.543
E11        10.000    26660636.354 3                     -3531.400 3        19.881                                                                    26660626.405 5 104622031.41005     -2637.974 5        35.457
G18        12.000    20690110.481 6 108727499.52406     -1753.421 6        39.312                                    20690108.338 4  84722606.27404     -1366.288 4        24.797    20690108.037 7  84722806.24307     -1366.283 7        42.876
G27        13.000    22702047.861 5                      2121.649 5        32.263                                                                                                    22702055.505 6  92961066.02606      1653.303 6        36.745
E27        14.000    28747515.334 4 151069337.52304      2072.227 4        29.280                                                                    28747526.324 5 112811495.84105      1547.021 5        31.940
G26        17.000    20705030.595 8 108805714.09808     -1891.438 8        49.236                                    20705028.037 7  84784072.29707     -1473.849 7        44.513    20705031.228 7  84783646.30107     -1473.788 7        42.811
R02        18.000    23352567.741 5 124613473.98415     -2054.265 5        32.725
E30        19.000    24733698.945 7 129976453.55707       671.451 7        42.586                                                                    24733696.703 7  97060514.13407       501.530 7        43.799    24733697.908 7  99592468.72307       514.528 7        45.165
R20        20.000    21354358.762 4 114191350.23104      1863.376 4        28.768                                                                    21354357.908 6  88815562.42206      1449.255 6        36.473
E02        21.000    23653373.039 8 124299572.89208     -2203.925 8        48.748                                                                    23653370.959 8  92821017.91008     -1645.822 8        49.125    23653371.224 8  95242443.65908     -1688.756 8        50.647
S23        22.000    38209596.376 6 200792812.13206      -865.589 6        40.298
R10        23.000    20629779.418 6 109968369.71206      1055.936 6        40.248
E36        24.000    23578771.719 7 123907305.06607     -1626.928 7        46.635                                                                    23578771.354 7  92528349.48007     -1214.870 7        45.849    23578771.359 7  94942114.41207     -1246.645 7        47.737
R18        25.000    21947263.859 5 117155871.03515     -4179.099 5        31.909                                                                    21947262.986 3                     -3251.083 3        23.276
G16        26.000    20841019.837 6 109520300.03706       500.981 6        39.330                                    20841017.691 3  85340481.24403       390.378 3        22.133
S21        27.000    38483971.608 6 202234845.02006      -863.923 6        36.166
C22        28.000                                                                                                                                    24901160.706 5                        50.112 5        32.066                                                                    24901126.657 4 105364860.28404        40.075 4        26.635
R19        29.000    19665154.296 6 105195335.29506     -2157.924 6        36.972                                                                    19665153.450 7  81818899.04607     -1678.565 7        43.054
S36        31.000    38254473.235 6 201028602.80606      -863.041 6        36.669
E34        32.000    24494791.594 7 128720996.41607      1072.856 7        43.903                                                                    24494790.237 7  96122825.71907       801.263 7        42.753    24494787.964 6  98630437.13706       822.153 6        39.432
R16        34.000                                                                                                                                    22930280.026 3                     -4212.764 3        23.162
C44        35.000                                                                                                                                    23667012.149 7 123240282.56907     -3276.932 7        44.328                                                                    23667010.897 7 100142862.56907     -2662.843 7        42.864
C08        36.000                                                                                                                                    37835111.681 5 197017356.98605     -1251.132 5        33.695    37835098.594 5 152346291.33205      -967.355 5        31.766    37835102.130 6 160092724.99506     -1016.660 6        36.764
R09        37.000    19769670.553 8 105569032.22008     -2636.273 8        49.034                                                                    19769670.885 7  82109281.68307     -2050.326 7        46.716
C11        38.000                                                                                                                                    22144623.976 8 115312900.91608       409.069 8        49.024    22144618.711 8  89167361.54008       316.223 8        50.209    22144617.960 8  93701153.00608       332.276 8        48.742
C21        40.000                                                                                                                                    25851592.427 3                      2030.557 3        21.214
C12        41.000                                                                                                                                    22402828.102 5 116657403.84705     -2371.924 5        32.575    22402826.904 8  90206998.50308     -1834.276 8        50.301    22402826.067 8  94793776.52708     -1927.647 8        49.203
C13        43.000                                                                                                                                    37708534.000 6 196358243.64006      -980.992 6        41.774    37708534.300 6 151836641.14706      -758.813 6        38.405    37708531.803 6 159557157.06006      -797.291 6        36.336
C38        44.000                                                                                                                                    39010310.897 4                     -1650.813 4        28.919                                                                    39010294.193 3                     -1342.940 3        21.429
C25        45.000                                                                                                                                    22934815.854 7 119427659.20107     -2816.361 7        42.135                                                                    22934811.713 6  97044931.26606     -2288.700 6        40.551
C23        47.000                                                                                                                                    24059336.329 6 125283536.14206       248.383 6        38.790                                                                    24059312.984 6 101802834.88106       201.594 6        40.005
C43        48.000                                                                                                                                    23557646.596 6 122670932.20606      1393.186 6        38.492                                                                    23557647.437 7  99680144.31707      1132.057 7        44.123
C24        51.000                                                                                                                                                                                                                                                                    25686687.477 3                     -3511.820 3        18.896
C34        52.000                                                                                                                                    21404766.676 8 111460308.26208      -833.901 8        50.492                                                                    21404765.797 7  90570713.34607      -677.686 7        46.508
I06        58.000    38760471.058 7 152104537.52607      -620.802 7        43.244
> 2025 01 02 18 15 10.0000000  0 38
G23         2.000    22289111.221 6 117130089.77406      1947.266 6        38.742                                    22289109.530 3  91270167.03303      1517.350 3        18.597    22289109.568 5  91270191.98505      1517.174 5        34.562
G05         4.000    24123783.877 4                     -3589.829 4        26.754
E25         6.000    27178621.471 3                     -3866.635 3        19.791                                                                    27178625.314 4                     -2886.394 4        27.198
G31         7.000                                                                                                                                                                    24425180.302 4                     -3248.215 4        26.647
G29         9.000    23145807.984 5 121631822.07615     -3690.341 5        34.881                                    23145758.893 1  94778031.57311     -2875.435 1         2.000    23145805.559 3                     -2875.014 3        22.933
E11        10.000    26663996.586 3                     -3533.812 3        20.595                                                                    26663988.281 5 104635221.87705     -2638.346 5        35.510
G18        12.000    20691780.682 6 108736273.01606     -1756.017 6        39.420                                    20691777.424 4  84729442.76004     -1368.328 4        24.180    20691776.886 7  84729642.73007     -1368.244 7        42.027
G27        13.000    22700041.354 5                      2120.703 5        34.290                                                                                                    22700037.927 6  92952802.35606      1652.591 6        37.198
E27        14.000    28745542.152 4 151058980.51904      2071.072 4        27.245                                                                    28745559.001 5 112803761.63805      1546.855 5        32.150
G26        17.000    20706831.514 8 108815179.87908     -1894.760 8        48.420                                    20706829.555 7  84791448.23807     -1476.439 7        44.173    20706831.647 7  84791022.22707     -1476.340 7        42.734
R02        18.000    23354492.007 5                     -2058.919 5        34.667                                                                    23354503.298 3                     -1601.328 3        21.405
E30        19.000    24733060.636 7 129973101.34607       669.554 7        42.356                                                                    24733058.815 7  97058010.86807       499.950 7        44.188    24733060.329 7  99589900.15707       513.026 7        45.943
R20        20.000    21352615.619 5 114182038.88605      1861.435 5        30.966                                                                    21352618.486 6  88808320.27606      1447.503 6        36.053
E02        21.000    23655471.049 8 124310598.37508     -2206.105 8        49.247                                                                    23655469.227 8  92829251.22208     -1647.484 8        49.478    23655469.236 8  95250891.75208     -1690.421 8        50.746
S23        22.000    38210422.208 6 200797140.71706      -865.785 6        40.706
R10        23.000    20628790.437 6 109963100.99506      1051.819 6        39.096
E36        24.000    23580320.503 7 123915445.01607     -1628.946 7        46.962                                                                    23580320.624 7  92534428.00807     -1216.517 7        45.789    23580320.358 7  94948351.51207     -1248.169 7        47.919
R18        25.000    21951173.541 4 117176769.28504     -4180.176 4        29.071
G16        26.000    20840544.633 6 109517803.45306       497.654 6        40.072                                    20840542.393 3  85338535.84503       387.781 3        21.262
S21        27.000    38484793.425 6 202239164.26706      -863.937 6        36.423
C22        28.000                                                                                                                                    24901109.770 5                        47.324 5        33.210                                                                    24901080.193 4 105364662.27004        38.502 4        26.527
R19        29.000    19667174.091 6 105206132.29306     -2160.619 6        36.945                                                                    19667171.274 7  81827296.69707     -1680.499 7        42.322
S36        31.000    38255294.104 5 201032919.10005      -863.438 5        35.162
E34        32.000    24493771.644 7 128715636.66507      1071.203 7        42.747                                                                    24493770.515 7  96118823.31807       799.847 7        43.255    24493768.648 6  98626330.31106       820.786 6        38.754
R16        34.000    22935366.025 3                     -5418.408 3        22.362                                                                    22935352.290 3                     -4213.621 3        20.667
C44        35.000                                                                                                                                    23670159.444 7 123256669.46007     -3277.747 7        44.533                                                                    23670157.765 7 100156178.24007     -2663.474 7        42.760
C08        36.000                                                                                                                                    37836311.961 5 197023614.47105     -1251.960 5        32.988    37836300.600 5 152351130.04105      -968.198 5        32.269    37836303.766 6 160097809.74906     -1017.443 6        37.240
R09        37.000    19772141.632 8 105582224.68308     -2640.689 8        48.937                                                                    19772141.225 7  82119542.50907     -2053.860 7        46.949
C11        38.000                                                                                                                                    22144231.860 8 115310860.23708       407.332 8        49.075    22144226.711 8  89165783.55708       314.972 8        50.252    22144226.074 8  93699494.79108       330.917 8        48.462
C12        41.000                                                                                                                                    22405104.365 5 116669268.37505     -2373.773 5        32.808    22405105.658 8  90216172.92408     -1835.415 8        50.628    22405104.542 8  94803417.45208     -1928.798 8        49.278
C13        43.000                                                                                                                                    37709476.347 6 196363151.57406      -982.154 6        41.688    37709476.037 6 151840436.26306      -759.515 6        38.102    37709474.482 6 159561145.16206      -798.081 6        36.423
C38        44.000                                                                                                                                    39011898.792 4                     -1651.140 4        29.810                                                                    39011877.746 3                     -1345.588 3        20.857
C25        45.000                                                                                                                                    22937521.263 7 119441747.72407     -2818.812 7        42.876                                                                    22937517.549 6  97056379.32706     -2290.676 6        40.772
C23        47.000                                                                                                                                    24059102.406 6 125282302.33106       245.599 6        37.308                                                                    24059076.161 6 101801832.34106       199.045 6        40.091
C43        48.000                                                                                                                                    23556308.831 6 122663969.28106      1392.065 6        39.595                                                                    23556310.122 7  99674486.39907      1131.057 7        43.826
C24        51.000                                                                                                                                                                                                                                                                    25690843.461 3                     -3514.883 3        18.776
C34        52.000                                                                                                                                    21405568.217 8 111464482.66008      -835.787 8        50.249                                                                    21405567.451 7  90574105.38107      -679.225 7        46.378
I06        58.000    38761262.346 7 152107641.84107      -620.974 7        43.329
> 2025 01 02 18 15 15.0000000  0 39
G23         2.000    22287259.013 6 117120359.27006      1945.093 6        37.868                                    22287258.698 2  91262584.85902      1515.672 2        16.528    22287254.654 5  91262609.76905      1515.747 5        33.515
G05         4.000                                                                                                                                                                    24127184.361 4                     -2799.112 4        27.808
E25         6.000    27182296.460 3                     -3863.274 3        19.910                                                                    27182301.945 4                     -2886.928 4        28.246
G31         7.000                                                                                                                                                                    24429148.031 4                     -3248.413 4        25.729
G29         9.000    23149318.731 5 121650274.54005     -3690.973 5        33.515                                    23149270.078 1  94792409.97601     -2876.155 1         2.200    23149318.573 3                     -2876.104 3        21.048
E11        10.000    26667361.446 3                     -3534.712 3        19.254                                                                    26667349.903 5 104648414.31805     -2638.458 5        35.609
G18        12.000    20693452.277 6 108745059.42206     -1758.520 6        40.169                                    20693448.832 3  84736289.29203     -1370.286 3        23.981    20693448.837 6  84736489.26406     -1370.408 6        41.840
G27        13.000    22698022.390 5 119278901.72115      2119.561 5        35.233                                    22698023.220 3  92944610.55113      1651.590 3        22.248    22698020.299 6  92944542.58606      1651.550 6        37.611
E27        14.000    28743572.709 4 151048624.55204      2070.947 4        26.455                                                                    28743589.107 5 112796028.32005      1546.229 5        31.585
R03        15.000                                                                                                                                    22699199.738 3                       939.880 3        21.024
G26        17.000    20708635.587 8 108824661.21308     -1897.760 8        48.381                                    20708634.087 7  84798836.29007     -1478.775 7        44.087    20708635.225 7  84798410.28807     -1478.845 7        42.821
R02        18.000    23356423.903 5 124634062.02615     -2063.136 5        32.922
E30        19.000    24732423.787 6 129969757.71206       667.820 6        40.884                                                                    24732422.705 7  97055513.99607       498.778 7        44.796    24732423.888 7  99587338.15307       511.759 7        45.910
R20        20.000    21350876.887 5 114172737.23005      1859.574 5        31.985                                                                    21350880.243 6  88801085.67806      1446.067 6        36.609
E02        21.000    23657570.917 8 124321633.82008     -2208.101 8        49.733                                                                    23657569.436 8  92837491.97008     -1648.923 8        50.057    23657569.155 8  95259347.48308     -1691.942 8        50.654
S23        22.000    38211241.526 6 200801469.37506      -865.656 6        40.391
R10        23.000    20627805.832 6 109957852.34106      1047.659 6        41.006
E36        24.000    23581870.901 7 123923593.92407     -1630.710 7        47.142                                                                    23581871.460 7  92540513.22707     -1217.713 7        46.194    23581871.133 7  94954595.48407     -1249.524 7        47.798
R18        25.000    21955092.580 4 117197670.78704     -4180.553 4        26.850
G16        26.000    20840073.122 6 109515321.98906       494.877 6        39.682                                    20840069.447 3  85336602.24603       385.597 3        20.619
S21        27.000    38485615.112 6 202243483.72406      -863.928 6        36.072
C22        28.000                                                                                                                                    24901060.877 5                        44.816 5        30.777                                                                    24901038.183 4 105364475.43404        35.922 4        26.898
R19        29.000    19669193.045 6 105216941.20306     -2162.986 6        37.025                                                                    19669192.521 6  81835703.62606     -1682.388 6        40.675
S36        31.000    38256114.777 5 201037235.68405      -863.758 5        35.967
E34        32.000    24492753.039 7 128710284.79807      1069.524 7        42.298                                                                    24492752.542 7  96114826.80007       798.786 7        43.854    24492750.574 6  98622229.53406       819.534 6        38.075
R16        34.000    22940432.431 5                     -5419.171 5        30.891                                                                    22940417.060 3                     -4217.896 3        23.295
C44        35.000                                                                                                                                    23673307.060 7 123273059.91407     -3278.524 7        44.716                                                                    23673305.125 6 100169496.80506     -2664.185 6        41.886
C08        36.000                                                                                                                                    37837514.549 5 197029876.85405     -1252.910 5        31.879    37837503.375 5 152355972.52705      -968.997 5        33.126    37837506.635 6 160102898.45406     -1018.136 6        37.520
R09        37.000    19774615.905 8 105595438.52208     -2644.971 8        48.964                                                                    19774615.519 7  82129819.95207     -2057.240 7        46.467
C11        38.000                                                                                                                                    22143840.908 8 115308827.06408       405.900 8        49.126    22143836.450 8  89164211.39408       313.838 8        50.415    22143835.588 8  93697842.66908       329.709 8        48.070
C12        41.000                                                                                                                                    22407383.048 5 116681139.16505     -2374.847 5        31.638    22407385.347 8  90225352.19208     -1836.305 8        50.487    22407384.212 8  94813063.44208     -1929.722 8        49.276
C13        43.000                                                                                                                                    37710419.358 6 196368064.25806      -982.956 6        41.509    37710418.973 6 151844235.06406      -760.175 6        38.180    37710418.268 6 159565137.10806      -798.863 6        36.344
C38        44.000                                                                                                                                    39013485.686 5                     -1651.958 5        31.087                                                                    39013464.340 3                     -1341.078 3        21.738
C25        45.000                                                                                                                                    22940228.340 7 119455847.78207     -2821.207 7        43.228                                                                    22940225.361 6  97067836.75706     -2292.513 6        40.760
C23        47.000                                                                                                                                    24058869.889 6 125281082.07406       242.574 6        36.828                                                                    24058842.302 6 101800840.77106       197.250 6        40.496
C43        48.000                                                                                                                                    23554972.424 6 122657011.65306      1390.954 6        41.375                                                                    23554974.007 7  99668832.76107      1130.303 7        43.572
C24        51.000                                                                                                                                    25695008.293 3                     -4324.929 3        22.476                                                                    25694995.009 3                     -3515.645 3        19.731
C34        52.000                                                                                                                                    21406370.873 8 111468665.34408      -837.425 8        49.148                                                                    21406370.863 7  90577504.10807      -680.444 7        46.312
I06        58.000    38762053.618 7 152110746.17007      -620.824 7        43.482
> 2025 01 02 18 15 20.0000000  0 39
G23         2.000    22285409.031 6 117110639.08006      1942.806 6        37.399                                    22285409.839 2  91255010.68502      1513.909 2        14.381    22285405.532 5  91255035.56405      1514.056 5        32.934
G05         4.000                                                                                                                                                                    24130603.663 4                     -2801.117 4        27.569
E25         6.000                                                                                                                                    27185978.370 4                     -2887.307 4        28.635
G31         7.000    24433181.284 5                     -4169.972 5        30.725                                                                                                    24433112.523 4                     -3249.399 4        25.940
G29         9.000    23152820.678 5 121668731.67305     -3692.234 5        32.748                                    23152782.283 1  94806792.09201     -2876.848 1         2.200
E11        10.000                                                                                                                                    26670711.786 5 104661608.64405     -2639.281 5        34.924
G18        12.000    20695127.098 6 108753858.55606     -1761.414 6        39.640                                    20695122.632 3  84743145.75503     -1372.530 3        23.219    20695123.210 6  84743345.72306     -1372.435 6        40.815
G27        13.000    22696006.109 6 119268306.54906      2118.193 6        36.280                                    22696006.881 3  92936354.58703      1650.542 3        22.895    22696006.162 6  92936286.63706      1650.578 6        37.021
E27        14.000    28741603.080 4 151038269.65304      2070.451 4        27.210                                                                    28741618.405 5 112788295.68905      1546.242 5        31.072
R03        15.000    22697992.553 5                      1205.292 5        33.293
G26        17.000    20710443.050 8 108834158.00208     -1901.078 8        48.704                                    20710441.633 7  84806236.38507     -1481.361 7        43.947    20710441.884 7  84805810.36807     -1481.437 7        42.364
R02        18.000    23358363.725 5 124644387.10805     -2067.151 5        31.540                                                                    23358341.010 3                     -1607.346 3        21.143
E30        19.000    24731788.869 6 129966422.55306       665.993 6        40.021                                                                    24731788.215 7  97053023.47407       497.295 7        44.856    24731789.183 7  99584782.65507       510.354 7        46.196
R20        20.000    21349139.292 5 114163445.35605      1856.959 5        33.838                                                                    21349143.765 6  88793858.63806      1444.596 6        37.312
E02        21.000    23659672.858 8 124332679.15108     -2210.231 8        50.462                                                                    23659671.426 8  92845740.11308     -1650.530 8        50.450    23659670.951 8  95267810.79008     -1693.559 8        50.646
S23        22.000    38212064.237 6 200805798.21206      -865.967 6        40.427
R10        23.000    20626827.264 7 109952623.75207      1043.513 7        42.311
E36        24.000    23583423.540 7 123931751.72107     -1632.627 7        47.470                                                                    23583423.961 7  92546605.08507     -1219.140 7        46.530    23583423.580 7  94960846.26007     -1250.913 7        47.751
R18        25.000                                                                                                                                    21958974.448 3                     -3250.424 3        22.533
G16        26.000    20839603.444 6 109512855.67406       491.588 6        39.694                                    20839599.560 3  85334680.44403       383.056 3        20.048
S21        27.000    38486439.572 5 202247803.18705      -864.166 5        35.900
C22        28.000                                                                                                                                    24901015.816 5                        42.029 5        31.623                                                                    24901005.684 5 105364299.50505        34.016 5        30.272
R19        29.000    19671215.362 6 105227761.94706     -2165.556 6        36.801                                                                    19671215.559 6  81844119.77106     -1684.300 6        40.179
S36        31.000    38256930.343 6 201041553.07606      -863.947 6        36.132
E34        32.000    24491735.785 6 128704940.74706      1067.866 6        41.409                                                                    24491735.627 7  96110836.12807       797.345 7        44.272    24491732.448 6  98618134.76406       818.180 6        37.077
R16        34.000    22945506.641 5                     -5420.112 5        35.633                                                                    22945492.227 4                     -4214.817 4        26.922
C44        35.000                                                                                                                                    23676455.601 7 123289453.84007     -3279.300 7        44.471                                                                    23676453.182 6 100182818.22806     -2664.859 6        41.576
C08        36.000                                                                                                                                    37838718.556 5 197036144.04605     -1253.885 5        30.943    37838707.049 5 152360818.73105      -969.809 5        33.964    37838710.248 6 160107991.11406     -1019.255 6        37.369
R09        37.000    19777094.492 8 105608673.59708     -2649.307 8        49.009                                                                    19777093.642 7  82140113.91307     -2060.620 7        46.540
C11        38.000                                                                                                                                    22143451.880 8 115306801.37108       404.208 8        48.835    22143447.709 8  89162645.00108       312.560 8        50.348    22143446.588 7  93696196.64607       328.379 7        47.965
C12        41.000                                                                                                                                    22409663.824 5 116693016.20105     -2376.119 5        31.638    22409665.987 8  90234536.24608     -1837.408 8        50.149    22409665.180 8  94822714.51208     -1931.002 8        49.636
C13        43.000                                                                                                                                    37711363.669 6 196372981.58006      -984.114 6        41.106    37711363.310 6 151848037.46506      -761.033 6        38.495    37711362.331 6 159569132.86606      -799.810 6        36.408
C38        44.000                                                                                                                                    39015074.181 5                     -1652.449 5        32.647                                                                    39015050.380 3                     -1347.288 3        20.548
C25        45.000                                                                                                                                    22942937.706 7 119469959.27107     -2823.686 7        44.081                                                                    22942935.386 6  97079303.52706     -2294.495 6        40.932
C23        47.000                                                                                                                                    24058632.470 6 125279875.21706       239.880 6        36.881                                                                    24058610.779 6 101799860.23706       194.781 6        40.591
C43        48.000                                                                                                                                    23553638.111 7 122650059.23207      1389.845 7        43.232                                                                    23553638.910 7  99663183.39007      1129.225 7        43.424
C24        51.000                                                                                                                                                                                                                                                                    25699143.047 3                     -3512.704 3        20.952
C34        52.000                                                                                                                                    21407175.384 8 111472856.21408      -839.196 8        48.509                                                                    21407175.917 7  90580909.55107      -681.945 7        46.240
I06        58.000    38762844.745 7 152113850.44907      -620.936 7        43.681
> 2025 01 02 18 15 25.0000000  0 38
G23         2.000    22283562.716 6 117100928.44806      1941.029 6        39.081                                    22283562.522 2  91247443.99202      1512.532 2        12.364    22283558.832 5  91247468.88805      1512.426 5        32.443
G05         4.000    24134075.486 4                     -3596.605 4        27.521                                                                                                    24134021.472 4                     -2802.441 4        27.665
E25         6.000                                                                                                                                    27189656.945 4                     -2887.757 4        28.787
G31         7.000    24437147.569 4                     -4170.365 4        28.806                                                                                                    24437079.648 4                     -3249.484 4        25.880
G29         9.000    23156330.535 5 121687192.79605     -3693.001 5        32.120                                    23156295.203 1  94821177.38701     -2877.753 1         2.400
E11        10.000    26674077.483 3                     -3533.801 3        19.433                                                                    26674074.408 5 104674804.21305     -2639.422 5        35.014
G18        12.000    20696803.437 6 108762669.67606     -1763.624 6        39.255                                    20696798.820 3  84750011.54303     -1374.271 3        23.124    20696799.728 6  84750211.54406     -1374.240 6        40.534
G27        13.000    22693992.577 6 119257715.49106      2117.606 6        37.055                                    22693991.395 3  92928101.83303      1650.073 3        22.381    22693992.442 6  92928033.89606      1650.185 6        36.181
E27        14.000    28739633.935 3 151027914.98403      2071.278 3        23.524                                                                    28739649.356 4 112780563.24004      1546.393 4        29.896
G26        17.000    20712253.428 8 108843669.48108     -1903.828 8        49.236                                    20712251.947 7  84813647.92807     -1483.503 7        43.647    20712252.263 7  84813221.90907     -1483.454 7        42.044
R02        18.000    23360299.982 4 124654732.12504     -2071.021 4        28.171
E30        19.000    24731155.665 6 129963095.14206       664.766 6        38.312                                                                    24731155.250 7  97050538.72107       496.264 7        45.371    24731156.019 7  99582233.08507       509.241 7        46.504
R20        20.000    21347405.441 5 114154162.35605      1855.634 5        35.310                                                                    21347407.065 6  88786638.53206      1443.166 6        38.204
E02        21.000    23661776.197 8 124343733.59608     -2211.860 8        50.747                                                                    23661775.165 8  92853995.05708     -1651.722 8        50.853    23661774.416 8  95276281.08308     -1694.840 8        50.532
S23        22.000    38212893.012 6 200810126.53006      -865.558 6        40.529
R10        23.000    20625850.197 7 109947414.30307      1039.959 7        42.087
E36        24.000    23584977.496 7 123939917.63007     -1634.061 7        47.452                                                                    23584977.905 7  92552702.99707     -1220.238 7        46.782    23584977.530 7  94967103.24807     -1252.090 7        47.553
R18        25.000                                                                                                                                    21962898.493 3                     -3251.267 3        23.543
G16        26.000    20839137.396 6 109510403.63506       488.864 6        41.316                                    20839132.119 3  85332769.77103       380.929 3        20.095
S21        27.000    38487259.019 5 202252122.17605      -863.730 5        35.652
C22        28.000                                                                                                                                    24900979.086 5                        39.091 5        31.336                                                                    24900970.220 5 105364134.10505        32.061 5        31.298
R19        29.000    19673239.087 6 105238593.84606     -2167.443 6        36.480                                                                    19673241.171 6  81852544.59406     -1685.873 6        40.043
S36        31.000    38257759.475 6 201045869.93106      -863.417 6        36.654
E34        32.000    24490720.702 6 128699603.73406      1066.651 6        40.813                                                                    24490719.985 7  96106850.70907       796.533 7        44.605    24490716.451 6  98614045.37006       817.183 6        36.363
R16        34.000    22950578.681 6                     -5421.001 6        37.720                                                                    22950569.803 4                     -4216.190 4        28.815
C44        35.000                                                                                                                                    23679604.267 7 123305850.46907     -3279.694 7        44.318                                                                    23679601.886 6 100196141.81306     -2665.021 6        41.027
C08        36.000                                                                                                                                    37839923.516 5 197042415.27705     -1254.900 5        30.121    37839911.447 5 152365668.03005      -970.332 5        34.167    37839914.620 6 160113086.98006     -1019.631 6        37.456
R09        37.000    19779576.594 8 105621929.13708     -2653.220 8        49.335                                                                    19779576.107 7  82150423.80307     -2063.629 7        46.839
C11        38.000                                                                                                                                    22143064.085 8 115304782.32208       403.045 8        48.534    22143059.948 8  89161083.75408       311.608 8        50.160    22143058.877 8  93694555.99908       327.589 8        48.084
C12        41.000                                                                                                                                    22411946.037 5 116704898.60905     -2376.779 5        30.347    22411947.624 8  90243724.47308     -1838.149 8        49.598    22411947.196 8  94832369.91708     -1931.490 8        49.843
C13        43.000                                                                                                                                    37712307.648 6 196377902.75706      -984.739 6        40.472    37712308.195 6 151851842.85206      -761.627 6        38.351    37712307.486 6 159573131.71406      -800.093 6        36.677
C38        44.000                                                                                                                                    39016662.873 5                     -1653.231 5        33.575                                                                    39016643.923 3                     -1342.694 3        20.619
C25        45.000                                                                                                                                    22945649.602 7 119484081.45107     -2825.626 7        44.850                                                                    22945647.453 6  97090778.95006     -2295.944 6        40.782
C23        47.000                                                                                                                                                                                                                                                                    24058381.717 6 101798890.00106       193.000 6        40.925
C43        48.000                                                                                                                                    23552305.481 7 122643111.28007      1389.053 7        44.232                                                                    23552304.447 7  99657537.61607      1128.865 7        43.141
