     3.04           OBSERVATION DATA    M                   RINEX VERSION / TYPE
ssrcrin-15.6.1x                         20250102 180000 UTC PGM / RUN BY / DATE 
(00000000023479385599111004) Septentrio proprietary         COMMENT             
ract                                                        MARKER NAME         
01                                                          MARKER NUMBER       
geodetic                                                    MARKER TYPE         
NFB                 CLIMERS@TUW                             OBSERVER / AGENCY   
3296359             SEPT ASTERX SB3 PROB4.14.4              REC # / TYPE / VERS 
Unknown             Unknown                                 ANT # / TYPE        
  4127445.6992  1206914.5453  4695543.0809                  APPROX POSITION XYZ 
        0.0000        0.0000        0.0000                  ANTENNA: DELTA H/E/N
G   23 X1  C1C L1C D1C S1C C1W S1W C2W L2W D2W S2W C2L L2L  SYS / # / OBS TYPES 
       D2L S2L C5Q L5Q D5Q S5Q C1L L1L D1L S1L              SYS / # / OBS TYPES 
E   21 X1  C1C L1C D1C S1C C6C L6C D6C S6C C5Q L5Q D5Q S5Q  SYS / # / OBS TYPES 
       C7Q L7Q D7Q S7Q C8Q L8Q D8Q S8Q                      SYS / # / OBS TYPES 
S    9 X1  C1C L1C D1C S1C C5I L5I D5I S5I                  SYS / # / OBS TYPES 
R   17 X1  C1C L1C D1C S1C C2P L2P D2P S2P C2C L2C D2C S2C  SYS / # / OBS TYPES 
       C3Q L3Q D3Q S3Q                                      SYS / # / OBS TYPES 
C   25 X1  C1P L1P D1P S1P C5P L5P D5P S5P C2I L2I D2I S2I  SYS / # / OBS TYPES 
       C7I L7I D7I S7I C6I L6I D6I S6I C7D L7D D7D S7D      SYS / # / OBS TYPES 
J   17 X1  C1C L1C D1C S1C C2L L2L D2L S2L C5Q L5Q D5Q S5Q  SYS / # / OBS TYPES 
       C1L L1L D1L S1L                                      SYS / # / OBS TYPES 
I    5 X1  C5A L5A D5A S5A                                  SYS / # / OBS TYPES 
SEPTENTRIO RECEIVERS OUTPUT ALIGNED CARRIER PHASES.         COMMENT             
NO FURTHER PHASE SHIFT APPLIED IN THE RINEX ENCODER.        COMMENT             
G L1C                                                       SYS / PHASE SHIFT   
G L2W                                                       SYS / PHASE SHIFT   
G L2L  0.00000                                              SYS / PHASE SHIFT   
G L5Q  0.00000                                              SYS / PHASE SHIFT   
G L1L  0.00000                                              SYS / PHASE SHIFT   
E L1C  0.00000                                              SYS / PHASE SHIFT   
E L6C  0.00000                                              SYS / PHASE SHIFT   
E L5Q  0.00000                                              SYS / PHASE SHIFT   
E L7Q  0.00000                                              SYS / PHASE SHIFT   
E L8Q  0.00000                                              SYS / PHASE SHIFT   
S L1C                                                       SYS / PHASE SHIFT   
S L5I                                                       SYS / PHASE SHIFT   
R L1C                                                       SYS / PHASE SHIFT   
R L2P  0.00000                                              SYS / PHASE SHIFT   
R L2C                                                       SYS / PHASE SHIFT   
R L3Q  0.00000                                              SYS / PHASE SHIFT   
C L1P  0.00000                                              SYS / PHASE SHIFT   
C L5P  0.00000                                              SYS / PHASE SHIFT   
C L2I                                                       SYS / PHASE SHIFT   
C L7I                                                       SYS / PHASE SHIFT   
C L6I                                                       SYS / PHASE SHIFT   
C L7D                                                       SYS / PHASE SHIFT   
J L1C                                                       SYS / PHASE SHIFT   
J L2L  0.00000                                              SYS / PHASE SHIFT   
J L5Q  0.00000                                              SYS / PHASE SHIFT   
J L1L  0.00000                                              SYS / PHASE SHIFT   
I L5A                                                       SYS / PHASE SHIFT   
  2025     1     2    18     0    0.0000000     GPS         TIME OF FIRST OBS   
 C1C    0.000 C2C    0.000 C2P    0.000                     GLONASS COD/PHS/BIS 
DBHZ                                                        SIGNAL STRENGTH UNIT
    18                                                      LEAP SECONDS        
 24 R01  1 R02 -4 R03  5 R04  6 R05  1 R06 -4 R07  5 R08  6 GLONASS SLOT / FRQ #
    R09 -2 R10 -7 R11  0 R12 -1 R13 -2 R14 -7 R15  0 R16 -1 GLONASS SLOT / FRQ #
    R17  4 R18 -3 R19  3 R20  2 R21  4 R22 -3 R23  3 R24  2 GLONASS SLOT / FRQ #
                                                            END OF HEADER       
> 2025 01 02 18 00  0.0000000  0 38
G23         2.000    22655673.831 6 119056377.56306      2271.547 6        41.211                                    22655666.012 2  92771169.02302      1770.057 2        14.286    22655669.434 5  92771193.98305      1770.694 5        31.728
G05         4.000                                                                                                                                                                    23541402.415 4                     -2434.198 4        25.940
E25         6.000    26519510.837 6 139360978.59006     -3741.987 6        36.480                                                                    26519511.046 5 104068275.57905     -2794.551 5        31.600    26519512.771 6 106783139.39306     -2866.929 6        36.325
G31         7.000                                                                                                                                                                    23714340.066 4                     -3136.645 4        29.384
G28         8.000                                                                                                                                                                    25106993.828 3                     -3381.651 3        23.238
G29         9.000                                                                                                                                                                    22521551.629 5  92222001.82005     -2739.885 5        34.033
E11        10.000    26060620.912 5 136949493.59405     -3428.926 5        33.970
G18        12.000    20428464.403 7 107352529.57307     -1279.239 7        47.034                                    20428459.551 5  83651200.03605      -996.811 5        32.114    20428459.511 7  83651164.02107      -996.925 7        42.728
G27        13.000    23081005.988 6 121291542.61706      2273.534 6        37.629                                    23081024.936 3  94512912.85603      1771.588 3        22.152    23081007.845 6  94512868.84406      1771.715 6        38.802
G26        17.000    20427346.073 8 107346472.42008     -1331.171 8        51.576                                    20427343.430 7  83647000.59707     -1037.276 7        46.611    20427344.287 6  83646574.60506     -1037.370 6        41.192
R02        18.000                                                                                                                                    23068025.942 4                     -1007.896 4        28.863
E30        19.000    24873908.510 7 130713418.13407       949.809 7        43.168                                                                    24873906.839 6  97610724.41106       709.299 6        38.183    24873905.814 7 100157032.37507       727.796 7        43.376
R20        20.000    21698094.278 5                      2194.197 5        32.084                                                                    21698101.607 4  90245341.96104      1706.216 4        28.825
E02        21.000    23304197.694 8 122464642.88708     -1850.167 8        50.190                                                                    23304196.058 8  91450777.83008     -1381.643 8        53.425    23304195.809 8  93836458.21908     -1417.697 8        53.278
S23        22.000    38060506.648 6 200009362.59706      -865.981 6        38.267
R10        23.000    20867248.240 6 111234204.67306      1725.032 6        41.628
E36        24.000    23326524.659 7 122581738.31307     -1297.506 7        43.917                                                                    23326523.450 6  91538478.37006      -968.900 6        39.459    23326524.069 6  93926420.42506      -994.266 6        38.964
R18        25.000    21249559.619 6 113431529.25906     -4041.230 6        36.703                                                                    21249560.958 5  88224804.18705     -3143.041 5        31.087
G16        26.000    20971984.272 7 110208500.20207      1010.299 7        42.914                                    20971976.448 4  85876741.55904       787.230 4        25.008
S21        27.000    38335230.385 5 201453208.79205      -863.950 5        34.719
C22        28.000                                                                                                                                    24950691.209 4 129924859.76104       511.951 4        28.455                                                                    24950683.959 5 105574515.95105       416.156 5        30.340
R19        29.000    19337572.580 6 103442987.90206     -1704.896 6        38.117                                                                    19337569.855 6  80455962.14106     -1326.058 6        40.415
S36        31.000    38105855.550 5 200247641.76205      -862.650 5        35.557
E34        32.000    24702824.330 5 129814253.86105      1340.223 5        33.114                                                                                                                                    24702836.679 4  99468104.21804      1027.366 4        29.318
R16        34.000    22029706.590 5 117678777.70705     -5195.625 5        33.479                                                                    22029702.463 6  91527937.35706     -4041.113 6        36.405
C44        35.000                                                                                                                                    23108485.611 7 120331895.50607     -3146.272 7        45.631                                                                    23108489.591 6  97779747.01806     -2556.838 6        40.708
R09        37.000    19389024.329 8 103536397.69008     -1848.222 8        50.827                                                                    19389022.335 7  80528343.52807     -1437.488 7        47.698
C11        38.000                                                                                                                                    22238411.396 8 115801282.10008       670.029 8        48.927    22238411.360 8  89545009.20308       518.087 8        48.367    22238408.252 7  94098002.16107       544.280 7        45.878
C12        41.000                                                                                                                                    22010133.319 7 114612636.50407     -2142.429 7        46.537    22010129.453 7  88625770.45007     -1656.705 7        47.792    22010129.644 7  93132147.02907     -1741.093 7        47.390
C13        43.000                                                                                                                                    37552276.080 6 195544580.19606      -815.485 6        37.236    37552279.402 6 151207492.78206      -630.727 6        41.280    37552276.723 6 158895988.75306      -663.019 6        40.393
C38        44.000                                                                                                                                    38734525.089 6 201700837.08906     -1520.894 6        38.495                                                                    38734553.456 3                     -1236.475 3        23.905
C25        45.000                                                                                                                                    22482177.717 8 117070672.17308     -2384.531 8        49.047                                                                    22482175.334 6  95129686.34606     -1937.916 6        41.945
C08        46.000                                                                                                                                                                                                    37632545.411 4                      -834.312 4        26.934
C23        47.000                                                                                                                                    24143164.828 7 125720139.48207       710.111 7        45.366                                                                    24143158.587 7 102157781.31107       576.758 7        44.163
C43        48.000                                                                                                                                                                                                                                                                    23815146.689 5 100769702.31105      1273.843 5        35.310
C24        51.000                                                                                                                                    24938342.199 5 129860513.59005     -4277.476 5        34.386                                                                    24938344.246 6 105522296.84906     -3476.139 6        36.798
C34        52.000                                                                                                                                    21285242.347 6 110837913.95106      -539.852 6        39.021                                                                    21285241.726 7  90064966.74707      -438.978 7        47.825
I06        58.000    38616457.000 6 151539392.09106      -628.167 6        40.358
> 2025 01 02 18 00  5.0000000  0 38
G23         2.000    22653513.563 6 119045023.71506      2270.047 6        41.759                                    22653505.011 2  92762321.86602      1768.886 2        14.524    22653508.875 5  92762346.84105      1769.042 5        32.156
G05         4.000                                                                                                                                                                    23544381.951 4                     -2436.083 4        25.654
E25         6.000    26523071.419 5 139379690.50805     -3742.637 5        35.367                                                                    26523072.272 5 104082248.72505     -2794.694 5        32.479    26523072.922 5 106797477.11205     -2867.623 5        35.824
G31         7.000    23718191.288 5 124639816.86115     -4026.533 5        30.196                                    23718173.083 1  97121970.00111     -3137.547 1         5.857    23718172.734 4                     -3137.632 4        29.393
G28         8.000                                                                                                                                                                    25111127.267 3                     -3380.666 3        22.724
G29         9.000    22524941.462 5                     -3516.918 5        32.180                                                                                                    22524896.959 5  92235702.11905     -2740.565 5        34.495
E11        10.000    26063884.139 5 136966640.11805     -3429.887 5        33.856
G18        12.000    20429682.507 8 107358932.96408     -1281.958 8        48.242                                    20429677.809 5  83656189.69405      -998.928 5        32.072    20429678.049 7  83656153.65707      -998.939 7        42.146
G27        13.000    23078840.540 6 121280176.65006      2272.977 6        37.221                                    23078858.528 4  94504056.22404      1771.172 4        24.195    23078846.501 6  94504012.23406      1771.014 6        39.087
G26        17.000    20428614.276 8 107353136.67008     -1334.371 8        51.396                                    20428611.546 7  83652193.51307     -1039.767 7        45.979    20428612.348 6  83651767.50906     -1039.765 6        41.640
R02        18.000    23069288.270 5 123102083.33415     -1300.159 5        30.158                                                                    23069244.995 4                     -1011.042 4        27.257
E30        19.000    24873004.898 7 130708672.75207       948.377 7        43.154                                                                    24873004.067 6  97607180.79606       708.160 6        38.387    24873002.676 7 100153396.29807       726.790 7        43.158
R20        20.000    21696044.549 5                      2192.338 5        33.904                                                                    21696048.690 4  90236812.16904      1705.854 4        28.607
E02        21.000    23305959.019 8 122473899.10008     -1852.165 8        50.196                                                                    23305957.373 8  91457689.93408     -1383.092 8        53.299    23305957.333 8  93843550.63908     -1419.174 8        53.244
S23        22.000    38061332.414 6 200013692.46306      -865.819 6        38.649
R10        23.000    20865631.176 6 111225588.49706      1721.495 6        41.261
E36        24.000    23327760.180 7 122588230.91107     -1299.436 7        43.769                                                                    23327759.237 6  91543326.75906      -970.385 6        40.288    23327759.385 6  93931395.26606      -995.653 6        38.844
R18        25.000    21253345.227 6 113451738.20706     -4042.049 6        36.231                                                                    21253348.043 5  88240522.26405     -3143.922 5        31.849
G16        26.000    20971024.119 7 110203455.59607      1007.623 7        44.134                                    20971016.726 4  85872810.70904       785.160 4        26.359
S21        27.000    38336052.408 5 201457527.89605      -863.738 5        34.838
C22        28.000                                                                                                                                                                                                                                                                    24950193.217 5 105572439.31805       414.641 5        30.400
R19        29.000    19339168.855 6 103451519.65206     -1707.548 6        38.327                                                                    19339165.489 6  80462597.96606     -1328.150 6        40.806
S36        31.000    38106682.988 5 200251956.54805      -862.981 5        35.795
E34        32.000    24701548.097 5 129807555.33005      1338.835 5        33.467                                                                    24701570.399 5                       999.757 5        33.659    24701561.778 5  99462971.55005      1025.966 5        30.430
R16        34.000    22034570.193 4 117704759.93104     -5197.437 4        26.826                                                                    22034567.291 6  91548145.79406     -4042.208 6        37.754
C44        35.000                                                                                                                                    23111507.292 7 120347629.20807     -3146.985 7        44.545                                                                    23111511.688 6  97792531.95406     -2557.365 6        39.799
R09        37.000    19390757.338 8 103545650.35108     -1852.688 8        50.883                                                                    19390755.137 7  80535540.05607     -1441.044 7        47.700
C11        38.000                                                                                                                                    22237769.914 8 115797935.81408       668.565 8        49.410    22237768.301 7  89542421.63807       516.978 7        47.288    22237765.101 7  94095283.04907       543.345 7        45.386
C12        41.000                                                                                                                                    22012190.861 7 114623352.23307     -2143.770 7        46.681    22012187.373 7  88634056.53807     -1657.707 7        47.932    22012187.347 7  93140854.44707     -1741.917 7        47.537
C13        43.000                                                                                                                                    37553059.329 6 195548660.65406      -816.623 6        37.917    37553062.672 6 151210648.02906      -631.283 6        40.865    37553060.484 6 158899304.45906      -663.408 6        40.517
C38        44.000                                                                                                                                    38735987.011 6 201708443.88806     -1521.867 6        38.850                                                                    38736016.410 3                     -1236.669 3        22.781
C25        45.000                                                                                                                                    22484468.738 8 117082601.55408     -2387.062 8        49.016                                                                    22484466.460 7  95139379.96007     -1939.578 7        42.616
C08        46.000                                                                                                                                                                                                    37633588.288 4                      -834.938 4        26.742
C23        47.000                                                                                                                                    24142485.074 7 125716595.18407       707.599 7        45.243                                                                    24142478.000 7 102154901.30107       575.090 7        44.305
C43        48.000                                                                                                                                                                                                                                                                    23813641.830 5 100763333.96105      1273.396 5        35.695
C24        51.000                                                                                                                                    24942450.062 5 129881902.51305     -4278.015 5        32.617                                                                    24942451.803 6 105539677.07106     -3476.110 6        37.520
C34        52.000                                                                                                                                    21285760.531 6 110840617.97206      -541.573 6        38.631                                                                    21285761.011 8  90067163.99508      -440.035 8        48.209
I06        58.000    38617256.907 6 151542533.32106      -628.148 6        40.396
> 2025 01 02 18 00 10.0000000  0 37
G23         2.000    22651353.539 6 119033676.96706      2268.524 6        41.278                                    22651345.718 2  92753480.23202      1767.691 2        15.095    22651349.657 5  92753505.23705      1767.798 5        32.910
G05         4.000    23547354.755 5                     -3129.392 5        30.966                                                                                                    23547359.305 4                     -2438.661 4        25.248
E25         6.000    26526633.021 5 139398405.63205     -3743.488 5        34.229                                                                    26526633.702 5 104096224.30805     -2795.235 5        33.437    26526633.697 5 106811817.27305     -2868.218 5        35.205
G31         7.000    23722020.959 4 124659951.79804     -4027.189 4        29.735                                    23722004.516 1  97137659.46701     -3137.836 1         5.000    23722007.544 4                     -3138.541 4        29.829
G28         8.000                                                                                                                                                                    25115253.309 3                     -3379.567 3        22.457
G29         9.000    22528281.062 5                     -3517.738 5        32.964                                                                                                    22528243.252 5  92249405.94105     -2741.477 5        35.324
E11        10.000    26067147.593 5 136983789.40205     -3430.147 5        33.299
G18        12.000    20430903.483 8 107365349.30108     -1284.618 8        48.325                                    20430898.423 5  83661189.43805     -1001.005 5        31.924    20430898.780 6  83661153.40506     -1001.011 6        41.764
G27        13.000    23076681.019 6 121268813.77206      2272.210 6        38.108                                    23076693.203 4  94495202.02704      1770.552 4        26.012    23076686.814 6  94495158.08006      1770.557 6        39.477
G26        17.000    20429884.912 8 107359815.91908     -1337.423 8        50.398                                    20429882.507 7  83657398.11807     -1042.145 7        45.077    20429883.673 7  83656972.11407     -1042.190 7        42.163
R02        18.000    23070503.419 4 123108594.22004     -1304.354 4        29.090                                                                    23070462.931 4                     -1014.247 4        25.594
E30        19.000    24872102.823 7 130703933.88907       947.033 7        43.018                                                                    24872102.368 6  97603642.03806       707.343 6        38.934    24872100.892 7 100149765.23807       725.590 7        43.134
R20        20.000    21693994.477 5 116007543.65415      2190.911 5        32.407                                                                    21694000.410 5  90228288.82505      1703.851 5        30.581
E02        21.000    23307721.945 8 122483164.51908     -1854.088 8        50.265                                                                    23307720.443 8  91464608.92208     -1384.484 8        53.377    23307720.539 8  93850650.12208     -1420.651 8        53.287
S23        22.000    38062156.494 6 200018021.51306      -865.879 6        38.396
R10        23.000    20864018.593 6 111216988.77706      1718.256 6        41.657
E36        24.000    23328997.068 7 122594732.38307     -1301.255 7        43.750                                                                    23328996.782 6  91548181.76406      -971.671 6        41.378    23328996.304 6  93936376.93006      -997.033 6        38.414
R18        25.000    21257132.220 5 113471951.22105     -4043.072 5        35.919                                                                    21257132.201 5  88256243.50005     -3144.595 5        32.970
G16        26.000    20970065.942 7 110198423.61807      1005.124 7        44.214                                    20970059.508 4  85868889.70104       783.211 4        26.635
S21        27.000    38336875.003 5 201461846.37205      -863.789 5        34.600
C22        28.000                                                                                                                                    24949698.999 3                       509.017 3        20.952                                                                    24949705.849 5 105570371.97305       412.933 5        31.004
R19        29.000    19340764.557 6 103460064.09006     -1710.190 6        37.331                                                                    19340762.062 6  80469243.64606     -1330.139 6        40.458
S36        31.000    38107501.640 5 200256271.19705      -863.014 5        35.552
E34        32.000    24700273.277 5 129800863.32005      1337.677 5        32.443                                                                    24700296.546 5  96929270.18915       998.863 5        33.551    24700287.625 5  99457843.92505      1024.851 5        31.577
R16        34.000                                                                                                                                    22039431.918 6  91568359.58406     -4043.489 6        39.249
C44        35.000                                                                                                                                    23114529.296 7 120363366.26307     -3147.786 7        43.991                                                                    23114535.542 6  97805319.57606     -2557.897 6        38.520
R09        37.000    19392493.735 8 103554924.74408     -1857.143 8        50.487                                                                    19392492.211 7  80542753.49307     -1444.470 7        47.925
C11        38.000                                                                                                                                    22237128.863 8 115794596.07208       667.223 8        49.449    22237126.635 7  89539839.12307       515.994 7        46.109    22237123.365 7  94092569.20307       542.316 7        44.710
C12        41.000                                                                                                                                    22014250.315 7 114634074.03507     -2145.004 7        46.764    22014246.974 8  88642347.31808     -1658.602 8        48.242    22014246.317 7  93149566.76507     -1742.951 7        47.491
C13        43.000                                                                                                                                    37553843.905 6 195552745.13506      -817.377 6        38.213    37553847.028 6 151213806.42106      -631.906 6        40.534    37553844.958 6 158902623.41006      -663.988 6        40.827
C38        44.000                                                                                                                                    38737449.067 6 201716053.81106     -1522.448 6        39.231                                                                    38737476.994 3                     -1239.908 3        21.333
C25        45.000                                                                                                                                    22486761.682 8 117094542.86408     -2389.524 8        48.596                                                                    22486759.621 7  95149083.21507     -1941.622 7        43.050
C23        47.000                                                                                                                                    24141805.037 7 125713062.48807       705.336 7        44.892                                                                    24141799.696 7 102152030.66007       573.205 7        44.477
C43        48.000                                                                                                                                                                                                                                                                    23812137.709 6 100756968.85306      1272.912 6        36.136
C24        51.000                                                                                                                                    24946558.643 5 129903292.94905     -4278.261 5        31.811                                                                    24946559.418 6 105557058.50406     -3476.530 6        38.081
C34        52.000                                                                                                                                    21286280.997 6 110843329.64806      -543.112 6        39.435                                                                    21286281.685 8  90069367.40508      -441.283 8        48.355
I06        58.000    38618056.930 6 151545673.88306      -628.087 6        40.505
> 2025 01 02 18 00 15.0000000  0 37
G23         2.000    22649196.375 6 119022338.30906      2267.241 6        40.107                                    22649188.003 2  92744644.92302      1766.704 2        15.857    22649191.819 5  92744669.91605      1766.785 5        33.455
G05         4.000    23550332.082 5                     -3132.326 5        32.473                                                                                                    23550338.112 4                     -2440.388 4        25.368
E25         6.000    26530194.534 5 139417124.91205     -3743.871 5        32.407                                                                    26530195.648 5 104110203.03405     -2795.895 5        33.784    26530195.631 5 106826160.63405     -2868.681 5        35.181
G31         7.000    23725841.689 5 124680092.24205     -4028.445 5        31.419                                    23725836.943 1  97153353.36501     -3139.081 1         7.000    23725846.892 4                     -3139.038 4        28.654
G28         8.000                                                                                                                                                                    25119376.498 3                     -3378.829 3        21.548
G29         9.000                                                                                                                                                                    22531590.961 5  92263114.00705     -2741.534 5        34.605
E11        10.000    26070411.879 5 137000942.54705     -3431.065 5        32.563
G18        12.000    20432127.090 8 107371779.62108     -1287.199 8        48.367                                    20432121.707 5  83666200.07305     -1003.008 5        31.638    20432122.150 6  83666164.03406     -1002.984 6        41.116
G27        13.000    23074520.378 6 121257455.07806      2271.465 6        38.652                                    23074529.247 4  94486351.09604      1769.959 4        27.054    23074527.488 6  94486307.14306      1770.202 6        38.441
G26        17.000    20431159.056 8 107366511.16708     -1340.336 8        49.658                                    20431156.481 7  83662615.18507     -1044.414 7        44.278    20431157.124 6  83662189.18306     -1044.411 6        41.476
R02        18.000                                                                                                                                    23071680.098 3                     -1018.877 3        22.171
E30        19.000    24871202.412 7 130699202.53507       945.804 7        42.546                                                                    24871202.053 6  97600108.89706       706.263 6        39.859    24871200.504 7 100146139.93007       724.592 7        43.067
R20        20.000    21691947.193 5 115996594.21705      2189.123 5        30.053                                                                    21691951.758 5  90219772.64905      1702.756 5        30.725
E02        21.000    23309486.820 8 122492440.18208     -1855.844 8        49.923                                                                    23309485.472 8  91471535.55308     -1385.866 8        53.419    23309485.638 8  93857757.44808     -1422.018 8        53.427
S23        22.000    38062981.459 6 200022351.10406      -865.623 6        38.420
R10        23.000    20862408.876 6 111208406.48806      1715.027 6        41.449
E36        24.000    23330235.622 7 122601243.76807     -1303.005 7        43.342                                                                    23330235.826 7  91553044.16207      -973.053 7        42.207    23330234.962 6  93941366.15806      -998.340 6        38.384
R18        25.000    21260920.693 5 113492169.25505     -4044.037 5        34.976                                                                    21260919.555 5  88271968.64005     -3145.284 5        35.148
G16        26.000    20969109.771 7 110193405.29807      1002.599 7        44.321                                    20969104.852 4  85864979.33404       781.238 4        27.138
S21        27.000    38337696.463 5 201466165.23205      -863.296 5        34.667
C22        28.000                                                                                                                                    24949218.483 3                       506.282 3        21.690                                                                    24949220.156 5 105568314.87805       410.683 5        30.506
R19        29.000    19342364.083 6 103468622.24506     -1712.901 6        37.270                                                                    19342362.549 6  80475899.97106     -1332.103 6        40.596
S36        31.000    38108323.394 5 200260586.21905      -862.660 5        35.595
E34        32.000    24699001.512 5 129794178.89305      1336.465 5        30.702                                                                    24699022.042 5  96924278.58805       998.079 5        33.000    24699015.704 5  99452722.10605      1023.925 5        32.060
R16        34.000                                                                                                                                    22044299.132 6  91588579.70106     -4044.421 6        39.949
C44        35.000                                                                                                                                    23117552.584 7 120379107.68107     -3148.488 7        43.755                                                                    23117565.779 6  97818110.87806     -2558.549 6        37.081
R09        37.000    19394234.394 8 103564221.83508     -1861.398 8        50.286                                                                    19394233.510 8  80549984.56308     -1447.707 8        48.462
C11        38.000                                                                                                                                    22236488.111 8 115791263.92308       665.939 8        49.086    22236486.823 7  89537262.48007       515.030 7        44.524    22236482.999 7  94089861.58807       540.946 7        44.030
C12        41.000                                                                                                                                    22016310.777 7 114644802.96907     -2146.174 7        46.433    22016307.648 8  88650643.62208     -1659.574 8        48.573    22016306.537 7  93158284.93407     -1744.219 7        47.265
C13        43.000                                                                                                                                    37554629.463 6 195556834.76406      -818.171 6        38.432    37554632.186 6 151216968.78906      -632.648 6        40.293    37554630.207 6 158905946.58906      -664.981 6        40.868
C38        44.000                                                                                                                                    38738911.241 6 201723667.92706     -1522.969 6        39.513                                                                    38738939.040 3                     -1235.368 3        19.522
C25        45.000                                                                                                                                    22489056.900 8 117106497.12208     -2391.885 8        48.350                                                                    22489055.439 7  95158797.05507     -1943.904 7        43.465
C23        47.000                                                                                                                                    24141128.499 7 125709542.41807       703.008 7        44.703                                                                    24141123.771 7 102149170.32207       571.083 7        44.518
C43        48.000                                                                                                                                                                                                                                                                    23810634.186 6 100750607.93306      1271.771 6        36.197
C24        51.000                                                                                                                                    24950667.720 5 129924685.91905     -4278.922 5        31.389                                                                    24950667.818 6 105574442.05206     -3476.897 6        38.081
C34        52.000                                                                                                                                    21286803.267 6 110846049.95906      -544.674 6        40.594                                                                    21286804.129 8  90071577.90608      -442.777 8        48.384
I06        58.000    38618857.507 6 151548814.53606      -627.939 6        40.429
> 2025 01 02 18 00 20.0000000  0 36
G23         2.000    22647040.301 6 119011007.22406      2265.526 6        38.817                                    22647031.930 2  92735815.51202      1765.352 2        15.524    22647034.154 5  92735840.51805      1765.252 5        34.067
G05         4.000                                                                                                                                                                    23553320.940 4                     -2443.105 4        27.437
E25         6.000    26533756.609 5 139435847.88405     -3744.852 5        32.293                                                                    26533758.643 5 104124184.42805     -2796.286 5        34.329    26533758.379 5 106840506.82505     -2869.357 5        34.752
G31         7.000    23729683.247 5 124700237.75605     -4029.283 5        33.251                                    23729670.188 1  97169051.01901     -3139.651 1         7.375    23729681.407 4                     -3140.116 4        25.865
G28         8.000                                                                                                                                                                    25123500.890 3                     -3378.793 3        20.905
G29         9.000    22534956.777 6 118422058.05916     -3519.736 6        36.193                                    22534950.351 3  92276859.95713     -2742.667 3        18.119    22534939.438 5  92276825.94905     -2742.731 5        34.595
E11        10.000    26073676.556 5 137018098.89305     -3431.096 5        31.404
G18        12.000    20433353.323 8 107378223.29708     -1289.914 8        49.021                                    20433347.504 5  83671221.11205     -1005.128 5        31.887    20433348.111 6  83671185.07906     -1005.009 6        41.559
G27        13.000    23072359.040 6 121246099.95506      2270.776 6        39.595                                    23072366.054 4  94477502.94704      1769.436 4        27.964    23072366.765 6  94477459.01106      1769.507 6        37.868
G26        17.000    20432436.358 8 107373221.84408     -1343.445 8        49.850                                    20432433.397 7  83667844.27407     -1046.837 7        43.850    20432432.859 6  83667418.28206     -1046.857 6        41.199
E30        19.000    24870302.545 6 130694478.11906       944.418 6        41.623                                                                    24870302.953 6  97596580.94806       705.240 6        40.513    24870301.789 7 100142519.93707       723.568 7        42.918
R20        20.000    21689896.962 4 115985653.29904      2187.879 4        29.962                                                                    21689903.355 5  90211263.01305      1701.623 5        31.728
E02        21.000    23311253.714 8 122501725.48708     -1857.818 8        50.050                                                                    23311252.474 8  91478469.38408     -1387.356 8        53.628    23311252.488 8  93864872.15908     -1423.532 8        53.366
S23        22.000    38063802.252 6 200026680.56306      -865.692 6        38.568
R10        23.000    20860801.375 6 111199841.17906      1711.462 6        40.644
E36        24.000    23331476.053 7 122607764.45407     -1304.836 7        43.105                                                                    23331476.834 7  91557913.51007      -974.446 7        42.904    23331475.378 6  93946362.53506      -999.811 6        38.162
R18        25.000    21264709.640 5 113512391.74305     -4044.783 5        31.532                                                                    21264708.399 6  88287697.21306     -3146.072 6        36.877
G16        26.000    20968156.734 7 110188400.06707       999.928 7        44.163                                    20968152.688 4  85861079.16904       779.154 4        26.862
S21        27.000    38338518.794 5 201470484.10405      -863.480 5        34.810
C22        28.000                                                                                                                                                                                                                                                                    24948735.966 4 105566267.46204       408.286 4        28.919
R19        29.000    19343967.035 6 103477193.34506     -1715.145 6        36.151                                                                    19343965.646 6  80482566.40306     -1334.199 6        40.956
S36        31.000    38109146.374 5 200264900.46505      -862.776 5        35.286
E34        32.000    24697732.884 5 129787501.43905      1335.294 5        30.219                                                                    24697750.353 5  96919292.22505       996.778 5        31.834    24697743.021 5  99447605.61705      1022.858 5        30.672
R16        34.000                                                                                                                                    22049167.492 6  91608805.51106     -4045.672 6        40.203
C44        35.000                                                                                                                                    23120576.241 7 120394852.85407     -3149.199 7        43.765                                                                    23120596.629 5  97830905.19905     -2558.819 5        35.943
R09        37.000    19395979.700 8 103573540.98708     -1865.792 8        50.043                                                                    19395978.841 8  80557232.80708     -1451.217 8        49.095
C11        38.000                                                                                                                                    22235848.550 8 115787938.78808       664.503 8        48.881    22235847.662 7  89534691.26807       513.984 7        42.336    22235844.075 7  94087159.64107       540.114 7        43.318
C12        41.000                                                                                                                                    22018371.416 7 114655538.41507     -2147.627 7        45.782    22018369.336 8  88658944.95908     -1660.656 8        48.924    22018368.116 7  93167008.32607     -1744.983 7        47.229
C13        43.000                                                                                                                                    37555415.584 6 195560928.93606      -819.148 6        38.589    37555418.423 6 151220134.67306      -633.481 6        40.126    37555416.777 6 158909273.42406      -665.579 6        40.927
C38        44.000                                                                                                                                    38740374.077 6 201731285.64206     -1523.797 6        39.823
C25        45.000                                                                                                                                    22491355.266 8 117118463.71508     -2394.319 8        48.275                                                                    22491353.639 7  95168520.87007     -1945.518 7        43.761
C23        47.000                                                                                                                                    24140455.384 7 125706034.36007       700.554 7        44.928                                                                    24140450.164 7 102146319.72007       569.435 7        44.584
C43        48.000                                                                                                                                                                                                                                                                    23809131.440 6 100744250.61506      1271.257 6        36.507
C24        51.000                                                                                                                                    24954776.784 5 129946080.81905     -4279.146 5        30.641                                                                    24954776.736 6 105591827.12406     -3476.967 6        38.450
C34        52.000                                                                                                                                    21287327.750 6 110848778.32206      -546.325 6        41.425                                                                    21287328.156 8  90073794.91608      -443.823 8        48.570
I06        58.000    38619658.107 6 151551954.82706      -627.876 6        40.708
> 2025 01 02 18 00 25.0000000  0 37
G23         2.000    22644885.340 6 118999683.48206      2263.955 6        38.174                                    22644877.145 2  92726991.83802      1764.132 2        15.667    22644879.113 5  92727016.83605      1764.419 5        33.922
G05         4.000                                                                                                                                                                    23556304.885 4                     -2444.871 4        28.313
E25         6.000    26537320.844 5 139454574.23005     -3745.745 5        31.796                                                                    26537322.050 5 104138168.41105     -2796.902 5        34.210    26537321.563 5 106854855.58605     -2870.024 5        34.900
G31         7.000    23733520.081 5 124720388.07805     -4030.206 5        32.623                                    23733504.318 1  97184752.55601     -3140.305 1         4.857    23733514.048 3                     -3141.865 3        21.595
G28         8.000                                                                                                                                                                    25127633.671 3                     -3379.098 3        20.262
G29         9.000    22538304.811 6 118439659.75306     -3520.871 6        36.628                                    22538296.623 3  92290575.54003     -2743.529 3        20.024    22538289.118 5  92290541.54505     -2743.963 5        34.529
E11        10.000    26076941.644 4 137035258.28604     -3432.103 4        29.886
G18        12.000    20434582.303 8 107384680.16508     -1292.794 8        48.768                                    20434575.899 5  83676252.43405     -1007.361 5        31.630    20434577.283 6  83676216.40906     -1007.351 6        41.013
G27        13.000    23070198.242 6 121234748.22706      2269.891 6        40.353                                    23070203.792 4  94468657.44504      1768.737 4        28.180    23070206.627 6  94468613.52706      1768.652 6        36.881
G26        17.000    20433716.581 8 107379947.76908     -1346.828 8        50.026                                    20433713.216 7  83673085.24207     -1049.474 7        43.346    20433712.619 6  83672659.24106     -1049.393 6        40.563
R02        18.000    23074124.466 5 123128255.14815     -1317.172 5        30.974
E30        19.000    24869404.682 6 130689760.47506       942.816 6        40.291                                                                    24869405.051 6  97593058.03306       704.067 6        41.123    24869404.454 7 100138905.13307       722.249 7        42.747
R20        20.000    21687849.582 5 115974720.83105      2185.480 5        30.981                                                                    21687859.215 5  90202759.99805      1699.797 5        32.425
E02        21.000    23313022.474 8 122511020.26108     -1859.987 8        49.967                                                                    23313021.249 8  91485410.28608     -1388.951 8        53.569    23313021.112 8  93871994.13008     -1425.164 8        53.307
S23        22.000    38064627.199 6 200031009.52406      -865.933 6        38.814
R10        23.000    20859196.600 6 111191292.61006      1707.864 6        40.153
E36        24.000    23332718.644 7 122614294.26307     -1306.957 7        42.455                                                                    23332719.457 7  91562789.66507      -976.108 7        43.208    23332717.504 6  93951365.90806     -1001.719 6        37.860
R18        25.000    21268496.832 4 113532618.62904     -4046.395 4        28.370                                                                    21268500.798 6  88303429.15006     -3146.670 6        37.894
G16        26.000    20967206.378 7 110183407.74707       997.012 7        42.421                                    20967202.776 4  85857189.07104       776.893 4        25.835
S21        27.000    38339341.931 5 201474802.64605      -863.855 5        34.719
C22        28.000                                                                                                                                    24948282.286 4                       500.380 4        28.986                                                                    24948253.033 4 105564229.58504       406.899 4        27.533
R19        29.000    19345570.389 5 103485777.40605     -1718.251 5        34.186                                                                    19345569.504 6  80489242.88806     -1336.520 6        40.660
S36        31.000    38109963.496 5 200269214.32805      -862.715 5        35.433
E34        32.000    24696464.973 4 129780830.84304      1332.780 4        28.218                                                                    24696481.214 5  96914310.94405       995.969 5        30.468    24696467.961 4  99442494.35904      1021.702 4        29.033
R16        34.000    22054035.443 4                     -5203.457 4        26.802                                                                    22054037.310 6  91629037.07306     -4046.930 6        39.820
C44        35.000                                                                                                                                    23123600.529 7 120410601.61207     -3150.291 7        43.810                                                                    23123622.765 5  97843702.41805     -2559.798 5        34.410
R09        37.000    19397728.692 8 103582881.92808     -1870.426 8        49.327                                                                    19397727.975 8  80564497.99308     -1454.808 8        49.635
C11        38.000                                                                                                                                    22235211.613 8 115784620.47408       662.843 8        48.722    22235209.016 6  89532125.33006       512.562 6        40.036    22235206.477 7  94084463.26007       538.648 7        42.863
C12        41.000                                                                                                                                    22020433.689 7 114666280.23007     -2149.059 7        45.439    22020432.121 8  88667251.21808     -1661.862 8        48.807    22020431.036 7  93175736.96307     -1746.379 7        47.143
C13        43.000                                                                                                                                    37556202.690 6 195565027.36306      -820.172 6        38.727    37556205.273 6 151223303.82506      -634.161 6        40.133    37556203.894 6 158912603.73506      -666.462 6        40.875
C38        44.000                                                                                                                                    38741837.488 6 201738906.73806     -1524.571 6        39.949
C25        45.000                                                                                                                                    22493655.990 8 117130442.49608     -2397.037 8        48.348                                                                    22493654.231 7  95178254.62407     -1947.828 7        43.939
C23        47.000                                                                                                                                    24139785.494 7 125702538.16907       697.925 7        45.491                                                                    24139778.839 7 102143478.79707       567.108 7        44.576
C43        48.000                                                                                                                                                                                                                                                                    23807629.534 6 100737896.80106      1270.473 6        36.306
C24        51.000                                                                                                                                    24958887.399 5 129967477.44805     -4279.655 5        30.272                                                                    24958885.984 6 105609213.65506     -3477.495 6        38.673
C34        52.000                                                                                                                                    21287852.885 6 110851514.58606      -548.093 6        40.918                                                                    21287853.621 8  90076018.35708      -445.396 8        48.627
I06        58.000    38620458.398 6 151555094.65906      -627.986 6        40.551
> 2025 01 02 18 00 30.0000000  0 35
G23         2.000    22642732.517 6 118988367.66206      2262.388 6        38.607                                    22642723.902 2  92718174.31602      1762.905 2        16.113    22642725.750 5  92718199.31805      1763.073 5        34.310
G05         4.000    23559254.758 4                     -3140.186 4        26.671                                                                                                    23559294.097 4                     -2446.903 4        28.635
E25         6.000    26540884.342 5 139473304.52205     -3746.236 5        33.012                                                                    26540885.918 5 104152155.34505     -2797.768 5        34.390    26540885.564 5 106869207.37405     -2870.763 5        34.881
G31         7.000    23737352.031 5 124740543.66805     -4031.581 5        32.036                                    23737339.852 1  97200458.15301     -3141.422 1         3.000
G29         9.000    22541654.049 6 118457266.63606     -3521.980 6        37.728                                    22541644.526 3  92304295.18803     -2744.398 3        21.500    22541639.195 5  92304261.18405     -2744.276 5        34.376
