     3.04           OBSERVATION DATA    M                   RINEX VERSION / TYPE
ssrcrin-15.6.1x                         20250102 173000 UTC PGM / RUN BY / DATE 
(00000000023479385599111004) Septentrio proprietary         COMMENT             
ract                                                        MARKER NAME         
01                                                          MARKER NUMBER       
geodetic                                                    MARKER TYPE         
NFB                 CLIMERS@TUW                             OBSERVER / AGENCY   
3296359             SEPT ASTERX SB3 PROB4.14.4              REC # / TYPE / VERS 
Unknown             Unknown                                 ANT # / TYPE        
  4127445.7401  1206914.7184  4695542.7804                  APPROX POSITION XYZ 
        0.0000        0.0000        0.0000                  ANTENNA: DELTA H/E/N
G   23 X1  C1C L1C D1C S1C C1W S1W C2W L2W D2W S2W C2L L2L  SYS / # / OBS TYPES 
       D2L S2L C5Q L5Q D5Q S5Q C1L L1L D1L S1L              SYS / # / OBS TYPES 
E   21 X1  C1C L1C D1C S1C C6C L6C D6C S6C C5Q L5Q D5Q S5Q  SYS / # / OBS TYPES 
       C7Q L7Q D7Q S7Q C8Q L8Q D8Q S8Q                      SYS / # / OBS TYPES 
S    9 X1  C1C L1C D1C S1C C5I L5I D5I S5I                  SYS / # / OBS TYPES 
R   17 X1  C1C L1C D1C S1C C2P L2P D2P S2P C2C L2C D2C S2C  SYS / # / OBS TYPES 
       C3Q L3Q D3Q S3Q                                      SYS / # / OBS TYPES 
C   25 X1  C1P L1P D1P S1P C5P L5P D5P S5P C2I L2I D2I S2I  SYS / # / OBS TYPES 
       C7I L7I D7I S7I C6I L6I D6I S6I C7D L7D D7D S7D      SYS / # / OBS TYPES 
J   17 X1  C1C L1C D1C S1C C2L L2L D2L S2L C5Q L5Q D5Q S5Q  SYS / # / OBS TYPES 
       C1L L1L D1L S1L                                      SYS / # / OBS TYPES 
I    5 X1  C5A L5A D5A S5A                                  SYS / # / OBS TYPES 
SEPTENTRIO RECEIVERS OUTPUT ALIGNED CARRIER PHASES.         COMMENT             
NO FURTHER PHASE SHIFT APPLIED IN THE RINEX ENCODER.        COMMENT             
G L1C                                                       SYS / PHASE SHIFT   
G L2W                                                       SYS / PHASE SHIFT   
G L2L  0.00000                                              SYS / PHASE SHIFT   
G L5Q  0.00000                                              SYS / PHASE SHIFT   
G L1L  0.00000                                              SYS / PHASE SHIFT   
E L1C  0.00000                                              SYS / PHASE SHIFT   
E L6C  0.00000                                              SYS / PHASE SHIFT   
E L5Q  0.00000                                              SYS / PHASE SHIFT   
E L7Q  0.00000                                              SYS / PHASE SHIFT   
E L8Q  0.00000                                              SYS / PHASE SHIFT   
S L1C                                                       SYS / PHASE SHIFT   
S L5I                                                       SYS / PHASE SHIFT   
R L1C                                                       SYS / PHASE SHIFT   
R L2P  0.00000                                              SYS / PHASE SHIFT   
R L2C                                                       SYS / PHASE SHIFT   
R L3Q  0.00000                                              SYS / PHASE SHIFT   
C L1P  0.00000                                              SYS / PHASE SHIFT   
C L5P  0.00000                                              SYS / PHASE SHIFT   
C L2I                                                       SYS / PHASE SHIFT   
C L7I                                                       SYS / PHASE SHIFT   
C L6I                                                       SYS / PHASE SHIFT   
C L7D                                                       SYS / PHASE SHIFT   
J L1C                                                       SYS / PHASE SHIFT   
J L2L  0.00000                                              SYS / PHASE SHIFT   
J L5Q  0.00000                                              SYS / PHASE SHIFT   
J L1L  0.00000                                              SYS / PHASE SHIFT   
I L5A                                                       SYS / PHASE SHIFT   
  2025     1     2    17    30    0.0000000     GPS         TIME OF FIRST OBS   
 C1C    0.000 C2C    0.000 C2P    0.000                     GLONASS COD/PHS/BIS 
DBHZ                                                        SIGNAL STRENGTH UNIT
    18                                                      LEAP SECONDS        
 24 R01  1 R02 -4 R03  5 R04  6 R05  1 R06 -4 R07  5 R08  6 GLONASS SLOT / FRQ #
    R09 -2 R10 -7 R11  0 R12 -1 R13 -2 R14 -7 R15  0 R16 -1 GLONASS SLOT / FRQ #
    R17  4 R18 -3 R19  3 R20  2 R21  4 R22 -3 R23  3 R24  2 GLONASS SLOT / FRQ #
                                                            END OF HEADER       
> 2025 01 02 17 30  0.0000000  0 41
G25         3.000    24147411.828 3                     -4641.219 3        23.295                                                                                                    24147379.032 3                     -3616.576 3        22.343
G05         4.000    22955960.773 4                     -2008.193 4        29.735
E25         6.000    25591167.642 4                     -3411.043 4        25.323                                                                    25591171.305 7 100425258.06607     -2547.299 7        42.197    25591170.387 6 103045074.88106     -2613.755 6        40.114
G31         7.000    22720896.842 7 119399736.38907     -3464.540 7        43.970                                    22720895.057 5  93038129.93105     -2699.640 5        35.419    22720894.609 6  93038304.91006     -2699.719 6        40.536
G28         8.000    23923510.612 4 125718948.24504     -4263.692 4        27.305                                                                                                    23923508.199 4  97962784.95604     -3321.961 4        26.455
G29         9.000    21685015.693 7 113955617.91607     -3103.141 7        47.357                                    21685010.585 6  88796593.71406     -2418.031 6        37.267    21685014.196 6  88796494.75306     -2418.160 6        37.543
E11        10.000    25238273.238 5                     -3092.845 5        33.862                                                                    25238269.845 5  99040406.81705     -2309.721 5        33.563    25238279.116 4 101624055.37304     -2369.225 4        26.575
E10        11.000                                                                                                                                    27821067.856 4                     -2809.013 4        27.186
G18        12.000    20463127.750 7 107534683.71607      -256.748 7        46.863                                    20463120.273 5  83793137.44805      -200.061 5        30.762    20463123.573 6  83793101.44006      -200.158 6        41.302
G27        13.000    24198994.909 5 127166805.90705      2484.952 5        30.377
G26        17.000    20462542.806 7 107531427.36607      -222.906 7        45.074                                                                                                    20462542.260 6  83790694.22806      -173.399 6        38.610
R02        18.000    23187318.576 5                       209.021 5        33.784                                                                    23187302.772 3                       163.400 3        21.190
E30        19.000    25577074.696 7 134408575.11407      1377.583 7        45.916                                                                    25577074.352 7 100370091.99007      1028.670 7        44.238    25577075.864 8 102988383.83608      1055.525 8        48.882
R20        20.000                                                                                                                                    22835112.994 5                      2143.082 5        32.689
E02        21.000    23090992.440 8 121344242.18808     -1149.091 8        51.181                                                                    23090991.910 8  90614114.19408      -858.093 8        51.994    23090990.764 8  92977968.65608      -880.458 8        50.431
S23        22.000    38063623.275 6 200025718.12706      -866.156 6        38.814
R10        23.000    21931999.306 6 116909894.95606      2729.186 6        41.881
E36        24.000    23304589.877 6 122466464.30706      -567.165 6        41.926                                                                    23304588.612 7  91452395.92107      -423.546 7        45.661    23304588.515 7  93838092.52607      -434.525 7        46.562
R18        25.000    20259094.384 7 108144392.95007     -3561.573 7        47.937                                                                    20259092.802 6  84112320.22706     -2770.108 6        40.605
G16        26.000    21766387.722 7 114383212.17307      1832.818 7        45.770                                    21766384.897 4  89129762.19704      1428.167 4        27.138
S21        27.000    38339176.342 5 201473908.51005      -863.434 5        34.976
R01        28.000                                                                                                                                    24042789.027 4                     -2281.821 4        24.195
R19        29.000    19236163.814 5 102900573.18205      -649.249 5        34.033                                                                    19236160.498 5  80034054.28005      -504.833 5        31.517
C05        30.000                                                                                                                                                                                                    39252716.284 5 158054453.51105      -613.103 5        32.892
S36        31.000    38110025.137 5 200269532.23105      -863.052 5        35.595
E34        32.000    25545308.238 5 134241488.85005      1812.352 5        32.790                                                                    25545305.895 6 100245316.06306      1353.320 6        36.053    25545308.607 6 102860414.90706      1388.684 6        40.768
R16        34.000    20696551.850 7 110557200.59907     -4425.044 7        47.808                                                                    20696544.477 3                     -3441.691 3        22.781
C44        35.000                                                                                                                                    22376730.036 7 116521443.33707     -2801.636 7        46.399                                                                    22376727.579 7  94683442.17707     -2276.656 7        43.198
R09        37.000    19338484.725 7 103266518.45107      -236.829 7        44.680                                                                    19338483.970 7  80318436.46807      -184.326 7        42.398
C11        38.000                                                                                                                                    22858386.601 7 119029643.80707      1178.969 7        43.482    22858385.794 7  92041381.07307       911.667 7        47.378    22858383.095 7  96721308.76607       957.933 7        43.107
C43        39.000                                                                                                                                    24711911.025 5 128681460.70405      1876.901 5        34.824                                                                    24711917.956 4                      1525.009 4        28.066
C12        41.000                                                                                                                                    21659623.751 8 112787440.36908     -1600.932 8        48.253    21659620.058 8  87214412.43508     -1237.895 8        49.862    21659619.778 7  91649025.29907     -1300.810 7        47.872
C19        42.000                                                                                                                                    26300318.116 4                     -1053.313 4        24.030
C13        43.000                                                                                                                                    37630466.835 7 195951717.41607      -462.067 7        43.761    37630466.629 6 151522316.30006      -357.177 6        39.123    37630464.814 6 159226820.43506      -375.350 6        39.189
C38        44.000                                                                                                                                                                                                                                                                    38558800.327 4                      -992.795 4        28.673
C25        45.000                                                                                                                                    22121626.240 8 115193174.26608     -1418.527 8        48.202                                                                    22121623.368 7  93604065.84407     -1152.704 7        44.307
C08        46.000                                                                                                                                    37623401.195 6 195914975.09906      -702.266 6        37.357    37623395.484 5 151493934.90305      -542.580 5        32.557    37623396.424 6 159196940.80606      -570.640 6        39.592
C23        47.000                                                                                                                                    24829040.331 7 129291653.39507      1488.773 7        44.476                                                                    24829031.425 6 105059926.34906      1209.769 6        39.372
C24        51.000                                                                                                                                    23800936.405 6 123937772.96006     -3995.546 6        37.180                                                                    23800941.779 6 100709579.15306     -3246.916 6        38.165
C34        52.000                                                                                                                                    21502960.759 8 111971628.02008        69.553 8        49.530                                                                    21502960.689 7  90986201.40307        56.502 7        45.895
I06        58.000    38624683.475 5 151571669.48405      -643.066 5        35.652
> 2025 01 02 17 30  5.0000000  0 40
G25         3.000    24151838.981 4                     -4641.958 4        25.203                                                                                                    24151789.335 3                     -3616.431 3        20.905
G05         4.000    22957872.396 5                     -2011.563 5        30.355
E25         6.000    25594415.064 4                     -3412.024 4        29.156                                                                    25594417.266 7 100437996.22707     -2548.034 7        42.447    25594416.291 6 103058145.33506     -2614.692 6        40.157
G31         7.000    22724194.358 7 119417063.71707     -3466.675 7        44.438                                    22724192.212 6  93051631.74006     -2701.304 6        36.340    22724191.449 6  93051806.70806     -2701.333 6        40.448
G28         8.000    23927569.485 4 125740264.79604     -4264.026 4        27.665                                                                                                    23927561.795 4  97979395.30404     -3322.408 4        25.789
G29         9.000    21687968.518 7 113971136.23007     -3104.459 7        47.139                                    21687964.580 6  88808685.90906     -2419.060 6        37.970    21687966.744 6  88808586.94306     -2419.052 6        38.348
E11        10.000    25241213.316 5 132643486.77015     -3094.107 5        34.038                                                                    25241213.538 5  99051956.55805     -2310.552 5        34.095    25241222.888 4 101635906.46504     -2370.681 4        27.940
E10        11.000    27824669.174 3                     -3762.541 3        21.310                                                                    27824647.605 4                     -2809.419 4        26.383
G18        12.000    20463373.130 7 107535973.96807      -259.625 7        47.182                                    20463366.230 5  83794142.84505      -202.303 5        31.026    20463369.364 6  83794106.82206      -202.252 6        41.831
G27        13.000    24196625.738 4 127154382.22204      2484.182 4        29.640                                                                                                    24196606.941 4                      1934.347 4        24.256
G26        17.000    20462755.595 7 107532548.18207      -225.754 7        43.293                                    20462861.348 2  83791997.58512      -175.878 2        16.755    20462755.475 6  83791567.60206      -176.060 6        38.799
R02        18.000    23187121.291 6 123730938.80616       204.961 6        36.155                                                                    23187112.974 4                       159.376 4        24.767
E30        19.000    25575763.881 7 134401688.94707      1376.611 7        46.068                                                                    25575763.921 7 100364949.73307      1028.002 7        44.400    25575765.597 8 102983107.43508      1054.763 8        49.066
R20        20.000                                                                                                                                    22832544.597 5                      2141.957 5        33.509
E02        21.000    23092086.384 8 121349991.59608     -1150.977 8        50.789                                                                    23092085.952 8  90618407.59308      -859.506 8        51.968    23092084.769 8  92982374.05408      -881.906 8        50.239
S23        22.000    38064448.719 6 200030048.25806      -866.095 6        39.177
R10        23.000    21929441.395 7 116896254.47007      2726.953 7        42.006
E36        24.000    23305130.541 7 122469304.57007      -569.232 7        42.290                                                                    23305129.186 7  91454516.89807      -425.140 7        45.564    23305128.913 7  93840268.83607      -436.174 7        46.478
R18        25.000    20262430.966 7 108162204.48107     -3563.365 7        47.516                                                                    20262429.780 6  84126173.64906     -2771.515 6        41.740
G16        26.000    21764645.273 7 114374052.45407      1830.861 7        45.539                                    21764641.631 4  89122624.77104      1426.637 4        27.916
S21        27.000    38339992.610 5 201478225.44205      -863.430 5        35.019
R01        28.000    24045526.064 3                     -2937.713 3        23.714                                                                    24045531.826 4                     -2284.254 4        24.241
R19        29.000    19236773.708 5 102903825.81505      -652.295 5        34.057                                                                    19236769.160 5  80036584.18705      -507.562 5        30.657
C05        30.000                                                                                                                                                                                                    39253477.604 5 158057517.06905      -612.679 5        32.958
S36        31.000    38110847.706 5 200273846.45805      -862.866 5        35.562
E34        32.000    25543584.645 5 134232429.08105      1811.110 5        34.224                                                                    25543581.361 5 100238550.65405      1352.718 5        35.305    25543584.705 6 102853473.01206      1387.987 6        40.107
R16        34.000    20700693.517 7 110579331.90217     -4427.769 7        46.373
C44        35.000                                                                                                                                    22379420.693 7 116535453.48007     -2802.664 7        45.571                                                                    22379418.336 7  94694826.55307     -2277.439 7        43.672
R09        37.000    19338708.526 7 103267713.48807      -241.279 7        44.510                                                                    19338707.888 7  80319365.95007      -187.683 7        43.685
C11        38.000                                                                                                                                    22857255.301 7 119023751.83607      1177.562 7        43.901    22857253.943 7  92036825.04407       910.536 7        47.077    22857251.612 7  96716521.07107       956.842 7        42.984
C43        39.000                                                                                                                                    24710107.024 5 128672078.35105      1876.291 5        33.689                                                                    24710115.677 4                      1524.385 4        28.332
C12        41.000                                                                                                                                    21661161.599 8 112795448.27308     -1602.578 8        48.209    21661158.071 8  87220604.65508     -1239.192 8        50.259    21661157.300 7  91655532.37007     -1302.212 7        47.860
C13        43.000                                                                                                                                    37630910.834 7 195954029.48907      -462.977 7        44.009    37630910.950 6 151524104.16506      -358.125 6        39.357    37630908.854 6 159228699.21406      -376.293 6        39.378
C38        44.000                                                                                                                                                                                                                                                                    38559971.284 4                      -992.810 4        27.964
C25        45.000                                                                                                                                    22122989.625 7 115200273.50107     -1421.299 7        47.841                                                                    22122986.737 7  93609834.54807     -1154.972 7        44.361
C08        46.000                                                                                                                                    37624075.728 6 195918488.29006      -703.203 6        36.805    37624069.627 5 151496651.54605      -543.617 5        32.545    37624071.266 6 159199795.56406      -571.564 6        40.048
C23        47.000                                                                                                                                    24827611.382 7 129284213.54307      1486.905 7        44.116                                                                    24827602.916 6 105053880.86706      1208.279 6        39.279
C24        51.000                                                                                                                                    23804775.764 6 123957753.83406     -3996.883 6        36.129                                                                    23804778.422 6 100725815.22806     -3247.922 6        38.315
C34        52.000                                                                                                                                    21502894.792 8 111971283.80108        67.890 8        49.350                                                                    21502894.498 7  90985921.70607        55.039 7        45.943
I06        58.000    38625502.035 6 151574883.61106      -642.949 6        36.000
> 2025 01 02 17 30 10.0000000  0 41
G25         3.000    24156259.045 4                     -4642.134 4        25.203                                                                                                    24156197.680 3                     -3618.288 3        21.548
G05         4.000    22959790.605 4                     -2015.111 4        26.970                                                                                                    22959741.103 5                     -1570.130 5        30.008
E25         6.000    25597660.424 5                     -3413.272 5        31.260                                                                    25597664.277 7 100450738.38007     -2548.776 7        42.432    25597663.031 6 103071219.88006     -2615.405 6        39.682
G31         7.000    22727494.045 7 119434401.37507     -3468.552 7        44.733                                    22727491.250 6  93065141.59606     -2702.757 6        37.028    22727490.456 6  93065316.56406     -2702.771 6        40.117
G28         8.000    23931627.804 4 125761585.03404     -4264.469 4        28.976                                                                                                    23931617.391 4  97996008.54804     -3323.650 4        25.729
G29         9.000    21690922.992 7 113986660.99207     -3105.611 7        46.861                                    21690919.817 6  88820783.13006     -2419.952 6        38.201    21690920.614 6  88820684.15506     -2419.894 6        38.643
E11        10.000    25244157.837 5 132658959.35805     -3095.067 5        33.695                                                                    25244158.040 5  99063510.77105     -2311.199 5        35.052    25244166.890 4 101647762.11904     -2371.190 4        28.597
E10        11.000    27828245.381 3                     -3761.109 3        20.238                                                                    27828227.353 4                     -2809.144 4        26.204
G18        12.000    20463621.257 7 107537278.84407      -262.417 7        47.662                                    20463615.071 5  83795159.63205      -204.480 5        31.623    20463617.903 7  83795123.61207      -204.455 7        42.118
G27        13.000    24194261.583 4 127141960.83204      2483.103 4        27.090                                                                                                    24194239.673 3                      1936.105 3        22.190
G26        17.000    20462971.751 7 107533683.92107      -228.651 7        43.154                                    20463077.202 2  83792882.44402      -178.116 2        14.000    20462970.766 6  83792452.60606      -177.983 6        37.652
R02        18.000    23186930.569 5 123729923.44505       201.133 5        35.652                                                                    23186917.368 4                       156.348 4        26.599
E30        19.000    25574454.268 7 134394807.62107      1375.686 7        45.862                                                                    25574454.517 7 100359811.09607      1027.259 7        44.963    25574456.151 8 102977834.73808      1054.179 8        49.126
R20        20.000                                                                                                                                    22829968.969 5                      2140.930 5        33.719
E02        21.000    23093182.379 8 121355750.56908     -1152.766 8        50.378                                                                    23093181.822 8  90622708.13508      -860.827 8        52.061    23093180.688 8  92986786.77808      -883.330 8        50.021
S23        22.000    38065273.081 6 200034378.29706      -866.031 6        39.063
R10        23.000    21926885.767 6 116882624.65006      2724.904 6        40.246
E36        24.000    23305672.777 7 122472155.52307      -571.343 7        42.282                                                                    23305671.796 7  91456645.87007      -426.604 7        45.571    23305671.308 7  93842453.34507      -437.650 7        46.221
R18        25.000    20265768.927 8 108180024.88008     -3565.009 8        48.158                                                                    20265769.070 7  84140033.96607     -2772.794 7        42.263
G16        26.000    21762904.825 7 114364902.29007      1829.136 7        46.485                                    21762900.274 4  89115494.78204      1425.298 4        28.739
S21        27.000    38340814.829 5 201482542.24805      -863.219 5        34.752
R01        28.000    24048285.449 4                     -2940.814 4        28.976                                                                    24048286.167 3                     -2286.473 3        22.381
R19        29.000    19237385.751 5 102907094.41505      -655.347 5        33.192                                                                    19237382.463 5  80039126.40205      -509.413 5        30.234
C05        30.000                                                                                                                                                                                                    39254238.826 5 158060580.63405      -612.822 5        32.737
S36        31.000    38111669.281 5 200278160.62205      -862.867 5        35.462
E34        32.000    25541862.133 5 134223375.24805      1809.984 5        35.710                                                                    25541858.482 5 100231789.65505      1351.863 5        35.248    25541861.833 6 102846535.63906      1387.051 6        39.141
R16        34.000    20704836.317 7 110601476.76207     -4430.390 7        44.560                                                                    20704845.790 5                     -3446.097 5        34.252
C44        35.000                                                                                                                                    22382112.338 7 116549469.32407     -2803.778 7        45.484                                                                    22382110.211 7  94706215.54607     -2278.370 7        43.898
R09        37.000    19338937.186 7 103268930.39007      -245.582 7        44.918                                                                    19338935.427 7  80320312.43307      -190.995 7        44.299
C11        38.000                                                                                                                                    22856127.009 7 119017866.76907      1176.298 7        44.441    22856123.727 7  92032274.34707       909.612 7        46.995    22856121.617 7  96711738.97907       955.789 7        42.736
C43        39.000                                                                                                                                    24708303.470 5 128662699.92605      1875.398 5        31.389                                                                    24708311.154 4                      1523.633 4        28.009
C12        41.000                                                                                                                                    21662701.206 8 112803464.52908     -1604.090 8        48.266    21662697.621 8  87226803.33708     -1240.361 8        50.213    21662696.608 7  91662046.22407     -1303.554 7        47.662
C19        42.000                                                                                                                                    26302324.542 4                     -1057.883 4        26.084
C13        43.000                                                                                                                                    37631356.978 7 195956346.73407      -463.971 7        43.708    37631355.889 6 151525895.99806      -358.788 6        39.736    37631354.052 6 159230582.13506      -377.044 6        39.462
C38        44.000                                                                                                                                    38561116.724 4                     -1223.344 4        27.713                                                                    38561145.027 4                      -994.135 4        28.095
C25        45.000                                                                                                                                    22124354.948 7 115207386.78507     -1424.055 7        46.992                                                                    22124352.656 7  93615614.65407     -1157.272 7        44.146
C08        46.000                                                                                                                                    37624751.695 6 195922006.92406      -704.203 6        36.854    37624747.244 5 151499372.38605      -544.371 5        32.168    37624747.112 6 159202654.73406      -572.397 6        39.898
C23        47.000                                                                                                                                    24826184.240 7 129276783.05107      1485.215 7        43.689                                                                    24826176.370 6 105047842.98606      1206.788 6        39.441
C24        51.000                                                                                                                                    23808617.067 5 123977740.34805     -3997.796 5        35.695                                                                    23808616.582 6 100742055.91006     -3248.709 6        37.970
C34        52.000                                                                                                                                    21502830.704 8 111970948.24308        66.292 8        49.175                                                                    21502830.023 7  90985649.03007        53.714 7        45.913
I06        58.000    38626321.108 5 151578097.60605      -642.888 5        35.843
> 2025 01 02 17 30 15.0000000  0 41
G25         3.000    24160673.851 3                     -4642.206 3        22.267                                                                                                    24160619.985 3                     -3618.390 3        20.214
G05         4.000    22961714.190 3                     -2019.272 3        23.181
E25         6.000    25600907.636 5                     -3414.404 5        32.114                                                                    25600912.272 7 100463484.54007     -2549.714 7        42.690    25600910.999 6 103084298.54206     -2616.502 6        39.099
G31         7.000    22730794.981 7 119451749.36107     -3470.815 7        45.866                                    22730792.215 6  93078659.50006     -2704.526 6        37.327    22730792.373 6  93078834.48406     -2704.527 6        39.652
G28         8.000    23935685.149 5 125782908.84105     -4265.682 5        30.015                                                                                                    23935679.091 4  98012624.36904     -3323.103 4        25.158
G29         9.000    21693878.196 7 114002192.21507     -3107.061 7        46.044                                    21693876.212 6  88832885.39406     -2421.087 6        37.732    21693876.621 6  88832786.43306     -2421.000 6        39.513
E11        10.000    25247103.455 5 132674437.97105     -3096.511 5        33.910                                                                    25247103.270 5  99075069.48705     -2312.185 5        35.743    25247112.514 4 101659622.38304     -2372.366 4        28.597
E10        11.000    27831823.417 3                     -3763.586 3        19.433                                                                    27831805.729 4                     -2809.614 4        26.778
G18        12.000    20463872.083 7 107538598.36507      -265.462 7        47.397                                    20463866.658 5  83796187.82605      -206.853 5        31.736    20463868.689 7  83796151.83107      -206.964 7        42.527
G27        13.000    24191896.227 4 127129541.63604      2482.901 4        26.731                                                                                                    24191879.626 3                      1934.813 3        22.267
G26        17.000    20463191.091 7 107534834.60507      -231.770 7        44.680                                    20463294.796 2  83793778.76502      -180.572 2        13.758    20463190.114 6  83793349.25506      -180.708 6        37.233
R02        18.000    23186741.658 5 123728928.13215       196.956 5        34.400                                                                    23186737.309 4                       153.181 4        28.844
E30        19.000    25573145.974 7 134387931.17107      1374.635 7        45.567                                                                    25573145.998 7 100354676.09907      1026.574 7        45.151    25573147.496 8 102972565.78708      1053.311 8        49.203
R20        20.000                                                                                                                                    22827390.391 5  94942039.65815      2140.013 5        33.808
E02        21.000    23094279.912 8 121361519.12908     -1154.830 8        49.819                                                                    23094279.516 8  90627015.82608      -862.382 8        52.045    23094278.376 8  92991206.83908      -884.831 8        49.825
S23        22.000    38066094.826 6 200038708.48606      -866.259 6        38.589
R10        23.000    21924330.203 6 116869005.71106      2722.526 6        38.772
E36        24.000    23306216.824 7 122475017.22407      -573.577 7        42.387                                                                    23306216.509 7  91458782.84507      -428.302 7        45.553    23306215.894 7  93844646.07407      -439.445 7        46.207
R18        25.000    20269109.651 8 108197854.12108     -3566.867 8        48.470                                                                    20269109.804 7  84153901.15207     -2774.246 7        42.421
G16        26.000    21761165.905 7 114355761.74107      1827.018 7        46.887                                    21761160.593 4  89108372.28104      1423.649 4        28.787
S21        27.000    38341633.270 5 201486859.05705      -863.521 5        34.714
R01        28.000    24051041.614 4                     -2944.146 4        27.210                                                                    24051031.627 3                     -2289.649 3        22.419
R19        29.000    19238000.165 5 102910378.85705      -658.680 5        33.832                                                                    19237999.957 4  80041681.00304      -512.426 4        28.948
C05        30.000                                                                                                                                                                                                    39254999.888 5 158063644.27905      -612.936 5        32.551
S36        31.000    38112490.709 5 200282474.39505      -862.812 5        35.029
E34        32.000    25540141.067 6 134214327.30306      1808.881 6        36.919                                                                    25540137.310 5 100225033.10405      1350.797 5        35.167    25540140.071 6 102839602.78806      1386.003 6        38.114
R16        34.000    20708983.098 7 110623635.37207     -4433.292 7        42.104                                                                    20708991.315 6  86040680.21316     -3447.994 6        36.533
C44        35.000                                                                                                                                    22384805.373 7 116563490.90607     -2805.128 7        45.887                                                                    22384803.080 7  94717609.20707     -2279.297 7        44.181
R09        37.000    19339169.872 7 103270169.20007      -250.131 7        45.488                                                                    19339167.150 7  80321275.93507      -194.410 7        44.269
C11        38.000                                                                                                                                    22854999.879 7 119011988.68907      1174.810 7        44.877    22854995.334 7  92027729.05907       908.397 7        47.126    22854992.822 7  96706962.56307       954.641 7        42.487
C43        39.000                                                                                                                                    24706503.814 4 128653325.46704      1874.596 4        28.445                                                                    24706508.236 4                      1523.469 4        25.353
C12        41.000                                                                                                                                    21664242.300 8 112811489.20808     -1605.868 8        48.130    21664238.441 8  87233008.53008     -1241.792 8        50.051    21664237.746 7  91668566.91307     -1304.855 7        47.492
C19        42.000                                                                                                                                    26303347.717 4                     -1060.662 4        26.419
C13        43.000                                                                                                                                    37631802.685 7 195958669.09707      -465.112 7        43.818    37631802.393 6 151527691.80206      -359.536 6        40.093    37631800.152 6 159232469.24106      -377.922 6        39.646
C38        44.000                                                                                                                                    38562291.943 4                     -1224.255 4        29.024                                                                    38562320.715 4                      -994.920 4        27.245
C25        45.000                                                                                                                                    22125722.844 7 115214514.12607     -1427.059 7        46.271                                                                    22125721.450 7  93621406.18107     -1159.539 7        44.015
C08        46.000                                                                                                                                    37625429.314 6 195925531.17006      -705.763 6        36.900    37625422.973 5 151502097.51205      -545.391 5        31.796    37625423.889 6 159205518.44506      -573.163 6        40.055
C23        47.000                                                                                                                                    24824759.265 7 129269361.94307      1483.085 7        43.790                                                                    24824751.774 6 105041812.73606      1205.087 6        39.751
C24        51.000                                                                                                                                    23812458.498 6 123997732.58506     -3999.301 6        36.877                                                                    23812455.436 6 100758301.23006     -3249.458 6        37.066
C34        52.000                                                                                                                                    21502768.362 8 111970621.40708        64.350 8        49.114                                                                    21502767.371 7  90985383.42507        52.377 7        45.752
I06        58.000    38627140.317 5 151581311.44305      -642.881 5        35.876
> 2025 01 02 17 30 20.0000000  0 39
E25         6.000    25604156.520 5                     -3415.431 5        32.683                                                                    25604161.296 7 100476234.57707     -2550.288 7        42.464    25604160.210 6 103097381.17606     -2616.876 6        39.204
G31         7.000    22734099.195 7 119469107.51007     -3472.634 7        46.800                                    22734095.027 6  93092185.32006     -2705.948 6        37.868    22734094.892 6  93092360.30906     -2705.865 6        38.796
G28         8.000    23939743.237 5 125804236.01905     -4265.194 5        30.913                                                                                                    23939736.234 4  98029243.03104     -3324.205 4        26.144
G29         9.000    21696834.821 7 114017729.85807     -3108.042 7        45.187                                    21696833.703 6  88844992.66506     -2421.858 6        37.444    21696833.959 6  88844893.70906     -2421.895 6        39.811
E11        10.000    25250050.281 5 132689922.40805     -3097.230 5        33.922                                                                    25250049.778 5  99086632.54205     -2312.803 5        35.700    25250058.856 4 101671487.09104     -2372.911 4        29.261
E10        11.000                                                                                                                                    27835384.221 4                     -2810.473 4        26.467
G18        12.000    20464126.181 7 107539932.35907      -268.210 7        46.996                                    20464121.040 5  83797227.30505      -208.991 5        31.985    20464122.839 7  83797191.29307      -208.920 7        43.048
G27        13.000    24189534.441 4 127117124.58904      2483.037 4        27.737                                                                                                    24189515.725 4                      1934.802 4        24.241
G26        17.000    20463413.786 7 107536000.06507      -234.483 7        45.604                                    20463516.503 2  83794686.78902      -182.705 2        14.810    20463412.747 6  83794257.37506      -182.732 6        38.114
R02        18.000    23186564.526 5 123727952.55215       193.237 5        35.700                                                                    23186558.001 5                       150.141 5        30.226
E30        19.000    25571838.484 7 134381059.44907      1373.840 7        45.308                                                                    25571838.504 7 100349544.63007      1025.890 7        45.710    25571839.735 8 102967300.45208      1052.676 8        49.384
R20        20.000                                                                                                                                    22824816.437 5  94931342.90005      2139.034 5        33.401
E02        21.000    23095379.184 8 121367297.09808     -1156.498 8        49.238                                                                    23095379.006 8  90631330.55208      -863.641 8        51.922    23095377.982 8  92995634.12208      -886.195 8        49.728
S23        22.000    38066918.521 6 200043038.79406      -866.089 6        39.057
R10        23.000    21921775.929 6 116855397.51406      2720.795 6        37.157
E36        24.000    23306763.206 7 122477889.46607      -575.469 7        43.183                                                                    23306763.263 7  91460927.69807      -429.758 7        45.422    23306762.445 7  93846846.89007      -440.956 7        45.997
R18        25.000    20272451.011 8 108215692.07708     -3568.461 8        48.926                                                                    20272451.338 6  84167775.11806     -2775.301 6        41.998
G16        26.000    21759428.553 7 114346630.66307      1825.254 7        46.470                                    21759422.635 4  89101257.15904      1422.274 4        28.986
S21        27.000    38342456.420 5 201491175.67205      -863.032 5        35.005
R01        28.000    24053804.196 4                     -2947.689 4        26.000                                                                    24053782.757 3                     -2296.470 3        19.672
R19        29.000    19238614.115 5 102913678.98205      -661.564 5        33.844                                                                    19238616.237 5  80044247.72505      -514.464 5        30.317
C05        30.000                                                                                                                                                                                                    39255760.788 5 158066707.77105      -612.765 5        32.778
S36        31.000    38113302.819 5 200286787.94005      -862.705 5        35.081
E34        32.000    25538421.397 6 134205285.13006      1807.878 6        38.240                                                                    25538417.523 5 100218280.83405      1350.053 5        35.833    25538419.107 6 102832674.37206      1385.223 6        37.089
R16        34.000    20713133.900 6 110645807.39806     -4435.756 6        41.955                                                                    20713138.616 6  86057925.08206     -3449.911 6        38.574
C44        35.000                                                                                                                                    22387499.718 7 116577518.03307     -2805.968 7        46.188                                                                    22387496.982 7  94729007.40607     -2280.156 7        44.366
R09        37.000    19339405.857 7 103271429.59507      -254.162 7        45.761                                                                    19339403.402 7  80322256.26707      -197.704 7        44.960
C11        38.000                                                                                                                                    22853872.604 7 119006117.42607      1173.604 7        44.989    22853868.132 7  92023189.03507       907.472 7        47.539    22853865.345 7  96702191.69607       953.595 7        42.178
C43        39.000                                                                                                                                    24704709.818 5 128643954.80805      1873.745 5        30.151                                                                    24704705.063 3                      1522.858 3        22.705
C12        41.000                                                                                                                                    21665784.966 8 112819522.07508     -1607.341 8        48.327    21665781.071 8  87239220.05708     -1242.884 8        50.181    21665780.391 7  91675094.28607     -1306.163 7        47.347
C19        42.000                                                                                                                                    26304373.744 4                     -1063.659 4        25.594
C13        43.000                                                                                                                                    37632249.636 7 195960996.44507      -465.934 7        43.856    37632248.982 6 151529491.45206      -360.305 6        40.052    37632246.879 6 159234360.41206      -378.712 6        39.111
C38        44.000                                                                                                                                    38563469.227 5                     -1225.120 5        30.302                                                                    38563494.807 4                      -995.565 4        25.534
C25        45.000                                                                                                                                    22127093.953 7 115221655.37007     -1429.546 7        46.049                                                                    22127092.725 7  93627209.04307     -1161.778 7        43.513
C08        46.000                                                                                                                                    37626106.132 6 195929060.74706      -706.548 6        36.843    37626100.862 5 151504826.82005      -546.120 5        31.192    37626101.507 6 159208386.53506      -574.163 6        39.988
C23        47.000                                                                                                                                    24823335.738 7 129261950.07507      1481.519 7        44.301                                                                    24823328.699 6 105035790.01206      1203.640 6        40.179
C24        51.000                                                                                                                                    23816300.320 6 124017730.35606     -4000.051 6        37.342                                                                    23816294.954 6 100774551.06906     -3250.547 6        36.514
C34        52.000                                                                                                                                    21502707.432 8 111970303.08708        62.829 8        49.277                                                                    21502706.282 7  90985124.77807        50.941 7        45.756
I06        58.000    38627959.015 6 151584525.03306      -642.622 6        36.095
> 2025 01 02 17 30 25.0000000  0 40
G05         4.000    22965564.937 3                     -2027.761 3        18.179                                                                                                    22965543.226 5  94040077.84715     -1577.793 5        34.305
E25         6.000    25607407.430 5                     -3416.253 5        33.503                                                                    25607410.985 6 100488988.66106     -2551.189 6        41.881    25607410.269 6 103110467.98006     -2617.678 6        39.102
G31         7.000    22737404.632 7 119486476.04907     -3474.607 7        46.956                                    22737399.771 6  93105719.24306     -2707.485 6        37.830    22737399.730 6  93105894.23306     -2707.593 6        38.441
G28         8.000    23943801.768 5 125825566.82105     -4266.491 5        32.665                                                                                                    23943797.818 4  98045864.34704     -3324.416 4        26.970
G29         9.000    21699792.843 7 114033273.99507     -3109.317 7        44.202                                    21699792.205 6  88857105.00506     -2422.849 6        36.711    21699790.733 6  88857006.03206     -2422.742 6        39.267
E11        10.000    25252998.198 5 132705412.90805     -3098.570 5        32.820                                                                    25252996.742 5  99098200.12405     -2313.843 5        35.514    25253006.914 4 101683356.42404     -2373.978 4        28.834
E10        11.000    27838987.891 3                     -3762.906 3        19.433                                                                    27838963.746 4                     -2810.151 4        27.114
G18        12.000    20464382.766 7 107541281.05307      -271.067 7        46.935                                    20464378.265 5  83798278.24705      -211.225 5        32.317    20464379.450 7  83798242.23107      -211.234 7        43.537
G27        13.000    24187171.063 4 127104709.74904      2483.157 4        29.640                                                                                                    24187159.574 4                      1934.792 4        27.760
G26        17.000    20463638.091 7 107537180.53807      -237.430 7        46.447                                    20463740.643 1  83795606.49601      -185.061 1        11.111    20463636.996 6  83795177.25306      -185.024 6        38.913
R02        18.000    23186391.802 5 123726997.00405       189.124 5        34.095                                                                    23186380.523 5                       147.190 5        30.468
E30        19.000    25570532.046 7 134374192.66807      1372.912 7        44.698                                                                    25570531.984 7 100344416.84507      1025.278 7        46.104    25570532.840 8 102962038.89908      1052.001 8        49.585
R20        20.000                                                                                                                                    22822247.131 5  94920651.49805      2137.792 5        33.084
E02        21.000    23096480.530 8 121373084.72208     -1158.379 8        48.826                                                                    23096480.266 8  90635652.48208      -865.022 8        51.888    23096479.365 8  93000068.78708      -887.567 8        49.654
S23        22.000    38067744.962 6 200047369.20606      -865.948 6        38.763
R10        23.000    21919218.910 5 116841800.25205      2718.444 5        35.105
E36        24.000    23307311.571 7 122480772.49507      -577.741 7        42.995                                                                    23307311.881 7  91463080.60607      -431.304 7        45.193    23307311.005 7  93849055.97007      -442.589 7        45.705
R18        25.000    20275794.404 8 108233538.92508     -3570.135 8        49.508                                                                    20275794.896 6  84181656.00306     -2776.830 6        41.082
G16        26.000    21757692.641 7 114337509.27107      1823.446 7        46.056                                    21757686.635 4  89094149.59404      1420.863 4        28.739
S21        27.000    38343276.055 5 201495492.75405      -863.150 5        34.376
R01        28.000    24056554.445 4                     -2951.366 4        24.556                                                                    24056533.708 3                     -2295.196 3        21.595
R19        29.000    19239235.152 5 102916994.99805      -664.528 5        35.743                                                                    19239235.439 5  80046826.88705      -517.358 5        30.589
C05        30.000                                                                                                                                                                                                    39256520.829 5 158069771.35905      -612.798 5        32.904
S36        31.000    38114132.314 5 200291101.29905      -862.793 5        35.181
E34        32.000    25536702.120 6 134196248.92406      1806.835 6        38.781                                                                    25536698.839 6 100211533.06006      1349.275 6        36.749    25536699.059 6 102825750.54506      1384.383 6        36.125
R16        34.000    20717287.601 7 110667993.06107     -4438.363 7        42.313                                                                    20717290.806 6  86075180.57606     -3452.009 6        39.985
C44        35.000                                                                                                                                    22390194.642 7 116591550.94607     -2807.077 7        46.170                                                                    22390191.944 7  94740410.27607     -2280.815 7        44.951
R09        37.000    19339645.741 7 103272711.97507      -258.591 7        45.043                                                                    19339643.990 7  80323253.67807      -201.065 7        45.657
