     3.04           OBSERVATION DATA    M                   RINEX VERSION / TYPE
ssrcrin-15.6.1x                         20250102 040000 UTC PGM / RUN BY / DATE 
(00000000023479385599111004) Septentrio proprietary         COMMENT             
ract                                                        MARKER NAME         
01                                                          MARKER NUMBER       
geodetic                                                    MARKER TYPE         
NFB                 CLIMERS@TUW                             OBSERVER / AGENCY   
3296359             SEPT ASTERX SB3 PROB4.14.4              REC # / TYPE / VERS 
Unknown             Unknown                                 ANT # / TYPE        
  4127446.2652  1206914.8897  4695543.1156                  APPROX POSITION XYZ 
        0.0000        0.0000        0.0000                  ANTENNA: DELTA H/E/N
G   23 X1  C1C L1C D1C S1C C1W S1W C2W L2W D2W S2W C2L L2L  SYS / # / OBS TYPES 
       D2L S2L C5Q L5Q D5Q S5Q C1L L1L D1L S1L              SYS / # / OBS TYPES 
E   21 X1  C1C L1C D1C S1C C6C L6C D6C S6C C5Q L5Q D5Q S5Q  SYS / # / OBS TYPES 
       C7Q L7Q D7Q S7Q C8Q L8Q D8Q S8Q                      SYS / # / OBS TYPES 
S    9 X1  C1C L1C D1C S1C C5I L5I D5I S5I                  SYS / # / OBS TYPES 
R   17 X1  C1C L1C D1C S1C C2P L2P D2P S2P C2C L2C D2C S2C  SYS / # / OBS TYPES 
       C3Q L3Q D3Q S3Q                                      SYS / # / OBS TYPES 
C   25 X1  C1P L1P D1P S1P C5P L5P D5P S5P C2I L2I D2I S2I  SYS / # / OBS TYPES 
       C7I L7I D7I S7I C6I L6I D6I S6I C7D L7D D7D S7D      SYS / # / OBS TYPES 
J   17 X1  C1C L1C D1C S1C C2L L2L D2L S2L C5Q L5Q D5Q S5Q  SYS / # / OBS TYPES 
       C1L L1L D1L S1L                                      SYS / # / OBS TYPES 
I    5 X1  C5A L5A D5A S5A                                  SYS / # / OBS TYPES 
SEPTENTRIO RECEIVERS OUTPUT ALIGNED CARRIER PHASES.         COMMENT             
NO FURTHER PHASE SHIFT APPLIED IN THE RINEX ENCODER.        COMMENT             
G L1C                                                       SYS / PHASE SHIFT   
G L2W                                                       SYS / PHASE SHIFT   
G L2L  0.00000                                              SYS / PHASE SHIFT   
G L5Q  0.00000                                              SYS / PHASE SHIFT   
G L1L  0.00000                                              SYS / PHASE SHIFT   
E L1C  0.00000                                              SYS / PHASE SHIFT   
E L6C  0.00000                                              SYS / PHASE SHIFT   
E L5Q  0.00000                                              SYS / PHASE SHIFT   
E L7Q  0.00000                                              SYS / PHASE SHIFT   
E L8Q  0.00000                                              SYS / PHASE SHIFT   
S L1C                                                       SYS / PHASE SHIFT   
S L5I                                                       SYS / PHASE SHIFT   
R L1C                                                       SYS / PHASE SHIFT   
R L2P  0.00000                                              SYS / PHASE SHIFT   
R L2C                                                       SYS / PHASE SHIFT   
R L3Q  0.00000                                              SYS / PHASE SHIFT   
C L1P  0.00000                                              SYS / PHASE SHIFT   
C L5P  0.00000                                              SYS / PHASE SHIFT   
C L2I                                                       SYS / PHASE SHIFT   
C L7I                                                       SYS / PHASE SHIFT   
C L6I                                                       SYS / PHASE SHIFT   
C L7D                                                       SYS / PHASE SHIFT   
J L1C                                                       SYS / PHASE SHIFT   
J L2L  0.00000                                              SYS / PHASE SHIFT   
J L5Q  0.00000                                              SYS / PHASE SHIFT   
J L1L  0.00000                                              SYS / PHASE SHIFT   
I L5A                                                       SYS / PHASE SHIFT   
  2025     1     2     4     0    0.0000000     GPS         TIME OF FIRST OBS   
 C1C    0.000 C2C    0.000 C2P    0.000                     GLONASS COD/PHS/BIS 
DBHZ                                                        SIGNAL STRENGTH UNIT
    18                                                      LEAP SECONDS        
 24 R01  1 R02 -4 R03  5 R04  6 R05  1 R06 -4 R07  5 R08  6 GLONASS SLOT / FRQ #
    R09 -2 R10 -7 R11  0 R12 -1 R13 -2 R14 -7 R15  0 R16 -1 GLONASS SLOT / FRQ #
    R17  4 R18 -3 R19  3 R20  2 R21  4 R22 -3 R23  3 R24  2 GLONASS SLOT / FRQ #
                                                            END OF HEADER       
> 2025 01 02 04 00  0.0000000  0 39
G03         1.000    23008969.751 5 120912933.54705     -4022.218 5        35.348                                    23008969.125 4  94217844.06104     -3134.194 4        25.805    23008966.374 5  94217873.06405     -3134.152 5        35.867
G20         4.000    24289328.758 5 127641216.58905      2555.697 5        35.848                                    24289303.743 1  99460587.56801      1991.637 1         2.200
G07         5.000    22224906.114 5 116792695.95705      1708.088 5        34.443                                    22224903.202 4  91007304.54404      1330.970 4        29.839    22224902.956 6  91007263.57506      1330.761 6        40.253
G09         6.000    20047533.780 7 105350499.92507      -988.529 7        46.607                                    20047531.553 8  82091312.78508      -770.281 8        49.062    20047531.804 7  82091299.78707      -770.300 7        46.787
E06        11.000    27002463.500 4                      1612.942 4        29.848                                                                    27002440.902 3                      1203.123 3        20.952    27002457.885 4 108727683.21104      1236.540 4        24.917
G04        12.000    20948895.740 6 110087476.20506     -2691.226 6        41.263                                    20948892.556 4  85782256.32604     -2097.067 4        24.481    20948891.823 6  85782213.31206     -2097.088 6        41.027
E12        13.000    24714270.096 7 129874389.27607     -2671.444 7        43.333                                                                    24714266.397 7  96984135.22407     -1994.854 7        43.107    24714267.060 7  99514144.65507     -2046.953 7        46.877
E29        14.000    26313971.725 5 138280853.34905     -3228.977 5        34.324                                                                    26313973.378 6 103261650.45706     -2411.136 6        36.594    26313972.651 4 105955477.72204     -2474.434 4        26.970
G06        15.000    21301692.541 7 111941137.26407     -1430.292 7        46.071                                    21301687.642 7  87226850.58507     -1114.510 7        42.626    21301689.108 6  87226948.61206     -1114.495 6        41.638
E11        16.000    24919108.524 5 130950807.25705       290.681 5        31.170                                                                    24919105.663 5  97787927.38805       217.261 5        31.253    24919109.285 5                       222.752 5        30.143
E04        17.000    24897784.558 6 130838735.86506       980.444 6        41.425                                                                    24897780.509 6  97704306.32806       732.182 6        40.663    24897778.925 6 100253058.12406       751.283 6        39.249
R08        18.000    19689453.569 8 105436295.36208      -316.046 8        48.176                                                                    19689450.439 6  82005978.67006      -245.760 6        39.036
E19        20.000    23153157.455 7 121670669.49207     -1658.810 7        44.576                                                                    23153154.253 7  90857979.09307     -1238.781 7        44.612    23153154.497 7  93228174.24207     -1271.052 7        45.574
E36        22.000    28637573.204 5                      2048.959 5        31.457
S36        23.000    38285107.606 6 201189660.74406      -850.349 6        36.544
S23        24.000    38226695.498 6 200882598.04606      -845.800 6        40.431
G11        25.000    22792302.106 7 119774339.10407      1137.461 7        46.289                                    22792294.526 4  93330688.81804       886.328 4        29.052    22792296.570 6  93330657.79206       886.219 6        40.846
E33        28.000                                                                                                                                    27687499.902 3                     -3110.335 3        21.452
E10        29.000    24238552.411 7 127374540.42207     -1322.688 7        45.630                                                                    24238550.561 8  95117334.97908      -987.652 8        49.792    24238550.047 8  97598743.99008     -1013.485 8        52.111
C20        31.000                                                                                                                                    21935433.844 8 114223715.79708      -894.035 8        51.138                                                                    21935428.755 8  92816003.80608      -726.656 8        48.545
R10        32.000    21815771.045 5                      2621.853 5        30.770
R23        33.000    21150848.911 5 113142997.18105     -3911.718 5        35.876
R07        34.000    20919565.877 6 111984082.62506     -3188.771 6        36.692                                                                    20919564.958 6  87098913.01406     -2480.243 6        39.501
R22        35.000    23801330.366 4                     -5384.542 4        28.891                                                                    23801291.570 3                     -4185.894 3        23.581
C32        36.000                                                                                                                                    24564436.911 5                     -3262.714 5        32.964                                                                    24564411.036 4 103940063.25404     -2651.172 4        28.929
R09        37.000    21080220.782 7 112567217.81407      -470.744 7        42.737                                                                    21080220.005 7  87552318.38107      -366.060 7        44.525
C23        40.000                                                                                                                                    24835548.656 5 129325120.62005     -2055.602 5        34.490                                                                    24835515.127 5 105087228.23305     -1670.377 5        34.529
C35        41.000                                                                                                                                    24669059.789 4 128458313.36304     -1173.635 4        29.365                                                                    24669062.911 5 104382877.14105      -953.962 5        34.290
C37        42.000                                                                                                                                                                                                                                                                    23686390.688 7 100224856.54807       654.957 7        43.264
R24        43.000    21536345.876 8 115164375.43608       472.949 8        48.719                                                                    21536339.460 6  89572374.57906       367.783 6        40.276
R01        44.000                                                                                                                                    22806339.931 3                      1762.419 3        22.190
C16        45.000                                                                                                                                    39644214.833 4                     -1781.989 4        26.012    39644223.648 4                     -1378.401 4        27.904
C39        46.000                                                                                                                                    40442670.258 3                     -2017.691 3        20.786
C09        47.000                                                                                                                                    38750503.447 5 201784002.73905     -1340.152 5        30.453    38750491.353 6 156032160.99606     -1036.090 6        36.234    38750490.498 6 163966010.78706     -1088.882 6        37.251
C19        48.000                                                                                                                                    23837759.185 7 124129488.46307      1345.830 7        44.305                                                                    23837754.153 5 100865326.15405      1093.561 5        34.105
C06        50.000                                                                                                                                    39074715.099 4 203472197.57004     -1754.879 4        27.437    39074712.967 5 157337640.15005     -1357.001 5        34.029    39074682.169 4                     -1426.394 4        26.946
C29        54.000                                                                                                                                    24999813.713 6 130180592.90706     -3669.831 6        36.374
I09        58.000    37834355.887 6 148470126.72806      -992.059 6        39.234
I06        59.000    38067418.292 6 149384727.76106      -593.060 6        36.004
> 2025 01 02 04 00  5.0000000  0 40
G03         1.000    23012797.650 5 120933047.84705     -4023.336 5        33.335                                    23012796.351 4  94233517.53804     -3135.063 4        24.511    23012794.103 5  94233546.56205     -3135.172 5        34.714
G20         4.000    24286900.110 6 127628439.19806      2555.350 6        36.605                                    24286872.388 1  99450631.22001      1990.986 1         1.778
G07         5.000    22223284.686 6 116784162.09206      1705.994 6        38.180                                    22223279.538 5  91000654.78105      1329.344 5        30.506    22223279.566 6  91000613.79506      1329.260 6        40.327
G09         6.000    20048475.782 7 105355448.76207      -990.745 7        46.919                                    20048473.299 8  82095169.02008      -772.009 8        49.758    20048473.440 7  82095156.01707      -772.036 7        47.126
E06        11.000    27000934.778 4                      1612.457 4        27.186                                                                                                                                    27000927.351 3 108721505.42303      1233.601 3        22.514
G04        12.000    20951457.431 6 110100936.76506     -2692.833 6        40.551                                    20951453.445 4  85792745.06504     -2098.312 4        24.045    20951453.023 6  85792702.06206     -2098.386 6        40.782
E12        13.000    24716813.042 7 129887752.65207     -2673.630 7        43.096                                                                    24716809.503 7  96994114.35407     -1996.517 7        43.471    24716810.230 7  99524384.12407     -2048.665 7        47.216
E29        14.000    26317044.334 5 138296999.59305     -3229.078 5        34.595                                                                    26317046.227 6 103273707.69906     -2411.481 6        36.654    26317045.161 4 105967849.51604     -2474.805 4        28.218
G06        15.000    21303055.086 7 111948297.83807     -1433.719 7        46.133                                    21303050.176 6  87232430.25106     -1117.183 6        41.807    21303051.713 6  87232528.27506     -1117.062 6        40.532
E11        16.000    24918837.067 5 130949360.36305       288.268 5        32.234                                                                    24918830.072 5  97786846.88805       215.624 5        32.036    24918835.385 5                       220.844 5        30.543
E04        17.000    24896852.983 7 130833837.35507       979.205 7        42.080                                                                    24896848.072 6  97700648.35806       731.361 6        40.861    24896847.023 6 100249304.73306       750.318 6        39.529
R08        18.000    19689750.365 7 105437881.14407      -318.051 7        47.978                                                                    19689745.439 6  82007212.04906      -247.323 6        37.656
E19        20.000    23154736.031 7 121678967.64507     -1660.104 7        44.679                                                                    23154733.342 7  90864175.75507     -1239.701 7        44.361    23154733.619 7  93234532.56407     -1272.086 7        45.691
E36        22.000    28635624.717 4                      2048.234 4        29.706
S36        23.000    38285915.154 6 201193912.23006      -850.213 6        36.650
S23        24.000    38227500.600 6 200886826.95206      -845.742 6        40.598
G11        25.000    22791221.464 7 119768659.50807      1134.612 7        46.129                                    22791213.914 4  93326263.16804       884.118 4        29.185    22791214.607 6  93326232.13306       884.102 6        40.751
R16        26.000                                                                                                                                    23486141.351 3                     -3084.311 3        21.690
E33        28.000                                                                                                                                    27691463.209 3                     -3111.347 3        20.833
E10        29.000    24239811.880 7 127381160.66107     -1325.234 7        45.326                                                                    24239810.393 8  95122278.66908      -989.646 8        49.875    24239809.784 8  97603816.64308     -1015.456 8        52.173
C20        31.000                                                                                                                                    21936293.316 8 114228190.37808      -895.545 8        51.455                                                                    21936287.915 8  92819639.77208      -727.742 8        48.341
R23        33.000    21154506.333 6 113162564.34906     -3914.927 6        38.201
R07        34.000    20922547.658 6 112000031.69806     -3190.384 6        41.144                                                                    20922544.163 6  87111317.81506     -2481.574 6        38.835
R22        35.000    23806369.164 4                     -5385.259 4        27.916                                                                    23806334.125 4                     -4188.464 4        24.346
C32        36.000                                                                                                                                    24567569.309 5                     -3263.200 5        34.852                                                                    24567539.786 4 103953320.67104     -2651.687 4        28.559
R09        37.000    21080662.510 6 112569582.97906      -475.112 6        40.393                                                                    21080663.056 7  87554158.00107      -369.640 7        44.921
C23        40.000                                                                                                                                                                                                                                                                    24837485.603 5 105095585.74405     -1672.532 5        33.287
C35        41.000                                                                                                                                                                                                                                                                    24670200.252 5 104387651.73505      -956.062 5        34.848
C37        42.000                                                                                                                                    23685656.382 5                       803.681 5        33.245                                                                    23685617.343 7 100221586.76507       652.984 7        42.785
R24        43.000    21535904.798 8 115162022.29208       468.530 8        48.207                                                                    21535900.485 6  89570544.34806       364.547 6        40.458
R01        44.000    22804213.985 4                      2266.875 4        28.493                                                                    22804223.892 3                      1762.136 3        23.790
C16        45.000                                                                                                                                    39645927.674 4                     -1782.405 4        26.024    39645935.488 4                     -1378.557 4        29.213
C39        46.000                                                                                                                                    40444610.566 3                     -2021.377 3        18.627
C09        47.000                                                                                                                                    38751789.517 5 201790703.97805     -1340.358 5        31.291    38751778.615 6 156037342.85606     -1036.459 6        36.189    38751777.220 6 163971456.13706     -1089.245 6        37.025
C19        48.000                                                                                                                                    23836466.454 7 124122761.90807      1345.016 7        43.735                                                                    23836462.763 5 100859860.27105      1092.984 5        35.290
C06        50.000                                                                                                                                    39076403.100 4 203480973.97004     -1754.673 4        27.641    39076398.261 5 157344426.65605     -1357.557 5        33.952    39076366.495 4                     -1426.341 4        27.090
C44        52.000                                                                                                                                    26416228.107 4 137556281.01314       997.252 4        29.422
C29        54.000                                                                                                                                    25003338.214 6 130198945.33806     -3670.970 6        36.038
I09        58.000    37835619.640 6 148475088.64106      -992.378 6        39.204
I06        59.000    38068173.781 6 149387693.29806      -593.019 6        36.242
> 2025 01 02 04 00 10.0000000  0 40
G03         1.000    23016626.492 5 120953167.62205     -4024.156 5        31.608                                    23016624.347 3  94249195.28403     -3135.704 3        22.971    23016622.868 5  94249224.29305     -3135.882 5        33.922
G20         4.000    24284463.238 6 127615663.19306      2554.895 6        38.240                                    24284441.023 1  99440675.73301      1990.629 1         3.200
G07         5.000    22221663.598 6 116775637.16206      1703.974 6        40.980                                    22221657.497 5  90994011.97605      1327.771 5        31.094    22221656.333 6  90993971.00106      1327.637 6        40.138
G09         6.000    20049419.413 8 105360408.28308      -993.209 8        48.306                                    20049417.160 8  82099033.57908      -773.929 8        50.529    20049417.363 7  82099020.57107      -773.904 7        47.233
E06        11.000                                                                                                                                    26999387.835 4                      1203.347 4        25.910    26999397.696 3 108715329.60703      1234.378 3        23.010
G04        12.000    20954021.250 6 110114405.11406     -2694.658 6        40.713                                    20954016.101 3  85803239.87703     -2099.726 3        23.467    20954016.028 6  85803196.86206     -2099.623 6        40.257
E12        13.000    24719358.213 7 129901126.12607     -2676.035 7        43.012                                                                    24719354.517 7  97004101.03407     -1998.143 7        43.676    24719355.155 7  99534631.33507     -2050.395 7        47.384
E29        14.000    26320117.533 5 138313147.15705     -3229.960 5        35.481                                                                    26320119.720 6 103285765.97706     -2412.096 6        36.231    26320118.137 4 105980222.24504     -2474.413 4        28.645
G06        15.000    21304420.459 7 111955475.11807     -1437.329 7        45.944                                    21304415.814 6  87238022.93506     -1119.995 6        41.228    21304417.855 6  87238120.96806     -1119.978 6        39.492
E11        16.000    24918564.472 5 130947924.43805       286.208 5        33.042                                                                    24918556.700 5  97785774.66205       213.431 5        32.725    24918563.233 5                       219.037 5        30.928
E04        17.000    24895922.240 7 130828943.77607       978.070 7        42.601                                                                    24895916.805 6  97696994.07506       730.380 6        40.970    24895915.914 6 100245555.12106       749.308 6        39.619
R08        18.000    19690046.913 7 105439476.36607      -320.185 7        47.883                                                                    19690042.553 6  82008452.79406      -249.132 6        36.941
E19        20.000    23156316.168 7 121687271.54507     -1661.583 7        44.960                                                                    23156313.508 7  90870376.72007     -1240.827 7        44.522    23156313.989 7  93240895.29607     -1273.195 7        45.911
E36        22.000    28633677.741 4                      2047.269 4        28.635                                                                                                                                    28633657.192 3                      1569.624 3        22.933
S36        23.000    38286719.384 6 201198163.03306      -850.115 6        36.087
S23        24.000    38228298.897 6 200891055.72306      -845.839 6        40.200
G11        25.000    22790143.471 7 119762993.53107      1131.604 7        46.795                                    22790135.922 4  93321848.12704       881.768 4        29.412    22790136.658 6  93321817.09806       881.819 6        40.887
R16        26.000    23489841.777 4 125478837.13814     -3968.664 4        28.218                                                                    23489863.311 3                     -3086.928 3        23.257
E33        28.000                                                                                                                                    27695426.555 3                     -3110.678 3        22.324
E10        29.000    24241073.586 7 127387793.11807     -1327.894 7        44.810                                                                    24241072.611 8  95127231.48208      -991.648 8        50.315    24241071.852 8  97608898.65908     -1017.483 8        52.167
C20        31.000                                                                                                                                    21937153.786 8 114232672.07408      -897.274 8        51.414                                                                    21937148.427 7  92823281.50407      -728.963 7        47.805
R23        33.000    21158167.653 6 113182147.87906     -3918.533 6        40.098
R07        34.000    20925528.144 7 112015986.72307     -3191.744 7        44.208                                                                    20925523.995 6  87123727.21506     -2482.406 6        37.822
R22        35.000    23811404.153 4                     -5384.872 4        26.898                                                                    23811369.037 3                     -4187.400 3        23.238
C32        36.000                                                                                                                                    24570698.524 6 127946099.56216     -3263.956 6        36.370                                                                    24570668.044 4 103966580.68204     -2652.043 4        29.706
R09        37.000    21081109.700 6 112571970.27206      -479.816 6        40.725                                                                    21081110.372 7  87556014.79607      -373.221 7        45.199
C23        40.000                                                                                                                                    24839487.715 5 129345703.75805     -2061.164 5        31.057                                                                    24839460.114 5 105103953.70505     -1675.007 5        32.132
C35        41.000                                                                                                                                                                                                                                                                    24671335.934 5 104392437.26805      -958.242 5        34.995
C37        42.000                                                                                                                                    23684884.794 5                       801.169 5        33.940                                                                    23684846.342 7 100218326.52007       651.122 7        42.210
R24        43.000    21535467.702 7 115159690.67207       463.939 7        47.256                                                                    21535464.086 6  89568730.85506       360.910 6        40.131
R01        44.000    22802096.247 5                      2266.136 5        30.551                                                                    22802098.307 4                      1762.340 4        25.865
C16        45.000                                                                                                                                    39647641.745 4                     -1782.195 4        25.323    39647647.239 4                     -1378.485 4        29.147
C39        46.000                                                                                                                                    40446542.763 3                     -2023.989 3        19.015
C09        47.000                                                                                                                                    38753075.551 5 201797407.32705     -1341.570 5        30.423    38753065.489 5 156042526.29005     -1036.976 5        35.938    38753064.496 6 163976903.11606     -1089.458 6        36.968
C19        48.000                                                                                                                                    23835175.347 7 124116038.93307      1344.064 7        43.022                                                                    23835172.222 6 100854397.29506      1092.465 6        36.310
C06        50.000                                                                                                                                    39078089.454 4 203489751.81804     -1755.918 4        27.928    39078082.765 5 157351214.20905     -1357.682 5        33.204    39078052.846 4                     -1427.116 4        26.695
C44        52.000                                                                                                                                    26415278.936 4 137551299.80804       995.081 4        27.485
C29        54.000                                                                                                                                    25006864.379 5 130217302.45205     -3671.960 5        35.700                                                                    25006866.333 5 105812237.22115     -2983.753 5        32.629
I09        58.000    37836884.185 6 148480050.94006      -992.637 6        39.084
I06        59.000    38068929.792 6 149390658.82406      -593.249 6        36.170
> 2025 01 02 04 00 15.0000000  0 41
G03         1.000    23020455.097 5 120973293.63105     -4025.834 5        31.721                                    23020453.504 3  94264877.89103     -3137.004 3        20.714    23020453.864 5  94264906.89305     -3136.942 5        34.038
G20         4.000    24282023.241 6 127602889.44906      2554.474 6        39.156                                    24282010.495 1  99430722.21601      1990.502 1         5.286
G07         5.000    22220042.541 6 116767122.05806      1701.902 6        40.796                                    22220037.128 5  90987376.81705      1326.160 5        30.725    22220035.712 6  90987335.82306      1326.297 6        39.108
G09         6.000    20050365.600 8 105365379.30108      -995.445 8        48.972                                    20050363.243 8  82102907.09408      -775.673 8        51.280    20050363.252 7  82102894.09307      -775.676 7        47.714
G26         7.000    24277638.259 3                     -1479.802 3        23.048
E06        11.000                                                                                                                                    26997853.876 4                      1203.222 4        28.161    26997868.526 3                      1230.945 3        22.609
G04        12.000    20956585.766 6 110127882.04306     -2696.278 6        41.378                                    20956580.393 3  85813741.38303     -2100.997 3        23.371    20956580.689 6  85813698.37006     -2101.008 6        39.742
E12        13.000    24721905.227 7 129914510.53607     -2677.973 7        42.883                                                                    24721901.444 7  97014095.88407     -1999.852 7        43.801    24721901.947 7  99544886.91807     -2052.018 7        47.119
E29        14.000    26323191.359 5 138329296.91605     -3230.142 5        35.343                                                                    26323193.431 5 103297825.87505     -2412.464 5        35.729    26323192.456 4 105992596.80004     -2475.034 4        29.725
G06        15.000    21305789.278 7 111962669.92107     -1440.775 7        45.998                                    21305784.806 6  87243629.28006     -1122.682 6        40.903    21305787.240 6  87243727.30506     -1122.721 6        39.345
E11        16.000    24918293.944 5 130946500.43605       283.452 5        32.874                                                                    24918286.429 5  97784711.25705       211.925 5        33.569    24918293.474 5                       217.463 5        30.362
E04        17.000    24894992.183 7 130824055.99107       976.829 7        42.265                                                                    24894986.742 6  97693344.10606       729.421 6        41.077    24894985.540 6 100241809.93106       748.460 6        39.625
R08        18.000    19690346.757 8 105441082.00308      -322.193 8        48.175                                                                    19690343.846 5  82009701.61705      -250.549 5        35.143
E19        20.000    23157897.862 7 121695582.07307     -1662.696 7        45.102                                                                    23157894.923 7  90876582.63207     -1241.666 7        44.465    23157895.576 7  93247263.10507     -1274.126 7        45.896
E36        22.000    28631728.825 4                      2047.114 4        26.671                                                                                                                                    28631708.629 3                      1567.817 3        22.019
S36        23.000    38287525.135 6 201202414.41806      -850.723 6        36.034
S23        24.000    38229107.625 6 200895285.27106      -846.128 6        39.868
G11        25.000    22789068.168 7 119757342.02707      1128.833 7        47.675                                    22789060.747 4  93317444.35804       879.608 4        29.697    22789061.227 6  93317413.32306       879.745 6        40.932
R16        26.000    23493563.751 4 125498688.24404     -3971.573 4        28.806                                                                    23493577.351 3                     -3089.020 3        23.238
E33        28.000                                                                                                                                    27699390.998 3                     -3110.717 3        21.167
E10        29.000    24242338.123 7 127394438.65907     -1330.624 7        44.011                                                                    24242337.333 8  95132194.04808      -993.552 8        50.513    24242336.462 8  97613990.68408     -1019.435 8        52.059
C20        31.000                                                                                                                                    21938015.720 8 114237161.71708      -898.754 8        51.343                                                                    21938010.542 7  92826929.71507      -730.274 7        47.390
R23        33.000    21161832.418 7 113201748.63507     -3921.835 7        42.174
R07        34.000    20928513.401 7 112031948.75207     -3193.076 7        44.966                                                                    20928506.429 6  87136142.11506     -2483.614 6        38.249
R22        35.000                                                                                                                                    23816420.361 3                     -4187.894 3        23.124
C32        36.000                                                                                                                                    24573826.231 6 127962421.96906     -3265.054 6        37.259                                                                    24573799.935 5 103979843.97005     -2652.962 5        30.581
R09        37.000    21081561.276 6 112574380.61106      -484.234 6        39.438                                                                    21081561.436 7  87557889.49907      -376.748 7        45.514
C23        40.000                                                                                                                                    24841466.580 5 129356015.32405     -2063.478 5        31.940                                                                    24841440.642 5 105112332.75405     -1677.097 5        30.528
C35        41.000                                                                                                                                    24672509.776 6 128475982.07006     -1182.408 6        37.036                                                                    24672467.680 5 104397234.40905      -960.559 5        34.890
C37        42.000                                                                                                                                    23684112.276 5 123329417.26315       798.880 5        31.608                                                                    23684078.087 6 100215076.52506       648.911 6        41.635
R24        43.000    21535034.208 7 115157381.48807       459.535 7        46.061                                                                    21535032.217 6  89566934.83506       357.419 6        39.721
R01        44.000    22799977.954 5                      2265.303 5        31.585                                                                    22799976.343 4                      1762.467 4        26.132
C16        45.000                                                                                                                                    39649358.603 4                     -1783.113 4        26.084    39649361.176 5                     -1378.864 5        30.060
C39        46.000                                                                                                                                    40448480.617 3                     -2021.936 3        20.262
C09        47.000                                                                                                                                    38754362.751 5 201804113.57305     -1341.365 5        31.140    38754354.170 5 156047712.02105     -1037.578 5        35.952    38754352.742 6 163982352.51706     -1090.178 6        37.055
C19        48.000                                                                                                                                    23833884.609 7 124109320.36507      1343.281 7        42.349                                                                    23833882.475 6 100848937.91706      1091.543 6        37.233
C06        50.000                                                                                                                                    39079775.402 4 203498531.92104     -1756.638 4        28.095    39079769.346 5 157358003.55605     -1358.032 5        33.317    39079739.368 4                     -1426.813 4        26.790
C44        52.000                                                                                                                                    26414328.622 4 137546330.14804       992.628 4        26.491
C29        54.000                                                                                                                                    25010393.382 6 130235665.11906     -3673.102 6        36.185                                                                    25010393.100 5 105827158.38905     -2984.804 5        33.545
I09        58.000    37838149.054 6 148485014.22606      -992.805 6        39.054
I06        59.000    38069685.181 5 149393624.94905      -593.208 5        35.957
> 2025 01 02 04 00 20.0000000  0 42
G03         1.000                                                                                                                                                                    23024285.035 5  94280593.70505     -3137.776 5        34.214
G30         3.000    24823759.852 4 130449741.38814      2811.156 4        28.948
G20         4.000    24279590.317 6 127590117.18006      2554.113 6        39.628                                    24279580.307 1  99420769.84401      1990.326 1         6.750
G07         5.000    22218421.971 6 116758615.88806      1700.096 6        38.480                                    22218418.397 5  90980748.61105      1324.759 5        30.340    22218416.094 6  90980707.62506      1324.733 6        38.363
G09         6.000    20051313.727 8 105370360.96008      -997.574 8        49.570                                    20051311.353 8  82106788.90108      -777.328 8        51.944    20051311.399 7  82106775.90207      -777.424 7        47.943
G26         7.000    24279046.149 3 127587421.38113     -1485.197 3        23.676
E06        11.000    26996359.914 4                      1610.184 4        27.341                                                                    26996322.381 4                      1202.855 4        29.336    26996337.438 4                      1233.659 4        24.030
G04        12.000    20959151.837 6 110141366.69606     -2697.833 6        41.054                                    20959146.349 3  85824248.90603     -2102.206 3        23.638    20959147.054 6  85824205.90706     -2102.222 6        40.033
E12        13.000    24724454.206 7 129927905.00307     -2680.249 7        42.993                                                                    24724450.043 7  97024098.23507     -2001.406 7        43.655    24724450.686 7  99555150.20207     -2053.661 7        46.886
E29        14.000    26326265.243 5 138345448.02005     -3230.311 5        35.109                                                                    26326268.109 5 103309886.76505     -2412.345 5        34.929    26326267.735 5 106004972.28105     -2475.304 5        30.211
G06        15.000    21307161.632 7 111969881.39707     -1444.250 7        45.977                                    21307157.040 6  87249248.61306     -1125.395 6        40.698    21307159.772 6  87249346.64306     -1125.476 6        40.303
E11        16.000    24918023.219 5 130945087.38105       281.218 5        32.389                                                                    24918018.042 5  97783656.07005       210.262 5        33.868    24918025.561 5                       215.715 5        30.762
E04        17.000    24894062.176 6 130819173.10606       975.829 6        41.204                                                                    24894057.633 6  97689697.77606       728.685 6        41.282    24894056.242 6 100238068.50206       747.531 6        39.544
R08        18.000    19690649.293 8 105442697.08908      -324.196 8        48.894                                                                    19690645.793 5  82010957.75105      -251.980 5        34.629
E19        20.000    23159480.569 7 121703898.26107     -1663.933 7        45.521                                                                    23159477.488 7  90882792.77207     -1242.590 7        44.451    23159478.245 7  93253635.25307     -1274.979 7        46.108
E36        22.000    28629783.919 4                      2046.167 4        25.805                                                                                                                                    28629759.758 3                      1565.116 3        21.405
S36        23.000    38288340.164 6 201206665.14006      -850.621 6        36.329
S23        24.000    38229910.747 6 200899514.55606      -846.081 6        39.730
G11        25.000    22787994.932 8 119751704.16908      1125.964 8        48.092                                    22787987.987 4  93313051.22104       877.373 4        29.867    22787988.786 6  93313020.20206       877.313 6        41.163
R16        26.000    23497291.613 5 125518553.85505     -3974.915 5        32.257                                                                    23497298.278 3                     -3091.813 3        22.933
E33        28.000                                                                                                                                    27703355.122 3                     -3111.420 3        20.738
E10        29.000    24243604.878 7 127401096.38307     -1333.079 7        43.594                                                                    24243604.407 8  95137165.72708      -995.406 8        50.813    24243603.313 8  97619092.06108     -1021.372 8        52.013
C20        31.000                                                                                                                                    21938879.453 8 114241658.46108      -900.275 8        51.341                                                                    21938873.824 7  92830583.68207      -731.534 7        47.005
R23        33.000    21165500.046 7 113221365.54607     -3925.258 7        42.627
R07        34.000    20931498.542 7 112047916.89207     -3194.477 7        44.698                                                                    20931488.433 6  87148561.78206     -2484.841 6        37.853
R22        35.000    23821465.281 4                     -5385.354 4        27.401                                                                    23821461.691 3                     -4187.812 3        22.609
C32        36.000                                                                                                                                                                                                                                                                    24576936.208 5 103993109.92805     -2653.903 5        31.902
R09        37.000    21082015.225 5 112576813.04105      -489.136 5        35.033                                                                    21082017.344 7  87559781.33907      -380.249 7        46.044
C23        40.000                                                                                                                                                                                                                                                                    24843424.032 5 105120722.14605     -1678.958 5        30.430
C35        41.000                                                                                                                                                                                                                                                                    24673603.003 5 104402042.53705      -963.029 5        34.976
C37        42.000                                                                                                                                    23683344.852 4 123325429.42604       796.110 4        26.060                                                                    23683312.313 6 100211836.06806       646.939 6        41.359
R24        43.000    21534605.976 7 115155093.85507       455.183 7        45.172                                                                    21534604.205 6  89565155.57306       353.981 6        38.823
R01        44.000    22797862.246 5                      2264.813 5        32.832                                                                    22797860.013 4                      1761.192 4        28.028
C16        45.000                                                                                                                                    39651076.886 4                     -1783.167 4        27.114    39651073.651 5                     -1379.112 5        30.000
C39        46.000                                                                                                                                    40450411.258 3                     -2019.139 3        18.657
C09        47.000                                                                                                                                    38755651.761 5 201810821.82505     -1341.686 5        31.125    38755642.756 5 156052899.25705     -1037.532 5        35.924    38755640.745 6 163987803.55506     -1090.536 6        36.975
C19        48.000                                                                                                                                    23832594.922 7 124102605.40107      1342.339 7        42.334                                                                    23832593.135 6 100843481.47006      1090.653 6        38.300
C06        50.000                                                                                                                                    39081464.726 4 203507313.49504     -1757.108 4        28.351    39081456.456 5 157364794.00305     -1358.419 5        33.389    39081425.375 4                     -1427.422 4        26.611
C44        52.000                                                                                                                                    26413373.768 3                       993.165 3        21.857
C29        54.000                                                                                                                                    25013921.636 6 130254032.42206     -3673.971 6        36.427                                                                    25013919.776 5 105842083.31805     -2985.680 5        34.667
I09        58.000    37839413.949 6 148489977.89906      -993.095 6        39.186
I06        59.000    38070441.240 5 149396591.09305      -593.522 5        35.938
> 2025 01 02 04 00 25.0000000  0 40
G03         1.000    23028140.627 4 121013562.34204     -4028.056 4        29.630                                    23028114.936 3  94296255.95103     -3138.756 3        18.388    23028116.580 5  94296284.94105     -3138.488 5        34.619
G30         3.000    24821084.912 4 130435686.24504      2810.230 4        28.009
G20         4.000    24277162.981 6 127577346.62806      2553.981 6        40.238                                    24277150.342 1  99410818.71501      1990.128 1         7.750
G07         5.000    22216804.563 6 116750118.95006      1698.514 6        37.248                                    22216801.060 4  90974127.59904      1323.534 4        29.156    22216798.634 6  90974086.61906      1323.495 6        37.308
G09         6.000    20052263.766 8 105375353.55208      -999.629 8        49.896                                    20052261.501 8  82110679.23008      -778.930 8        52.372    20052261.037 7  82110666.22307      -778.892 7        47.923
E06        11.000                                                                                                                                    26994792.228 5                      1202.399 5        30.475    26994811.604 4                      1233.368 4        24.451
G04        12.000    20961719.268 6 110154859.39406     -2699.350 6        40.749                                    20961713.610 4  85834762.69004     -2103.391 4        24.271    20961714.979 6  85834719.67606     -2103.420 6        40.117
E12        13.000    24727005.103 7 129941309.80207     -2682.146 7        42.730                                                                    24727000.716 7  97034108.30607     -2002.728 7        43.594    24727001.254 7  99565421.40407     -2055.005 7        46.256
E29        14.000    26329339.603 5 138361600.73605     -3230.925 5        34.590                                                                    26329343.116 5 103321948.89505     -2412.594 5        34.538    26329341.337 5 106017349.03805     -2475.790 5        30.453
G06        15.000    21308537.015 7 111977109.84207     -1447.375 7        45.660                                    21308532.596 6  87254881.17606     -1127.824 6        40.543    21308535.022 6  87254979.17706     -1127.798 6        40.779
E11        16.000    24917754.988 5 130943685.69005       279.570 5        30.483                                                                    24917751.479 5  97782609.32405       208.488 5        34.367    24917761.002 5                       214.014 5        30.392
E04        17.000    24893132.967 6 130814295.42506       975.000 6        39.793                                                                    24893129.530 6  97686055.36506       728.099 6        41.352    24893127.912 6 100234331.05106       747.073 6        39.351
R08        18.000    19690952.956 8 105444321.90908      -326.023 8        48.559                                                                    19690950.339 5  82012221.53805      -253.477 5        33.994
E19        20.000    23161064.279 7 121712220.48007     -1665.065 7        45.804                                                                    23161061.205 7  90889007.40707     -1243.305 7        44.476    23161061.919 7  93260012.01107     -1275.800 7        46.068
E36        22.000                                                                                                                                                                                                    28627811.928 3                      1565.726 3        20.024
S36        23.000    38289140.831 5 201210915.47505      -849.989 5        35.543
S23        24.000    38230715.375 6 200903743.80606      -846.001 6        39.640
G11        25.000    22786923.896 7 119746080.22807      1123.362 7        47.959                                    22786917.932 5  93308668.92905       875.340 5        30.000    22786918.505 6  93308637.91006       875.410 6        41.056
R16        26.000    23501015.909 5 125538434.03015     -3977.420 5        32.695                                                                    23501014.809 3                     -3094.802 3        23.848
E33        28.000                                                                                                                                    27707318.724 3                     -3111.295 3        20.690
E10        29.000    24244873.976 7 127407766.58707     -1335.324 7        43.139                                                                    24244873.833 8  95142146.72808      -997.086 8        51.128    24244872.614 8  97624203.00708     -1023.157 8        51.660
C20        31.000                                                                                                                                    21939744.686 8 114246162.58908      -901.612 8        51.307                                                                    21939738.733 7  92834243.64507      -732.591 7        46.630
R23        33.000    21169168.822 7 113240999.03107     -3928.303 7        42.806
R07        34.000    20934480.934 7 112063891.37307     -3195.591 7        43.465                                                                    20934471.852 6  87160986.34906     -2485.539 6        37.093
R22        35.000    23826514.597 4                     -5385.470 4        26.719                                                                    23826502.757 3                     -4189.462 3        22.286
C32        36.000                                                                                                                                    24580081.155 6 127995076.94506     -3266.293 6        36.650                                                                    24580070.787 5 104006378.72805     -2654.165 5        32.114
R09        37.000    21082475.511 5 112579267.71705      -493.481 5        35.271                                                                    21082477.190 7  87561690.58307      -383.647 7        46.871
C23        40.000                                                                                                                                    24845413.956 5 129376677.33605     -2068.896 5        33.796                                                                    24845410.495 5 105129122.20505     -1681.217 5        30.166
C35        41.000                                                                                                                                    24674763.325 6 128487829.95806     -1187.705 6        38.336                                                                    24674741.238 5 104406861.80805      -964.865 5        34.629
C37        42.000                                                                                                                                                                                                                                                                    23682549.071 6 100208605.36606       645.171 6        41.144
R24        43.000    21534182.510 7 115152828.09607       450.991 7        44.889                                                                    21534181.563 6  89563393.31906       350.629 6        37.762
