     3.04           OBSERVATION DATA    M                   RINEX VERSION / TYPE
ssrcrin-15.6.1x                         20250102 134500 UTC PGM / RUN BY / DATE 
(00000000023479385599111004) Septentrio proprietary         COMMENT             
ract                                                        MARKER NAME         
01                                                          MARKER NUMBER       
geodetic                                                    MARKER TYPE         
NFB                 CLIMERS@TUW                             OBSERVER / AGENCY   
3296359             SEPT ASTERX SB3 PROB4.14.4              REC # / TYPE / VERS 
Unknown             Unknown                                 ANT # / TYPE        
  4127447.3832  1206914.5806  4695543.5899                  APPROX POSITION XYZ 
        0.0000        0.0000        0.0000                  ANTENNA: DELTA H/E/N
G   23 X1  C1C L1C D1C S1C C1W S1W C2W L2W D2W S2W C2L L2L  SYS / # / OBS TYPES 
       D2L S2L C5Q L5Q D5Q S5Q C1L L1L D1L S1L              SYS / # / OBS TYPES 
E   21 X1  C1C L1C D1C S1C C6C L6C D6C S6C C5Q L5Q D5Q S5Q  SYS / # / OBS TYPES 
       C7Q L7Q D7Q S7Q C8Q L8Q D8Q S8Q                      SYS / # / OBS TYPES 
S    9 X1  C1C L1C D1C S1C C5I L5I D5I S5I                  SYS / # / OBS TYPES 
R   17 X1  C1C L1C D1C S1C C2P L2P D2P S2P C2C L2C D2C S2C  SYS / # / OBS TYPES 
       C3Q L3Q D3Q S3Q                                      SYS / # / OBS TYPES 
C   25 X1  C1P L1P D1P S1P C5P L5P D5P S5P C2I L2I D2I S2I  SYS / # / OBS TYPES 
       C7I L7I D7I S7I C6I L6I D6I S6I C7D L7D D7D S7D      SYS / # / OBS TYPES 
J   17 X1  C1C L1C D1C S1C C2L L2L D2L S2L C5Q L5Q D5Q S5Q  SYS / # / OBS TYPES 
       C1L L1L D1L S1L                                      SYS / # / OBS TYPES 
I    5 X1  C5A L5A D5A S5A                                  SYS / # / OBS TYPES 
SEPTENTRIO RECEIVERS OUTPUT ALIGNED CARRIER PHASES.         COMMENT             
NO FURTHER PHASE SHIFT APPLIED IN THE RINEX ENCODER.        COMMENT             
G L1C                                                       SYS / PHASE SHIFT   
G L2W                                                       SYS / PHASE SHIFT   
G L2L  0.00000                                              SYS / PHASE SHIFT   
G L5Q  0.00000                                              SYS / PHASE SHIFT   
G L1L  0.00000                                              SYS / PHASE SHIFT   
E L1C  0.00000                                              SYS / PHASE SHIFT   
E L6C  0.00000                                              SYS / PHASE SHIFT   
E L5Q  0.00000                                              SYS / PHASE SHIFT   
E L7Q  0.00000                                              SYS / PHASE SHIFT   
E L8Q  0.00000                                              SYS / PHASE SHIFT   
S L1C                                                       SYS / PHASE SHIFT   
S L5I                                                       SYS / PHASE SHIFT   
R L1C                                                       SYS / PHASE SHIFT   
R L2P  0.00000                                              SYS / PHASE SHIFT   
R L2C                                                       SYS / PHASE SHIFT   
R L3Q  0.00000                                              SYS / PHASE SHIFT   
C L1P  0.00000                                              SYS / PHASE SHIFT   
C L5P  0.00000                                              SYS / PHASE SHIFT   
C L2I                                                       SYS / PHASE SHIFT   
C L7I                                                       SYS / PHASE SHIFT   
C L6I                                                       SYS / PHASE SHIFT   
C L7D                                                       SYS / PHASE SHIFT   
J L1C                                                       SYS / PHASE SHIFT   
J L2L  0.00000                                              SYS / PHASE SHIFT   
J L5Q  0.00000                                              SYS / PHASE SHIFT   
J L1L  0.00000                                              SYS / PHASE SHIFT   
I L5A                                                       SYS / PHASE SHIFT   
  2025     1     2    13    45    0.0000000     GPS         TIME OF FIRST OBS   
 C1C    0.000 C2C    0.000 C2P    0.000                     GLONASS COD/PHS/BIS 
DBHZ                                                        SIGNAL STRENGTH UNIT
    18                                                      LEAP SECONDS        
 24 R01  1 R02 -4 R03  5 R04  6 R05  1 R06 -4 R07  5 R08  6 GLONASS SLOT / FRQ #
    R09 -2 R10 -7 R11  0 R12 -1 R13 -2 R14 -7 R15  0 R16 -1 GLONASS SLOT / FRQ #
    R17  4 R18 -3 R19  3 R20  2 R21  4 R22 -3 R23  3 R24  2 GLONASS SLOT / FRQ #
                                                            END OF HEADER       
> 2025 01 02 13 45  0.0000000  0 39
G06         1.000    23184053.168 4                     -1996.453 4        25.835
G11         2.000    22691377.550 3                       434.138 3        23.048                                                                                                    22691385.402 5  92917461.15105       337.061 5        33.748
G25         3.000    20256726.274 7 106449756.75407       457.576 7        44.730                                    20256727.146 6  82947932.97006       356.550 6        36.711    20256729.221 6  82947922.98806       356.452 6        38.583
E25         6.000    23591223.104 6 123972668.85406      -116.680 6        39.985                                                                    23591226.908 6  92577161.61106       -87.315 6        40.276    23591228.135 5  94992113.93205       -89.931 5        30.619
G28         8.000    23714565.794 6 124620983.29606      2400.232 6        38.589                                    23714568.153 2  97107166.28602      1870.290 2        16.868    23714566.978 5  97107224.34605      1870.355 5        33.808
G29         9.000    22771855.978 4 119667205.61004      2339.191 4        28.616                                    22771806.489 1  93246715.28101      1822.953 1         6.375    22771806.225 4                      1823.121 4        29.744
E11        10.000    26603300.661 5 139801288.20605      2130.605 5        31.683                                                                    26603305.503 5 104397085.60105      1591.564 5        34.052    26603304.359 4 107120492.20404      1632.991 4        29.754
E10        11.000    25807587.685 6 135619806.52206      1227.039 6        39.892                                                                    25807595.641 7 101274584.14207       916.276 7        42.718    25807594.439 6 103916516.46906       940.250 6        41.690
G24        12.000    23026617.176 7 121005686.70007     -4409.188 7        42.087                                    23026625.763 4  94290160.36404     -3435.727 4        29.118    23026627.366 5  94290171.32005     -3435.481 5        34.771
E12        13.000                                                                                                                                    25906637.925 6 101663222.67306        28.106 6        38.480    25906636.018 5 104315315.94205        29.081 5        30.008
E33        14.000                                                                                                                                    27597269.880 3                     -1997.164 3        20.214
G12        15.000    20583195.141 8 108165334.32408     -2091.735 8        51.118                                    20583191.898 8  84284708.95808     -1629.921 8        49.100    20583193.448 7  84284729.95807     -1629.923 7        44.692
E24        16.000    24808842.533 7 130371389.10307     -2410.757 7        46.161                                                                    24808844.856 6  97355260.36406     -1800.154 6        41.211    24808843.786 6  99894988.79406     -1847.151 6        39.000
G32        17.000    23016542.963 7 120953181.55507     -1644.368 7        43.625                                    23016568.430 2  94248905.94202     -1281.305 2        16.075
E05        18.000    25852163.794 6 135854091.41706     -3977.588 6        39.249                                                                    25852174.080 5 101449504.98205     -2970.457 5        32.982    25852173.793 6 104096025.87906     -3047.874 6        40.675
E08        20.000    26686765.938 6 140239922.27206       116.742 6        39.033                                                                    26686774.124 7 104724735.81707        87.202 7        42.438    26686772.839 6 107456693.41006        89.473 6        41.726
E02        21.000    26913742.301 5 141432690.06505      1466.345 5        32.713                                                                    26913742.791 4 105615417.27604      1095.627 4        25.684    26913745.639 5 108370583.09805      1123.629 5        34.876
S23        22.000    38237367.598 5 200938776.56805      -865.275 5        35.543
R14        23.000    20625281.980 6 109944336.65606     -3080.956 6        41.147                                                                    20625287.934 6  85512299.55506     -2396.424 6        39.342
R06        24.000    22723057.712 6 121254601.32206     -1112.652 6        36.643
E03        26.000    25509858.241 6 134055397.52406     -2486.747 6        38.372                                                                    25509865.864 6 100106254.07306     -1857.147 6        39.856    25509864.305 7 102717701.68307     -1905.391 7        43.005
S21        27.000    38523785.052 5 202443933.75905      -860.025 5        34.886
R07        29.000    24317888.862 5 130175773.22505      1849.540 5        31.472
R15        30.000    19594052.333 8 104704945.24108       288.417 8        50.609                                                                    19594054.664 6  81436976.09806       224.261 6        41.950
S36        31.000    38295005.569 5 201241671.60605      -860.389 5        35.162
C10        33.000                                                                                                                                    39818655.131 3                     -1585.447 3        23.429    39818661.826 5 160333264.78805     -1226.527 5        32.251    39818654.640 4                     -1289.395 4        26.659
R16        34.000                                                                                                                                    22905310.387 5  95165791.57205      2013.524 5        34.152
C44        35.000                                                                                                                                    24049894.335 6 125234166.76606      2337.388 6        41.387                                                                    24049897.636 5 101763069.18605      1899.447 5        31.328
R17        36.000    20614141.240 6 110310643.39306      2356.308 6        41.225                                                                    20614143.205 6  85797145.95206      1832.617 6        40.298
C45        37.000                                                                                                                                    24865871.482 5 129483098.95705     -3631.543 5        35.629                                                                    24865865.046 5 105215604.94305     -2950.914 5        33.689
R24        38.000    20268429.140 8 108384680.29708     -1954.344 8        48.880                                                                    20268431.166 6  84298981.27606     -1519.996 6        41.425
C33        39.000                                                                                                                                    26430081.514 5 137628429.51705     -2753.120 5        33.323
C35        42.000                                                                                                                                    22113317.023 7 115149805.23407       156.405 7        47.173                                                                    22113317.821 7  93568729.50707       127.345 7        43.488
C29        46.000                                                                                                                                    24180005.064 6 125911625.65006     -3216.105 6        41.614                                                                    24180002.606 4 102313534.49804     -2612.897 4        28.389
C26        48.000                                                                                                                                    21763844.868 8 113330069.25608     -1330.235 8        50.542                                                                    21763844.676 7  92089976.18207     -1080.758 7        42.609
C41        49.000                                                                                                                                    26835436.247 4                      -594.641 4        25.173                                                                    26835365.081 5 113549282.76205      -483.093 5        30.196
C24        51.000                                                                                                                                                                                                                                                                    22923173.298 6  96995462.24706      1093.057 6        37.516
C14        53.000                                                                                                                                                                                                    26728256.528 4 107623775.92904     -2689.590 4        25.173
I06        58.000    38634949.709 6 151611850.05506      -736.808 6        37.508
> 2025 01 02 13 45  5.0000000  0 38
G11         2.000    22690970.475 4                       429.679 4        27.078                                                                                                    22690976.508 5  92915781.48005       334.962 5        35.862
G25         3.000    20256291.941 7 106447473.32807       455.932 7        44.688                                    20256292.786 6  82946153.68306       355.267 6        37.777    20256295.107 6  82946143.68606       355.272 6        39.189
E25         6.000    23591335.699 6 123973254.61406      -117.361 6        40.539                                                                    23591337.740 6  92577599.03806       -87.674 6        39.868    23591340.741 4  94992562.74904       -89.853 4        29.611
G28         8.000    23712282.565 6 124608984.41206      2399.447 6        38.661                                    23712284.191 2  97097816.52002      1869.691 2        16.830    23712283.592 4  97097874.62704      1869.632 4        29.308
G29         9.000                                                                                                                                                                    22769582.729 4                      1822.190 4        29.374
E11        10.000    26601273.659 5 139790634.51905      2130.295 5        31.034                                                                    26601278.691 5 104389129.95905      1591.119 5        34.938    26601277.184 4 107112329.01904      1632.635 4        29.175
E10        11.000    25806420.987 6 135613675.71906      1225.512 6        39.850                                                                    25806429.146 7 101270005.99007       915.177 7        43.515    25806427.668 7 103911818.88507       939.000 7        42.040
G24        12.000    23030812.696 6 121027734.31806     -4409.937 6        41.862                                    23030822.327 4  94307340.31604     -3436.314 4        28.768    23030824.562 5  94307351.27605     -3436.403 5        34.286
E12        13.000    25906598.022 4 136140097.85814        35.525 4        26.120                                                                    25906602.760 6 101663085.54606        26.826 6        38.814    25906601.316 5 104315175.26705        27.675 5        32.168
E33        14.000    27599854.713 3                     -2673.458 3        23.295                                                                    27599811.291 3                     -1994.550 3        19.373
G12        15.000    20585185.987 8 108175797.09608     -2093.289 8        50.892                                    20585183.183 8  84292861.76008     -1631.134 8        49.360    20585184.324 7  84292882.77307     -1631.099 7        45.023
E24        16.000    24811136.663 7 130383443.87807     -2411.059 7        46.414                                                                    24811138.527 6  97364262.31806     -1800.527 6        40.987    24811138.071 6  99904225.56506     -1847.465 6        39.315
G32        17.000    23018108.830 7 120961409.76707     -1646.855 7        43.238                                    23018135.153 2  94255317.58302     -1283.292 2        14.190    23018211.483 4                     -1283.146 4        24.211
E05        18.000    25855948.855 6 135873979.53906     -3977.441 6        39.183                                                                    25855959.222 5 101464356.44705     -2970.417 5        33.030    25855958.543 6 104111264.76906     -3047.623 6        40.715
E08        20.000    26686656.154 6 140239343.16006       114.975 6        39.658                                                                    26686663.920 7 104724303.37807        85.762 7        42.396    26686662.487 6 107456249.68806        88.049 6        41.609
E02        21.000    26912346.611 5 141425358.31505      1466.864 5        31.185                                                                    26912348.553 4 105609942.30404      1094.504 4        26.826    26912350.262 5 108364965.28505      1123.811 5        34.857
S23        22.000    38238182.354 5 200943101.58605      -864.786 5        34.824
R14        23.000    20628173.387 6 109959745.89306     -3082.665 6        41.399                                                                    20628178.622 6  85524284.52906     -2397.624 6        38.820
R06        24.000    22724104.107 6 121260174.93806     -1116.543 6        36.548
E03        26.000    25512226.037 6 134067835.36006     -2488.153 6        38.468                                                                    25512232.421 6 100115542.03206     -1858.189 6        39.670    25512230.941 7 102727231.94907     -1906.572 7        42.904
S21        27.000    38524606.141 5 202448233.16005      -859.689 5        35.148
R23        28.000    24142194.133 4                     -5077.880 4        25.519
R07        29.000    24316167.916 5 130166532.22705      1847.078 5        33.635
R15        30.000    19593784.178 8 104703507.73908       286.662 8        51.455                                                                    19593785.731 7  81435858.02607       222.975 7        43.283
S36        31.000    38295824.878 5 201245972.59605      -859.922 5        35.033
C10        33.000                                                                                                                                    39820181.367 4                     -1585.043 4        25.203    39820185.652 5 160339396.86605     -1226.203 5        32.240    39820177.456 4                     -1288.103 4        26.096
R16        34.000                                                                                                                                    22902885.827 5  95155722.64205      2013.910 5        33.617
C44        35.000                                                                                                                                    24047651.100 7 125222481.65207      2336.742 7        42.330                                                                    24047653.957 5 101753574.09705      1898.543 5        31.774
R17        36.000    20611937.561 6 110298868.76506      2353.624 6        39.529                                                                    20611942.361 6  85787987.93906      1830.555 6        39.964
C45        37.000                                                                                                                                    24869358.292 5 129501257.28105     -3631.945 5        34.543                                                                    24869351.289 5 105230360.03605     -2951.415 5        32.569
R24        38.000    20270256.632 8 108394461.95108     -1958.302 8        49.372                                                                    20270259.596 6  84306589.24506     -1523.238 6        39.991
C33        39.000                                                                                                                                    26432730.914 5 137642199.61505     -2754.680 5        35.100                                                                    26432791.725 3                     -2238.547 3        23.162
C35        42.000                                                                                                                                    22113168.529 7 115149029.26207       154.132 7        47.150                                                                    22113168.826 7  93568098.98707       125.117 7        43.867
C29        46.000                                                                                                                                    24183092.368 6 125927709.68506     -3217.442 6        41.063                                                                    24183092.056 4 102326604.07304     -2614.294 4        28.825
C26        48.000                                                                                                                                    21765122.672 8 113336724.26708     -1331.724 8        50.610                                                                    21765122.654 7  92095383.91207     -1082.389 7        42.555
C41        49.000                                                                                                                                    26836004.849 4                      -596.398 4        27.521                                                                    26835937.279 5 113551702.07405      -485.435 5        31.766
C24        51.000                                                                                                                                                                                                                                                                    22921882.892 6  96989999.83906      1092.037 6        37.312
I06        58.000    38635887.795 6 151615532.83206      -736.340 6        37.660
> 2025 01 02 13 45 10.0000000  0 40
G11         2.000    22690566.590 5                       426.388 5        32.635                                                                                                    22690569.969 6  92914113.37506       332.475 6        37.565
G25         3.000    20255858.964 7 106445200.05707       453.515 7        45.174                                    20255860.496 6  82944382.30806       353.383 6        38.508    20255862.693 6  82944372.32706       353.378 6        39.538
E25         6.000    23591447.397 6 123973845.35006      -118.714 6        40.701                                                                    23591449.690 6  92578040.18006       -88.785 6        39.327    23591454.608 4  94993015.36904       -91.464 4        29.118
G28         8.000    23709999.109 6 124596991.21906      2397.980 6        39.171                                    23710001.209 2  97088471.23802      1868.475 2        16.528    23709998.732 4  97088529.27804      1868.645 4        26.060
G29         9.000                                                                                                                                                                    22767357.846 5                      1820.912 5        30.106
E11        10.000    26599247.514 5 139779984.65705      2129.395 5        30.249                                                                    26599252.394 5 104381177.19405      1590.105 5        35.724    26599250.761 4 107104168.76204      1631.883 4        28.066
E10        11.000    25805256.418 6 135607554.09706      1223.347 6        40.098                                                                    25805264.248 7 101265434.70207       913.443 7        43.814    25805262.383 7 103907128.33507       937.410 7        42.144
G24        12.000    23035009.182 6 121049787.85706     -4411.382 6        40.913                                    23035019.535 4  94324524.88004     -3437.436 4        27.713    23035022.597 5  94324535.83305     -3437.681 5        32.808
E12        13.000    25906567.986 5 136139926.45905        33.205 5        30.053                                                                    25906570.139 6 101662957.53706        24.597 6        38.694    25906568.319 5 104315043.95805        24.992 5        33.479
E33        14.000                                                                                                                                    27602357.626 3                     -1998.542 3        20.571
G12        15.000    20587178.791 8 108186269.60308     -2095.592 8        50.748                                    20587176.306 8  84301022.14908     -1632.929 8        49.430    20587177.154 7  84301043.16407     -1632.882 7        45.208
E24        16.000    24813431.265 7 130395502.47707     -2412.167 7        46.574                                                                    24813433.125 6  97373267.13006     -1801.374 6        40.887    24813432.739 6  99913465.26606     -1848.287 6        39.826
G32        17.000    23019677.312 7 120969653.24207     -1650.339 7        42.502                                    23019704.388 2  94261741.03802     -1285.963 2        14.667
E05        18.000    25859733.133 6 135893868.55506     -3977.976 6        39.871                                                                    25859744.212 5 101479208.57605     -2970.678 5        33.689    25859743.260 6 104126504.36206     -3048.033 6        40.782
E08        20.000    26686548.057 6 140238775.60006       112.267 6        39.925                                                                    26686555.969 7 104723879.57507        83.900 7        42.345    26686554.398 6 107455814.83806        85.988 6        41.697
E02        21.000    26910955.238 5 141418027.94305      1465.741 5        31.902                                                                    26910954.203 4 105604468.35504      1094.437 4        27.305    26910955.747 5 108359348.57905      1123.133 5        34.948
S23        22.000    38239007.458 5 200947426.46405      -864.955 5        34.981
R14        23.000    20631067.131 7 109975165.26307     -3084.976 7        42.442                                                                    20631072.260 6  85536277.34806     -2399.300 6        38.952
R06        24.000    22725156.699 5 121265770.27205     -1121.309 5        35.538
E03        26.000    25514596.038 6 134080283.26706     -2490.668 6        40.110                                                                    25514601.295 6 100124837.53806     -1859.902 6        39.453    25514599.621 7 102736769.93707     -1908.459 7        42.809
S21        27.000    38525428.423 5 202452532.35805      -859.916 5        35.381
R23        28.000    24146939.329 4                     -5079.945 4        27.760
R07        29.000    24314446.073 5 130157306.36305      1843.594 5        33.413
R15        30.000    19593517.500 8 104702081.30408       284.094 8        51.739                                                                    19593518.777 7  81434748.57407       221.022 7        43.983
S36        31.000    38296640.104 5 201250273.81805      -860.356 5        35.357
C10        33.000                                                                                                                                    39821701.133 3                     -1586.287 3        23.676    39821708.445 5 160345528.86005     -1226.310 5        32.383    39821700.540 4                     -1288.808 4        26.323
R16        34.000                                                                                                                                    22900463.436 5  95145654.46805      2013.621 5        32.994
C44        35.000                                                                                                                                    24045409.027 7 125210802.00607      2335.290 7        43.092                                                                    24045412.096 5 101744083.43205      1897.735 5        33.210
R17        36.000    20609738.230 6 110287109.98606      2350.036 6        38.003                                                                    20609744.095 6  85778842.22906      1827.892 6        38.769
C45        37.000                                                                                                                                    24872844.803 5 129519419.84505     -3633.191 5        33.916                                                                    24872838.504 5 105245118.56205     -2951.816 5        31.623
R24        38.000    20272089.375 8 108404265.71608     -1963.012 8        49.433                                                                    20272091.055 6  84314214.38106     -1526.762 6        39.526
C33        39.000                                                                                                                                    26435380.160 5 137655979.03705     -2757.003 5        34.819
C35        42.000                                                                                                                                    22113022.013 7 115148266.65807       151.100 7        46.773                                                                    22113022.420 7  93567479.30007       122.882 7        44.245
R05        44.000                                                                                                                                    23189124.164 3                     -3536.962 3        23.257
C29        46.000                                                                                                                                    24186182.241 6 125943802.62806     -3219.682 6        40.341                                                                    24186183.983 4 102339680.88504     -2616.080 4        28.616
C26        48.000                                                                                                                                    21766402.374 8 113343388.88908     -1333.974 8        50.595                                                                    21766402.329 7  92100799.44507     -1083.937 7        42.375
C41        49.000                                                                                                                                    26836580.195 4                      -599.406 4        28.265                                                                    26836512.446 5 113554132.28005      -486.959 5        33.401
C24        51.000                                                                                                                                                                                                                                                                    22920593.070 6  96984541.76806      1091.133 6        37.157
C14        53.000                                                                                                                                                                                                    26734931.910 4                     -2690.393 4        25.925
I06        58.000    38636826.063 6 151619215.44806      -736.609 6        37.414
> 2025 01 02 13 45 15.0000000  0 41
G06         1.000    23189745.083 4                     -2006.212 4        28.701
G11         2.000    22690167.180 5 119237614.95615       423.597 5        35.281                                                                                                    22690166.698 6  92912456.91706       330.089 6        39.544
G25         3.000    20255428.727 7 106442936.90507       451.646 7        45.485                                    20255430.246 6  82942618.82006       351.932 6        39.162    20255431.433 6  82942608.82406       351.935 6        39.601
E25         6.000    23591559.035 6 123974441.05706      -119.463 6        39.661                                                                    23591562.535 6  92578485.05406       -89.210 6        38.883    23591571.172 4  94993471.76004       -91.283 4        28.882
G28         8.000    23707719.239 6 124585003.76306      2397.068 6        40.343                                    23707719.429 2  97079130.41602      1867.857 2        17.132    23707720.583 4  97079188.46904      1867.689 4        29.460
G29         9.000    22765119.582 5 119632141.88105      2335.345 5        33.156                                    22765134.037 2  93219392.15602      1819.753 2        15.857    22765134.426 4                      1819.649 4        29.981
E11        10.000    26597220.817 4 139769338.68004      2128.913 4        28.360                                                                    26597226.776 6 104373227.27606      1589.746 6        36.658    26597225.747 4 107096011.46804      1631.084 4        26.790
E10        11.000    25804093.725 6 135601441.65806      1221.710 6        40.377                                                                    25804100.995 7 101260870.26507       912.260 7        44.173    25804098.825 6 103902444.82606       936.088 6        41.905
G24        12.000    23039206.957 6 121071847.30106     -4412.371 6        40.007                                    23039217.593 4  94341714.03704     -3438.191 4        25.684    23039223.067 5  94341724.94905     -3437.992 5        30.445
E12        13.000    25906538.469 5 136139767.18205        30.635 5        31.441                                                                    25906539.569 6 101662838.59906        22.889 6        38.480    25906538.839 5 104314921.92905        23.452 5        34.738
E33        14.000                                                                                                                                    27604904.630 3                     -2002.910 3        20.905
G12        15.000    20589173.243 8 108196751.86908     -2097.296 8        50.708                                    20589171.275 8  84309190.14608     -1634.257 8        49.398    20589171.873 7  84309211.16107     -1634.227 7        45.165
E24        16.000    24815726.518 7 130407564.90807     -2412.787 7        46.332                                                                    24815728.382 6  97382274.78506     -1801.804 6        41.342    24815728.090 6  99922707.90306     -1848.793 6        40.005
G32        17.000    23021249.287 6 120977911.96706     -1653.215 6        40.803                                    23021276.915 2  94268176.35402     -1288.201 2        15.333
E05        18.000    25863517.787 6 135913758.47806     -3977.956 6        39.580                                                                    25863529.308 5 101494061.37905     -2970.712 5        34.138    25863528.325 6 104141744.64506     -3047.998 6        40.358
E08        20.000    26686442.489 6 140238219.63206       110.156 6        40.007                                                                    26686450.131 7 104723464.42407        82.235 7        42.252    26686448.606 6 107455388.84906        84.427 6        41.564
E02        21.000    26909566.314 5 141410698.98205      1465.779 5        31.230                                                                    26909560.212 4 105598995.45504      1095.012 4        28.711    26909560.969 5 108353732.95505      1123.183 5        35.271
S23        22.000    38239827.495 5 200951751.07305      -864.849 5        35.205
R14        23.000    20633962.082 7 109990594.64307     -3086.758 7        42.112                                                                    20633967.734 6  85548277.97106     -2400.747 6        40.548
R06        24.000    22726206.198 5 121271387.35105     -1125.630 5        33.994
E03        26.000    25516966.853 6 134092741.22106     -2492.554 6        40.698                                                                    25516971.817 6 100134140.54006     -1861.084 6        39.444    25516970.272 7 102746315.63207     -1909.715 7        42.756
S21        27.000    38526244.257 5 202456831.65005      -859.557 5        35.929
R23        28.000    24151685.939 4                     -5081.323 4        29.005
R07        29.000    24312726.760 5 130148095.52305      1840.761 5        32.521
R15        30.000    19593251.803 8 104700665.63708       282.104 8        50.938                                                                    19593253.281 7  81433647.51007       219.441 7        43.488
S36        31.000    38297461.541 5 201254574.94605      -860.226 5        35.105
C10        33.000                                                                                                                                    39823226.537 3                     -1584.789 3        22.876    39823231.833 5 160351660.72605     -1226.473 5        32.228    39823223.610 4                     -1288.802 4        26.467
R16        34.000    22898038.465 6 122317569.33316      2588.697 6        40.188                                                                    22898041.486 4  95135587.33304      2013.111 4        28.834
C44        35.000                                                                                                                                    24043167.920 7 125199127.84107      2334.474 7        43.987                                                                    24043170.528 5 101734597.25805      1896.900 5        33.964
R17        36.000    20607544.964 6 110275367.21106      2347.112 6        36.068                                                                    20607549.053 6  85769708.93206      1825.585 6        38.688
C45        37.000                                                                                                                                    24876333.439 5 129537586.55505     -3634.003 5        32.922                                                                    24876327.543 5 105259880.50305     -2952.448 5        32.281
R24        38.000    20273927.192 8 108414091.44208     -1967.218 8        50.051                                                                    20273929.777 6  84321856.63806     -1530.157 6        40.307
C33        39.000                                                                                                                                    26438027.335 5 137669767.73305     -2758.464 5        33.689                                                                    26438063.916 4                     -2241.474 4        28.417
C35        42.000                                                                                                                                    22112879.251 7 115147517.43107       148.642 7        46.789                                                                    22112878.525 7  93566870.51907       120.716 7        44.486
R05        44.000                                                                                                                                    23193379.382 4                     -3538.226 4        25.850
C29        46.000                                                                                                                                    24189274.074 6 125959904.51306     -3221.137 6        39.069                                                                    24189277.174 4 102352764.99904     -2617.798 4        29.270
C26        48.000                                                                                                                                    21767683.727 8 113350063.11708     -1335.662 8        50.640                                                                    21767683.994 7  92106222.82007     -1085.415 7        42.262
C41        49.000                                                                                                                                                                                                                                                                    26837090.056 5 113556573.39105      -489.306 5        34.700
C24        51.000                                                                                                                                                                                                                                                                    22919304.153 6  96979088.03006      1090.265 6        37.002
C14        53.000                                                                                                                                                                                                    26738280.046 4                     -2691.471 4        28.464
I06        58.000    38637764.611 6 151622897.86506      -736.417 6        37.637
> 2025 01 02 13 45 20.0000000  0 40
G06         1.000    23191658.240 5                     -2009.227 5        31.185
G11         2.000    22689764.648 6 119235504.33606       420.577 6        36.798                                    22689775.424 2  92910841.13712       327.711 2        13.758    22689765.727 6  92910812.18506       327.801 6        40.934
G25         3.000    20255000.433 7 106440684.01307       449.649 7        45.594                                    20255002.025 6  82940863.32706       350.371 6        39.787    20255003.225 6  82940853.33306       350.434 6        40.272
E25         6.000    23591674.075 6 123975041.92406      -120.733 6        38.595                                                                    23591676.848 6  92578933.74906       -90.053 6        38.453    23591687.216 5  94993932.15005       -92.828 5        30.257
G28         8.000    23705439.268 6 124573022.20606      2395.708 6        41.170                                    23705438.754 2  97069794.20602      1866.807 2        17.019    23705443.261 5  97069852.21505      1866.811 5        33.856
G29         9.000                                                                                                                                                                    22762912.137 5                      1818.520 5        30.257
E11        10.000    26595195.704 4 139758696.78604      2127.839 4        26.443                                                                    26595201.756 6 104365280.34906      1589.171 6        37.123    26595200.263 4 107087857.19204      1631.504 4        24.120
E10        11.000    25802933.215 6 135595338.59506      1219.770 6        41.347                                                                    25802939.543 7 101256312.84207       910.821 7        44.172    25802937.072 6 103897768.50006       934.519 6        41.750
G24        12.000    23043405.386 6 121093912.80106     -4413.712 6        39.219                                    23043416.263 3  94358907.91203     -3439.243 3        22.419    23043426.480 4  94358918.84504     -3439.034 4        28.445
E12        13.000    25906511.160 5 136139620.26605        27.974 5        32.820                                                                    25906511.319 6 101662728.88706        21.019 6        38.057    25906510.555 5 104314809.35605        21.568 5        35.114
E33        14.000    27607455.658 4                     -2679.978 4        27.257                                                                    27607454.511 3                     -2000.362 3        21.690
G12        15.000    20591170.011 8 108207244.10208     -2099.369 8        50.637                                    20591168.101 8  84317365.90808     -1635.875 8        49.293    20591168.397 7  84317386.92407     -1635.861 7        45.019
E24        16.000    24818022.417 7 130419631.30207     -2413.653 7        45.854                                                                    24818025.121 6  97391285.40006     -1802.336 6        41.204    24818024.204 6  99931953.56906     -1849.267 6        40.315
G32        17.000    23022823.237 6 120986186.08306     -1656.504 6        39.309                                    23022852.777 2  94274623.64702     -1290.734 2        16.113
E05        18.000    25867302.879 6 135933649.45906     -3978.297 6        40.172                                                                    25867315.166 5 101508914.96605     -2970.879 5        34.433    25867313.071 6 104156985.72906     -3048.202 6        39.952
E08        20.000    26686338.779 6 140237675.41106       107.748 6        40.043                                                                    26686346.503 7 104723058.05307        80.365 7        42.053    26686345.084 6 107454971.86306        82.577 6        41.566
E02        21.000    26908171.379 4 141403371.66504      1465.447 4        29.365                                                                    26908166.734 4 105593523.81604      1094.206 4        29.081    26908167.277 5 108348118.52905      1122.845 5        35.314
S23        22.000    38240648.669 5 200956075.84205      -864.998 5        34.786
R14        23.000    20636857.452 6 110006034.15306     -3088.760 6        40.360                                                                    20636863.110 6  85560286.49306     -2402.427 6        41.414
R06        24.000    22727258.203 5 121277026.07405     -1129.752 5        33.449
E03        26.000    25519338.869 6 134105209.40606     -2494.607 6        41.266                                                                    25519344.339 6 100143451.19906     -1862.994 6        39.090    25519343.295 7 102755869.15907     -1911.408 7        42.789
S21        27.000    38527065.949 5 202461131.17805      -859.923 5        35.833
R23        28.000    24156434.015 4                     -5082.604 4        28.730
R07        29.000    24311003.841 5 130138900.06605      1836.950 5        30.106
R15        30.000    19592988.254 8 104699261.18108       279.804 8        50.381                                                                    19592990.598 7  81432555.17507       217.619 7        43.501
S36        31.000    38298284.856 6 201258875.73406      -860.329 6        36.091
C10        33.000                                                                                                                                    39824747.090 3                     -1586.098 3        22.000    39824756.125 5 160357792.58705     -1226.330 5        32.353    39824745.952 4                     -1287.820 4        26.240
C44        35.000                                                                                                                                    24040927.854 7 125187459.34207      2333.288 7        44.558                                                                    24040929.825 5 101725115.66105      1895.969 5        34.786
R17        36.000    20605356.791 5 110263640.47205      2343.691 5        35.281                                                                    20605358.630 6  85760588.17106      1822.918 6        39.958
C45        37.000                                                                                                                                    24879820.377 5 129555757.62405     -3634.541 5        31.162                                                                    24879818.353 5 105274646.03805     -2953.392 5        33.012
R24        38.000    20275769.562 8 108423939.37108     -1971.742 8        50.810                                                                    20275770.881 6  84329516.14606     -1533.516 6        40.386
C33        39.000                                                                                                                                    26440671.581 5 137683565.87105     -2760.638 5        34.238                                                                    26440708.272 5                     -2243.256 5        30.264
C35        42.000                                                                                                                                    22112739.016 7 115146781.74707       145.754 7        46.173                                                                    22112737.420 7  93566272.74807       118.607 7        44.727
R05        44.000                                                                                                                                    23197626.378 3                     -3540.940 3        21.262
C29        46.000                                                                                                                                    24192367.519 6 125976015.46206     -3223.122 6        37.894                                                                    24192371.697 4 102365856.44804     -2618.605 4        29.166
C26        48.000                                                                                                                                    21768967.129 8 113356747.13908     -1337.754 8        50.601                                                                    21768967.554 7  92111654.13207     -1086.926 7        42.343
C41        49.000                                                                                                                                                                                                                                                                    26837669.683 5 113559025.70205      -491.655 5        35.414
C24        51.000                                                                                                                                    22918158.669 3                      1342.992 3        21.833                                                                    22918016.132 6  96973638.78506      1089.629 6        37.119
C14        53.000                                                                                                                                                                                                    26741627.520 4                     -2691.609 4        29.014
I06        58.000    38638702.843 6 151626580.19506      -736.498 6        37.849
> 2025 01 02 13 45 25.0000000  0 40
G06         1.000    23193571.947 5                     -2012.560 5        32.240
G11         2.000    22689367.692 6 119233408.28106       417.632 6        38.129                                    22689374.766 2  92909207.86202       325.428 2        15.762    22689367.221 6  92909178.91706       325.447 6        40.508
G25         3.000    20254573.886 7 106438441.06107       447.427 7        46.134                                    20254575.719 6  82939115.57206       348.647 6        40.250    20254576.779 6  82939105.57006       348.706 6        40.925
E25         6.000    23591789.514 6 123975647.54906      -121.822 6        37.316                                                                    23591792.180 6  92579386.03606       -90.982 6        38.532    23591805.959 5  94994396.16705       -93.262 5        31.555
G28         8.000    23703160.186 6 124561046.16906      2394.467 6        41.807                                    23703159.626 2  97060462.28702      1865.816 2        17.623    23703164.084 6  97060520.28906      1865.663 6        36.367
G29         9.000    22760701.613 6 119608803.93706      2332.139 6        38.255                                    22760693.412 4  93201206.77904      1817.245 4        25.008    22760693.157 5                      1817.428 5        31.343
E11        10.000    26593170.550 4 139748058.40604      2127.213 4        25.534                                                                    26593177.568 6 104357336.16306      1588.347 6        37.728
E10        11.000    25801773.782 6 135589244.54806      1217.836 6        41.931                                                                    25801779.602 7 101251762.13507       909.326 7        44.191    25801776.793 6 103893099.07006       932.980 6        41.425
G24        12.000    23047605.339 6 121115983.94406     -4415.060 6        39.204                                    23047615.376 3  94376106.19203     -3440.313 3        18.716    23047631.607 4  94376117.17304     -3440.106 4        25.308
E12        13.000    25906485.229 5 136139485.31105        25.455 5        33.880                                                                    25906485.336 6 101662628.11806        19.140 6        38.273    25906484.727 5 104314705.94805        19.595 5        35.067
E33        14.000    27610009.317 4                     -2680.572 4        27.317                                                                    27610008.169 3                     -2002.283 3        22.781
G12        15.000    20593168.557 8 108217745.90408     -2101.503 8        50.215                                    20593166.701 8  84325549.13008     -1637.535 8        49.282    20593166.826 7  84325570.13207     -1637.416 7        44.856
E24        16.000    24820318.735 7 130431701.33707     -2414.423 7        44.954                                                                    24820322.009 6  97400298.74706     -1803.124 6        41.802    24820320.918 6  99941202.04506     -1850.047 6        40.486
G32        17.000    23024400.332 6 120994475.19506     -1659.352 6        38.144                                    23024431.872 2  94281082.66902     -1292.981 2        17.057    23024399.413 4                     -1292.742 4        24.391
E05        18.000    25871088.240 6 135953541.10006     -3978.574 6        40.219                                                                    25871100.370 5 101523769.07805     -2971.075 5        34.724    25871097.900 6 104172227.33506     -3048.527 6        39.517
E08        20.000    26686237.671 6 140237142.54006       105.422 6        40.191                                                                    26686245.088 7 104722660.15807        78.649 7        42.169    26686243.844 6 107454563.60206        80.638 6        41.409
E02        21.000    26906775.298 4 141396045.66304      1464.686 4        25.504                                                                    26906772.737 4 105588053.07204      1094.007 4        29.640    26906773.339 5 108342505.10405      1122.252 5        35.667
S23        22.000    38241476.120 5 200960400.41905      -864.813 5        35.329
R14        23.000    20639754.426 6 110021483.50606     -3091.048 6        38.559                                                                    20639760.877 6  85572302.65106     -2404.056 6        41.273
R06        24.000    22728319.515 5 121282686.37005     -1134.295 5        33.742
E03        26.000    25521712.712 6 134117687.45706     -2496.870 6        41.352                                                                    25521718.556 6 100152769.20606     -1864.423 6        38.874    25521718.201 7 102765430.23707     -1913.065 7        43.010
S21        27.000    38527881.823 6 202465430.27006      -859.771 6        36.083
R23        28.000    24161188.378 4                     -5083.590 4        28.237
R15        30.000    19592726.917 8 104697867.47708       277.519 8        49.341                                                                    19592729.974 7  81431471.18607       215.879 7        43.369
S36        31.000    38299100.355 6 201263176.28306      -860.375 6        36.246
C10        33.000                                                                                                                                    39826266.892 3                     -1586.529 3        21.738    39826280.086 5 160363924.17405     -1226.212 5        32.587    39826268.731 4                     -1288.889 4        25.985
R16        34.000                                                                                                                                    22893180.565 5  95115455.36605      2012.776 5        33.671
C44        35.000                                                                                                                                    24038688.722 7 125175796.15207      2331.947 7        45.160                                                                    24038690.206 5 101715638.35805      1894.694 5        35.100
R17        36.000    20603170.559 6 110251929.41906      2340.263 6        36.284                                                                    20603170.399 6  85751479.60106      1820.224 6        39.874
C45        37.000                                                                                                                                    24883308.809 5 129573932.69105     -3635.251 5        31.283                                                                    24883311.511 5 105289414.74305     -2954.401 5        34.305
R24        38.000    20277615.616 8 108433808.97108     -1976.282 8        50.668                                                                    20277616.450 6  84337192.50706     -1537.145 6        39.691
C33        39.000                                                                                                                                    26443323.003 5 137697372.96905     -2762.678 5        35.914                                                                    26443360.324 5                     -2244.664 5        32.731
C35        42.000                                                                                                                                    22112601.078 7 115146059.23307       143.067 7        45.925                                                                    22112598.793 7  93565685.63807       116.147 7        44.825
R05        44.000    23201858.153 5                     -4552.466 5        30.777
C29        46.000                                                                                                                                    24195462.489 6 125992135.09806     -3224.922 6        36.098                                                                    24195470.733 4 102378954.99004     -2620.533 4        29.052
C26        48.000                                                                                                                                    21770252.470 8 113363440.57208     -1339.778 8        50.689                                                                    21770252.914 7  92117093.07807     -1088.842 7        42.434
