     3.04           OBSERVATION DATA    M                   RINEX VERSION / TYPE
ssrcrin-15.6.1x                         20250102 050000 UTC PGM / RUN BY / DATE 
(00000000023479385599111004) Septentrio proprietary         COMMENT             
ract                                                        MARKER NAME         
01                                                          MARKER NUMBER       
geodetic                                                    MARKER TYPE         
NFB                 CLIMERS@TUW                             OBSERVER / AGENCY   
3296359             SEPT ASTERX SB3 PROB4.14.4              REC # / TYPE / VERS 
Unknown             Unknown                                 ANT # / TYPE        
  4127445.3769  1206914.9425  4695542.1638                  APPROX POSITION XYZ 
        0.0000        0.0000        0.0000                  ANTENNA: DELTA H/E/N
G   23 X1  C1C L1C D1C S1C C1W S1W C2W L2W D2W S2W C2L L2L  SYS / # / OBS TYPES 
       D2L S2L C5Q L5Q D5Q S5Q C1L L1L D1L S1L              SYS / # / OBS TYPES 
E   21 X1  C1C L1C D1C S1C C6C L6C D6C S6C C5Q L5Q D5Q S5Q  SYS / # / OBS TYPES 
       C7Q L7Q D7Q S7Q C8Q L8Q D8Q S8Q                      SYS / # / OBS TYPES 
S    9 X1  C1C L1C D1C S1C C5I L5I D5I S5I                  SYS / # / OBS TYPES 
R   17 X1  C1C L1C D1C S1C C2P L2P D2P S2P C2C L2C D2C S2C  SYS / # / OBS TYPES 
       C3Q L3Q D3Q S3Q                                      SYS / # / OBS TYPES 
C   25 X1  C1P L1P D1P S1P C5P L5P D5P S5P C2I L2I D2I S2I  SYS / # / OBS TYPES 
       C7I L7I D7I S7I C6I L6I D6I S6I C7D L7D D7D S7D      SYS / # / OBS TYPES 
J   17 X1  C1C L1C D1C S1C C2L L2L D2L S2L C5Q L5Q D5Q S5Q  SYS / # / OBS TYPES 
       C1L L1L D1L S1L                                      SYS / # / OBS TYPES 
I    5 X1  C5A L5A D5A S5A                                  SYS / # / OBS TYPES 
SEPTENTRIO RECEIVERS OUTPUT ALIGNED CARRIER PHASES.         COMMENT             
NO FURTHER PHASE SHIFT APPLIED IN THE RINEX ENCODER.        COMMENT             
G L1C                                                       SYS / PHASE SHIFT   
G L2W                                                       SYS / PHASE SHIFT   
G L2L  0.00000                                              SYS / PHASE SHIFT   
G L5Q  0.00000                                              SYS / PHASE SHIFT   
G L1L  0.00000                                              SYS / PHASE SHIFT   
E L1C  0.00000                                              SYS / PHASE SHIFT   
E L6C  0.00000                                              SYS / PHASE SHIFT   
E L5Q  0.00000                                              SYS / PHASE SHIFT   
E L7Q  0.00000                                              SYS / PHASE SHIFT   
E L8Q  0.00000                                              SYS / PHASE SHIFT   
S L1C                                                       SYS / PHASE SHIFT   
S L5I                                                       SYS / PHASE SHIFT   
R L1C                                                       SYS / PHASE SHIFT   
R L2P  0.00000                                              SYS / PHASE SHIFT   
R L2C                                                       SYS / PHASE SHIFT   
R L3Q  0.00000                                              SYS / PHASE SHIFT   
C L1P  0.00000                                              SYS / PHASE SHIFT   
C L5P  0.00000                                              SYS / PHASE SHIFT   
C L2I                                                       SYS / PHASE SHIFT   
C L7I                                                       SYS / PHASE SHIFT   
C L6I                                                       SYS / PHASE SHIFT   
C L7D                                                       SYS / PHASE SHIFT   
J L1C                                                       SYS / PHASE SHIFT   
J L2L  0.00000                                              SYS / PHASE SHIFT   
J L5Q  0.00000                                              SYS / PHASE SHIFT   
J L1L  0.00000                                              SYS / PHASE SHIFT   
I L5A                                                       SYS / PHASE SHIFT   
  2025     1     2     5     0    0.0000000     GPS         TIME OF FIRST OBS   
 C1C    0.000 C2C    0.000 C2P    0.000                     GLONASS COD/PHS/BIS 
DBHZ                                                        SIGNAL STRENGTH UNIT
    18                                                      LEAP SECONDS        
 24 R01  1 R02 -4 R03  5 R04  6 R05  1 R06 -4 R07  5 R08  6 GLONASS SLOT / FRQ #
    R09 -2 R10 -7 R11  0 R12 -1 R13 -2 R14 -7 R15  0 R16 -1 GLONASS SLOT / FRQ #
    R17  4 R18 -3 R19  3 R20  2 R21  4 R22 -3 R23  3 R24  2 GLONASS SLOT / FRQ #
                                                            END OF HEADER       
> 2025 01 02 05 00  0.0000000  0 42
G16         2.000    23621263.245 4                     -1496.848 4        26.120
G20         4.000    22125471.129 7 116270155.91307      1837.808 7        47.414                                    22125463.563 5  90600110.48005      1432.058 5        31.887
G07         5.000    20984178.803 8 110272631.19808        77.526 8        49.297                                    20984173.295 7  85926734.33307        60.411 7        46.757    20984172.832 7  85926680.33507        60.528 7        45.424
G09         6.000    20625328.325 8 108386829.12308     -2392.789 8        50.306                                    20625324.600 8  84457283.48308     -1864.509 8        50.443    20625326.063 7  84457270.47107     -1864.472 7        45.816
G30         7.000    22485186.160 6 118160439.42206      2133.712 6        39.030                                    22485177.563 4  92073180.51004      1662.618 4        24.135    22485182.303 5  92073075.54405      1662.743 5        30.438
E27         9.000    27478984.760 4                     -1623.641 4        24.406                                                                    27478987.924 4                     -1212.153 4        28.379
E21        10.000    26467825.847 3                       857.339 3        23.410                                                                    26467792.962 5 103865320.37905       640.327 5        35.433    26467793.083 5 106574834.23805       657.140 5        34.671
E06        11.000    25451779.130 7 133750016.46707      1145.361 7        42.571                                                                    25451776.285 6  99878282.58406       855.318 6        40.198    25451777.123 7 102483781.48707       877.565 7        42.142
G04        12.000    22518926.582 7 118338094.46007     -3555.292 7        44.280                                    22518920.899 3  92211218.97303     -2770.359 3        22.076    22518921.870 6  92211215.00806     -2770.628 6        36.253
E12        13.000    26378389.721 3                     -3813.494 3        22.743                                                                    26378385.446 5 103514468.53305     -2847.223 5        33.982    26378386.635 5 106214841.37105     -2921.727 5        35.857
G05        14.000    25065450.086 4 131719713.80504      2835.746 4        27.916
G06        15.000    22448376.784 4 117966917.62404     -3522.660 4        28.417                                    22448376.492 4  91922357.82304     -2744.940 4        28.256    22448376.866 7  91922361.84007     -2744.852 7        42.303
E11        16.000    24718398.629 7 129896091.41007     -1492.109 7        42.114                                                                    24718393.615 7  97000297.02707     -1114.231 7        42.984    24718393.799 6  99530733.00406     -1143.336 6        41.230
E04        17.000    23882539.841 6 125503609.50406       229.150 6        37.270                                                                    23882538.727 7  93720283.72607       171.147 7        45.920    23882537.773 7  96165104.43707       175.634 7        46.066
R08        18.000    19779684.363 7 105919479.43607     -1752.906 7        47.989                                                                    19779683.692 7  82381671.57407     -1363.456 7        42.419
E19        20.000    23946488.469 6 125839644.31006     -2360.695 6        40.570                                                                    23946483.737 6  93971174.42506     -1762.759 6        37.217    23946485.241 6  96422583.33606     -1808.797 6        40.319
E09        21.000    27724004.622 5 145690640.79505      1560.200 5        33.826                                                                                                                                    27724026.649 5 111633179.42605      1195.718 5        33.910
E36        22.000    26912401.850 6 141425684.81006      1090.926 6        37.422                                                                    26912402.983 6 105610041.42106       814.778 6        40.350    26912401.011 6 108365078.72106       835.988 6        40.622
S36        23.000    38266159.704 5 201090177.61205      -848.876 5        34.114
S23        24.000    38204971.774 6 200768435.41206      -844.701 6        39.883
G11        25.000    22182399.973 6 116569656.01706     -1186.479 6        39.676                                    22182397.394 1  90833245.76801      -924.505 1         9.048    22182395.028 5  90833214.63205      -924.744 5        32.048
R17        27.000    22732580.921 5 121646567.86705      1055.870 5        35.871                                                                    22732558.027 4                       821.058 4        28.815
E10        29.000    25131441.305 7 132066693.78607     -2967.476 7        42.482                                                                    25131438.934 7  98621214.79807     -2216.072 7        42.034    25131437.748 7 101194029.43907     -2273.855 7        43.357
R11        30.000    21992051.429 6 117518761.47706      3280.091 6        37.085                                                                    21992038.580 5                      2551.153 5        33.988
C20        31.000                                                                                                                                    22327263.855 5 116264116.94805     -1988.200 5        34.752                                                                    22327264.914 6  94474003.01906     -1615.476 6        38.207
R07        34.000    22736187.408 4                     -3952.489 4        29.147
R09        37.000    21856082.306 6 116710225.75606     -3485.558 6        38.147
C05        38.000                                                                                                                                                                                                    39262656.316 5 158094456.03905      -691.878 5        33.479
C23        40.000                                                                                                                                    26224783.199 4                     -3561.085 4        27.880                                                                    26224750.715 4                     -2893.743 4        29.630
C35        41.000                                                                                                                                    25503586.788 5 132803834.20405     -2853.979 5        33.677                                                                    25503575.066 4 107914022.08104     -2319.406 4        29.498
C37        42.000                                                                                                                                    23189851.851 7 120755619.48407     -1160.906 7        42.277                                                                    23189843.874 4  98123934.83304      -942.714 4        25.654
R24        43.000    21706239.689 7 116072998.55107     -2708.731 7        43.941                                                                    21706235.920 6  90279010.22906     -2106.684 6        38.408
R01        44.000    20860110.081 8 111509252.25208      1655.246 8        48.138                                                                    20860109.216 5  86729426.90705      1287.426 5        35.862
C16        45.000                                                                                                                                    40320412.327 4                     -1880.300 4        29.166    40320409.100 4                     -1454.178 4        24.812
C09        47.000                                                                                                                                                                                                    39168555.794 5 157715555.61905     -1218.095 5        35.895
C19        48.000                                                                                                                                    22533617.367 7 117338613.17307       627.667 7        44.557                                                                    22533612.781 7  95347099.06407       510.057 7        43.877
C06        50.000                                                                                                                                    39746457.387 4 206970272.23004     -1894.105 4        28.275    39746425.623 3                     -1464.037 3        22.876
C22        51.000                                                                                                                                                                                                                                                                    26179068.139 5 110772215.91605      1678.420 5        34.424
C44        52.000                                                                                                                                    25733755.063 5 134002502.93305      -821.905 5        30.038                                                                    25733753.269 6 108887934.23706      -667.809 6        36.870
C12        54.000                                                                                                                                    26655859.067 4                       504.733 4        25.925                                                                    26655853.401 5 112789703.86905       411.145 5        31.170
I09        58.000    38181039.011 4 149830588.91104     -1073.425 4        29.668
I06        59.000    38021916.007 6 149206166.41506      -617.733 6        36.038
> 2025 01 02 05 00  5.0000000  0 42
G16         2.000    23622694.410 4                     -1500.879 4        25.759
G20         4.000    22123723.718 7 116260971.90907      1835.712 7        47.588                                    22123715.860 5  90592954.11005      1430.438 5        32.018
G07         5.000    20984106.380 8 110272250.54808        74.676 8        49.560                                    20984100.797 7  85926437.72407        58.189 7        47.299    20984100.368 7  85926383.72707        58.233 7        45.470
G09         6.000    20627605.990 8 108398798.48108     -2394.947 8        49.613                                    20627602.132 8  84466610.25408     -1866.184 8        50.400    20627603.051 7  84466597.24107     -1866.266 7        45.801
G30         7.000    22483155.505 6 118149775.39306      2131.830 6        37.319                                    22483148.135 4  92064870.89704      1661.152 4        24.000    22483154.363 5  92064765.93105      1660.860 5        31.623
E27         9.000    27480529.344 3                     -1625.754 3        21.405                                                                    27480534.403 4                     -1214.705 4        29.374
E21        10.000    26467012.329 3                       854.872 3        21.310                                                                    26466976.871 6 103862123.65006       638.488 6        36.374    26466984.173 5 106571554.11705       655.153 5        35.724
E06        11.000    25450690.263 7 133744292.24807      1144.252 7        42.842                                                                    25450687.200 6  99874008.01406       854.442 6        40.648    25450687.078 6 102479395.40406       876.731 6        41.192
G04        12.000    22522309.690 7 118355873.87707     -3556.558 7        45.037                                    22522304.544 3  92225073.06303     -2771.323 3        23.333    22522305.610 6  92225069.09106     -2771.302 6        36.352
E12        13.000    26382022.964 4                     -3814.389 4        24.436                                                                    26382018.046 5 103528707.32105     -2848.344 5        34.733    26382014.909 5 106229451.59005     -2922.497 5        35.686
G05        14.000    25062747.902 4 131705535.50204      2835.550 4        26.647
G06        15.000    22451731.073 4 117984536.76504     -3525.167 4        26.000                                    22451729.153 4  91936086.99704     -2746.902 4        26.024    22451729.042 6  91936091.00706     -2746.701 6        41.630
E11        16.000    24719819.400 7 129903559.16507     -1495.032 7        42.226                                                                    24719814.748 7  97005873.59807     -1116.458 7        43.213    24719814.794 6  99536455.05506     -1145.593 6        41.464
E04        17.000    23882320.651 6 125502466.76006       227.871 6        36.393                                                                    23882321.359 7  93719430.38507       170.128 7        46.155    23882320.481 7  96164228.83107       174.580 7        46.045
R08        18.000    19781323.252 8 105928250.18508     -1755.406 8        48.317                                                                    19781321.124 6  82388493.23306     -1365.193 6        41.123
E19        20.000    23948735.297 6 125851450.61106     -2361.873 6        40.415                                                                    23948730.606 6  93979990.82206     -1763.795 6        37.875    23948731.749 6  96431629.72006     -1809.764 6        40.138
E09        21.000    27722520.016 5 145682841.01405      1559.554 5        34.686                                                                    27722544.306 4                      1164.419 4        27.880    27722542.374 5 111627202.95305      1194.946 5        33.533
E36        22.000    26911364.439 6 141420235.02306      1088.687 6        38.195                                                                    26911365.766 6 105605971.79506       812.896 6        40.255    26911364.174 6 108360902.92906       834.141 6        40.651
S36        23.000    38266971.000 5 201094421.98305      -848.671 5        34.324
S23        24.000    38205774.694 6 200772659.29406      -845.044 6        39.432
G11        25.000    22183536.269 6 116575598.53006     -1190.512 6        41.166                                    22183527.874 1  90837876.19001      -927.792 1         8.667    22183525.310 5  90837845.18505      -927.852 5        30.838
R17        27.000                                                                                                                                    22731576.005 4                       817.954 4        29.081
E10        29.000    25134265.991 7 132081537.16807     -2969.865 7        42.193                                                                    25134263.695 7  98632299.12707     -2217.697 7        42.525    25134262.370 7 101205402.94007     -2275.730 7        43.009
R11        30.000    21988986.300 5 117502366.85305      3277.785 5        35.214                                                                    21988969.169 5  91390745.25415      2549.449 5        35.443
C20        31.000                                                                                                                                    22329176.322 6 116274062.89606     -1990.294 6        36.628                                                                    22329175.141 6  94482084.89606     -1617.083 6        38.198
R07        34.000    22739874.364 4                     -3953.040 4        26.862                                                                    22739876.965 4                     -3075.162 4        24.421
R09        37.000    21859350.697 6 116727663.50706     -3489.410 6        39.586                                                                    21859351.587 4  90788326.57314     -2713.141 4        25.865
C05        38.000                                                                                                                                                                                                    39263516.008 5 158097916.55205      -692.474 5        33.503
C23        40.000                                                                                                                                    26228204.380 4                     -3563.354 4        27.030
C35        41.000                                                                                                                                    25506325.052 5 132818110.16105     -2856.246 5        33.467                                                                    25506319.296 5 107925622.44305     -2320.850 5        30.294
C37        42.000                                                                                                                                    23190967.901 7 120761431.98907     -1164.201 7        42.770                                                                    23190964.450 4  98128657.99504      -946.753 4        27.269
R24        43.000    21708778.238 7 116086552.76907     -2713.027 7        42.885                                                                    21708772.604 6  90289552.43206     -2110.071 6        40.934
R01        44.000    20858562.394 7 111500980.23007      1653.543 7        46.599                                                                    20858561.693 6  86722993.12306      1286.081 6        36.079
C16        45.000                                                                                                                                    40322218.522 4                     -1880.735 4        29.318    40322217.000 4                     -1456.981 4        24.752
C09        47.000                                                                                                                                                                                                    39170068.883 5 157721648.13805     -1218.896 5        35.376
C19        48.000                                                                                                                                    22533015.473 7 117335478.89507       626.100 7        43.238                                                                    22533010.892 7  95344552.18507       508.783 7        43.697
C06        50.000                                                                                                                                    39748278.043 4 206979742.69504     -1894.595 4        27.880    39748247.577 3                     -1465.065 3        23.733
C22        51.000                                                                                                                                                                                                                                                                    26177083.158 5 110763824.47705      1678.267 5        34.324
C44        52.000                                                                                                                                    25734542.409 4 134006619.80304      -825.303 4        27.054                                                                    25734543.715 6 108891279.47606      -670.098 6        36.457
C12        54.000                                                                                                                                    26655377.174 4                       503.061 4        24.677    26655364.475 5 107330164.35315       388.738 5        34.648    26655368.184 5 112787655.30905       408.527 5        30.770
I09        58.000    38182406.270 4 149835957.39804     -1074.057 4        29.991
I06        59.000    38022704.113 6 149209255.96406      -618.136 6        36.174
> 2025 01 02 05 00 10.0000000  0 43
G16         2.000    23624118.452 4                     -1505.256 4        27.725
G20         4.000    22121977.632 7 116251797.87307      1833.907 7        47.635                                    22121970.054 5  90585805.50505      1429.018 5        32.162
G07         5.000    20984036.666 8 110271883.76308        72.066 8        50.444                                    20984030.852 7  85926151.91807        56.154 7        47.779    20984030.109 7  85926097.91607        56.163 7        45.049
G09         6.000    20629885.595 8 108410777.58308     -2396.719 8        48.630                                    20629881.559 8  84475944.62108     -1867.571 8        50.328    20629882.649 7  84475931.60207     -1867.550 7        45.624
G30         7.000    22481129.050 6 118139120.56106      2130.183 6        36.892                                    22481120.872 3  92056568.46003      1659.877 3        23.524    22481129.069 5  92056463.45205      1659.835 5        34.195
E27         9.000                                                                                                                                    27482083.776 5                     -1216.146 5        30.498
E21        10.000    26466207.084 3                       854.154 3        23.352                                                                    26466163.734 6 103858934.93306       637.102 6        36.586    26466174.820 6 106568282.22206       653.680 6        36.261
E06        11.000    25449602.194 7 133738572.85607      1143.514 7        43.060                                                                    25449599.204 6  99869737.03706       853.932 6        40.803    25449598.382 6 102475013.00706       876.205 6        40.458
G04        12.000    22525693.432 7 118373658.82107     -3557.437 7        45.499                                    22525689.232 4  92238931.45604     -2772.025 4        24.481    22525690.463 6  92238927.46006     -2771.935 6        36.503
E12        13.000    26385661.577 4                     -3815.232 4        27.341                                                                    26385649.100 5 103542950.90105     -2849.404 5        34.414    26385644.694 5 106244066.73005     -2923.525 5        35.600
G05        14.000    25060041.068 4                      2834.747 4        24.902
G06        15.000    22455083.842 4 118002168.03104     -3527.109 4        29.261                                    22455084.118 4  91949825.66604     -2748.370 4        25.098    22455083.513 6  91949829.64006     -2748.645 6        40.584
E11        16.000    24721243.661 7 129911040.82607     -1497.552 7        42.510                                                                    24721238.570 7  97011460.54307     -1118.390 7        43.278    24721238.600 6  99542187.75106     -1147.600 6        41.685
E04        17.000    23882106.138 6 125501330.54706       226.597 6        36.507                                                                    23882105.376 7  93718581.89407       169.225 7        46.178    23882104.453 7  96163358.20807       173.658 7        46.062
R08        18.000    19782963.404 7 105937032.52907     -1757.491 7        47.531                                                                    19782960.673 6  82395323.92306     -1366.892 6        39.282
E19        20.000    23950982.900 6 125863262.19306     -2362.583 6        39.787                                                                    23950978.535 6  93988811.14906     -1764.266 6        37.732    23950979.431 6  96440680.15006     -1810.357 6        40.167
E09        21.000    27721036.361 5 145675044.19505      1559.330 5        35.181                                                                    27721057.424 4                      1164.284 4        24.662    27721059.507 5 111621228.73905      1194.635 5        33.329
E36        22.000    26910329.989 6 141414796.08006      1086.892 6        38.108                                                                    26910330.564 6 105601910.26106       811.475 6        39.910    26910329.303 6 108356735.46006       832.618 6        41.092
S36        23.000    38267782.823 5 201098666.74805      -848.884 5        34.314
S23        24.000    38206579.609 6 200776884.67206      -845.066 6        39.234
G11        25.000    22184671.259 6 116581559.25006     -1193.866 6        39.610                                    22184661.896 1  90842521.00001      -930.262 1        10.667    22184661.516 5  90842489.89305      -930.263 5        32.952
R17        27.000                                                                                                                                    22730594.046 5                       814.705 5        30.717
E10        29.000    25137091.510 6 132096391.37706     -2971.896 6        41.273                                                                    25137090.557 7  98643391.56207     -2219.209 7        42.963    25137089.216 7 101216784.74207     -2277.102 7        42.844
R11        30.000    21985922.057 5 117485982.23705      3276.005 5        31.970                                                                    21985904.060 6  91378001.69806      2548.083 6        36.272
C20        31.000                                                                                                                                    22331093.767 6 116284017.82706     -1991.776 6        39.243                                                                    22331087.189 6  94490174.13506     -1618.436 6        38.198
R23        33.000    23756499.164 3                     -5224.335 3        19.224
R07        34.000    22743570.991 4                     -3954.647 4        28.445                                                                    22743573.691 4                     -3075.879 4        26.754
R09        37.000    21862618.901 6 116745119.63706     -3493.110 6        38.144
C05        38.000                                                                                                                                                                                                    39264374.949 5 158101378.09005      -692.530 5        33.946
C23        40.000                                                                                                                                    26231627.487 4                     -3564.603 4        25.820
C35        41.000                                                                                                                                    25509069.244 5 132832396.02505     -2857.986 5        34.310                                                                    25509070.604 5 107937230.93005     -2322.427 5        32.240
C37        42.000                                                                                                                                    23192087.180 7 120767259.91007     -1166.912 7        43.924                                                                    23192087.976 5  98133393.58605      -947.845 5        30.143
R24        43.000    21711314.292 6 116100127.82506     -2716.964 6        38.679                                                                    21711312.372 7  90300110.81507     -2113.260 7        42.157
R01        44.000    20857016.363 7 111492715.58707      1652.244 7        46.324                                                                    20857015.143 5  86716565.07305      1285.187 5        35.805
C16        45.000                                                                                                                                    40324023.770 4                     -1880.618 4        29.043    40324023.808 4                     -1454.024 4        24.271
C09        47.000                                                                                                                                                                                                    39171581.409 5 157727742.41505     -1219.091 5        35.148
C19        48.000                                                                                                                                    22532415.692 7 117332352.29507       624.697 7        42.703                                                                    22532410.426 7  95342011.53607       507.618 7        43.496
C06        50.000                                                                                                                                    39750096.318 4 206989214.69704     -1894.685 4        26.623    39750067.889 4                     -1464.647 4        24.180
C22        51.000                                                                                                                                                                                                                                                                    26175099.267 5 110755434.06105      1678.165 5        34.200
C44        52.000                                                                                                                                    25735339.247 5 134010751.24605      -827.873 5        30.800                                                                    25735337.680 6 108894636.63106      -672.553 6        36.926
C12        54.000                                                                                                                                    26654903.477 3                       500.273 3        22.495    26654883.558 5 107328225.50505       386.792 5        33.365    26654884.524 5 112785617.85605       406.393 5        30.574
I09        58.000    38183779.018 5 149841327.39705     -1073.996 5        30.408
I06        59.000    38023491.415 5 149212346.65905      -618.178 5        35.976
> 2025 01 02 05 00 15.0000000  0 42
G16         2.000    23625549.603 4                     -1508.656 4        26.934
G20         4.000    22120232.761 7 116242631.45707      1832.478 7        47.841                                    22120225.656 5  90578662.84205      1427.902 5        32.299
G07         5.000    20983969.137 8 110271528.49608        69.799 8        50.592                                    20983963.026 8  85925875.09008        54.388 8        48.126    20983962.440 7  85925821.09407        54.372 7        44.456
G09         6.000    20632166.525 7 108422764.03507     -2398.132 7        47.855                                    20632162.480 8  84485284.70708     -1868.676 8        50.223    20632163.673 7  84485271.70707     -1868.683 7        45.863
G30         7.000    22479103.269 6 118128472.54906      2128.837 6        36.397                                    22479095.553 4  92048271.31704      1658.837 4        24.075    22479103.459 6  92048166.28906      1658.924 6        36.302
E27         9.000                                                                                                                                    27483633.944 5                     -1217.844 5        31.026
E21        10.000    26465398.963 4                       852.063 4        24.887                                                                    26465353.197 6 103855752.50306       635.756 6        36.843    26465362.519 6 106565016.74206       652.493 6        36.049
E06        11.000    25448514.194 7 133732855.89007      1143.081 7        43.723                                                                    25448511.413 6  99865467.87906       853.531 6        41.044    25448510.425 6 102470632.46206       875.934 6        39.895
G04        12.000    22529078.383 7 118391446.88507     -3558.036 7        45.543                                    22529074.559 4  92252792.26904     -2772.488 4        25.684    22529076.570 6  92252788.27706     -2772.440 6        37.380
E12        13.000    26389299.192 4                     -3816.070 4        28.284                                                                    26389279.004 5 103557197.35805     -2849.520 5        34.129    26389275.010 5 106258684.84805     -2924.015 5        35.938
G05        14.000    25057342.077 3                      2835.347 3        23.048
G06        15.000    22458444.009 5 118019808.97005     -3529.144 5        34.714                                    22458440.679 4  91963571.85604     -2749.977 4        25.880    22458440.085 6  91963575.83306     -2749.947 6        39.393
E11        16.000    24722670.154 7 129918534.00407     -1499.795 7        42.474                                                                    24722664.678 7  97017056.09607     -1120.051 7        43.259    24722664.605 6  99547929.27106     -1149.220 6        41.969
E04        17.000    23881891.255 6 125500198.41606       226.061 6        36.941                                                                    23881890.049 7  93717736.47007       168.645 7        46.169    23881889.082 7  96162490.73207       173.053 7        45.995
R08        18.000    19784605.565 7 105945824.00907     -1759.333 7        46.311                                                                    19784601.931 6  82402161.71606     -1368.272 6        36.544
E19        20.000    23953230.973 6 125875076.48506     -2363.076 6        39.363                                                                    23953226.705 6  93997633.51306     -1764.651 6        37.924    23953227.319 6  96449732.65606     -1810.706 6        39.862
E09        21.000    27719551.806 5 145667247.97905      1559.026 5        34.957                                                                                                                                    27719576.573 5 111615254.96005      1194.591 5        32.000
E36        22.000    26909296.587 6 141409365.61906      1085.165 6        37.977                                                                    26909296.901 6 105597855.03606       810.295 6        39.760    26909296.273 6 108352574.45406       831.467 6        41.268
S36        23.000    38268590.581 5 201102910.74505      -848.677 5        34.348
S23        24.000    38207385.458 6 200781108.90106      -844.743 6        39.553
G11        25.000    22185803.012 6 116587535.83206     -1197.154 6        38.186                                    22185798.935 2  90847178.04002      -932.860 2        13.697    22185799.949 5  90847146.94605      -932.763 5        34.414
R17        27.000    22729612.811 5 121630823.56515      1043.654 5        35.990                                                                    22729617.113 4                       811.849 4        29.166
E10        29.000    25139919.093 6 132111254.03706     -2973.466 6        40.601                                                                    25139918.936 7  98654490.29707     -2220.438 7        43.242    25139917.572 7 101228173.01707     -2278.320 7        42.910
R11        30.000    21982856.236 5 117469605.12705      3274.519 5        32.251                                                                    21982839.289 5  91365264.04505      2546.733 5        35.733
C20        31.000                                                                                                                                    22333011.132 6 116293979.47906     -1993.012 6        40.229                                                                    22333000.605 6  94498268.83906     -1619.364 6        38.429
R23        33.000    23761398.206 3                     -5222.146 3        21.143
R07        34.000    22747271.035 4                     -3955.634 4        27.150                                                                    22747269.984 4                     -3076.403 4        27.090
R09        37.000    21865889.176 6 116762591.79806     -3496.132 6        37.486
C05        38.000                                                                                                                                                                                                    39265234.909 5 158104838.80805      -692.144 5        34.286
C23        40.000                                                                                                                                    26235047.451 4                     -3565.032 4        24.722
C35        41.000                                                                                                                                                                                                                                                                    25511818.848 5 107948845.52405     -2323.140 5        33.222
C37        42.000                                                                                                                                    23193208.604 7 120773100.91707     -1169.628 7        44.269                                                                    23193211.194 5  98138139.88705      -950.047 5        32.569
R24        43.000    21713847.420 6 116113721.39106     -2720.695 6        37.017                                                                    21713854.518 7  90310683.57907     -2116.138 7        43.170
R01        44.000    20855472.013 7 111484455.86507      1651.344 7        46.916                                                                    20855470.306 6  86710140.82306      1284.550 6        36.650
C16        45.000                                                                                                                                    40325830.453 4                     -1880.630 4        27.162    40325829.999 3                     -1454.868 3        23.467
C09        47.000                                                                                                                                                                                                    39173094.981 5 157733836.59105     -1218.902 5        34.329
C19        48.000                                                                                                                                    22531816.697 7 117329230.94207       623.647 7        43.105                                                                    22531811.048 7  95339475.19607       506.907 7        43.374
C06        50.000                                                                                                                                    39751914.810 4 206998685.98004     -1894.451 4        26.491    39751885.805 3                     -1465.480 3        23.581
C22        51.000                                                                                                                                    26173116.841 5                      2065.398 5        32.479                                                                    26173114.958 5 110747042.74105      1678.716 5        33.760
C44        52.000                                                                                                                                    25736137.669 5 134014894.96505      -830.138 5        32.832                                                                    25736133.760 6 108898003.77506      -674.283 6        37.009
C12        54.000                                                                                                                                                                                                    26654411.511 5 107326295.42305       384.811 5        31.185    26654403.252 5 112783589.68805       404.849 5        30.641
I06        59.000    38024278.127 6 149215436.74306      -618.026 6        36.030
> 2025 01 02 05 00 20.0000000  0 43
G16         2.000    23626979.816 4                     -1510.881 4        27.078
G20         4.000    22118489.768 8 116233473.21508      1830.722 8        48.314                                    22118482.868 5  90571526.55505      1426.538 5        32.431
G07         5.000    20983903.915 8 110271185.29008        67.376 8        50.828                                    20983897.477 8  85925607.66108        52.501 8        48.276    20983897.358 7  85925553.67207        52.435 7        44.239
G09         6.000    20634448.799 7 108434758.40707     -2399.809 7        47.536                                    20634444.962 8  84494630.97008     -1869.983 8        49.871    20634446.286 7  84494617.97107     -1870.012 7        46.018
G30         7.000    22477078.433 6 118117831.88406      2127.364 6        37.062                                    22477071.710 4  92039979.88804      1657.683 4        25.128    22477078.254 6  92039874.86706      1657.657 6        37.800
E27         9.000                                                                                                                                    27485185.065 5                     -1219.523 5        30.536
E21        10.000    26464593.790 4                       849.775 4        25.895                                                                    26464543.532 6 103852576.73706       634.503 6        36.741    26464551.887 5 106561758.09905       651.093 5        34.505
E06        11.000    25447426.420 7 133727141.90207      1142.354 7        43.609                                                                    25447424.168 6  99861200.92006       853.190 6        41.282    25447423.257 6 102466254.20406       875.274 6        39.192
G04        12.000    22532463.957 7 118409238.60007     -3558.758 7        45.735                                    22532460.740 4  92266655.94504     -2773.058 4        26.754    22532462.181 6  92266651.94606     -2773.026 6        38.808
E12        13.000    26392932.261 4                     -3817.108 4        27.497                                                                    26392910.585 5 103571447.23305     -2850.557 5        33.587    26392906.579 6 106273306.44106     -2924.888 6        36.106
G05        14.000    25054640.846 3                      2837.392 3        21.857
G06        15.000    22461802.681 6 118037460.16206     -3531.520 6        37.009                                    22461798.787 4  91977326.05104     -2751.832 4        26.599    22461799.327 6  91977330.04606     -2751.727 6        38.384
E11        16.000    24724098.232 7 129926039.24207     -1502.453 7        42.337                                                                    24724092.757 7  97022660.64607     -1121.903 7        43.380    24724092.742 7  99553680.02907     -1151.153 7        42.277
E04        17.000    23881676.116 6 125499070.95006       224.818 6        37.138                                                                    23881675.731 7  93716894.51407       167.977 7        46.277    23881674.639 7  96161626.81207       172.369 7        46.155
R08        18.000    19786249.229 7 105954625.17207     -1761.251 7        46.032                                                                    19786245.154 5  82409007.04805     -1369.840 5        35.638
E19        20.000    23955479.779 6 125886894.18006     -2363.819 6        38.411                                                                    23955475.891 6  94006458.40806     -1765.260 6        38.441    23955476.158 6  96458787.78406     -1811.491 6        39.700
E09        21.000    27718066.730 5 145659452.86205      1558.778 5        34.248                                                                    27718072.424 4                      1163.844 4        25.534    27718093.828 5 111609282.05605      1194.710 5        31.042
E36        22.000    26908265.717 6 141403944.18606      1083.253 6        38.192                                                                    26908265.155 6 105593806.55006       809.049 6        39.468    26908265.045 6 108348420.35606       830.014 6        41.604
S36        23.000    38269394.923 5 201107154.18805      -849.091 5        34.381
S23        24.000    38208185.883 6 200785332.43406      -844.789 6        39.562
G11        25.000    22186943.704 6 116593528.76906     -1200.296 6        38.967                                    22186939.382 2  90851847.85902      -935.313 2        14.667    22186939.836 6  90851816.73906      -935.378 6        36.231
R17        27.000    22728644.039 6 121625614.58506      1039.850 6        38.288                                                                    22728640.385 4                       808.477 4        27.078
E10        29.000    25142749.280 6 132126125.66406     -2975.194 6        39.889                                                                    25142748.919 7  98665595.74307     -2221.790 7        43.579    25142747.859 7 101239568.17207     -2279.747 7        42.995
R11        30.000    21979794.684 5 117453236.27305      3272.733 5        32.838                                                                    21979773.737 5  91352532.72905      2545.523 5        34.238
C20        31.000                                                                                                                                    22334925.943 6 116303948.38106     -1994.498 6        40.887                                                                    22334915.244 6  94506369.40406     -1620.816 6        38.763
R10        32.000    20277573.272 5                      -120.893 5        31.291
R23        33.000    23766274.967 3                     -5225.631 3        23.790
R07        34.000                                                                                                                                    22750966.952 4                     -3076.826 4        28.682
R09        37.000    21869165.981 6 116780080.58506     -3499.688 6        36.132
C05        38.000                                                                                                                                                                                                    39266094.239 5 158108299.13405      -692.091 5        33.653
C23        40.000                                                                                                                                    26238464.929 3                     -3569.146 3        20.595
C35        41.000                                                                                                                                    25514596.023 5 132860991.09405     -2861.170 5        35.062                                                                    25514563.075 5 107960466.69705     -2325.097 5        34.333
C37        42.000                                                                                                                                    23194333.099 7 120778955.53907     -1172.393 7        44.739                                                                    23194336.106 5  98142897.22805      -952.723 5        34.905
R24        43.000    21716393.409 6 116127333.90006     -2724.620 6        38.550                                                                    21716399.959 7  90321271.09107     -2119.080 7        43.746
R01        44.000    20853928.803 7 111476201.54707      1650.256 7        46.954                                                                    20853926.197 6  86703720.79206      1283.401 6        37.800
C16        45.000                                                                                                                                    40327638.053 4                     -1880.896 4        26.024    40327630.458 4                     -1454.387 4        25.068
C09        47.000                                                                                                                                                                                                    39174608.338 5 157739931.08905     -1218.998 5        33.635
C19        48.000                                                                                                                                    22531218.721 7 117326115.40807       622.453 7        44.331                                                                    22531212.707 7  95336943.59407       505.635 7        43.185
C06        50.000                                                                                                                                    39753726.372 4 207008157.04804     -1894.356 4        26.766    39753706.896 3                     -1467.218 3        23.733
C22        51.000                                                                                                                                    26171135.518 5                      2065.501 5        33.844                                                                    26171131.488 5 110738650.91805      1678.136 5        33.275
C44        52.000                                                                                                                                    25736936.895 5 134019051.57605      -832.759 5        32.389                                                                    25736932.084 6 108901381.33406      -676.563 6        36.941
C12        54.000                                                                                                                                                                                                                                                                    26653923.589 5 112781571.09105       402.847 5        30.174
I06        59.000    38025066.078 5 149218526.57705      -617.924 5        35.910
> 2025 01 02 05 00 25.0000000  0 41
G16         2.000    23628414.679 3                     -1515.142 3        23.752
G20         4.000    22116748.466 8 116224323.87008      1828.786 8        48.432                                    22116741.788 5  90564397.20105      1425.030 5        32.401
G07         5.000    20983840.851 8 110270854.84008        64.608 8        50.423                                    20983834.373 8  85925350.16808        50.342 8        48.334    20983835.045 7  85925296.16207        50.441 7        43.898
G09         6.000    20636733.122 7 108446761.36807     -2401.625 7        46.781                                    20636729.111 8  84503983.93108     -1871.396 8        49.346    20636730.303 7  84503970.91707     -1871.343 7        45.716
G30         7.000    22475055.716 6 118107199.33606      2125.392 6        38.057                                    22475049.531 4  92031694.77404      1656.155 4        26.754    22475054.644 6  92031589.73806      1656.284 6        38.456
E27         9.000    27486787.670 4                     -1635.730 4        29.346                                                                    27486738.252 5                     -1221.522 5        30.226
E21        10.000                                                                                                                                    26463735.525 6 103849408.17706       632.827 6        36.824    26463744.103 5 106558506.84505       649.402 5        32.952
E06        11.000    25446339.087 7 133721431.58207      1141.510 7        43.642                                                                    25446337.938 6  99856936.73206       852.395 6        41.352    25446337.101 6 102461878.76906       874.582 6        39.075
G04        12.000    22535850.271 7 118427034.68607     -3559.880 7        45.798                                    22535847.743 4  92280523.02804     -2773.925 4        27.389    22535848.918 6  92280519.03506     -2774.056 6        40.012
E12        13.000    26396561.729 4                     -3817.928 4        27.629                                                                    26396544.213 5 103585700.97005     -2851.644 5        32.275    26396539.115 6 106287931.95406     -2925.595 6        36.665
G06        15.000    22465163.161 6 118055122.30806     -3533.624 6        36.654                                    22465158.737 4  91991088.77204     -2753.483 4        27.210    22465160.576 6  91991092.73006     -2753.336 6        37.214
E11        16.000    24725528.693 7 129933557.20707     -1505.220 7        42.387                                                                    24725523.525 7  97028274.72207     -1124.028 7        43.391    24725523.240 7  99559440.55507     -1153.236 7        42.620
E04        17.000    23881461.973 6 125497948.79106       223.730 6        37.474                                                                    23881462.172 7  93716056.55707       167.076 7        46.310    23881461.273 7  96160767.00107       171.406 7        46.290
R08        18.000    19787895.320 7 105963436.78107     -1763.555 7        44.838                                                                    19787891.037 6  82415860.52406     -1371.513 6        37.070
E19        20.000    23957728.472 6 125898715.98306     -2365.127 6        37.391                                                                    23957725.541 6  94015286.35506     -1766.000 6        38.607    23957725.429 6  96467846.02706     -1812.133 6        39.538
E09        21.000    27716582.773 5 145651659.55405      1558.388 5        33.677                                                                    27716589.437 4                      1163.402 4        27.341    27716610.492 5 111603310.53705      1193.571 5        30.989
E36        22.000    26907235.645 6 141398532.43406      1081.235 6        38.336                                                                    26907234.990 6 105589765.35006       807.327 6        39.225    26907235.230 7 108344273.71107       828.419 7        42.273
S36        23.000    38270206.939 5 201111398.30505      -848.662 5        34.581
S23        24.000    38208988.575 6 200789556.16606      -844.829 6        39.099
G11        25.000    22188091.325 6 116599538.73606     -1203.916 6        39.039                                    22188083.232 2  90856530.92202      -938.112 2        15.238    22188081.990 6  90856499.87506      -938.244 6        37.747
R17        27.000    22727675.830 6 121620425.80406      1035.557 6        39.138                                                                    22727669.587 4                       806.450 4        24.000
E10        29.000    25145580.986 6 132141006.98406     -2977.645 6        38.937                                                                    25145580.719 7  98676708.41607     -2223.483 7        43.752    25145579.767 7 101250970.73607     -2281.405 7        43.223
R11        30.000    21976731.708 5 117436876.37705      3270.760 5        30.196                                                                    21976707.995 5  91339808.41605      2544.040 5        31.517
C20        31.000                                                                                                                                    22336837.432 7 116313925.22407     -1996.391 7        42.110                                                                    22336831.185 6  94514476.39106     -1622.141 6        39.186
