     3.04           OBSERVATION DATA    M                   RINEX VERSION / TYPE
ssrcrin-15.6.1x                         20250102 190000 UTC PGM / RUN BY / DATE 
(00000000023479385599111004) Septentrio proprietary         COMMENT             
ract                                                        MARKER NAME         
01                                                          MARKER NUMBER       
geodetic                                                    MARKER TYPE         
NFB                 CLIMERS@TUW                             OBSERVER / AGENCY   
3296359             SEPT ASTERX SB3 PROB4.14.4              REC # / TYPE / VERS 
Unknown             Unknown                                 ANT # / TYPE        
  4127447.7238  1206914.6833  4695543.9682                  APPROX POSITION XYZ 
        0.0000        0.0000        0.0000                  ANTENNA: DELTA H/E/N
G   23 X1  C1C L1C D1C S1C C1W S1W C2W L2W D2W S2W C2L L2L  SYS / # / OBS TYPES 
       D2L S2L C5Q L5Q D5Q S5Q C1L L1L D1L S1L              SYS / # / OBS TYPES 
E   21 X1  C1C L1C D1C S1C C6C L6C D6C S6C C5Q L5Q D5Q S5Q  SYS / # / OBS TYPES 
       C7Q L7Q D7Q S7Q C8Q L8Q D8Q S8Q                      SYS / # / OBS TYPES 
S    9 X1  C1C L1C D1C S1C C5I L5I D5I S5I                  SYS / # / OBS TYPES 
R   17 X1  C1C L1C D1C S1C C2P L2P D2P S2P C2C L2C D2C S2C  SYS / # / OBS TYPES 
       C3Q L3Q D3Q S3Q                                      SYS / # / OBS TYPES 
C   25 X1  C1P L1P D1P S1P C5P L5P D5P S5P C2I L2I D2I S2I  SYS / # / OBS TYPES 
       C7I L7I D7I S7I C6I L6I D6I S6I C7D L7D D7D S7D      SYS / # / OBS TYPES 
J   17 X1  C1C L1C D1C S1C C2L L2L D2L S2L C5Q L5Q D5Q S5Q  SYS / # / OBS TYPES 
       C1L L1L D1L S1L                                      SYS / # / OBS TYPES 
I    5 X1  C5A L5A D5A S5A                                  SYS / # / OBS TYPES 
SEPTENTRIO RECEIVERS OUTPUT ALIGNED CARRIER PHASES.         COMMENT             
NO FURTHER PHASE SHIFT APPLIED IN THE RINEX ENCODER.        COMMENT             
G L1C                                                       SYS / PHASE SHIFT   
G L2W                                                       SYS / PHASE SHIFT   
G L2L  0.00000                                              SYS / PHASE SHIFT   
G L5Q  0.00000                                              SYS / PHASE SHIFT   
G L1L  0.00000                                              SYS / PHASE SHIFT   
E L1C  0.00000                                              SYS / PHASE SHIFT   
E L6C  0.00000                                              SYS / PHASE SHIFT   
E L5Q  0.00000                                              SYS / PHASE SHIFT   
E L7Q  0.00000                                              SYS / PHASE SHIFT   
E L8Q  0.00000                                              SYS / PHASE SHIFT   
S L1C                                                       SYS / PHASE SHIFT   
S L5I                                                       SYS / PHASE SHIFT   
R L1C                                                       SYS / PHASE SHIFT   
R L2P  0.00000                                              SYS / PHASE SHIFT   
R L2C                                                       SYS / PHASE SHIFT   
R L3Q  0.00000                                              SYS / PHASE SHIFT   
C L1P  0.00000                                              SYS / PHASE SHIFT   
C L5P  0.00000                                              SYS / PHASE SHIFT   
C L2I                                                       SYS / PHASE SHIFT   
C L7I                                                       SYS / PHASE SHIFT   
C L6I                                                       SYS / PHASE SHIFT   
C L7D                                                       SYS / PHASE SHIFT   
J L1C                                                       SYS / PHASE SHIFT   
J L2L  0.00000                                              SYS / PHASE SHIFT   
J L5Q  0.00000                                              SYS / PHASE SHIFT   
J L1L  0.00000                                              SYS / PHASE SHIFT   
I L5A                                                       SYS / PHASE SHIFT   
  2025     1     2    19     0    0.0000000     GPS         TIME OF FIRST OBS   
 C1C    0.000 C2C    0.000 C2P    0.000                     GLONASS COD/PHS/BIS 
DBHZ                                                        SIGNAL STRENGTH UNIT
    18                                                      LEAP SECONDS        
 24 R01  1 R02 -4 R03  5 R04  6 R05  1 R06 -4 R07  5 R08  6 GLONASS SLOT / FRQ #
    R09 -2 R10 -7 R11  0 R12 -1 R13 -2 R14 -7 R15  0 R16 -1 GLONASS SLOT / FRQ #
    R17  4 R18 -3 R19  3 R20  2 R21  4 R22 -3 R23  3 R24  2 GLONASS SLOT / FRQ #
                                                            END OF HEADER       
> 2025 01 02 19 00  0.0000000  0 39
G10         1.000    22979863.255 6 120759994.10706      2455.850 6        41.528                                    22979861.691 4  94098698.91704      1913.645 4        29.687    22979861.245 5  94098705.95205      1913.513 5        34.424
G23         2.000    21028681.666 6 110506445.78306       536.366 6        38.318                                    21028671.558 3  86108938.71603       417.947 3        21.881    21028673.809 6  86108894.71106       417.980 6        41.378
G08         5.000    23912142.554 5 125659072.72605      2423.421 5        33.192                                    23912133.341 1  97916192.66601      1888.350 1        11.407
G07         8.000    25237837.128 5 132625719.19505       279.918 5        35.248                                    25237821.555 2 103344694.07702       218.134 2        12.909    25237821.904 4                       218.130 4        28.209
G18        12.000    21302540.841 7 111945832.28207     -2900.522 7        45.482                                    21302534.950 4  87230397.73604     -2260.146 4        25.038    21302536.644 6  87230597.75506     -2260.111 6        41.147
G27        13.000                                                                                                                                                                    21172531.070 6  86697956.48206      1126.571 6        38.273
E27        14.000    27139320.432 4                      1796.276 4        27.353                                                                    27139244.193 5 106500238.43605      1341.500 5        34.757    27139276.215 5 109278547.50805      1376.431 5        35.324
R03        15.000    22023317.991 6 117892555.99206      -991.448 6        41.783                                                                    22023318.797 6  91694196.71506      -771.075 6        36.287
E15        16.000    27233127.169 5 143111027.17005      1818.156 5        34.690                                                                                                                                    27233117.467 5 109656480.22305      1392.964 5        31.238
G26        17.000    21470979.080 6 112830779.68306     -3364.900 6        36.938                                    21470973.314 4  87920485.76704     -2622.000 4        26.383    21470973.452 5  87920059.76105     -2621.871 5        35.676
R02        18.000    24297726.403 4                     -3933.882 4        25.835                                                                    24297757.087 5                     -3060.250 5        30.438
E30        19.000    24047227.974 6 126369032.00606      -382.350 6        39.006                                                                    24047226.588 7  94366526.36807      -285.468 7        45.195    24047226.981 7  96828254.41407      -292.974 7        44.680
R20        20.000    20085836.339 6 107407994.89106       774.951 6        36.567                                                                    20085835.600 7  83539542.25507       602.735 7        44.781
E02        21.000    24439585.601 7 128431146.57107     -3167.680 7        44.187                                                                                                                                    24439586.476 7  98408196.07307     -2427.158 7        42.072
S23        22.000    38053925.699 6 199974749.18006      -865.581 6        40.291
R10        23.000    20085581.976 6 107067435.41206     -1334.921 6        36.646
E36        24.000    24027969.397 4                     -2411.320 4        25.729                                                                    24027947.263 7  94291013.79207     -1800.428 7        44.814    24027947.368 7  96750761.23207     -1847.348 7        47.293
G16        26.000    20425055.670 7 107334395.50407     -1255.642 7        46.775                                    20425053.690 4  83637179.65404      -978.417 4        28.152
S21        27.000    38327550.946 5 201412907.15005      -864.612 5        34.167
C22        28.000                                                                                                                                    24667568.792 4 128450625.62304     -1482.099 4        26.707                                                                    24667561.838 3                     -1204.483 3        20.190
R19        29.000    20427617.187 3                     -3163.912 3        23.981                                                                    20427598.527 6  84990785.92506     -2461.770 6        41.066
S36        31.000    38097651.836 6 200204480.28806      -863.901 6        36.416
E34        32.000    23561196.177 7 123814936.19107       224.675 7        47.305                                                                    23561195.974 8  92459210.35408       167.779 8        49.408    23561195.862 8  94871249.07408       172.138 8        51.082
R11        33.000    22404622.349 6 119723530.97606      2455.135 6        40.701                                                                    22404617.097 6  93118575.96306      1909.411 6        40.114
C44        35.000                                                                                                                                    24838843.025 3                     -3541.859 3        22.590
C08        36.000                                                                                                                                    37999707.957 5 197874428.62705     -1679.051 5        35.038    37999695.777 7 153009047.22707     -1298.155 7        44.615    37999696.311 7 160789240.98307     -1364.218 7        42.370
R09        37.000    21010973.673 6 112197574.63706     -4508.400 6        36.023                                                                    21010989.208 5  87264681.73405     -3506.630 5        33.796
C11        38.000                                                                                                                                    21534482.149 6 112135677.18106      -365.772 6        37.962    21534476.640 7  86710473.25907      -282.723 7        47.494    21534475.140 7  91119394.08507      -297.082 7        44.897
R04        40.000                                                                                                                                    22141602.189 3                      1740.231 3        23.867
C12        41.000                                                                                                                                    23179521.818 7 120701845.20207     -2913.716 7        46.170    23179519.624 8  93334405.11608     -2253.052 8        50.848    23179516.061 7  98080202.87507     -2367.667 7        43.227
C13        43.000                                                                                                                                    37731420.494 5 196477448.06905     -1404.636 5        32.144    37731430.512 5 151928861.13105     -1086.575 5        35.124    37731424.099 4 159654055.04404     -1141.850 4        29.953
C38        44.000                                                                                                                                    39347042.762 4 204890388.77504     -1943.922 4        29.100                                                                    39347056.811 4                     -1580.184 4        27.222
C25        45.000                                                                                                                                    24061298.526 6 125293675.90506     -3757.026 6        38.150                                                                    24061285.259 6 101811212.48306     -3053.092 6        36.926
C21        46.000                                                                                                                                    24375747.286 7 126930916.68207      1239.463 7        42.718                                                                    24375742.730 6 103141750.02206      1007.085 6        40.098
C23        47.000                                                                                                                                    23717865.578 6 123505516.27106     -1259.328 6        41.630                                                                    23717853.117 6 100358086.93606     -1023.365 6        36.068
C43        48.000                                                                                                                                    22384954.525 8 116564419.29608       805.583 8        48.441                                                                    22384956.212 7  94718103.59307       654.573 7        44.287
C34        52.000                                                                                                                                    21451343.164 8 111702844.91008     -1646.459 8        50.136                                                                    21451342.659 8  90767794.19608     -1337.955 8        49.164
C37        54.000                                                                                                                                    26040768.735 5 135601128.01305      1294.000 5        32.934                                                                    26040786.864 5 110187114.61205      1051.457 5        35.810
I06        58.000    38580148.989 6 151396916.83406      -600.488 6        41.971
> 2025 01 02 19 00  5.0000000  0 38
G10         1.000    22977527.163 6 120747717.40306      2454.401 6        41.623                                    22977525.094 4  94089132.67604      1912.524 4        29.687    22977524.650 5  94089139.72405      1912.463 5        34.071
G23         2.000    21028171.337 6 110503770.86906       533.079 6        38.739                                    21028163.331 3  86106854.38103       415.387 3        22.210    21028165.157 6  86106810.35106       415.425 6        41.847
G08         5.000    23909838.143 5 125646955.71305      2423.025 5        31.638                                    23909827.499 1  97906750.91901      1888.036 1        10.593    23909820.707 5                      1888.169 5        30.226
G07         8.000    25237578.753 5 132624326.46905       277.115 5        32.114                                    25237556.375 1 103343608.89801       215.915 1        11.556    25237556.826 4                       216.344 4        27.725
G18        12.000    21305300.786 7 111960338.07407     -2902.254 7        44.650                                    21305295.855 4  87241700.95004     -2261.497 4        25.654    21305297.203 6  87241900.96606     -2261.446 6        41.683
G27        13.000    21171146.518 4                      1444.278 4        29.886                                                                                                    21171156.654 6  86692327.00206      1125.101 6        36.560
E27        14.000    27137607.166 4                      1795.453 4        28.408                                                                    27137534.857 5 106493532.70405      1340.482 5        34.710    27137567.212 5 109271666.80105      1375.626 5        34.867
R03        15.000    22024246.172 7 117897523.15607      -995.871 7        43.064                                                                    22024252.907 6  91698060.00806      -774.488 6        36.204
E15        16.000    27231398.313 5 143101936.96405      1817.152 5        34.862                                                                                                                                    27231389.165 5 109649515.00805      1392.656 5        32.359
G26        17.000    21474178.248 6 112847609.86406     -3367.268 6        36.166                                    21474175.689 4  87933600.19804     -2623.837 4        26.599    21474177.080 5  87933174.16605     -2623.940 5        35.386
R02        18.000                                                                                                                                    24301441.860 4                     -3062.175 4        28.673
E30        19.000    24047592.208 6 126370948.69306      -384.727 6        38.847                                                                    24047591.544 7  94367957.66607      -287.303 7        45.546    24047591.482 7  96829723.05207      -294.840 7        44.656
R20        20.000    20085112.934 6 107404124.87206       772.834 6        37.096                                                                    20085111.767 7  83536532.26507       600.987 7        44.718
E02        21.000    24442600.551 7 128446988.10507     -3169.335 7        44.238                                                                    24442599.680 6  95918031.68316     -2366.761 6        36.064    24442600.997 6  98420334.40306     -2428.500 6        41.995
S23        22.000    38054746.988 6 199979076.19506      -865.755 6        40.446
R10        23.000    20086837.332 5 107074120.53305     -1339.688 5        35.829
E36        24.000    24030272.314 4                     -2411.784 4        26.443                                                                    24030241.609 7  94300017.33107     -1801.345 7        44.664    24030241.794 7  96759999.64607     -1848.352 7        47.217
G16        26.000    20426251.765 7 107340681.49707     -1259.115 7        47.150                                    20426249.197 4  83642077.82504      -981.129 4        28.720
S21        27.000    38328372.875 5 201417229.13005      -864.684 5        34.257
C22        28.000                                                                                                                                    24668992.863 4 128458042.83204     -1485.653 4        24.406
R19        29.000    20430584.215 3                     -3168.632 3        21.071                                                                    20430558.978 6  85003097.29906     -2463.081 6        41.514
S36        31.000    38098474.391 6 200208798.03906      -863.552 6        36.590
E34        32.000    23560982.688 7 123813816.15007       222.940 7        47.686                                                                    23560982.761 8  92458373.95708       166.483 8        49.118    23560982.705 8  94870390.85308       170.831 8        51.001
R11        33.000    22402328.450 6 119711262.18806      2452.198 6        40.644                                                                    22402320.892 6  93109033.59306      1907.016 6        40.119
C44        35.000                                                                                                                                    24842235.721 3                     -3540.167 3        20.429
C08        36.000                                                                                                                                    38001318.085 5 197882823.41605     -1679.851 5        34.633    38001307.782 7 153015538.60307     -1298.814 7        44.163    38001308.474 7 160796062.43007     -1364.611 7        42.554
R09        37.000    21015195.700 5 112220122.16005     -4511.109 5        33.024                                                                    21015207.266 5  87282218.73805     -3508.524 5        33.946
C11        38.000                                                                                                                                    21534833.273 6 112137508.29906      -367.236 6        38.913    21534828.202 7  86711889.21007      -284.002 7        47.292    21534826.659 7  91120882.04107      -298.254 7        44.638
C12        41.000                                                                                                                                    23182320.220 7 120716415.05107     -2914.690 7        46.556    23182317.700 8  93345671.44808     -2253.789 8        50.526    23182314.274 7  98092042.08507     -2368.258 7        43.547
C13        43.000                                                                                                                                    37732771.749 5 196484474.76705     -1406.001 5        32.934    37732771.404 5 151934294.63005     -1087.224 5        34.767    37732772.875 5 159659764.80705     -1142.458 5        30.083
C38        44.000                                                                                                                                    39348908.858 4 204900110.12404     -1944.764 4        28.550                                                                    39348921.545 4                     -1580.275 4        27.760
C25        45.000                                                                                                                                    24064906.061 6 125312463.53506     -3758.495 6        36.919                                                                    24064890.998 6 101826479.00606     -3053.970 6        37.713
C21        46.000                                                                                                                                    24374558.820 7 126924724.34707      1237.232 7        43.107                                                                    24374553.595 6 103136718.25406      1005.382 6        40.117
C23        47.000                                                                                                                                    23719075.046 6 123511819.66806     -1262.505 6        40.076                                                                    23719063.761 5 100363208.93405     -1025.603 5        35.738
C43        48.000                                                                                                                                    22384181.125 8 116560393.74008       804.225 8        48.331                                                                    22384183.174 7  94714832.49807       653.646 7        44.864
C34        52.000                                                                                                                                    21452924.283 8 111711080.03008     -1648.017 8        49.979                                                                    21452924.175 8  90774485.91208     -1339.097 8        49.207
C37        54.000                                                                                                                                    26039530.443 5 135594662.97305      1292.026 5        34.329                                                                    26039544.032 6 110181861.21906      1049.685 6        36.110
I06        58.000    38580913.567 7 151399918.39707      -600.496 7        42.099
> 2025 01 02 19 00 10.0000000  0 39
G10         1.000    22975192.114 6 120735447.43906      2453.316 6        41.614                                    22975189.825 5  94079571.67305      1911.672 5        30.166    22975190.312 5  94079578.73405      1911.435 5        34.138
G23         2.000    21027666.404 6 110501111.78306       530.270 6        40.491                                    21027658.248 3  86104782.37703       413.205 3        22.838    21027659.226 6  86104738.35306       413.143 6        41.271
G08         5.000                                                                                                                                                                    23907516.829 5                      1887.898 5        31.532
G07         8.000    25237311.253 4 132622947.12304       273.869 4        26.563                                    25237293.698 1 103342534.08901       213.439 1         9.905    25237294.060 4                       214.058 4        25.729
G18        12.000    21308061.676 7 111974852.75607     -2903.868 7        43.077                                    21308058.549 4  87253011.08304     -2262.749 4        26.144    21308059.326 7  87253211.09507     -2262.705 7        42.057
G27        13.000    21169775.143 5                      1441.405 5        33.760                                                                                                    21169782.213 5  86686703.97705      1124.046 5        34.462
E27        14.000    27135898.322 4                      1794.858 4        26.898                                                                    27135826.590 5 106486830.53205      1340.097 5        34.410    27135858.791 5 109264789.74005      1374.977 5        34.367
R03        15.000    22025179.646 7 117902512.74607     -1000.174 7        44.969                                                                    22025188.132 6  91701940.76006      -777.864 6        36.439
E15        16.000    27229671.280 5 143092850.27405      1816.937 5        35.105                                                                                                                                    27229660.007 5 109642552.49405      1392.602 5        32.647
G26        17.000    21477381.383 6 112864451.82206     -3369.646 6        38.471                                    21477380.447 4  87946723.79604     -2625.690 4        27.353    21477381.984 5  87946297.76305     -2625.625 5        35.919
R02        18.000                                                                                                                                    24305133.046 4                     -3063.696 4        25.128
E30        19.000    24047960.000 6 126372876.74406      -386.867 6        38.375                                                                    24047958.639 7  94369397.44107      -288.807 7        45.743    24047958.295 7  96831200.38707      -296.331 7        44.564
R20        20.000    20084392.342 6 107400265.60106       770.866 6        36.333                                                                    20084389.746 7  83533530.60007       599.417 7        43.589
E02        21.000    24445617.008 7 128462837.82707     -3170.854 7        44.596                                                                    24445614.981 6  95929867.50706     -2367.878 6        36.435    24445617.059 6  98432478.98906     -2429.534 6        41.387
S23        22.000    38055571.837 6 199983403.53206      -865.462 6        40.548
R10        23.000    20088094.787 5 107080828.86105     -1343.835 5        35.371
E36        24.000    24032564.209 5                     -2413.108 5        30.415                                                                    24032537.189 7  94309025.45407     -1802.100 7        44.408    24032537.317 7  96769242.76007     -1849.106 7        46.855
G16        26.000    20427450.995 7 107346984.81307     -1262.345 7        46.970                                    20427448.110 4  83646989.49504      -983.643 4        29.469
S21        27.000    38329195.202 5 201421551.59105      -864.671 5        34.148
C22        28.000                                                                                                                                    24670411.007 3                     -1488.983 3        20.571                                                                    24670437.811 4                     -1209.157 4        26.623
R19        29.000                                                                                                                                    20433519.058 6  85015414.37406     -2464.033 6        41.652
S36        31.000    38099295.604 6 200213115.97606      -863.837 6        36.669
E34        32.000    23560771.037 7 123812704.32307       221.434 7        47.592                                                                    23560771.174 8  92457543.70108       165.439 8        48.894    23560771.158 8  94869538.93508       169.731 8        50.675
R11        33.000    22400037.726 6 119699007.66106      2449.588 6        39.171                                                                    22400027.353 6  93099502.31406      1905.165 6        39.649
C08        36.000                                                                                                                                    38002928.365 5 197891221.78305     -1680.178 5        34.448    38002920.587 7 153022032.73307     -1299.135 7        43.672    38002921.142 7 160802886.77907     -1365.081 7        42.373
R09        37.000    21019417.987 5 112242682.73305     -4513.434 5        34.552                                                                    21019423.090 5  87299765.80105     -3510.370 5        35.700
C11        38.000                                                                                                                                    21535186.604 6 112139346.87506      -368.442 6        39.559    21535180.953 7  86713310.90107      -284.820 7        47.248    21535179.771 7  91122376.01907      -299.276 7        44.242
R21        39.000    24137564.251 4 129164991.90714      2501.183 4        29.498
R04        40.000    22137453.930 5                      2232.095 5        34.281                                                                    22137448.838 4                      1736.006 4        28.758
C12        41.000                                                                                                                                    23185119.085 7 120730989.41007     -2915.389 7        46.589    23185116.434 8  93356941.25508     -2254.318 8        50.087    23185113.138 7  98103884.93807     -2368.954 7        43.835
C13        43.000                                                                                                                                    37734122.811 5 196491505.08105     -1406.400 5        34.352    37734120.734 5 151939730.91305     -1087.543 5        34.590    37734123.141 4 159665477.55204     -1143.072 4        29.754
C38        44.000                                                                                                                                    39350776.794 4 204909833.86704     -1944.910 4        27.940                                                                    39350785.147 4                     -1580.625 4        27.940
C25        45.000                                                                                                                                    24068514.962 5 125331257.39805     -3759.510 5        34.686                                                                    24068498.926 6 101841750.57506     -3054.694 6        38.300
C21        46.000                                                                                                                                    24373372.195 7 126918542.73907      1235.264 7        43.467                                                                    24373366.200 6 103131695.17206      1003.800 6        39.658
C23        47.000                                                                                                                                    23720286.110 6 123518137.41006     -1264.875 6        38.634                                                                    23720277.262 5 100368342.58405     -1027.866 5        35.495
C43        48.000                                                                                                                                    22383409.609 8 116556374.39808       803.232 8        48.496                                                                    22383410.999 7  94711566.43407       652.803 7        45.184
C34        52.000                                                                                                                                    21454507.038 8 111719322.54208     -1649.275 8        49.728                                                                    21454507.028 8  90781183.61308     -1340.109 8        49.231
C37        54.000                                                                                                                                    26038292.928 5 135588208.37505      1290.042 5        35.286                                                                    26038303.129 6 110176616.31306      1048.184 6        36.416
I06        58.000    38581678.650 7 151402920.02507      -600.395 7        42.023
> 2025 01 02 19 00 15.0000000  0 40
G10         1.000    22972858.505 7 120723183.67807      2452.219 7        42.201                                    22972855.817 5  94070015.51905      1910.814 5        30.385    22972855.723 5  94070022.56105      1910.816 5        34.805
G23         2.000    21027164.147 7 110498468.07507       527.255 7        42.552                                    21027155.539 3  86102722.34503       410.846 3        23.257    21027155.042 6  86102678.31306       410.920 6        39.955
G08         5.000                                                                                                                                                                    23905215.522 5                      1887.644 5        33.108
G07         8.000    25237036.201 5 132621580.36705       272.497 5        31.094                                    25237033.570 1 103341468.89901       212.280 1         5.286    25237035.225 4                       211.330 4        26.311
G18        12.000    21310825.844 6 111989375.76206     -2905.397 6        41.340                                    21310822.812 4  87264327.72204     -2263.941 4        26.000    21310823.255 7  87264527.72807     -2263.939 7        42.679
G27        13.000    21168407.417 6 111240710.48216      1440.842 6        36.820                                    21168411.118 4  86681103.93614      1122.740 4        29.062    21168410.308 5  86681087.04405      1122.779 5        34.024
E27        14.000    27134195.510 4                      1794.723 4        25.068                                                                    27134119.723 5 106480131.55605      1339.641 5        34.305    27134151.146 5 109257915.95505      1374.455 5        33.719
R03        15.000    22026120.065 7 117907524.46507     -1004.499 7        45.658                                                                    22026124.209 6  91705838.75606      -781.272 6        36.696
E15        16.000    27227943.307 5 143083766.62505      1816.688 5        35.162                                                                                                                                    27227931.678 5 109635592.37205      1391.795 5        33.251
G26        17.000    21480590.430 6 112881305.04706     -3371.783 6        40.398                                    21480587.701 4  87959856.16404     -2627.357 4        28.540    21480589.248 6  87959430.15006     -2627.106 6        36.866
R02        18.000    24308822.873 5                     -3942.683 5        30.906                                                                    24308829.839 3                     -3065.415 3        21.762
E30        19.000    24048329.414 6 126374815.62806      -389.022 6        36.495                                                                    24048327.935 7  94370845.30507      -290.337 7        45.795    24048327.152 7  96832686.01707      -297.832 7        44.528
R20        20.000    20083669.991 5 107396416.51505       768.825 5        35.743                                                                    20083670.051 7  83530536.85607       598.041 7        43.077
E02        21.000    24448634.879 7 128478695.22407     -3172.179 7        44.975                                                                    24448632.457 6  95941709.07406     -2368.685 6        36.140    24448634.592 6  98444629.47706     -2430.743 6        40.875
S23        22.000    38056394.781 6 199987730.78706      -865.328 6        40.813
R10        23.000    20089358.074 6 107087560.22106     -1348.741 6        36.998
E36        24.000                                                                                                                                    24034834.026 7  94318037.75407     -1802.798 7        44.226    24034833.778 7  96778490.17407     -1849.884 7        46.576
G16        26.000    20428653.770 7 107353304.89407     -1265.574 7        46.919                                    20428650.395 5  83651914.23505      -986.166 5        30.068
S21        27.000    38330015.315 5 201425873.80905      -864.355 5        34.205
C22        28.000                                                                                                                                                                                                                                                                    24671864.518 4                     -1210.978 4        25.128
R19        29.000    20436495.647 4                     -3169.328 4        28.578                                                                    20436480.605 6  85027736.85706     -2464.852 6        41.504
S36        31.000    38100117.032 6 200217434.49006      -863.863 6        36.843
E34        32.000    23560561.193 7 123811600.18207       220.176 7        47.542                                                                    23560561.052 8  92456719.19308       164.351 8        48.477    23560561.091 8  94868692.91308       168.640 8        50.400
R11        33.000    22397745.621 5 119686766.93205      2446.908 5        35.386                                                                    22397736.348 6  93089981.75806      1903.133 6        39.282
C44        35.000                                                                                                                                    24849060.942 4                     -3542.133 4        26.695
C08        36.000                                                                                                                                    38004540.230 5 197899623.22305     -1680.428 5        33.778    38004533.980 7 153028529.27107     -1299.522 7        43.213    38004534.709 7 160809713.65607     -1365.640 7        42.172
R09        37.000                                                                                                                                    21023649.238 6  87317322.59706     -3512.306 6        36.820
C11        38.000                                                                                                                                    21535541.921 6 112141192.31206      -369.755 6        39.072    21535535.399 7  86714737.91307      -285.826 7        47.139    21535533.948 7  91123875.60507      -300.506 7        43.769
R21        39.000    24135228.850 4 129152485.86304      2500.857 4        28.815
R04        40.000    22135370.821 5 118533905.97615      2229.524 5        35.043                                                                    22135366.015 5                      1733.899 5        31.615
C12        41.000                                                                                                                                    23187917.961 7 120745567.71607     -2915.996 7        46.455    23187915.979 8  93368214.10908     -2254.818 8        49.583    23187912.913 7  98115731.00407     -2369.574 7        43.873
C13        43.000                                                                                                                                    37735473.225 5 196498538.54405     -1407.070 5        35.424    37735473.548 5 151945169.68505     -1088.027 5        34.700    37735473.984 4 159671192.85504     -1143.034 4        29.573
C38        44.000                                                                                                                                    39352642.712 4 204919559.48004     -1945.489 4        27.748                                                                    39352650.784 4                     -1580.519 4        27.509
C25        45.000                                                                                                                                    24072124.685 5 125350056.91905     -3760.031 5        30.498                                                                    24072108.999 6 101857026.81606     -3055.724 6        38.583
C21        46.000                                                                                                                                    24372186.911 7 126912371.35207      1233.394 7        43.829                                                                    24372180.752 6 103126680.42806      1002.138 6        39.291
C23        47.000                                                                                                                                    23721500.555 6 123524468.97006     -1267.568 6        39.213                                                                    23721493.193 5 100373487.48605     -1029.951 5        35.276
C43        48.000                                                                                                                                    22382639.776 8 116552360.74908       802.243 8        48.885                                                                    22382640.125 7  94708305.03507       651.768 7        45.249
C34        52.000                                                                                                                                    21456090.935 8 111727571.92608     -1650.501 8        49.624                                                                    21456091.268 8  90787886.93308     -1341.270 8        49.048
C37        54.000                                                                                                                                    26037062.152 5 135581763.73605      1288.017 5        35.938                                                                    26037064.149 6 110171379.50706      1046.212 6        36.125
I06        58.000    38582443.242 7 151405921.31107      -600.174 7        42.142
> 2025 01 02 19 00 20.0000000  0 40
G10         1.000    22970527.115 7 120710926.49807      2450.669 7        43.363                                    22970523.182 5  94060464.48705      1909.609 5        30.702    22970523.055 5  94060471.51705      1909.589 5        35.695
G23         2.000    21026665.494 7 110495840.09507       523.836 7        42.590                                    21026655.572 3  86100674.56203       408.172 3        22.952    21026653.897 6  86100630.54306       408.172 6        38.970
G08         5.000    23902901.065 4 125610616.33604      2421.852 4        26.970                                    23902912.144 1  97878434.75801      1887.134 1         9.810    23902912.994 5  97878431.76115      1888.053 5        34.233
G07         8.000    25236777.889 5 132620226.53405       269.452 5        35.552                                    25236775.902 1 103340413.99101       209.960 1         4.571    25236779.113 4                       209.918 4        27.808
G18        12.000    21313591.537 6 112003907.48806     -2907.299 6        39.279                                    21313588.783 4  87275651.13804     -2265.426 4        26.108    21313589.430 7  87275851.13907     -2265.500 7        43.147
G27        13.000    21167039.481 6 111233510.24906      1438.956 6        38.501                                    21167041.084 4  86675493.35904      1121.280 4        29.412    21167039.513 5  86675476.48005      1120.946 5        33.910
E27        14.000    27132490.856 3                      1789.827 3        20.548                                                                    27132413.988 5 106473436.05205      1338.755 5        34.633    27132443.405 5 109251045.73405      1373.640 5        33.731
R03        15.000    22027064.231 7 117912558.61107     -1009.254 7        44.233                                                                    22027066.392 5  91709754.20205      -785.098 5        35.133
E15        16.000    27226215.105 5 143074686.39005      1815.508 5        35.148                                                                                                                                    27226203.225 5 109628634.80205      1391.228 5        33.701
G26        17.000    21483801.878 6 112898169.85006     -3374.266 6        41.085                                    21483797.543 4  87972997.56604     -2629.294 4        29.934    21483799.345 6  87972571.56006     -2629.385 6        38.219
R02        18.000    24312516.501 4                     -3945.075 4        29.554
E30        19.000    24048701.250 5 126376765.69505      -391.314 5        34.705                                                                    24048699.183 7  94372301.54207      -292.218 7        45.931    24048698.050 7  96834180.24407      -299.814 7        44.537
R20        20.000    20082951.185 5 107392577.99605       766.596 5        34.624                                                                    20082951.403 6  83527551.32906       596.159 6        40.472
E02        21.000    24451654.257 7 128494560.65207     -3174.096 7        45.532                                                                    24451651.367 5  95953556.64505     -2370.394 5        35.281    24451653.863 6  98456786.09106     -2432.031 6        40.415
S23        22.000    38057218.709 6 199992058.20406      -865.553 6        40.784
R10        23.000    20090625.776 6 107094314.96106     -1353.429 6        40.329
E36        24.000    24037137.185 6 126316063.09116     -2415.981 6        36.250                                                                    24037131.944 7  94327054.51007     -1803.898 7        44.361    24037131.355 7  96787742.14907     -1851.053 7        46.379
G16        26.000    20429859.787 7 107359642.12907     -1269.372 7        46.775                                    20429856.115 5  83656852.34205      -989.121 5        30.340
S21        27.000    38330837.843 5 201430196.05105      -864.683 5        34.238
C22        28.000                                                                                                                                                                                                                                                                    24673295.594 4                     -1213.159 4        25.083
R19        29.000                                                                                                                                    20439444.213 6  85040065.01916     -2466.286 6        41.530
S36        31.000    38100938.004 6 200221753.77106      -863.998 6        36.752
E34        32.000    23560352.890 8 123810504.11708       218.230 8        48.289                                                                    23560352.418 8  92455900.70308       162.915 8        48.328    23560352.558 8  94867853.06308       167.202 8        50.197
R11        33.000    22395460.478 4 119674540.43904      2444.075 4        29.791                                                                    22395448.072 6  93080472.25406      1900.696 6        39.471
C44        35.000                                                                                                                                    24852456.835 4                     -3542.506 4        28.976
C08        36.000                                                                                                                                    38006154.552 5 197908028.05205     -1681.681 5        33.695    38006148.265 7 153035028.38707     -1300.130 7        43.084    38006148.451 7 160816543.22307     -1366.169 7        42.432
R09        37.000                                                                                                                                    21027881.302 6  87334889.45306     -3514.489 6        36.529
C11        38.000                                                                                                                                    21535895.861 6 112143045.05706      -371.469 6        37.282    21535891.216 7  86716170.55707      -287.213 7        47.438    21535889.627 7  91125381.07307      -301.847 7        43.581
R21        39.000    24132890.078 4 129139982.40304      2500.829 4        28.009
R04        40.000    22133299.221 5                      2226.444 5        34.271                                                                    22133289.617 5                      1731.766 5        33.078
C12        41.000                                                                                                                                    23190717.921 7 120760150.34707     -2917.152 7        46.565    23190716.651 8  93379490.31608     -2255.695 8        49.050    23190713.447 7  98127580.55507     -2370.257 7        44.399
C13        43.000                                                                                                                                    37736825.101 6 196505575.53106     -1408.038 6        36.473    37736825.710 5 151950611.12505     -1088.593 5        34.986    37736825.056 4 159676910.96604     -1143.920 4        29.943
C38        44.000                                                                                                                                    39354510.071 4 204929287.30304     -1946.499 4        26.168                                                                    39354518.433 4                     -1581.432 4        27.533
C25        45.000                                                                                                                                    24075739.427 4 125368862.62404     -3761.890 4        24.812                                                                    24075720.656 6 101872307.90706     -3056.844 6        38.715
C21        46.000                                                                                                                                    24371003.440 7 126906210.57007      1230.934 7        44.635                                                                    24370997.167 6 103121674.26506      1000.282 6        38.255
C23        47.000                                                                                                                                    23722718.796 6 123530814.67706     -1270.741 6        41.242                                                                    23722712.008 5 100378643.88105     -1032.365 5        35.795
C43        48.000                                                                                                                                    22381870.423 8 116548353.18308       800.710 8        48.877                                                                    22381870.271 7  94705048.52207       650.712 7        45.568
C34        52.000                                                                                                                                    21457676.240 8 111735828.54608     -1652.221 8        49.426                                                                    21457676.864 8  90794596.10208     -1342.536 8        49.106
C37        54.000                                                                                                                                    26035835.869 5 135575329.36205      1285.597 5        35.886                                                                    26035827.346 6 110166151.01106      1044.775 6        36.397
I06        58.000    38583207.893 7 151408922.54407      -600.310 7        42.032
> 2025 01 02 19 00 25.0000000  0 39
G10         1.000    22968196.512 7 120698675.71707      2449.577 7        44.310                                    22968191.982 5  94050918.44805      1908.759 5        31.140    22968192.439 6  94050925.44806      1908.900 6        36.556
G23         2.000    21026167.780 6 110493227.60906       521.030 6        40.348                                    21026158.274 3  86098638.87303       406.012 3        21.905    21026156.954 6  86098594.86906       405.891 6        38.670
G08         5.000    23900599.338 4 125598506.98804      2421.826 4        28.398                                    23900607.819 1  97868998.93401      1887.145 1         9.524    23900607.228 5  97868995.96805      1887.007 5        34.795
G07         8.000    25236528.999 5 132618885.63905       267.197 5        35.743                                    25236520.707 1 103339369.15701       208.191 1         4.714    25236529.337 4                       207.824 4        28.559
G18        12.000    21316358.825 6 112018447.70306     -2908.905 6        37.176                                    21316356.355 4  87286981.17304     -2266.673 4        25.850    21316356.594 7  87287181.17007     -2266.759 7        43.454
G27        13.000    21165671.385 6 111226317.93406      1437.817 6        40.336                                    21165672.410 5  86669888.96605      1120.382 5        30.272    21165672.072 5  86669872.06105      1120.436 5        34.629
E27        14.000    27130790.441 3                      1787.624 3        19.910                                                                    27130709.052 5 106466743.90105      1337.893 5        35.690    27130735.491 5 109244178.89605      1373.150 5        33.096
R03        15.000    22028009.913 7 117917614.69307     -1013.371 7        42.091                                                                    22028010.321 5  91713686.69005      -788.207 5        32.186
E15        16.000    27224487.101 5 143065609.37705      1814.750 5        34.510                                                                                                                                    27224475.911 5 109621679.70705      1390.751 5        33.096
G26        17.000    21487013.867 6 112915046.06206     -3376.323 6        41.080                                    21487009.729 5  87986147.85705     -2630.898 5        30.951    21487011.190 6  87985721.86606     -2630.859 6        39.799
R02        18.000    24316210.571 4                     -3948.199 4        27.952
E30        19.000    24049074.645 5 126378726.78405      -392.974 5        34.257                                                                    24049072.463 7  94373765.99007      -293.763 7        46.072    24049071.154 7  96835682.90207      -301.441 7        44.679
R20        20.000    20082235.051 5 107388749.85205       764.470 5        31.826                                                                    20082235.203 6  83524573.90406       594.764 6        39.333
E02        21.000    24454675.087 7 128510433.89007     -3175.450 7        46.163                                                                    24454671.569 5  95965410.04405     -2371.235 5        34.505    24454674.200 6  98468948.70206     -2433.140 6        39.793
S23        22.000    38058042.753 6 199996385.41106      -865.396 6        40.665
R10        23.000    20091897.339 6 107101092.77706     -1357.914 6        41.211
E36        24.000    24039430.500 6 126328143.41806     -2416.524 6        38.048                                                                    24039430.859 7  94336075.56207     -1804.657 7        44.545    24039430.186 7  96796998.52907     -1851.714 7        46.238
G16        26.000    20431068.992 7 107365996.27407     -1272.536 7        46.124                                    20431065.165 5  83661803.62805      -991.589 5        30.377
S21        27.000    38331667.289 5 201434518.06705      -864.485 5        34.224
C22        28.000                                                                                                                                    24674753.400 5                     -1496.533 5        32.240                                                                    24674730.408 4                     -1215.998 4        25.744
R19        29.000    20442415.203 4                     -3172.470 4        26.910                                                                    20442408.616 6  85052398.63206     -2467.283 6        41.886
S36        31.000    38101756.691 6 200226073.54406      -864.133 6        36.688
E34        32.000    23560146.125 8 123809415.90308       216.880 8        49.016                                                                    23560145.373 8  92455088.07508       161.917 8        48.248    23560145.509 8  94867019.23408       166.153 8        50.111
R11        33.000    22393177.768 4 119662328.05604      2440.679 4        26.754                                                                    22393162.889 6  93070973.63706      1898.633 6        39.204
C44        35.000                                                                                                                                    24855855.841 5                     -3542.643 5        30.030
C08        36.000                                                                                                                                    38007770.014 5 197916436.18205     -1681.499 5        33.198    38007762.954 7 153041530.10707     -1300.487 7        42.745    38007763.050 7 160823375.55307     -1366.852 7        42.341
R09        37.000                                                                                                                                    21032110.768 5  87352466.25705     -3516.126 5        34.929
C11        38.000                                                                                                                                    21536248.738 6 112144904.87006      -372.698 6        36.034    21536248.180 7  86717608.65807      -288.221 7        47.686    21536246.816 7  91126892.29907      -302.902 7        43.369
R04        40.000    22131229.108 5 118511639.29715      2223.888 5        31.683                                                                    22131209.865 5                      1729.642 5        32.557
C12        41.000                                                                                                                                    23193519.230 7 120774737.12907     -2917.721 7        46.754    23193517.689 8  93390769.73108     -2256.213 8        48.308    23193514.756 7  98139433.52507     -2370.955 7        44.864
C13        43.000                                                                                                                                    37738178.300 6 196512615.85106     -1408.356 6        37.592    37738178.338 5 151956055.18005     -1089.142 5        35.371    37738176.506 4 159682631.77004     -1144.365 4        29.460
