     3.04           OBSERVATION DATA    M                   RINEX VERSION / TYPE
ssrcrin-15.6.1x                         20250102 030000 UTC PGM / RUN BY / DATE 
(00000000023479385599111004) Septentrio proprietary         COMMENT             
ract                                                        MARKER NAME         
01                                                          MARKER NUMBER       
geodetic                                                    MARKER TYPE         
NFB                 CLIMERS@TUW                             OBSERVER / AGENCY   
3296359             SEPT ASTERX SB3 PROB4.14.4              REC # / TYPE / VERS 
Unknown             Unknown                                 ANT # / TYPE        
  4127447.1752  1206914.5658  4695543.2988                  APPROX POSITION XYZ 
        0.0000        0.0000        0.0000                  ANTENNA: DELTA H/E/N
G   23 X1  C1C L1C D1C S1C C1W S1W C2W L2W D2W S2W C2L L2L  SYS / # / OBS TYPES 
       D2L S2L C5Q L5Q D5Q S5Q C1L L1L D1L S1L              SYS / # / OBS TYPES 
E   21 X1  C1C L1C D1C S1C C6C L6C D6C S6C C5Q L5Q D5Q S5Q  SYS / # / OBS TYPES 
       C7Q L7Q D7Q S7Q C8Q L8Q D8Q S8Q                      SYS / # / OBS TYPES 
S    9 X1  C1C L1C D1C S1C C5I L5I D5I S5I                  SYS / # / OBS TYPES 
R   17 X1  C1C L1C D1C S1C C2P L2P D2P S2P C2C L2C D2C S2C  SYS / # / OBS TYPES 
       C3Q L3Q D3Q S3Q                                      SYS / # / OBS TYPES 
C   25 X1  C1P L1P D1P S1P C5P L5P D5P S5P C2I L2I D2I S2I  SYS / # / OBS TYPES 
       C7I L7I D7I S7I C6I L6I D6I S6I C7D L7D D7D S7D      SYS / # / OBS TYPES 
J   17 X1  C1C L1C D1C S1C C2L L2L D2L S2L C5Q L5Q D5Q S5Q  SYS / # / OBS TYPES 
       C1L L1L D1L S1L                                      SYS / # / OBS TYPES 
I    5 X1  C5A L5A D5A S5A                                  SYS / # / OBS TYPES 
SEPTENTRIO RECEIVERS OUTPUT ALIGNED CARRIER PHASES.         COMMENT             
NO FURTHER PHASE SHIFT APPLIED IN THE RINEX ENCODER.        COMMENT             
G L1C                                                       SYS / PHASE SHIFT   
G L2W                                                       SYS / PHASE SHIFT   
G L2L  0.00000                                              SYS / PHASE SHIFT   
G L5Q  0.00000                                              SYS / PHASE SHIFT   
G L1L  0.00000                                              SYS / PHASE SHIFT   
E L1C  0.00000                                              SYS / PHASE SHIFT   
E L6C  0.00000                                              SYS / PHASE SHIFT   
E L5Q  0.00000                                              SYS / PHASE SHIFT   
E L7Q  0.00000                                              SYS / PHASE SHIFT   
E L8Q  0.00000                                              SYS / PHASE SHIFT   
S L1C                                                       SYS / PHASE SHIFT   
S L5I                                                       SYS / PHASE SHIFT   
R L1C                                                       SYS / PHASE SHIFT   
R L2P  0.00000                                              SYS / PHASE SHIFT   
R L2C                                                       SYS / PHASE SHIFT   
R L3Q  0.00000                                              SYS / PHASE SHIFT   
C L1P  0.00000                                              SYS / PHASE SHIFT   
C L5P  0.00000                                              SYS / PHASE SHIFT   
C L2I                                                       SYS / PHASE SHIFT   
C L7I                                                       SYS / PHASE SHIFT   
C L6I                                                       SYS / PHASE SHIFT   
C L7D                                                       SYS / PHASE SHIFT   
J L1C                                                       SYS / PHASE SHIFT   
J L2L  0.00000                                              SYS / PHASE SHIFT   
J L5Q  0.00000                                              SYS / PHASE SHIFT   
J L1L  0.00000                                              SYS / PHASE SHIFT   
I L5A                                                       SYS / PHASE SHIFT   
  2025     1     2     3     0    0.0000000     GPS         TIME OF FIRST OBS   
 C1C    0.000 C2C    0.000 C2P    0.000                     GLONASS COD/PHS/BIS 
DBHZ                                                        SIGNAL STRENGTH UNIT
    18                                                      LEAP SECONDS        
 24 R01  1 R02 -4 R03  5 R04  6 R05  1 R06 -4 R07  5 R08  6 GLONASS SLOT / FRQ #
    R09 -2 R10 -7 R11  0 R12 -1 R13 -2 R14 -7 R15  0 R16 -1 GLONASS SLOT / FRQ #
    R17  4 R18 -3 R19  3 R20  2 R21  4 R22 -3 R23  3 R24  2 GLONASS SLOT / FRQ #
                                                            END OF HEADER       
> 2025 01 02 03 00  0.0000000  0 39
G03         1.000    21184447.629 7 111325004.51007     -2985.792 7        45.523                                    21184437.078 4  86746724.47704     -2326.593 4        26.204    21184462.003 5  86746768.40405     -2326.698 5        30.921
G19         2.000    23241302.845 6 122133864.35206     -3141.607 6        40.701
G07         5.000    24337712.457 3                      2542.298 3        22.324
G09         6.000    20527318.045 8 107871779.37408       652.933 8        52.122                                    20527316.178 8  84055945.88608       508.778 8        49.711    20527315.111 7  84055932.88807       508.764 7        44.727
G31        10.000    23326114.925 5                     -3441.924 5        30.823
G17        11.000    24535551.917 5                     -3707.854 5        30.596
G04        12.000    20171126.390 7 106000035.14207     -1227.425 7        44.926                                    20171120.937 5  82597352.70505      -956.431 5        30.430    20171121.966 7  82597376.70507      -956.462 7        44.275
E12        13.000    24033695.360 6 126297945.59706     -1033.341 6        38.090                                                                    24033691.122 7  94313381.91007      -771.736 7        47.945    24033691.897 8  96773804.34608      -791.811 8        48.762
E29        14.000                                                                                                                                    24823302.781 7  97411964.13807     -2088.990 7        44.456    24823302.092 7  99953190.65407     -2143.566 7        45.299
G06        15.000    21743610.927 7 114263438.20707       898.623 7        44.444                                    21743692.392 1  89036463.00901       700.239 1         9.143    21743608.971 5  89036418.52405       700.330 5        30.725
E11        16.000    26195890.598 7 137660683.77907      1564.276 7        44.122                                                                    26195885.854 6 102798305.63006      1168.068 6        41.097    26195884.396 6 105479982.64906      1198.484 6        40.010
E04        17.000    26411833.829 4 138795157.34604      1667.838 4        29.137                                                                    26411827.214 4 103645763.92804      1245.683 4        25.188    26411835.742 6 106349520.52506      1278.009 6        39.282
R08        18.000    20540318.323 7 109992438.00007      1055.630 7        43.179                                                                    20540316.290 6  85549685.41506       821.212 6        39.970
E19        20.000    22950644.674 7 120606458.83207      -625.669 7        42.658                                                                    22950641.882 7  90063276.31907      -467.330 7        42.487    22950642.072 7  92412740.07807      -479.594 7        43.318
R06        21.000    22635566.883 4                     -4107.714 4        26.503
S36        23.000    38301125.892 6 201273820.28806      -851.983 6        36.117
S23        24.000    38245601.464 6 200981951.03706      -847.895 6        40.002
G11        25.000    24722185.075 3 129916239.73603      2544.718 3        23.638                                    24722187.755 1 101233221.63501      1982.797 1         5.000    24722186.362 5 101233221.57005      1982.265 5        31.660
R16        26.000    22294296.977 5                     -1155.620 5        33.868                                                                    22294264.090 6  92627052.00306      -898.726 6        36.726
E33        28.000    25569362.716 6 134368002.87206     -3645.449 6        38.480                                                                    25569361.452 7 100339677.85007     -2722.343 7        42.345    25569359.794 6 102957266.95906     -2793.418 6        39.601
E10        29.000    24527651.381 7 128893746.83507       362.821 7        45.694                                                                    24527650.214 7  96251820.05207       270.963 7        47.369    24527650.327 6  98762698.40006       278.093 6        40.803
C20        31.000                                                                                                                                    22273389.425 8 115983544.33408       128.357 8        49.500                                                                    22273384.024 7  94246002.86707       104.150 7        46.366
R23        33.000    20097165.184 7 107506458.41207      -820.894 7        47.022
R07        34.000    19731070.050 6 105621934.04406     -2043.263 6        37.898                                                                    19731067.467 6  82150415.60906     -1589.112 6        40.636
R22        35.000    21009454.557 7 112149844.14007     -4337.710 7        45.570                                                                    21009451.064 5  87227667.70405     -3373.467 5        33.425
C32        36.000                                                                                                                                    23103410.185 7 120305488.28107     -2662.044 7        44.953                                                                    23103411.040 7  97758113.30307     -2163.256 7        45.962
R09        37.000    22339754.146 5                      2196.075 5        32.078                                                                    22339755.217 4                      1708.935 4        25.789
C30        38.000                                                                                                                                    25627604.167 5                     -4201.602 5        31.177                                                                    25627567.957 4 108438649.41904     -3413.939 4        27.677
C23        40.000                                                                                                                                                                                                                                                                    24695232.855 5 104493629.88405       -63.738 5        34.838
C35        41.000                                                                                                                                    25143362.337 7 130928036.99107       773.297 7        42.150                                                                    25143355.078 6 106389776.61806       628.461 6        37.493
C37        42.000                                                                                                                                    25328941.696 5                      2034.347 5        30.264                                                                    25328916.839 6 107174937.69306      1653.062 6        36.745
R24        43.000    23360583.759 6 124919589.79406      2891.925 6        40.613                                                                    23360584.678 4                      2249.066 4        29.336
C16        45.000                                                                                                                                    39103457.743 5 203621972.99505     -1478.812 5        35.843    39103457.738 5                     -1143.519 5        32.066    39103450.105 4 165459519.08704     -1201.822 4        27.737
C39        46.000                                                                                                                                    39701951.185 5 206738178.87105     -1821.817 5        30.400                                                                    39701884.669 5 167991676.63505     -1480.466 5        33.066
C09        47.000                                                                                                                                    38559025.466 6 200786993.68406      -917.480 6        39.057    38559021.855 7 155261228.84707      -709.481 7        44.581    38559020.631 6 163155845.24506      -745.891 6        41.869
C19        48.000                                                                                                                                    25530147.546 6 132942414.42306      1783.932 6        37.584                                                                    25530132.429 5                      1449.495 5        33.491
C06        50.000                                                                                                                                    38567609.114 5                     -1409.154 5        32.970    38567611.486 5                     -1089.697 5        32.479    38567588.565 5                     -1145.093 5        31.675
C29        54.000                                                                                                                                    23440442.931 7 122060505.11407     -2395.912 7        44.132                                                                    23440438.725 5  99184162.36305     -1947.015 5        35.690
I09        58.000    37559992.069 6 147393475.62306      -911.151 6        38.372
> 2025 01 02 03 00  5.0000000  0 40
G03         1.000    21187289.625 7 111339937.42907     -2987.090 7        45.658                                    21187279.890 4  86758360.51804     -2327.601 4        27.581    21187302.141 5  86758404.46505     -2327.451 5        32.551
G19         2.000    23244294.714 6 122149578.79706     -3143.632 6        41.023
G07         5.000    24335295.572 3                      2539.326 3        21.833
G09         6.000    20526697.857 8 107868520.64108       650.973 8        52.047                                    20526696.295 8  84053406.61608       507.248 8        50.493    20526695.206 7  84053393.61807       507.283 7        44.873
G31        10.000    23329396.774 5                     -3444.681 5        30.725
G17        11.000    24539078.248 4                     -3708.543 4        29.204
G04        12.000    20172295.226 7 106006178.08907     -1229.481 7        44.549                                    20172289.729 5  82602139.41505      -958.039 5        31.102    20172290.920 7  82602163.43107      -958.060 7        44.525
E12        13.000    24034679.151 6 126303118.31406     -1035.219 6        37.270                                                                    24034675.445 8  94317244.64908      -773.179 8        48.113    24034676.153 8  96777767.85008      -793.275 8        48.827
E29        14.000    24825959.904 6 130461326.12316     -2798.002 6        40.837                                                                    24825965.117 7  97422411.19207     -2089.554 7        45.040    24825964.309 7  99963910.23307     -2144.038 7        45.538
G06        15.000    21742755.660 7 114258952.08507       896.259 7        43.661                                    21742839.234 2  89032967.31802       698.384 2        14.619    21742755.262 4  89032922.80004       698.626 4        29.393
E11        16.000    26194402.631 7 137652865.71607      1563.376 7        44.111                                                                    26194398.298 6 102792467.47206      1167.424 6        40.975    26194396.733 6 105473992.18606      1197.907 6        40.064
E04        17.000    26410248.222 4 138786820.38904      1666.819 4        28.209                                                                                                                                    26410248.958 6 106343132.48706      1277.482 6        39.742
R08        18.000    20539332.973 7 109987164.30907      1054.233 7        44.190                                                                    20539331.862 6  85545583.67506       819.867 6        40.632
E19        20.000    22951240.901 7 120609591.99007      -627.162 7        42.586                                                                    22951238.044 7  90065616.00107      -468.311 7        42.294    22951238.077 7  92415140.80107      -480.461 7        43.283
R06        21.000    22639414.848 4                     -4107.698 4        24.947
S36        23.000    38301937.470 6 201278080.29206      -851.478 6        36.147
S23        24.000    38246407.005 6 200986190.58006      -847.557 6        40.086
G11        25.000                                                                                                                                                                    24719766.510 5 101223312.13905      1981.929 5        30.868
R16        26.000    22295373.279 6 119097920.17416     -1159.678 6        36.136                                                                    22295356.639 6  92631554.78406      -902.104 6        37.682
E33        28.000    25572832.556 6 134386233.85806     -3646.241 6        38.919                                                                    25572830.760 7 100353291.90307     -2722.939 7        42.205    25572830.063 6 102971236.15706     -2794.110 6        41.156
E10        29.000    24527306.940 7 128891937.86307       361.237 7        45.681                                                                    24527306.064 7  96250469.20607       269.678 7        47.744    24527306.146 6  98761312.32306       276.815 6        40.939
C20        31.000                                                                                                                                    22273267.122 8 115982906.22308       127.324 8        49.699                                                                    22273261.389 7  94245484.32407       103.363 7        46.182
R23        33.000    20097935.141 7 107510574.67407      -825.231 7        46.763
R07        34.000    19732982.420 6 105632154.90906     -2044.766 6        39.712                                                                    19732977.428 6  82158365.18306     -1590.417 6        41.135
R22        35.000    21013519.281 7 112171539.55407     -4340.066 7        46.720                                                                    21013516.486 6  87244541.92906     -3375.504 6        36.881
C32        36.000                                                                                                                                    23105966.750 7 120318801.16007     -2662.647 7        44.211                                                                    23105967.527 7  97768931.08207     -2163.850 7        45.619
R09        37.000    22337691.436 4 119282026.02414      2193.657 4        27.210
C30        38.000                                                                                                                                    25631643.554 5                     -4201.410 5        32.066                                                                    25631602.206 4 108455719.95904     -3414.001 4        27.904
C23        40.000                                                                                                                                                                                                                                                                    24695309.920 5 104493954.15605       -65.676 5        34.219
C35        41.000                                                                                                                                    25142620.185 7 130924176.71907       771.260 7        43.202                                                                    25142614.231 6 106386639.83006       626.495 6        37.792
C37        42.000                                                                                                                                                                                                                                                                    25326962.001 6 107166674.28306      1652.544 6        36.586
R24        43.000    23357879.860 6 124905135.81906      2889.882 6        39.721                                                                    23357887.507 4                      2247.624 4        29.706
C16        45.000                                                                                                                                    39104876.891 5 203629368.76105     -1479.101 5        35.314    39104879.142 5                     -1143.865 5        31.441    39104870.613 4 165465528.73604     -1202.341 4        28.417
C39        46.000                                                                                                                                    39703700.595 4 206747289.80804     -1822.352 4        29.896                                                                    39703634.868 5 167999079.97005     -1480.843 5        33.000
C09        47.000                                                                                                                                    38559906.209 6 200791583.60706      -917.885 6        38.459    38559903.176 7 155264778.06707      -709.887 7        44.554    38559902.117 6 163159574.90506      -746.104 6        41.766
C19        48.000                                                                                                                                    25528435.126 6 132933496.24506      1783.879 6        36.896                                                                    25528417.898 5 108019097.84715      1449.630 5        33.904
C06        50.000                                                                                                                                    38568962.344 5                     -1409.725 5        33.539    38568962.699 5                     -1090.140 5        32.072    38568941.221 5                     -1145.615 5        31.087
C25        51.000                                                                                                                                    26118209.986 5                     -2656.613 5        30.551
C29        54.000                                                                                                                                    23442744.579 7 122072490.62107     -2397.913 7        45.267                                                                    23442739.962 5  99193901.51505     -1948.536 5        34.500
I09        58.000    37561153.372 6 147398032.01306      -911.091 6        38.922
> 2025 01 02 03 00 10.0000000  0 39
G03         1.000    21190133.070 7 111354879.05907     -2989.162 7        47.289                                    21190124.485 4  86770003.33604     -2329.216 4        29.232    21190143.042 5  86770047.31505     -2329.215 5        33.976
G19         2.000    23247286.908 6 122165304.93006     -3146.472 6        40.298                                    23247279.693 2  95193716.77512     -2451.825 2        12.606
G07         5.000    24332878.866 3                      2540.053 3        23.295
G09         6.000    20526079.685 8 107865273.52108       648.163 8        52.069                                    20526078.630 8  84050876.39408       505.060 8        50.933    20526077.604 7  84050863.39607       505.088 7        44.730
G31        10.000    23332673.387 5                     -3447.296 5        31.796                                                                                                    23332699.585 4                     -2686.598 4        24.286
G17        11.000    24542599.087 4                     -3709.065 4        27.617
G04        12.000    20173467.059 7 106012333.38907     -1232.344 7        44.351                                    20173460.968 5  82606935.75005      -960.268 5        31.449    20173462.574 7  82606959.76507      -960.271 7        44.498
E12        13.000    24035665.713 6 126308302.80106     -1038.125 6        37.592                                                                    24035662.058 8  94321116.19208      -775.207 8        48.207    24035662.580 8  96781740.39508      -795.459 8        48.567
E29        14.000    24828629.991 7 130475320.99007     -2799.521 7        42.624                                                                    24828628.077 7  97432861.88507     -2090.526 7        45.285    24828627.477 7  99974633.55607     -2145.023 7        45.415
G06        15.000    21741903.508 7 114254480.15807       893.040 7        42.701                                    21741988.785 2  89029482.71302       695.876 2        16.491    21741901.461 4  89029438.16104       695.559 4        28.171
E11        16.000    26192916.002 7 137645054.02207      1561.773 7        44.004                                                                    26192911.866 6 102786634.06106      1166.183 6        41.054    26192910.193 6 105468006.60706      1196.617 6        39.465
E04        17.000    26408664.579 4 138778487.82904      1665.834 4        27.593                                                                    26408655.157 4 103633315.96104      1244.426 4        25.985    26408663.320 6 106336747.78706      1276.676 6        39.727
R08        18.000    20538349.636 7 109981900.17007      1051.830 7        44.554                                                                    20538348.386 6  85541489.38006       817.997 6        39.631
E19        20.000    22951839.257 7 120612733.62307      -629.274 7        42.607                                                                    22951835.877 7  90067962.02607      -469.843 7        42.157    22951835.750 7  92417548.03407      -482.132 7        43.251
S36        23.000    38302745.800 5 201282340.68405      -852.191 5        35.733
S23        24.000    38247214.459 6 200990430.34406      -848.010 6        40.424
G11        25.000                                                                                                                                                                    24717347.917 4 101213407.18804      1980.182 4        29.905
R16        26.000    22296457.527 6 119103731.90406     -1164.583 6        36.174                                                                    22296448.059 6  92636075.06106      -905.770 6        36.291
E33        28.000    25576303.517 6 134404471.12006     -3648.179 6        39.571                                                                    25576301.152 7 100366910.61607     -2724.289 7        42.089    25576301.311 7 102985210.15007     -2795.357 7        42.406
E10        29.000    24526964.924 7 128890139.32407       358.653 7        46.024                                                                    24526963.944 7  96249126.14307       267.828 7        47.849    24526963.843 6  98759934.24206       274.746 6        40.517
C20        31.000                                                                                                                                    22273145.971 8 115982275.22908       125.488 8        49.547                                                                    22273140.153 7  94244971.61307       101.952 7        46.274
R23        33.000    20098709.063 7 107514715.13607      -830.503 7        45.245
R07        34.000    19734893.793 6 105642385.88606     -2047.228 6        41.163                                                                    19734889.815 7  82166322.62707     -1592.291 7        42.279
R22        35.000    21017587.951 7 112193249.39807     -4343.439 7        47.360                                                                    21017583.743 6  87261427.32406     -3378.254 6        39.520
C32        36.000                                                                                                                                    23108524.951 7 120332119.21707     -2664.166 7        44.114                                                                    23108524.861 7  97779753.09707     -2164.817 7        45.585
R09        37.000    22335637.255 4 119271063.95404      2191.227 4        27.988
C30        38.000                                                                                                                                    25635676.568 5                     -4201.797 5        31.758                                                                    25635636.524 4 108472791.56904     -3415.143 4        27.473
C23        40.000                                                                                                                                    24695432.983 4                       -83.920 4        27.054                                                                    24695389.506 5 104494289.37705       -68.229 5        34.133
C35        41.000                                                                                                                                    25141878.863 7 130920328.80607       768.406 7        43.613                                                                    25141875.515 6 106383513.11306       624.325 6        38.504
C37        42.000                                                                                                                                    25325019.985 4                      2031.959 4        24.556                                                                    25325009.112 6 107158414.85806      1651.517 6        36.673
R24        43.000    23355182.692 6 124890692.62106      2887.464 6        39.408                                                                    23355189.643 5                      2245.808 5        31.351
C16        45.000                                                                                                                                    39106296.261 5 203636767.54105     -1480.131 5        35.619    39106301.364 5                     -1144.359 5        32.222    39106292.315 4 165471540.86004     -1202.407 4        27.689
C39        46.000                                                                                                                                    39705445.354 5 206756403.04305     -1822.830 5        30.053                                                                    39705385.357 5 168006485.23305     -1480.989 5        32.647
C09        47.000                                                                                                                                    38560788.049 6 200796177.25806      -919.077 6        38.306    38560785.187 7 155268330.16707      -710.764 7        44.433    38560784.187 6 163163307.64606      -746.977 6        41.681
C19        48.000                                                                                                                                    25526720.112 6 132924580.68706      1782.758 6        36.189                                                                    25526704.966 5 108011853.26105      1448.686 5        33.701
C06        50.000                                                                                                                                    38570314.106 5                     -1410.271 5        33.641    38570315.383 5                     -1090.593 5        31.743    38570295.251 5                     -1146.082 5        30.830
C25        51.000                                                                                                                                    26120761.078 5                     -2658.893 5        30.309
C29        54.000                                                                                                                                    23445049.294 7 122084488.59207     -2400.865 7        45.931                                                                    23445043.724 5  99203650.88305     -1951.039 5        34.505
I09        58.000    37562315.335 6 147402589.09806      -911.543 6        38.622
> 2025 01 02 03 00 15.0000000  0 40
G03         1.000    21192978.275 8 111369828.79108     -2990.720 8        48.514                                    21192970.722 5  86781652.48905     -2330.433 5        31.374    21192984.528 5  86781696.46905     -2330.380 5        34.310
G19         2.000    23250280.947 6 122181042.16506     -3148.559 6        38.805                                    23250277.084 1  95205979.60201     -2453.431 1         8.952
G07         5.000    24330466.206 4                      2539.596 4        28.057
G09         6.000    20525464.069 8 107862037.42108       646.076 8        52.025                                    20525463.026 8  84048354.76308       503.432 8        51.354    20525462.102 7  84048341.77007       503.436 7        44.936
G31        10.000    23335950.460 5                     -3449.831 5        32.509
G17        11.000    24546125.789 4                     -3709.202 4        25.459
G04        12.000    20174641.001 7 106018500.47507     -1234.708 7        44.704                                    20174634.572 5  82611741.27405      -962.112 5        32.353    20174636.443 7  82611765.27307      -961.956 7        44.734
E12        13.000    24036655.162 6 126313498.60506     -1040.354 6        37.826                                                                    24036650.825 8  94324996.16108      -776.822 8        48.179    24036651.176 8  96785721.57308      -797.112 8        48.528
E29        14.000    24831295.313 7 130489320.13707     -2800.295 7        43.896                                                                    24831292.035 7  97443315.79207     -2091.159 7        45.583    24831291.319 7  99985360.18007     -2145.741 7        45.383
G06        15.000    21741053.691 6 114250021.88106       890.268 6        41.199                                    21741140.853 2  89026008.82502       693.722 2        15.048    21741057.968 5  89025964.15205       694.020 5        30.853
E11        16.000    26191430.639 7 137637248.14507      1560.581 7        43.939                                                                    26191426.803 6 102780804.99306      1165.449 6        41.013    26191424.776 6 105462025.46706      1195.889 6        39.420
E04        17.000    26407080.226 4 138770159.03304      1665.087 4        25.158                                                                    26407070.702 4 103627096.46004      1243.646 4        24.887    26407078.276 6 106330366.04106      1275.810 6        39.339
R08        18.000    20537366.448 7 109976644.87407      1050.131 7        42.193                                                                    20537365.156 6  85537401.96106       816.608 6        37.788
E19        20.000    22952438.429 7 120615883.09807      -630.861 7        42.663                                                                    22952435.089 7  90070313.90407      -471.020 7        42.053    22952435.010 7  92419961.26507      -483.384 7        43.255
R06        21.000    22647096.622 3                     -4111.015 3        21.810
S36        23.000    38303550.648 5 201286600.95005      -851.971 5        35.433
S23        24.000    38248021.846 6 200994669.57406      -847.800 6        40.200
G11        25.000                                                                                                                                                                    24714931.264 5 101203506.14105      1979.847 5        30.498
R16        26.000                                                                                                                                    22297536.270 5  92640612.32805      -909.456 5        33.132
E33        28.000    25579775.522 6 134422714.03506     -3649.302 6        39.961                                                                    25579772.824 7 100380533.56407     -2725.069 7        42.112    25579773.385 7 102999188.48107     -2796.124 7        43.363
E10        29.000    24526624.390 7 128888350.65107       356.644 7        46.247                                                                    24526623.673 7  96247790.44607       266.387 7        47.962    24526622.925 6  98758563.70406       273.404 6        40.229
C20        31.000                                                                                                                                    22273025.627 8 115981650.80108       124.161 8        49.286                                                                    22273020.078 7  94244464.20007       100.979 7        45.988
R23        33.000    20099487.404 7 107518879.15507      -835.107 7        44.202
R07        34.000    19736805.152 7 105652626.26707     -2049.063 7        44.238                                                                    19736803.450 7  82174287.38007     -1593.678 7        43.291
R22        35.000    21021658.069 7 112214973.00907     -4346.163 7        47.980                                                                    21021651.567 6  87278323.42706     -3380.325 6        40.203
C32        36.000                                                                                                                                    23111083.989 7 120345441.88007     -2665.075 7        44.737                                                                    23111083.292 7  97790578.86607     -2165.647 7        45.731
R09        37.000    22333586.204 3 119260114.48903      2188.724 3        23.676                                                                    22333612.898 4                      1702.757 4        24.722
C30        38.000                                                                                                                                    25639703.962 5                     -4202.125 5        31.358                                                                    25639672.106 4 108489863.72404     -3414.177 4        27.844
C23        40.000                                                                                                                                    24695513.200 4                       -86.522 4        28.322                                                                    24695470.920 5 104494635.05005       -70.122 5        33.880
C35        41.000                                                                                                                                    25141141.957 7 130916492.72307       766.115 7        44.274                                                                    25141139.126 6 106380395.99706       622.403 6        38.946
C37        42.000                                                                                                                                                                                                                                                                    25323057.616 5 107150158.94505      1650.517 5        35.986
R24        43.000    23352487.735 6 124876259.68516      2885.492 6        39.324                                                                    23352494.779 5                      2244.332 5        32.180
C16        45.000                                                                                                                                    39107717.991 6 203644168.92506     -1480.645 6        36.053    39107724.440 5                     -1144.775 5        32.257    39107713.040 4 165477555.10404     -1203.468 4        27.701
C39        46.000                                                                                                                                    39707191.340 4 206765518.14004     -1823.708 4        29.801                                                                    39707135.356 5 168013891.95905     -1481.683 5        32.401
C09        47.000                                                                                                                                    38561670.714 6 200800774.04906      -919.618 6        37.792    38561667.994 7 155271884.70007      -711.219 7        44.457    38561667.031 6 163167042.91506      -747.402 6        41.514
C19        48.000                                                                                                                                                                                                                                                                    25524992.586 5 108004610.33105      1448.498 5        33.754
C06        50.000                                                                                                                                    38571668.834 5 200852799.98815     -1411.228 5        33.587    38571670.508 5                     -1090.839 5        32.778    38571650.645 5                     -1146.371 5        31.102
C25        51.000                                                                                                                                    26123315.139 4                     -2660.698 4        29.810
C29        54.000                                                                                                                                    23447356.096 7 122096498.46307     -2403.193 7        46.259                                                                    23447349.812 5  99213409.91105     -1953.009 5        34.514
I09        58.000    37563476.208 6 147407146.51306      -911.547 6        38.799
> 2025 01 02 03 00 20.0000000  0 40
G03         1.000    21195824.852 8 111384787.03608     -2992.484 8        48.637                                    21195818.431 5  86793308.27105     -2331.803 5        32.641
G19         2.000    23253277.993 6 122196790.84706     -3150.788 6        38.517                                    23253277.226 1  95218251.32501     -2455.195 1         7.625
G07         5.000    24328055.023 4                      2538.730 4        29.232
G09         6.000    20524850.679 8 107858812.76308       643.763 8        52.170                                    20524849.511 8  84045842.04908       501.632 8        51.446    20524848.590 7  84045829.05407       501.579 7        45.139
G31        10.000    23339229.877 5                     -3452.376 5        31.864
G17        11.000    24549662.520 4                     -3710.090 4        27.006
G04        12.000    20175817.333 7 106024679.72607     -1237.130 7        45.129                                    20175810.605 5  82616556.27705      -963.994 5        32.856    20175812.612 7  82616580.27107      -963.993 7        44.889
E12        13.000    24037646.252 6 126318706.03306     -1042.581 6        37.251                                                                    24037641.856 8  94328884.82808      -778.601 8        48.151    24037642.006 8  96789711.67908      -798.894 8        48.243
E29        14.000    24833959.335 7 130503323.99207     -2801.230 7        44.606                                                                    24833956.866 7  97453773.21107     -2091.770 7        45.771    24833956.068 7  99996090.40407     -2146.402 7        45.384
G06        15.000    21740206.573 6 114245577.65106       887.286 6        40.856                                    21740295.417 2  89022545.92702       691.349 2        12.788
E11        16.000    26189946.389 7 137629448.47907      1559.435 7        43.977                                                                    26189942.647 6 102774980.57306      1164.486 6        40.992    26189940.700 6 105456049.12106      1194.804 6        39.264
E04        17.000    26405490.334 3                      1663.149 3        21.214                                                                    26405491.115 4 103620880.16004      1242.575 4        26.910    26405493.699 6 106323987.50706      1275.334 6        38.760
R08        18.000    20536385.482 6 109971398.86406      1048.206 6        38.691                                                                    20536386.080 6  85533321.78206       815.226 6        37.739
E19        20.000    22953038.897 7 120619040.90807      -632.440 7        42.772                                                                    22953035.870 6  90072672.01506      -472.267 6        41.812    22953035.891 7  92422380.88507      -484.526 7        43.253
S36        23.000    38304359.426 5 201290860.72205      -851.773 5        35.324
S23        24.000    38248830.284 6 200998908.76106      -847.781 6        40.436
G11        25.000    24712610.735 4                      2540.063 4        26.862                                                                                                    24712514.796 5 101193609.48505      1978.830 5        32.156
R16        26.000                                                                                                                                    22298627.195 4  92645166.70604      -912.479 4        27.557
E33        28.000    25583248.223 6 134440962.97906     -3650.335 6        39.327                                                                    25583245.502 6 100394161.02506     -2725.808 6        41.866    25583246.270 7 103013171.44907     -2796.990 7        44.345
E10        29.000    24526285.912 7 128886572.23107       354.643 7        46.311                                                                    24526285.338 7  96246462.40907       264.859 7        47.955    24526284.418 6  98757201.02206       271.808 6        40.417
C20        31.000                                                                                                                                    22272907.286 8 115981033.30108       122.809 8        49.387                                                                    22272901.455 7  94243962.43707        99.768 7        45.782
R23        33.000    20100270.633 7 107523066.94307      -839.998 7        42.931
R07        34.000    19738719.842 7 105662876.52007     -2050.975 7        46.134                                                                    19738718.868 7  82182259.79607     -1595.255 7        44.021
R22        35.000    21025730.256 8 112236710.75308     -4349.002 8        49.089                                                                    21025724.414 6  87295230.52106     -3382.396 6        40.892
C32        36.000                                                                                                                                    23113643.762 7 120358769.53307     -2666.043 7        45.952                                                                    23113642.727 7  97801408.68307     -2166.383 7        46.023
R09        37.000    22331534.722 4                      2186.747 4        24.992                                                                    22331557.584 4                      1700.251 4        24.857
C30        38.000                                                                                                                                    25643735.358 5                     -4202.236 5        32.072                                                                    25643707.820 4 108506936.75604     -3414.805 4        29.545
C23        40.000                                                                                                                                                                                                                                                                    24695555.119 5 104494991.53305       -72.541 5        34.105
C35        41.000                                                                                                                                    25140408.040 7 130912668.85007       763.473 7        44.904                                                                    25140404.706 6 106377288.78406       620.465 6        39.480
C37        42.000                                                                                                                                    25321095.045 3                      2030.196 3        23.657                                                                    25321107.205 5 107141906.80705      1650.146 5        35.814
R24        43.000    23349789.664 6 124861837.48306      2883.285 6        40.412                                                                    23349797.295 5                      2242.806 5        32.168
C16        45.000                                                                                                                                    39109141.215 5 203651573.14405     -1481.052 5        35.762    39109148.562 5                     -1145.391 5        32.551    39109135.317 4 165483571.64304     -1204.138 4        28.190
C39        46.000                                                                                                                                    39708936.237 5 206774635.33005     -1823.232 5        30.762                                                                    39708886.137 5 168021300.42405     -1481.890 5        32.599
C09        47.000                                                                                                                                    38562553.680 6 200805374.43806      -920.473 6        37.966    38562551.636 7 155275441.99807      -711.677 7        44.283    38562550.198 6 163170781.08506      -747.857 6        41.328
C19        48.000                                                                                                                                    25523280.038 6 132906756.19806      1782.028 6        38.510                                                                    25523281.761 5 107997369.38205      1448.086 5        33.569
C06        50.000                                                                                                                                    38573022.720 5 200859856.54505     -1411.584 5        33.437    38573024.278 5                     -1091.581 5        32.748    38573005.984 5                     -1147.169 5        31.736
C25        51.000                                                                                                                                    26125866.987 4                     -2663.218 4        28.351
C29        54.000                                                                                                                                    23449664.022 7 122108520.62707     -2405.643 7        45.986                                                                    23449658.432 5  99223178.91505     -1954.657 5        34.700
I01        57.000   380135390.301 5 188592127.44915     -3018.728 5        35.214
I09        58.000    37564637.552 6 147411704.53806      -911.636 6        38.501
> 2025 01 02 03 00 25.0000000  0 42
G03         1.000    21198672.285 8 111399754.01308     -2994.298 8        48.012                                    21198667.444 5  86804970.85105     -2333.219 5        33.629    21198664.595 5  86805014.86405     -2333.137 5        33.377
G19         2.000    23256280.738 6 122212551.21806     -3153.229 6        38.673                                    23256278.677 1  95230532.19201     -2457.204 1         4.143
G07         5.000    24325638.933 5                      2538.210 5        30.717
G09         6.000    20524239.295 8 107855599.75308       641.395 8        52.153                                    20524238.074 8  84043338.40608       499.789 8        51.433    20524237.139 7  84043325.40807       499.764 7        45.195
G31        10.000    23342516.600 5                     -3455.153 5        31.826                                                                                                    23342525.448 3                     -2692.557 3        20.000
G17        11.000    24553192.888 4                     -3710.973 4        29.128
G04        12.000    20176995.638 7 106030871.34807     -1239.560 7        45.437                                    20176989.136 5  82621380.91405      -965.886 5        33.844    20176991.193 7  82621404.91607      -965.886 7        46.037
E12        13.000    24038639.055 6 126323925.34806     -1044.962 6        38.090                                                                    24038634.960 8  94332782.35808      -780.408 8        48.074    24038635.186 8  96793710.88308      -800.744 8        48.289
E29        14.000    24836624.904 7 130517332.75307     -2802.225 7        45.234                                                                    24836622.591 7  97464234.28407     -2092.538 7        45.839    24836621.703 7 100006824.37507     -2147.103 7        45.404
G06        15.000    21739364.424 7 114241147.65407       884.544 7        42.188                                    21739452.704 1  89019094.04601       689.156 1        11.704    21739390.134 5  89019049.18505       689.213 5        33.898
E11        16.000    26188463.760 7 137621655.25407      1558.087 7        44.030                                                                    26188459.465 6 102769160.96106      1163.482 6        40.746    26188457.931 6 105450077.70606      1193.670 6        39.249
E04        17.000                                                                                                                                                                                                    26403909.730 6 106317612.38606      1274.593 6        38.276
R08        18.000    20535410.933 6 109966162.55506      1046.390 6        41.957                                                                    20535407.844 6  85529249.07206       813.938 6        36.412
E19        20.000    22953641.585 7 120622207.23607      -634.189 7        43.113                                                                    22953638.441 6  90075036.47806      -473.550 6        41.774    22953638.294 7  92424807.03707      -485.934 7        43.473
R06        21.000    22654818.327 3                     -4108.630 3        20.381
R15        22.000    24722397.529 3                     -4061.189 3        21.262
S36        23.000    38305175.166 5 201295120.55905      -852.257 5        35.505
S23        24.000    38249634.698 6 201003148.26106      -847.953 6        40.574
G11        25.000                                                                                                                                                                    24710099.503 5 101183717.28905      1978.217 5        32.928
R16        26.000    22299713.865 5 119121299.49505     -1177.679 5        32.874
E33        28.000    25586721.973 6 134459218.22906     -3651.731 6        39.039                                                                    25586719.260 6 100407793.18806     -2726.971 6        41.590    25586720.301 7 103027159.23207     -2797.993 7        44.883
E10        29.000    24525949.731 7 128884804.29707       352.562 7        46.678                                                                    24525948.879 7  96245142.20207       263.275 7        47.889    24525947.728 6  98755846.39506       270.020 6        40.100
C20        31.000                                                                                                                                    22272790.656 8 115980422.96308       121.334 8        49.647                                                                    22272784.146 7  94243466.49007        98.706 7        45.740
R23        33.000    20101057.828 6 107527278.75506      -844.642 6        40.558
R07        34.000    19740635.605 7 105673136.94007     -2053.149 7        45.807                                                                    19740635.145 7  82190240.12307     -1597.028 7        43.365
R22        35.000    21029805.659 8 112258462.83908     -4351.801 8        49.363                                                                    21029799.684 6  87312148.81206     -3384.766 6        41.397
C32        36.000                                                                                                                                    23116204.591 7 120372102.39607     -2667.114 7        46.191                                                                    23116203.144 7  97812242.73807     -2167.206 7        46.494
R09        37.000    22329493.028 5                      2183.421 5        30.204                                                                    22329515.510 4                      1697.875 4        26.311
C30        38.000                                                                                                                                    25647774.619 5                     -4202.604 5        31.162                                                                    25647743.239 4 108524010.78904     -3414.634 4        29.858
C23        40.000                                                                                                                                                                                                                                                                    24695641.794 5 104495358.93605       -74.590 5        34.281
C35        41.000                                                                                                                                    25139675.530 7 130908857.36907       761.013 7        45.691                                                                    25139672.814 6 106374191.66506       618.462 6        39.928
C37        42.000                                                                                                                                                                                                                                                                    25319158.408 5 107133658.70805      1649.226 5        35.824
R24        43.000    23347092.394 6 124847426.19716      2881.212 6        40.791                                                                    23347101.421 5                      2240.857 5        33.090
C16        45.000                                                                                                                                    39110563.839 5 203658980.48505     -1481.787 5        35.419    39110571.401 5                     -1145.876 5        32.814    39110557.599 4 165489590.76004     -1204.138 4        28.758
C39        46.000                                                                                                                                    39710682.623 5 206783755.05505     -1824.190 5        30.377                                                                    39710637.913 5 168028710.87105     -1482.269 5        32.311
