     3.04           OBSERVATION DATA    M                   RINEX VERSION / TYPE
ssrcrin-15.6.1x                         20250102 164500 UTC PGM / RUN BY / DATE 
(00000000023479385599111004) Septentrio proprietary         COMMENT             
ract                                                        MARKER NAME         
01                                                          MARKER NUMBER       
geodetic                                                    MARKER TYPE         
NFB                 CLIMERS@TUW                             OBSERVER / AGENCY   
3296359             SEPT ASTERX SB3 PROB4.14.4              REC # / TYPE / VERS 
Unknown             Unknown                                 ANT # / TYPE        
  4127449.3837  1206914.7823  4695544.3495                  APPROX POSITION XYZ 
        0.0000        0.0000        0.0000                  ANTENNA: DELTA H/E/N
G   23 X1  C1C L1C D1C S1C C1W S1W C2W L2W D2W S2W C2L L2L  SYS / # / OBS TYPES 
       D2L S2L C5Q L5Q D5Q S5Q C1L L1L D1L S1L              SYS / # / OBS TYPES 
E   21 X1  C1C L1C D1C S1C C6C L6C D6C S6C C5Q L5Q D5Q S5Q  SYS / # / OBS TYPES 
       C7Q L7Q D7Q S7Q C8Q L8Q D8Q S8Q                      SYS / # / OBS TYPES 
S    9 X1  C1C L1C D1C S1C C5I L5I D5I S5I                  SYS / # / OBS TYPES 
R   17 X1  C1C L1C D1C S1C C2P L2P D2P S2P C2C L2C D2C S2C  SYS / # / OBS TYPES 
       C3Q L3Q D3Q S3Q                                      SYS / # / OBS TYPES 
C   25 X1  C1P L1P D1P S1P C5P L5P D5P S5P C2I L2I D2I S2I  SYS / # / OBS TYPES 
       C7I L7I D7I S7I C6I L6I D6I S6I C7D L7D D7D S7D      SYS / # / OBS TYPES 
J   17 X1  C1C L1C D1C S1C C2L L2L D2L S2L C5Q L5Q D5Q S5Q  SYS / # / OBS TYPES 
       C1L L1L D1L S1L                                      SYS / # / OBS TYPES 
I    5 X1  C5A L5A D5A S5A                                  SYS / # / OBS TYPES 
SEPTENTRIO RECEIVERS OUTPUT ALIGNED CARRIER PHASES.         COMMENT             
NO FURTHER PHASE SHIFT APPLIED IN THE RINEX ENCODER.        COMMENT             
G L1C                                                       SYS / PHASE SHIFT   
G L2W                                                       SYS / PHASE SHIFT   
G L2L  0.00000                                              SYS / PHASE SHIFT   
G L5Q  0.00000                                              SYS / PHASE SHIFT   
G L1L  0.00000                                              SYS / PHASE SHIFT   
E L1C  0.00000                                              SYS / PHASE SHIFT   
E L6C  0.00000                                              SYS / PHASE SHIFT   
E L5Q  0.00000                                              SYS / PHASE SHIFT   
E L7Q  0.00000                                              SYS / PHASE SHIFT   
E L8Q  0.00000                                              SYS / PHASE SHIFT   
S L1C                                                       SYS / PHASE SHIFT   
S L5I                                                       SYS / PHASE SHIFT   
R L1C                                                       SYS / PHASE SHIFT   
R L2P  0.00000                                              SYS / PHASE SHIFT   
R L2C                                                       SYS / PHASE SHIFT   
R L3Q  0.00000                                              SYS / PHASE SHIFT   
C L1P  0.00000                                              SYS / PHASE SHIFT   
C L5P  0.00000                                              SYS / PHASE SHIFT   
C L2I                                                       SYS / PHASE SHIFT   
C L7I                                                       SYS / PHASE SHIFT   
C L6I                                                       SYS / PHASE SHIFT   
C L7D                                                       SYS / PHASE SHIFT   
J L1C                                                       SYS / PHASE SHIFT   
J L2L  0.00000                                              SYS / PHASE SHIFT   
J L5Q  0.00000                                              SYS / PHASE SHIFT   
J L1L  0.00000                                              SYS / PHASE SHIFT   
I L5A                                                       SYS / PHASE SHIFT   
  2025     1     2    16    45    0.0000000     GPS         TIME OF FIRST OBS   
 C1C    0.000 C2C    0.000 C2P    0.000                     GLONASS COD/PHS/BIS 
DBHZ                                                        SIGNAL STRENGTH UNIT
    18                                                      LEAP SECONDS        
 24 R01  1 R02 -4 R03  5 R04  6 R05  1 R06 -4 R07  5 R08  6 GLONASS SLOT / FRQ #
    R09 -2 R10 -7 R11  0 R12 -1 R13 -2 R14 -7 R15  0 R16 -1 GLONASS SLOT / FRQ #
    R17  4 R18 -3 R19  3 R20  2 R21  4 R22 -3 R23  3 R24  2 GLONASS SLOT / FRQ #
                                                            END OF HEADER       
> 2025 01 02 16 45  0.0000000  0 37
G25         3.000    22474472.230 6 118104137.53506     -4129.012 6        36.336                                    22474477.915 4  92029140.09604     -3217.429 4        24.571    22474480.744 5  92029215.04805     -3217.897 5        30.091
G05         4.000    23003566.456 6 120884568.78406      -142.546 6        38.207                                    23003574.554 2  94195741.48902      -111.097 2        16.075    23003583.251 5                      -111.058 5        30.906
E25         6.000    24599633.567 6 129271999.76606     -2759.510 6        37.769                                                                    24599631.974 5  96534418.82605     -2060.933 5        31.396    24599635.202 7  99052665.24807     -2114.336 7        44.454
G31         7.000    21887177.867 8 115017888.15208     -2010.436 8        49.340                                    21887172.824 6  89624729.34006     -1566.573 6        40.903    21887171.491 6  89624343.37006     -1566.589 6        38.099
G28         8.000    22501801.162 6 118247887.62706     -3468.990 6        37.456                                    22501800.433 3  92141049.57503     -2703.088 3        19.552    22501800.861 7  92141105.54307     -2703.148 7        42.218
G29         9.000    20888401.711 8 109769376.60408     -2290.531 8        50.674                                    20888396.317 7  85534585.93107     -1784.827 7        42.246    20888397.514 6  85534537.93506     -1784.761 6        38.027
E11        10.000    24449931.249 6 128485256.41406     -2241.191 6        41.857                                                                    24449928.566 6  95946787.33306     -1673.653 6        39.510    24449927.119 6  98449799.20506     -1717.166 6        39.279
E10        11.000    26567293.094 5 139612177.40605     -3382.049 5        33.401                                                                    26567290.454 6 104255769.85606     -2525.727 6        37.206    26567292.072 6 106975536.94406     -2591.572 6        37.709
G18        12.000    21328174.313 7 112080515.71007      1258.783 7        46.586                                    21328169.578 5  87335339.60505       980.872 5        30.792    21328172.094 6  87335303.60506       980.762 6        41.476
G04        14.000                                                                                                                                                                    25365675.749 4 103868160.48304     -1486.113 4        27.653
E07        18.000    28466014.013 5 149589897.00405     -2465.257 5        30.732                                                                    28466033.918 4 111706791.84204     -1841.018 4        28.749    28466033.838 4                     -1888.599 4        28.398
E30        19.000    26987424.031 5 141819964.77905      1723.790 5        34.133                                                                    26987427.249 5 105904559.05405      1286.876 5        32.120    26987425.797 5 108667229.66205      1320.629 5        35.862
E02        21.000    23350302.128 7 122706912.86207      -207.696 7        45.803                                                                    23350302.867 7  91631689.54807      -155.108 7        44.820    23350301.467 7  94022089.87407      -159.257 7        44.608
S23        22.000    38218267.630 6 200838401.15606      -866.207 6        37.112
E36        24.000    23912745.043 7 125662332.27107       598.047 7        44.178                                                                    23912746.897 7  93838916.26307       446.476 7        45.651    23912745.162 7  96286870.40607       458.248 7        42.838
R18        25.000    19362287.036 8 103357251.44308     -2228.407 8        51.078                                                                    19362286.568 7  80388964.40807     -1733.205 7        43.556
G16        26.000    23518535.676 6 123590728.94806      2553.618 6        36.669                                    23518528.888 1  96304437.97601      1989.802 1        11.778
S21        27.000    38495418.912 5 202294923.64305      -862.640 5        35.529
R19        29.000    19954147.720 5 106741274.29905      1125.850 5        33.521                                                                    19954150.096 7  83020994.89407       875.454 7        44.102
R15        30.000    23122975.670 5 123562163.60205     -5155.114 5        35.157
S36        31.000    38266522.228 5 201091936.01605      -862.387 5        35.862
E34        32.000                                                                                                                                    27212995.964 6 106789664.01706      1711.249 6        38.577    27212995.244 6 109575470.35806      1756.015 6        38.760
R16        34.000    19495924.138 7 104144344.90207     -2591.922 7        46.227                                                                    19495926.736 7  81000848.80707     -2015.951 7        43.316
C44        35.000                                                                                                                                    21709677.386 7 113047919.61007     -2030.326 7        46.948                                                                    21709676.537 6  91860918.11106     -1649.702 6        40.782
R17        36.000                                                                                                                                    22346218.819 3                     -3641.441 3        22.533
R09        37.000    20361765.712 8 108730758.06608      1786.122 8        51.040                                                                    20361764.484 7  84568395.45907      1389.134 7        46.417
C11        38.000                                                                                                                                    24252410.808 6 126288762.80506      1861.524 6        40.534                                                                    24252408.022 6 102619894.43406      1512.513 6        38.646
C12        41.000                                                                                                                                    21682696.260 7 112907583.76607      -587.105 7        42.489    21682696.065 8  87307312.03608      -454.017 8        51.578    21682694.743 8  91746649.22408      -477.149 8        48.988
C35        42.000                                                                                                                                    25067813.498 4                     -3768.083 4        25.489
C38        44.000                                                                                                                                    38658882.161 6 201306904.99206      -692.727 6        38.054                                                                    38658879.316 5 163578385.31305      -562.643 5        30.626
C25        45.000                                                                                                                                    22376619.786 7 116520992.73707        69.857 7        43.045                                                                    22376620.188 7  94683023.94907        56.796 7        44.254
C08        46.000                                                                                                                                    38015972.024 7 197959166.96007       -92.260 7        42.914    38015967.661 5 153074538.89905       -71.794 5        35.100    38015961.853 5 160858011.79105       -75.311 5        34.057
C23        47.000                                                                                                                                    26413802.777 4 137543391.58904      2219.136 4        28.758                                                                    26413778.642 4 111765275.33204      1803.187 4        28.133
C24        51.000                                                                                                                                    22532227.247 8 117331234.13408     -3129.713 8        50.038                                                                    22532225.131 7  95341303.21307     -2543.138 7        45.959
C34        52.000                                                                                                                                    22380036.774 7 116538770.53207       995.207 7        46.487                                                                    22380036.560 7  94697373.80007       808.578 7        44.129
I06        58.000    38774416.485 6 152159224.67106      -664.930 6        36.858
I02        59.000    38275146.679 6 150199905.72406     -1142.144 6        36.684
> 2025 01 02 16 45  5.0000000  0 39
G20         1.000    24087750.955 3                     -2511.619 3        23.924
G25         3.000    22478401.452 6 118124786.00906     -4130.174 6        38.712                                    22478407.183 4  92045229.83304     -3218.342 4        24.917    22478409.052 4  92045304.78204     -3218.293 4        29.393
G05         4.000    23003703.071 6 120885289.92306      -145.868 6        37.043                                    23003712.977 3  94196303.41103      -113.641 3        18.090    23003720.150 5                      -113.630 5        30.989
E25         6.000    24602257.819 5 129285800.18805     -2760.517 5        35.938                                                                    24602259.931 5  96544724.28805     -2061.330 5        33.671    24602261.184 7  99063239.61007     -2115.198 7        44.110
G31         7.000    21889091.739 8 115027948.18508     -2013.371 8        49.217                                    21889087.130 6  89632568.33506     -1568.859 6        40.806    21889087.238 6  89632182.35706     -1568.908 6        37.856
G28         8.000    22505103.272 6 118265238.27006     -3470.973 6        39.898                                    22505102.637 3  92154569.53903     -2704.641 3        20.381    22505102.634 7  92154625.53407     -2704.674 7        42.273
G29         9.000    20890582.024 8 109780833.65608     -2292.009 8        50.978                                    20890576.640 7  85543513.51007     -1785.979 7        42.286    20890577.899 6  85543465.53506     -1786.144 6        38.036
E11        10.000    24452064.866 6 128496467.31006     -2243.046 6        41.333                                                                    24452061.907 6  95955159.11606     -1675.096 6        38.910    24452060.708 6  98458389.37706     -1718.565 6        39.159
E10        11.000    26570511.977 5 139629091.06205     -3383.029 5        32.982                                                                    26570508.809 6 104268400.18406     -2526.230 6        36.786    26570510.712 6 106988496.76806     -2592.293 6        37.365
G18        12.000    21326977.776 7 112074228.33407      1256.418 7        47.432                                    21326972.829 5  87330440.36505       979.034 5        31.026    21326975.223 6  87330404.36006       979.017 6        41.251
G04        14.000    25367475.719 5                     -1908.840 5        30.725                                                                                                    25367486.503 4 103875591.52304     -1486.997 4        26.623
G26        17.000    21328078.453 5                      1188.073 5        31.789                                                                                                    21328052.051 4                       925.638 4        26.371
E07        18.000    28468360.313 5 149602227.45005     -2466.599 5        30.430                                                                    28468380.018 4 111715999.71904     -1842.443 4        26.527    28468380.550 4                     -1889.621 4        28.531
E30        19.000    26985785.107 5 141811347.41905      1723.374 5        34.719                                                                    26985786.080 5 105898124.02405      1287.255 5        31.298    26985785.892 5 108660626.75505      1320.614 5        35.800
E02        21.000    23350500.198 7 122707955.32607      -209.057 7        45.836                                                                    23350501.082 7  91632468.01507      -156.062 7        44.926    23350499.790 7  94022888.63107      -160.152 7        44.745
S23        22.000    38219088.995 6 200842731.51106      -865.925 6        36.314
E36        24.000    23912177.530 7 125659347.40007       596.197 7        45.387                                                                    23912179.110 7  93836687.30107       445.153 7        45.794    23912176.947 7  96284583.30507       456.827 7        42.468
R18        25.000    19364375.244 8 103368401.35608     -2231.326 8        51.134                                                                    19364374.896 7  80397636.56907     -1735.426 7        42.472
G16        26.000    23516106.040 6 123577963.05606      2552.994 6        37.777                                    23516099.397 2  96294490.60102      1989.331 2        12.909
S21        27.000    38496242.746 6 202299236.15706      -862.322 6        36.076
R19        29.000    19953096.206 5 106735653.84305      1122.744 5        34.062                                                                    19953099.494 7  83016623.41707       873.172 7        44.572
R15        30.000    23127801.855 6 123587941.11706     -5155.950 6        36.091                                                                    23127796.433 4                     -4010.460 4        26.515
S36        31.000    38267343.714 5 201096247.59105      -862.298 5        35.710
E34        32.000                                                                                                                                    27210816.316 6 106781109.42206      1710.706 6        38.799    27210815.109 6 109566692.60106      1755.486 6        38.964
R16        34.000    19498351.269 7 104157314.43707     -2595.590 7        45.339                                                                    19498354.759 7  81010936.25307     -2018.878 7        44.098
C44        35.000                                                                                                                                    21711628.364 7 113058075.42207     -2031.832 7        46.851                                                                    21711626.687 6  91869170.51706     -1651.003 6        41.077
R17        36.000    22350588.948 6                     -4676.681 6        37.327                                                                    22350587.272 3                     -3637.387 3        22.609
R09        37.000    20360093.817 8 108721835.11908      1783.374 8        50.539                                                                    20360093.194 7  84561455.40807      1387.000 7        45.749
C11        38.000                                                                                                                                    24250626.069 6 126279458.01206      1860.671 6        41.333    24250621.554 5  97647243.51715      1438.627 5        33.000    24250620.503 6 102612333.51506      1512.002 6        37.622
C12        41.000                                                                                                                                    21683261.219 7 112910524.64007      -588.973 7        42.756    21683260.684 8  87309586.10408      -455.397 8        51.853    21683259.515 8  91749038.90308      -478.512 8        49.223
C35        42.000                                                                                                                                    25071426.970 3                     -3768.228 3        22.667
C38        44.000                                                                                                                                    38659547.367 6 201310370.45206      -693.413 6        38.468                                                                    38659545.499 5 163581201.31705      -563.425 5        31.155
C25        45.000                                                                                                                                    22376554.856 7 116520649.70307        67.577 7        43.860                                                                    22376554.247 7  94682745.20107        55.139 7        44.123
C08        46.000                                                                                                                                    38016060.806 7 197959631.33507       -93.193 7        42.330    38016061.158 5 153074897.98805       -72.143 5        35.210    38016050.325 5 160858389.10605       -75.778 5        34.024
C23        47.000                                                                                                                                    26411668.429 5 137532297.83705      2218.434 5        31.170                                                                    26411648.616 4 111756260.70904      1803.800 4        25.895
C24        51.000                                                                                                                                    22535232.854 8 117346887.71108     -3131.472 8        49.629                                                                    22535231.395 7  95354023.01507     -2544.494 7        46.140
C34        52.000                                                                                                                                    22379081.879 7 116533798.66907       993.721 7        46.460                                                                    22379081.563 7  94693333.74607       807.567 7        43.841
I06        58.000    38775263.503 6 152162548.90506      -664.782 6        36.847
I02        59.000    38276601.774 6 150205615.73406     -1141.819 6        37.180
> 2025 01 02 16 45 10.0000000  0 39
G20         1.000    24090142.974 3                     -2514.530 3        23.619
G25         3.000    22482332.615 6 118145441.02206     -4131.717 6        40.832                                    22482337.619 4  92061324.66604     -3219.520 4        25.459    22482338.705 4  92061399.57804     -3219.154 4        28.427
G05         4.000    23003843.521 5 120886027.53105      -149.360 5        35.886                                    23003853.878 3  94196878.14603      -116.396 3        18.955    23003852.367 5                      -116.154 5        31.192
E25         6.000    24604883.169 5 129299606.93505     -2762.362 5        34.424                                                                    24604889.004 5  96555034.56705     -2063.040 5        34.981    24604888.307 7  99073818.82307     -2116.487 7        43.725
G31         7.000    21891008.610 8 115038023.99908     -2016.889 8        48.633                                    21891004.365 6  89640419.62606     -1571.606 6        40.441    21891004.432 6  89640033.66406     -1571.589 6        37.792
G28         8.000    22508408.999 6 118282599.69706     -3473.566 6        40.353                                    22508406.634 3  92168097.92003     -2706.664 3        21.190    22508406.066 7  92168153.90407     -2706.628 7        42.138
G29         9.000    20892763.785 8 109792299.13108     -2294.098 8        50.605                                    20892758.362 7  85552447.65207     -1787.611 7        42.188    20892759.777 6  85552399.68206     -1787.484 6        37.561
E11        10.000    24454199.960 6 128507687.67506     -2245.296 6        41.302                                                                    24454196.924 6  95963537.95306     -1676.497 6        38.631    24454195.676 6  98466986.81806     -1720.353 6        38.763
E10        11.000    26573730.935 5 139646009.97705     -3384.611 5        32.485                                                                    26573728.333 6 104281034.45106     -2527.225 6        36.212    26573730.593 6 107001460.63206     -2593.344 6        37.047
G18        12.000    21325783.968 8 112067953.55008      1253.550 8        48.391                                    21325778.562 5  87325550.92805       976.786 5        31.623    21325780.926 6  87325514.93306       976.863 6        41.850
G04        14.000    25369303.396 5                     -1911.221 5        31.570                                                                                                    25369304.354 4 103883032.88804     -1489.456 4        25.805
G26        17.000    21326938.234 5                      1185.656 5        33.964                                                                                                    21326930.568 5                       924.183 5        32.587
E07        18.000    28470707.975 4 149614566.33304     -2468.594 4        28.806                                                                    28470726.343 4 111725213.96104     -1843.673 4        24.211    28470726.797 4                     -1891.674 4        28.607
E30        19.000    26984146.021 5 141802731.55605      1722.812 5        35.448                                                                    26984145.650 5 105891690.12605      1286.856 5        30.106    26984147.056 5 108654025.01505      1320.322 5        35.814
E02        21.000    23350699.970 7 122709005.28407      -210.881 7        45.698                                                                    23350700.894 7  91633252.07207      -157.405 7        44.811    23350699.744 7  94023693.14007      -161.511 7        44.612
S23        22.000    38219912.360 6 200847061.50306      -866.157 6        36.178
E36        24.000    23911611.533 7 125656372.78407       593.793 7        45.821                                                                    23911613.348 7  93834466.01607       443.367 7        46.010    23911610.584 7  96282304.08707       454.982 7        42.246
R18        25.000    19366466.636 8 103379566.82808     -2234.782 8        50.939                                                                    19366466.281 6  80406320.82906     -1738.137 6        40.639
G16        26.000    23513676.046 6 123565200.94206      2552.097 6        37.887                                    23513670.658 2  96284546.11002      1988.672 2        14.286
S21        27.000    38497059.738 5 202303548.33105      -862.588 5        35.881
R19        29.000    19952049.291 5 106730049.37505      1119.106 5        35.638                                                                    19952051.393 7  83012264.41907       870.426 7        45.214
R15        30.000    23132626.590 5                     -5157.270 5        35.895                                                                    23132617.124 3                     -4010.646 3        23.486
S36        31.000    38268163.546 5 201100559.33005      -862.535 5        35.190
E34        32.000                                                                                                                                    27208637.021 6 106772556.75406      1710.150 6        39.069    27208635.612 6 109557916.83506      1754.824 6        39.195
R16        34.000    19500783.222 7 104170303.12207     -2599.820 7        45.886                                                                    19500785.693 7  81021038.55107     -2022.058 7        43.848
C44        35.000                                                                                                                                    21713580.669 7 113068239.63007     -2033.789 7        47.170                                                                    21713578.314 6  91877429.76906     -1652.294 6        41.054
R17        36.000    22354967.586 6 119625893.57716     -4677.454 6        39.676
R09        37.000    20358424.821 8 108712926.70208      1780.116 8        50.211                                                                    20358424.858 7  84554526.63807      1384.578 7        44.679
C11        38.000                                                                                                                                    24248841.301 6 126270158.53406      1859.225 6        41.561    24248833.670 5  97640052.66905      1437.822 5        35.405    24248833.844 6 102604776.93406      1511.213 6        36.904
C12        41.000                                                                                                                                    21683828.177 7 112913475.54907      -591.302 7        43.113    21683827.085 8  87311867.94208      -457.215 8        51.601    21683826.239 8  91751436.76708      -480.307 8        49.446
C35        42.000                                                                                                                                    25075044.352 3                     -3767.695 3        21.286
C38        44.000                                                                                                                                    38660213.486 6 201313840.85706      -694.743 6        38.829                                                                    38660211.228 5 163584021.29705      -564.454 5        31.291
C25        45.000                                                                                                                                    22376493.626 7 116520319.36507        64.687 7        44.394                                                                    22376490.826 7  94682476.81207        52.710 7        43.888
C08        46.000                                                                                                                                    38016150.593 7 197960101.15807       -94.656 7        42.000    38016156.672 5 153075261.28705       -73.228 5        35.267    38016140.974 5 160858770.88405       -76.707 5        34.033
C23        47.000                                                                                                                                    26409533.691 5 137521208.14505      2217.456 5        33.275                                                                    26409518.862 4 111747249.45504      1801.745 4        26.024
C24        51.000                                                                                                                                    22538240.314 8 117362551.17208     -3133.774 8        48.963                                                                    22538239.422 7  95366750.87007     -2546.261 7        46.570
C34        52.000                                                                                                                                    22378128.511 7 116528834.86207       991.738 7        45.934                                                                    22378127.992 7  94689300.27307       806.029 7        43.547
I06        58.000    38776110.418 6 152165872.76406      -664.815 6        36.888
I02        59.000    38278056.336 6 150211326.23106     -1142.215 6        36.870
> 2025 01 02 16 45 15.0000000  0 38
G20         1.000    24092539.938 3                     -2517.941 3        21.476
G25         3.000    22486264.489 7 118166103.06207     -4133.301 7        42.148                                    22486269.414 4  92077424.96604     -3220.760 4        25.143    22486271.486 4  92077499.82504     -3220.944 4        28.009
G05         4.000    23003986.508 5 120886782.14005      -152.747 5        33.641                                    23003997.663 3  94197466.16203      -119.027 3        18.567    23003993.062 5                      -118.732 5        30.611
E25         6.000    24607510.447 5 129313420.44005     -2763.232 5        31.283                                                                    24607517.976 6  96565349.87706     -2063.840 6        37.221    24607516.884 7  99084403.26707     -2117.570 7        43.680
G31         7.000    21892928.822 8 115048116.07908     -2020.222 8        48.961                                    21892924.609 6  89648283.59306     -1574.203 6        39.751    21892924.704 6  89647897.61006     -1574.234 6        38.102
G28         8.000    22511714.231 6 118299972.38906     -3475.906 6        39.583                                    22511712.732 3  92181635.07503     -2708.499 3        22.362    22511712.185 7  92181691.08207     -2708.401 7        42.182
G29         9.000    20894947.160 8 109803773.53508     -2295.957 8        49.931                                    20894941.632 6  85561388.74706     -1789.059 6        41.776    20894943.477 6  85561340.79106     -1789.171 6        37.796
E11        10.000    24456336.998 6 128518918.02006     -2247.247 6        41.280                                                                    24456333.671 6  95971924.26706     -1678.212 6        38.399    24456332.739 6  98475591.89706     -1722.061 6        38.793
E10        11.000    26576951.132 5 139662934.66405     -3385.417 5        32.431                                                                    26576948.965 5 104293673.02905     -2528.227 5        35.352    26576951.805 6 107014428.93206     -2594.455 6        36.654
G18        12.000    21324592.202 8 112061691.87808      1250.841 8        48.613                                    21324587.223 5  87320671.71805       974.674 5        32.042    21324589.755 7  87320635.71807       974.747 7        43.012
G04        14.000    25371128.793 5                     -1913.902 5        32.611                                                                                                    25371119.286 4 103890484.77304     -1490.870 4        25.669
G26        17.000    21325807.509 5 112067893.19415      1183.775 5        33.491                                    21325812.680 2  87325640.15712       922.413 2        17.585    21325804.636 5  87325602.12515       922.258 5        35.971
E07        18.000    28473056.332 4 149626914.09704     -2470.384 4        25.068                                                                    28473077.429 3                     -1844.212 3        22.800    28473075.293 4                     -1892.804 4        27.353
E30        19.000    26982506.947 6 141794117.74306      1722.223 6        36.057                                                                    26982506.891 5 105885257.82005      1285.869 5        30.370    26982508.619 6 108647424.85806      1319.645 6        36.367
E02        21.000    23350901.435 7 122710063.23607      -212.635 7        45.863                                                                    23350902.067 7  91634042.11507      -158.837 7        44.460    23350901.062 7  94024503.79107      -162.922 7        44.572
S23        22.000    38220731.029 5 200851391.68905      -866.390 5        35.567
E36        24.000    23911047.277 7 125653408.96507       591.447 7        45.988                                                                    23911049.547 7  93832252.77207       441.659 7        46.445    23911046.136 6  96280033.11106       453.262 6        41.981
R18        25.000    19368561.077 8 103390748.34108     -2238.051 8        50.687                                                                    19368561.869 6  80415017.56406     -1740.686 6        38.946
G16        26.000    23511246.952 6 123552443.06306      2551.176 6        36.934                                    23511242.732 2  96274604.93302      1987.904 2        14.810
S21        27.000    38497884.145 6 202307860.72206      -862.755 6        36.049
R19        29.000    19951004.957 6 106724461.46406      1115.847 6        36.329                                                                    19951007.199 7  83007918.27507       867.800 7        45.631
R15        30.000    23137451.511 5 123639511.89115     -5158.423 5        35.095                                                                    23137443.816 3                     -4012.349 3        22.781
S36        31.000    38268986.387 5 201104871.07305      -862.763 5        35.524
E34        32.000                                                                                                                                    27206458.085 6 106764006.43406      1709.782 6        39.186    27206456.791 6 109549143.45306      1754.293 6        39.399
R16        34.000    19503219.444 7 104183311.46907     -2603.827 7        47.199                                                                    19503219.585 7  81031156.15307     -2025.231 7        42.969
C44        35.000                                                                                                                                    21715534.702 7 113078412.72907     -2035.605 7        47.448                                                                    21715532.002 6  91885696.26106     -1654.403 6        41.037
R17        36.000    22359348.652 6 119649282.91916     -4678.419 6        40.238
R09        37.000    20356759.222 8 108704033.35908      1776.990 8        49.849                                                                    20356759.314 7  84547609.62307      1382.056 7        43.668
C11        38.000                                                                                                                                    24247055.936 6 126260864.90906      1857.860 6        40.818    24247049.205 6  97632866.28606      1436.639 6        37.357    24247049.060 5 102597225.11505      1509.582 5        35.752
C12        41.000                                                                                                                                    21684396.683 7 112916436.99907      -593.377 7        43.012    21684395.559 8  87314157.93008      -458.963 8        51.371    21684394.964 8  91753843.19908      -482.508 8        49.532
C38        44.000                                                                                                                                    38660881.597 6 201317316.72106      -695.870 6        39.066                                                                    38660878.969 5 163586845.74805      -565.773 5        31.381
C25        45.000                                                                                                                                    22376435.066 7 116520002.24907        61.759 7        44.259                                                                    22376430.128 7  94682219.14407        50.041 7        43.666
C08        46.000                                                                                                                                    38016241.510 6 197960576.99106       -95.884 6        41.738    38016252.029 5 153075629.24105       -74.000 5        35.552    38016232.103 5 160859157.53805       -78.081 5        34.000
C23        47.000                                                                                                                                    26407396.431 5 137510122.99605      2216.516 5        35.243                                                                    26407391.215 4 111738241.73704      1801.359 4        24.541
C24        51.000                                                                                                                                    22541249.432 7 117378225.02407     -3135.974 7        47.576                                                                    22541249.561 7  95379487.17007     -2548.534 7        46.900
C34        52.000                                                                                                                                    22377176.312 7 116523879.63407       990.007 7        44.810                                                                    22377176.463 7  94685273.76807       804.291 7        43.247
I06        58.000    38776956.889 6 152169196.58406      -664.963 6        37.645
I02        59.000    38279511.889 6 150217037.29006     -1142.553 6        36.964
> 2025 01 02 16 45 20.0000000  0 39
G20         1.000    24094934.179 4                     -2521.449 4        24.195
G25         3.000    22490197.237 7 118186772.07607     -4134.417 7        42.878                                    22490202.545 4  92093530.70204     -3221.620 4        24.376    22490203.009 4  92093605.60604     -3221.682 4        27.425
G05         4.000    23004131.071 4 120887553.76404      -156.288 4        29.479                                    23004144.109 2  94198067.43202      -121.773 2        17.660    23004139.132 4                      -121.442 4        29.735
E25         6.000    24610141.872 4 129327240.81504     -2764.699 4        29.829                                                                    24610148.254 6  96575670.27706     -2064.484 6        38.811    24610146.624 7  99094992.89807     -2118.398 7        43.670
G31         7.000    21894852.709 8 115058224.39308     -2023.210 8        48.538                                    21894847.899 6  89656160.21506     -1576.533 6        39.252    21894847.830 6  89655774.24606     -1576.546 6        37.913
G28         8.000    22515019.645 6 118317356.31106     -3477.758 6        37.698                                    22515020.848 3  92195180.99003     -2709.928 3        22.914    22515020.535 7  92195236.99207     -2710.031 7        42.434
G29         9.000    20897132.262 8 109815256.83608     -2297.471 8        49.626                                    20897126.637 6  85570336.77706     -1790.236 6        41.592    20897127.701 6  85570288.79906     -1790.205 6        38.090
E11        10.000    24458476.157 6 128530158.27206     -2248.927 6        41.552                                                                    24458472.124 6  95980317.93906     -1679.128 6        38.156    24458471.872 6  98484204.55106     -1723.211 6        38.616
E10        11.000    26580172.367 5 139679865.10805     -3386.842 5        31.924                                                                    26580170.828 5 104306315.88305     -2528.896 5        34.948    26580173.645 6 107027401.60206     -2595.047 6        36.760
G18        12.000    21323402.681 8 112055443.27908      1248.467 8        48.239                                    21323398.621 5  87315802.69005       972.828 5        32.683    21323400.345 7  87315766.70707       972.848 7        43.452
G04        14.000    25372951.882 5                     -1916.556 5        31.291                                                                                                    25372939.355 4 103897947.29004     -1492.807 4        26.695
G26        17.000    21324680.682 5 112061979.59905      1181.786 5        32.814                                    21324685.832 3  87321032.14103       920.864 3        18.687    21324677.544 6  87320994.01706       920.936 6        37.856
E07        18.000                                                                                                                                    28475430.925 3                     -1846.239 3        21.738    28475424.594 4                     -1894.267 4        28.038
E30        19.000    26980867.366 5 141785505.87005      1722.577 5        34.586                                                                    26980868.219 4 105878826.90004      1286.588 4        29.697    26980871.033 6 108640826.17506      1319.519 6        36.654
E02        21.000    23351104.781 7 122711129.13107      -213.922 7        46.121                                                                    23351104.742 7  91634838.08607      -159.694 7        44.686    23351103.850 7  94025320.52007      -163.922 7        44.635
S23        22.000    38221554.988 5 200855722.18605      -866.176 5        35.914
E36        24.000    23910485.294 7 125650455.86207       589.555 7        45.940                                                                    23910487.603 7  93830047.53807       440.291 7        46.773    23910483.750 6  96277770.35706       451.759 6        41.704
R18        25.000    19370659.241 8 103401945.79008     -2241.050 8        50.886                                                                    19370659.183 6  80423726.68106     -1743.119 6        37.353
G16        26.000    23508819.725 5 123539689.43605      2550.619 5        34.757                                    23508815.737 2  96264667.12502      1987.487 2        13.636
S21        27.000    38498703.212 6 202312173.31706      -862.435 6        36.026
R19        29.000    19949962.574 6 106718889.97806      1112.617 6        36.851                                                                    19949965.568 7  83003584.90607       865.366 7        46.030
R15        30.000    23142278.599 5                     -5159.164 5        34.433                                                                    23142275.856 4                     -4012.335 4        24.316
S36        31.000    38269806.670 5 201109182.68505      -862.123 5        35.314
E34        32.000                                                                                                                                    27204279.883 6 106755458.43606      1709.463 6        39.189    27204278.683 6 109540372.46206      1754.002 6        39.892
R16        34.000    19505658.871 8 104196339.51908     -2607.470 8        48.265                                                                    19505657.866 7  81041289.05507     -2028.051 7        42.004
C44        35.000                                                                                                                                    21717490.318 8 113088594.65908     -2037.176 8        48.219                                                                    21717487.251 6  91893969.91106     -1655.406 6        40.968
R17        36.000    22363729.641 6 119672676.10916     -4678.837 6        40.288
R09        37.000    20355096.383 8 108695155.11208      1774.192 8        49.404                                                                    20355097.062 7  84540704.33707      1379.869 7        42.667
C11        38.000                                                                                                                                    24245269.966 6 126251577.07006      1857.071 6        39.610    24245267.041 6  97625684.35106      1435.961 6        38.814    24245265.172 5 102589677.98305      1508.808 5        35.138
C12        41.000                                                                                                                                    21684966.867 7 112919408.93407      -595.289 7        43.124    21684966.201 8  87316456.01808      -460.363 8        50.947    21684965.804 8  91756258.14308      -483.859 8        49.803
C35        42.000                                                                                                                                                                                                                                                                    25082287.291 5                     -3063.038 5        30.664
C38        44.000                                                                                                                                    38661551.178 6 201320797.96706      -696.710 6        38.979                                                                    38661546.962 5 163589674.57405      -566.427 5        31.623
C25        45.000                                                                                                                                    22376380.700 7 116519698.29007        59.622 7        44.382                                                                    22376372.323 7  94681972.16607        48.332 7        43.909
C08        46.000                                                                                                                                    38016334.121 6 197961058.69306       -96.950 6        41.964    38016349.399 6 153076001.71006       -75.110 6        36.299    38016324.731 5 160859548.96905       -78.962 5        33.934
C23        47.000                                                                                                                                    26405258.312 5 137499042.29605      2215.961 5        35.443                                                                    26405261.243 4                      1801.772 4        25.985
C24        51.000                                                                                                                                    22544261.582 7 117393909.17207     -3137.779 7        46.341                                                                    22544261.516 7  95392231.82207     -2549.802 7        47.001
C34        52.000                                                                                                                                    22376226.223 7 116518932.95407       988.559 7        43.767                                                                    22376226.596 7  94681254.18807       803.231 7        43.302
I06        58.000    38777804.097 6 152172520.36306      -664.518 6        37.418
I02        59.000    38280966.692 6 150222749.08506     -1142.380 6        36.699
> 2025 01 02 16 45 25.0000000  0 38
G25         3.000    22494131.483 7 118207447.93107     -4135.453 7        43.331                                    22494136.934 3  92109641.74303     -3222.438 3        22.724    22494134.377 4  92109716.62604     -3222.507 4        25.654
G05         4.000    23004282.646 5 120888342.02505      -159.057 5        31.540                                    23004293.850 2  94198681.67502      -123.935 2        16.302    23004290.756 4                      -124.524 4        28.673
E25         6.000    24612774.625 5 129341067.78005     -2765.580 5        30.921                                                                    24612779.752 6  96585995.63106     -2065.326 6        40.386    24612778.143 7  99105587.62507     -2119.085 7        43.699
G31         7.000    21896778.791 7 115068348.80807     -2026.095 7        47.309                                    21896774.135 6  89664049.37106     -1578.777 6        38.616    21896774.247 6  89663663.38006     -1578.642 6        37.788
G28         8.000    22518330.317 5 118334751.30505     -3479.759 5        33.599                                    22518330.966 3  92208735.52503     -2711.509 3        22.781    22518330.813 7  92208791.53207     -2711.439 7        42.811
G29         9.000    20899319.629 8 109826748.89108     -2298.887 8        49.617                                    20899313.470 6  85579291.62306     -1791.341 6        41.733    20899314.930 6  85579243.64206     -1791.285 6        38.517
E11        10.000    24460616.768 6 128541408.31506     -2250.547 6        41.456                                                                    24460612.650 6  95988718.94906     -1680.626 6        37.837    24460612.774 6  98492824.73306     -1724.552 6        38.634
E10        11.000    26583394.825 5 139696801.09805     -3386.894 5        31.600                                                                    26583393.729 5 104318962.89005     -2529.651 5        34.781    26583396.704 6 107040378.51606     -2595.543 6        36.457
G18        12.000    21322215.680 7 112049207.62307      1246.255 7        47.645                                    21322212.644 5  87310943.75305       971.101 5        33.102    21322213.407 7  87310907.77207       971.096 7        44.090
G04        14.000    25374771.055 4                     -1918.885 4        26.156
G26        17.000    21323555.948 5 112056076.99405      1179.716 5        32.814                                    21323560.883 3  87316432.71703       919.225 3        18.687    21323553.165 6  87316394.64406       919.347 6        39.045
E07        18.000    28477767.332 3 149651636.35503     -2473.714 3        23.733                                                                                                                                    28477776.256 4                     -1895.754 4        28.114
E30        19.000    26979227.155 5 141776895.90005      1722.074 5        33.569                                                                    26979229.465 5 105872397.43505      1286.047 5        30.143    26979233.951 6 108634228.92706      1319.315 6        36.722
E02        21.000    23351309.511 7 122712202.85607      -215.151 7        46.575                                                                    23351308.913 7  91635639.90307      -160.621 7        44.632    23351308.161 7  94026143.25207      -164.870 7        44.575
S23        22.000    38222377.802 5 200860052.86805      -865.547 5        35.452
E36        24.000    23909925.369 7 125647513.33807       587.855 7        45.688                                                                    23909927.515 7  93827850.22107       438.908 7        47.029    23909924.278 6  96275515.71706       450.445 6        41.375
R18        25.000    19372760.237 8 103413159.05508     -2243.859 8        50.966                                                                    19372759.778 6  80432448.09706     -1745.322 6        36.911
G16        26.000    23506393.912 5 123526939.92905      2550.083 5        31.879                                    23506389.631 2  96254732.49402      1987.005 2        12.364
S21        27.000    38499527.131 5 202316486.07605      -861.980 5        35.981
R19        29.000    19948923.376 6 106713334.71706      1109.871 6        36.624                                                                    19948926.551 7  82999264.16807       863.225 7        45.679
R15        30.000    23147104.692 5 123691104.90315     -5159.994 5        33.096
S36        31.000    38270630.012 5 201113494.56105      -861.933 5        35.024
E34        32.000                                                                                                                                    27202102.106 6 106746912.63806      1709.386 6        39.207    27202101.154 6 109531603.71706      1753.928 6        40.293
R16        34.000    19508101.826 8 104209386.93908     -2611.055 8        48.786                                                                    19508100.445 6  81051437.04806     -2030.884 6        41.518
C44        35.000                                                                                                                                    21719447.425 8 113098785.26308     -2038.552 8        48.432                                                                    21719444.446 6  91902250.64906     -1656.648 6        41.211
R17        36.000    22368102.035 6 119696072.98616     -4679.393 6        39.471
R09        37.000    20353436.719 8 108686291.97708      1771.530 8        49.681                                                                    20353438.024 7  84533810.80507      1377.847 7        42.980
C11        38.000                                                                                                                                    24243484.416 6 126242294.92206      1856.239 6        37.410    24243485.314 6  97618506.79706      1435.240 6        39.054    24243483.170 5 102582135.43005      1508.195 5        34.462
C12        41.000                                                                                                                                    21685539.580 7 112922391.21407      -597.047 7        43.742    21685538.532 8  87318762.10608      -461.685 8        50.423    21685538.565 8  91758681.51508      -485.398 8        50.060
C35        42.000                                                                                                                                                                                                                                                                    25085907.553 5                     -3063.212 5        30.860
C38        44.000                                                                                                                                    38662220.926 6 201324284.49806      -697.315 6        38.754                                                                    38662215.906 5 163592507.67105      -566.862 5        31.011
C25        45.000                                                                                                                                    22376326.964 7 116519407.39307        57.258 7        44.316                                                                    22376316.876 7  94681735.79807        46.357 7        43.994
C08        46.000                                                                                                                                    38016427.971 6 197961546.13206       -97.642 6        41.993    38016448.825 6 153076378.61306       -75.576 6        37.229    38016418.480 5 160859945.09105       -79.669 5        34.276
C23        47.000                                                                                                                                    26403126.140 6 137487965.95206      2215.189 6        36.095                                                                    26403130.591 4                      1799.845 4        27.425
C24        51.000                                                                                                                                    22547276.718 7 117409603.51107     -3139.434 7        45.418                                                                    22547275.342 7  95404984.76607     -2551.237 7        47.089
C34        52.000                                                                                                                                    22375278.113 7 116513994.64907       987.227 7        42.711                                                                    22375278.543 7  94677241.42107       802.053 7        43.532
I06        58.000    38778651.256 6 152175843.99106      -664.439 6        36.779
I02        59.000    38282422.631 6 150228461.57806     -1142.399 6        36.408
> 2025 01 02 16 45 30.0000000  0 38
G25         3.000    22498067.399 7 118228130.47507     -4137.200 7        43.120                                    22498073.106 3  92125758.01403     -3223.792 3        20.810    22498071.064 3  92125832.82203     -3223.126 3        23.162
