     3.04           OBSERVATION DATA    M                   RINEX VERSION / TYPE
ssrcrin-15.6.1x                         20250102 131500 UTC PGM / RUN BY / DATE 
(00000000023479385599111004) Septentrio proprietary         COMMENT             
ract                                                        MARKER NAME         
01                                                          MARKER NUMBER       
geodetic                                                    MARKER TYPE         
NFB                 CLIMERS@TUW                             OBSERVER / AGENCY   
3296359             SEPT ASTERX SB3 PROB4.14.4              REC # / TYPE / VERS 
Unknown             Unknown                                 ANT # / TYPE        
  4127448.9008  1206914.9605  4695542.7779                  APPROX POSITION XYZ 
        0.0000        0.0000        0.0000                  ANTENNA: DELTA H/E/N
G   23 X1  C1C L1C D1C S1C C1W S1W C2W L2W D2W S2W C2L L2L  SYS / # / OBS TYPES 
       D2L S2L C5Q L5Q D5Q S5Q C1L L1L D1L S1L              SYS / # / OBS TYPES 
E   21 X1  C1C L1C D1C S1C C6C L6C D6C S6C C5Q L5Q D5Q S5Q  SYS / # / OBS TYPES 
       C7Q L7Q D7Q S7Q C8Q L8Q D8Q S8Q                      SYS / # / OBS TYPES 
S    9 X1  C1C L1C D1C S1C C5I L5I D5I S5I                  SYS / # / OBS TYPES 
R   17 X1  C1C L1C D1C S1C C2P L2P D2P S2P C2C L2C D2C S2C  SYS / # / OBS TYPES 
       C3Q L3Q D3Q S3Q                                      SYS / # / OBS TYPES 
C   25 X1  C1P L1P D1P S1P C5P L5P D5P S5P C2I L2I D2I S2I  SYS / # / OBS TYPES 
       C7I L7I D7I S7I C6I L6I D6I S6I C7D L7D D7D S7D      SYS / # / OBS TYPES 
J   17 X1  C1C L1C D1C S1C C2L L2L D2L S2L C5Q L5Q D5Q S5Q  SYS / # / OBS TYPES 
       C1L L1L D1L S1L                                      SYS / # / OBS TYPES 
I    5 X1  C5A L5A D5A S5A                                  SYS / # / OBS TYPES 
SEPTENTRIO RECEIVERS OUTPUT ALIGNED CARRIER PHASES.         COMMENT             
NO FURTHER PHASE SHIFT APPLIED IN THE RINEX ENCODER.        COMMENT             
G L1C                                                       SYS / PHASE SHIFT   
G L2W                                                       SYS / PHASE SHIFT   
G L2L  0.00000                                              SYS / PHASE SHIFT   
G L5Q  0.00000                                              SYS / PHASE SHIFT   
G L1L  0.00000                                              SYS / PHASE SHIFT   
E L1C  0.00000                                              SYS / PHASE SHIFT   
E L6C  0.00000                                              SYS / PHASE SHIFT   
E L5Q  0.00000                                              SYS / PHASE SHIFT   
E L7Q  0.00000                                              SYS / PHASE SHIFT   
E L8Q  0.00000                                              SYS / PHASE SHIFT   
S L1C                                                       SYS / PHASE SHIFT   
S L5I                                                       SYS / PHASE SHIFT   
R L1C                                                       SYS / PHASE SHIFT   
R L2P  0.00000                                              SYS / PHASE SHIFT   
R L2C                                                       SYS / PHASE SHIFT   
R L3Q  0.00000                                              SYS / PHASE SHIFT   
C L1P  0.00000                                              SYS / PHASE SHIFT   
C L5P  0.00000                                              SYS / PHASE SHIFT   
C L2I                                                       SYS / PHASE SHIFT   
C L7I                                                       SYS / PHASE SHIFT   
C L6I                                                       SYS / PHASE SHIFT   
C L7D                                                       SYS / PHASE SHIFT   
J L1C                                                       SYS / PHASE SHIFT   
J L2L  0.00000                                              SYS / PHASE SHIFT   
J L5Q  0.00000                                              SYS / PHASE SHIFT   
J L1L  0.00000                                              SYS / PHASE SHIFT   
I L5A                                                       SYS / PHASE SHIFT   
  2025     1     2    13    15    0.0000000     GPS         TIME OF FIRST OBS   
 C1C    0.000 C2C    0.000 C2P    0.000                     GLONASS COD/PHS/BIS 
DBHZ                                                        SIGNAL STRENGTH UNIT
    18                                                      LEAP SECONDS        
 24 R01  1 R02 -4 R03  5 R04  6 R05  1 R06 -4 R07  5 R08  6 GLONASS SLOT / FRQ #
    R09 -2 R10 -7 R11  0 R12 -1 R13 -2 R14 -7 R15  0 R16 -1 GLONASS SLOT / FRQ #
    R17  4 R18 -3 R19  3 R20  2 R21  4 R22 -3 R23  3 R24  2 GLONASS SLOT / FRQ #
                                                            END OF HEADER       
> 2025 01 02 13 15  0.0000000  0 42
G06         1.000    23006053.838 4 120897619.51404      -785.515 4        27.485                                    23006054.814 3  94205867.83203      -612.033 3        20.095    23006064.804 6  94205976.77506      -611.617 6        37.418
G25         3.000    20834225.751 7 109484802.56507      1147.762 7        42.876                                    20834223.665 5  85312768.25405       894.357 5        34.557    20834228.879 6  85312703.21206       894.271 6        37.936
G19         4.000    23481931.242 5 123398433.69105     -4089.499 5        35.943                                    23481925.905 1  96154554.93001     -3186.698 1         8.000
E25         6.000    23913371.144 6 125665664.37706       245.925 6        41.485                                                                    23913374.680 7  93841341.18607       183.776 7        42.853    23913375.064 8  96289271.69508       188.540 8        48.179
G11         7.000    23310455.348 6 122497306.62706      1385.733 6        36.975                                    23310456.511 2  95452449.02902      1079.812 2        14.952    23310458.071 6  95452428.98006      1079.833 6        36.817
G28         8.000    24892451.434 6 130810801.65306      2682.349 6        37.410                                                                                                    24892472.534 5                      2090.282 5        30.294
G29         9.000                                                                                                                                                                    23955055.546 5  98091968.38005      2167.398 5        30.166
E10        11.000    26629788.716 5 139940497.68805      1784.806 5        35.981                                                                    26629787.492 3 104501057.35803      1332.919 3        23.314    26629819.338 5                      1367.701 5        30.189
G24        12.000                                                                                                                                                                    21904908.382 6  89696907.12006     -3000.545 6        38.210
E12        13.000    26363938.433 3                       855.817 3        19.134                                                                    26363959.711 5 103457809.88505       640.397 5        31.419
E33        14.000                                                                                                                                    27115166.143 5                     -1396.712 5        30.060    27115158.609 3                     -1433.034 3        23.048
G12        15.000    20292778.126 8 106639243.94708     -1343.041 8        49.790                                    20292774.546 7  83095521.98207     -1046.528 7        45.512    20292776.247 7  83095540.00207     -1046.500 7        43.022
E24        16.000    24333591.323 7 127873847.35007     -2108.310 7        47.235                                                                    24333593.113 8  95490275.89408     -1574.404 8        49.227    24333592.900 8  97981352.52008     -1615.477 8        50.542
G32        17.000    22948791.140 7 120597144.97407      -491.530 7        47.499                                    22948798.172 6  93971451.34606      -383.016 6        36.155    22948798.165 6  93971571.32506      -383.083 6        36.287
E05        18.000                                                                                                                                    24815488.215 6  97381300.93106     -2828.256 6        37.267    24815482.821 4  99921705.28404     -2901.589 4        29.043
E08        20.000    27164029.268 5 142747894.06605       896.507 5        35.438                                                                    27164035.087 7 106597563.42807       669.350 7        43.147    27164030.530 6 109378378.40106       686.911 6        39.468
E02        21.000    27733810.177 4                      1568.375 4        29.536                                                                    27733848.214 4                      1171.403 4        26.695    27733821.354 5                      1201.871 5        32.383
S23        22.000    38241034.815 6 200958047.30006      -863.617 6        37.214
R14        23.000    20010700.985 8 106668272.33008     -2329.565 8        48.309                                                                    20010703.712 6  82964158.57506     -1811.872 6        40.667
R06        24.000    22913110.943 5                       451.954 5        31.728
R23        25.000    22835547.682 5                     -4359.382 5        32.174
E03        26.000    25091998.240 6 131859530.77706     -1682.907 6        40.086                                                                    25092007.623 6  98466485.84406     -1256.677 6        39.697    25092008.570 6 101035156.68706     -1289.435 6        37.671
S21        27.000    38529193.153 5 202472423.27905      -859.293 5        32.599
R15        30.000    20114486.539 8 107485973.57108       990.619 8        52.029                                                                    20114489.599 7  83600025.69207       770.481 7        46.866
S36        31.000    38300341.185 6 201269655.70706      -858.914 6        36.465
C07        32.000                                                                                                                                                                                                    40628485.757 4                     -1384.684 4        24.511
C10        33.000                                                                                                                                    39570958.497 4                     -1577.281 4        24.015    39570957.091 5                     -1220.270 5        32.000    39570949.283 4                     -1282.537 4        25.143
R16        34.000    24083227.146 5 128648220.29005      2601.605 5        34.233                                                                    24083236.675 5 100059769.55505      2023.298 5        35.281
C44        35.000                                                                                                                                                                                                                                                                    25213769.313 5 106687721.55405      2130.695 5        31.992
R17        36.000    21874406.253 5 117054746.02505      3273.402 5        34.405                                                                    21874409.461 6  91042395.87006      2546.022 6        41.244
C45        37.000                                                                                                                                    23968467.121 7 124810224.70807     -3284.112 7        44.852                                                                    23968463.831 6 101418403.46306     -2668.759 6        40.911
R24        38.000    20187288.627 6 107951067.09006      -296.613 6        40.048                                                                    20187301.639 4                      -230.311 4        26.790
C33        39.000                                                                                                                                    25909313.619 5 134916646.39405     -1956.890 5        34.495                                                                    25909334.274 4                     -1589.904 4        28.351
C35        42.000                                                                                                                                    22629426.064 8 117837396.18008      1074.127 8        49.176                                                                    22629427.514 8  95752541.34008       872.715 8        48.029
R05        44.000    22080721.121 4 118034074.17204     -3678.554 4        28.227
C29        46.000                                                                                                                                    23494151.528 7 122340204.38807     -2450.411 7        42.887                                                                    23494154.151 7  99411429.64607     -1991.221 7        43.640
C41        47.000                                                                                                                                    27095564.530 4 141093820.55304       353.074 4        26.060                                                                    27095574.040 5                       286.954 5        30.196
C26        48.000                                                                                                                                    21722078.680 7 113112584.69407      -655.919 7        47.941                                                                    21722080.431 7  91913251.27307      -533.112 7        45.941
C24        51.000                                                                                                                                    23747114.617 5                      1664.035 5        31.841                                                                    23747072.018 5 100481687.68605      1352.069 5        32.120
C14        53.000                                                                                                                                                                                                    25895563.921 6 104270708.15906     -2338.498 6        36.163    25895564.955 5                     -2457.262 5        33.820
I06        58.000    38595324.531 6 151456353.71406      -743.299 6        37.206
I02        59.000    37166590.675 5 145849686.49505      -849.771 5        31.743
> 2025 01 02 13 15  5.0000000  0 41
G06         1.000    23006801.487 5 120901553.30205      -788.269 5        32.485                                    23006805.255 3  94208933.14503      -614.233 3        18.896    23006811.446 5  94209042.12305      -614.085 5        35.467
G25         3.000    20833134.950 7 109479067.65307      1146.442 7        43.384                                    20833133.685 5  85308299.50205       893.321 5        35.581    20833138.091 6  85308234.48506       893.374 6        39.447
G19         4.000    23485823.467 5 123418884.27705     -4090.265 5        34.609                                    23485817.040 1  96170490.36201     -3187.252 1         6.375
E25         6.000    23913137.421 6 125664436.00106       245.530 6        40.622                                                                    23913140.523 7  93840423.88707       183.451 7        42.489    23913141.181 7  96288330.46507       188.190 7        47.725
G11         7.000    23309138.640 6 122490382.89506      1383.964 6        38.261                                    23309139.037 2  95447053.92002      1078.445 2        15.381    23309140.154 6  95447033.91506      1078.345 6        37.713
G28         8.000    24889899.748 6 130797390.29206      2682.502 6        36.113                                                                                                    24889923.021 5                      2089.872 5        32.323
G29         9.000    23952401.880 4                      2780.768 4        25.248                                                                                                    23952409.990 5  98081133.48505      2166.706 5        30.166
E10        11.000    26628090.338 5 139931577.16105      1783.604 5        32.719                                                                    26628085.108 3                      1332.905 3        21.643    26628124.074 5                      1366.395 5        30.619
G24        12.000                                                                                                                                                                    21908572.008 6  89711912.51906     -3001.522 6        38.580
E12        13.000                                                                                                                                    26363146.210 4 103454611.33404       639.516 4        27.581
E33        14.000                                                                                                                                    27116952.744 5                     -1398.395 5        30.400
G12        15.000    20294056.764 8 106645964.05808     -1344.770 8        49.896                                    20294053.591 7  83100758.43707     -1047.876 7        45.785    20294054.919 7  83100776.44507     -1047.683 7        42.303
E24        16.000    24335597.247 7 127884390.47307     -2108.714 7        46.528                                                                    24335599.640 8  95498148.99908     -1574.711 8        49.327    24335599.122 8  97989431.01808     -1615.714 8        50.226
G32        17.000    22949260.418 8 120599609.82408      -494.241 8        48.164                                    22949267.339 5  93973372.01505      -385.125 5        35.348    22949266.726 5  93973492.01105      -385.277 5        35.071
E05        18.000    24819084.673 4                     -3787.952 4        29.962                                                                    24819091.921 6  97395443.64506     -2828.561 6        36.703    24819087.388 4  99936216.94204     -2902.518 4        28.967
E08        20.000                                                                                                                                    27163182.727 7 106594219.16907       668.327 7        43.041    27163177.700 6 109374946.91806       685.741 6        39.003
E02        21.000    27732321.686 5                      1568.112 5        31.419                                                                    27732355.806 4                      1171.029 4        26.731    27732328.512 5                      1201.725 5        32.353
S23        22.000    38241854.965 6 200962365.71906      -863.471 6        37.074
R14        23.000    20012886.592 7 106679924.95907     -2331.213 7        47.192                                                                    20012889.286 6  82973221.75006     -1813.144 6        40.369
R06        24.000    22912690.079 5                       447.794 5        31.019
E03        26.000    25093600.548 6 131867950.33006     -1684.818 6        40.770                                                                    25093611.956 6  98472773.17606     -1258.134 6        41.449    25093617.368 6 101041608.06806     -1290.930 6        36.938
S21        27.000    38530020.171 5 202476716.29605      -858.111 5        34.205
R15        30.000    20113560.196 8 107481023.97608       989.485 8        52.332                                                                    20113562.501 7  83596176.01807       769.543 7        45.022
S36        31.000    38301154.225 5 201273950.23105      -858.534 5        35.233
C07        32.000                                                                                                                                                                                                    40630203.853 3                     -1381.520 3        22.590
C10        33.000                                                                                                                                    39572476.537 3                     -1578.922 3        23.238    39572475.766 5                     -1220.249 5        33.054    39572465.798 4                     -1282.473 4        26.695
R16        34.000    24080796.692 5 128635211.32605      2602.104 5        31.125                                                                    24080808.579 5 100049651.60505      2023.929 5        35.300
C44        35.000                                                                                                                                                                                                                                                                    25211251.549 5 106677067.59405      2130.897 5        32.635
R17        36.000    21871350.754 6 117038382.96906      3272.121 6        36.733                                                                    21871351.491 6  91029669.03006      2544.868 6        40.322
C45        37.000                                                                                                                                    23971620.662 7 124826647.54507     -3284.788 7        45.195                                                                    23971618.254 6 101431748.36906     -2669.213 6        41.418
R24        38.000    20187565.384 6 107952560.86806      -300.931 6        38.099                                                                    20187580.673 4                      -234.018 4        29.365
C33        39.000                                                                                                                                    25911194.835 5 134926436.10205     -1958.800 5        35.881                                                                    25911216.697 4                     -1591.956 4        26.000
C35        42.000                                                                                                                                    22628395.718 8 117832030.92808      1072.176 8        49.331                                                                    22628397.016 7  95748181.65507       871.158 7        47.784
R05        44.000    22084158.202 5 118052473.42005     -3681.201 5        30.030                                                                    22084145.467 5  91818547.77115     -2863.279 5        33.838
C29        46.000                                                                                                                                    23496507.582 6 122352461.37306     -2452.182 6        41.344                                                                    23496508.287 7  99421389.44907     -1992.734 7        43.790
C41        47.000                                                                                                                                    27095224.250 4 141092061.30104       350.702 4        26.156                                                                    27095236.271 5                       284.665 5        30.513
C26        48.000                                                                                                                                    21722709.166 8 113115868.49708      -657.384 8        48.088                                                                    21722711.056 7  91915919.63507      -534.204 7        45.710
C24        51.000                                                                                                                                    23745513.222 5                      1663.871 5        30.392                                                                    23745473.792 5 100474928.40305      1351.804 5        30.128
C14        53.000                                                                                                                                    25898468.231 5 134860113.74015     -3025.364 5        33.790    25898464.198 6 104282402.79306     -2339.248 6        36.730    25898471.953 5 109584903.14015     -2458.383 5        34.971
I06        58.000    38596271.308 6 151460068.00906      -742.406 6        37.777
I02        59.000    37167672.890 5 145853935.06305      -849.904 5        30.634
> 2025 01 02 13 15 10.0000000  0 40
G06         1.000    23007555.479 5 120905503.89705      -791.671 5        31.049                                    23007557.945 3  94212011.57703      -616.932 3        19.313    23007559.689 5  94212120.63305      -617.352 5        33.551
G25         3.000    20832044.842 6 109473341.61006      1144.258 6        41.876                                    20832045.216 5  85303837.67605       891.631 5        35.224    20832049.285 6  85303772.64706       891.736 6        40.496
G19         4.000    23489714.973 6 123439341.38306     -4092.251 6        36.321                                    23489709.261 1  96186430.93701     -3188.685 1         6.375
E25         6.000    23912903.995 6 125663212.59906       244.122 6        40.484                                                                    23912908.106 7  93839510.29707       182.330 7        43.719    23912908.317 7  96287393.02707       187.108 7        47.604
G11         7.000    23307822.853 6 122483470.34506      1381.281 6        39.048                                    23307823.727 2  95441667.50202      1076.312 2        16.566    23307824.568 6  95441647.52306      1076.353 6        38.219
G28         8.000    24887349.244 6 130783981.04106      2681.684 6        38.333                                                                                                    24887371.897 5                      2089.599 5        33.024
G29         9.000    23949752.726 3                      2777.790 3        22.267                                                                                                    23949764.084 5  98070302.11005      2165.815 5        30.204
E10        11.000    26626394.466 5 139922662.63405      1782.511 5        33.593                                                                                                                                    26626427.939 5                      1365.496 5        30.400
G24        12.000    21912214.417 6 115150154.39216     -3854.275 6        41.275                                    21912251.548 3  89727032.28413     -3003.320 3        19.940    21912238.943 6  89726925.26506     -3003.415 6        39.177
E33        14.000                                                                                                                                    27118735.155 4                     -1400.237 4        24.947
G12        15.000    20295337.350 8 106652694.95708     -1347.285 8        50.017                                    20295334.675 7  83106003.29307     -1049.836 7        45.901    20295336.189 7  83106021.30907     -1049.831 7        43.075
E24        16.000    24337604.078 7 127894938.04507     -2109.959 7        47.188                                                                    24337606.796 8  95506025.43508     -1575.634 8        48.917    24337605.941 8  97997512.91708     -1616.720 8        50.296
G32        17.000    22949732.929 8 120602090.87908      -497.805 8        48.326                                    22949739.453 5  93975305.28305      -387.901 5        34.852    22949739.113 5  93975425.22605      -387.764 5        33.401
E05        18.000    24822687.697 5                     -3788.937 5        30.664                                                                    24822696.429 6  97409589.48706     -2829.420 6        37.293    24822691.714 5  99950731.81005     -2902.983 5        30.128
E08        20.000    27162346.623 6 142738946.93306       892.701 6        38.604                                                                    27162332.156 7 106590882.20007       666.662 7        42.434    27162327.647 6 109371522.89006       684.092 6        39.078
E02        21.000    27730828.512 5                      1568.048 5        31.992                                                                    27730866.138 3                      1171.151 3        23.448    27730835.424 5                      1201.474 5        30.626
S23        22.000    38242682.743 6 200966684.20706      -863.683 6        37.588
R14        23.000    20015073.305 7 106691588.19107     -2333.720 7        46.451                                                                    20015078.301 6  82982293.16306     -1815.048 6        41.235
R06        24.000    22912265.574 4                       443.462 4        29.081
E03        26.000    25095205.043 6 131876381.76006     -1687.458 6        41.461                                                                    25095217.062 6  98479069.35106     -1260.176 6        41.731    25095222.480 6 101048068.57806     -1292.909 6        39.135
S21        27.000    38530832.495 5 202481009.16805      -858.232 5        32.323
R15        30.000    20112635.577 8 107476082.93808       987.369 8        52.621                                                                    20112638.187 7  83592332.98807       767.903 7        45.606
S36        31.000    38301973.225 5 201278244.54205      -859.201 5        34.995
C07        32.000                                                                                                                                                                                                    40631921.448 3                     -1381.973 3        19.910
C10        33.000                                                                                                                                    39573985.370 3                     -1587.271 3        19.881    39573994.427 5                     -1220.327 5        31.419    39573982.116 4                     -1281.565 4        26.778
R16        34.000    24078355.195 5 128622201.83705      2602.231 5        34.062                                                                    24078375.325 5 100039533.09905      2023.759 5        34.000
C44        35.000                                                                                                                                    25208776.898 4 131268494.40514      2620.857 4        25.684                                                                    25208734.402 5 106666415.43005      2130.392 5        32.545
R17        36.000    21868295.030 6 117022029.05306      3269.907 6        39.135                                                                    21868294.998 6  91016949.38006      2543.167 6        38.523
C45        37.000                                                                                                                                    23974775.843 7 124843075.58107     -3286.192 7        44.491                                                                    23974773.234 6 101445097.48706     -2670.181 6        41.840
R24        38.000    20187848.499 6                      -305.615 6        36.733                                                                    20187869.454 4                      -238.442 4        25.865
C33        39.000                                                                                                                                    25913074.640 5 134936238.21005     -1961.429 5        30.174                                                                    25913106.222 4                     -1593.820 4        26.659
C35        42.000                                                                                                                                    22627367.605 8 117826677.37408      1069.598 8        48.787                                                                    22627368.791 7  95743831.46407       869.127 7        47.785
C42        45.000                                                                                                                                    26462747.217 4                     -3688.364 4        25.955
C29        46.000                                                                                                                                    23498863.407 7 122364730.42207     -2455.060 7        42.387                                                                    23498864.234 7  99431359.02607     -1994.864 7        44.141
C41        47.000                                                                                                                                    27094883.740 4 141090314.44304       348.194 4        27.521                                                                    27094901.222 4                       282.747 4        28.265
C26        48.000                                                                                                                                    21723341.256 7 113119161.12707      -659.426 7        47.945                                                                    21723343.344 7  91918595.18707      -535.796 7        45.344
C24        51.000                                                                                                                                    23743912.059 5 123640819.64715      1662.410 5        30.951                                                                    23743878.153 5 100468171.89705      1351.127 5        30.075
C14        53.000                                                                                                                                    25901373.013 5 134875246.01705     -3027.009 5        33.341    25901369.578 6 104294103.84206     -2340.956 6        38.471    25901381.190 5 109597199.21405     -2459.781 5        35.586
I06        58.000    38597218.239 6 151463782.25406      -743.095 6        37.898
I02        59.000    37168755.483 5 145858183.98705      -849.589 5        31.585
> 2025 01 02 13 15 15.0000000  0 42
G06         1.000    23008307.615 5 120909471.51505      -794.994 5        33.677                                    23008313.887 3  94215103.23203      -619.492 3        19.403    23008315.839 5  94215212.24305      -619.387 5        32.892
G25         3.000    20830955.562 6 109467624.39606      1142.552 6        39.823                                    20830958.258 5  85299382.71405       890.294 5        34.548    20830960.668 6  85299317.67606       890.288 6        39.556
G19         4.000    23493608.741 5 123459805.01705     -4093.459 5        35.952                                    23493604.066 1  96202376.51601     -3189.711 1         5.857
E25         6.000    23912672.504 6 125661994.03406       243.268 6        39.796                                                                    23912676.742 7  93838600.34407       181.669 7        44.003    23912676.281 7  96286459.34707       186.354 7        47.699
G11         7.000    23306510.308 6 122476568.89806      1379.314 6        41.147                                    23306510.483 2  95436289.78302      1074.817 2        17.434    23306510.456 6  95436269.78106      1074.590 6        38.625
G28         8.000    24884797.873 6 130770573.81706      2681.221 6        39.901                                                                                                    24884821.892 5                      2089.448 5        31.947
G29         9.000    23947110.690 3                      2778.902 3        22.781                                                                                                    23947119.906 5  98059474.13405      2165.246 5        30.249
E10        11.000    26624699.484 5 139913754.16205      1781.294 5        32.281                                                                                                                                    26624730.784 4                      1364.925 4        29.223
G24        12.000                                                                                                                                                                    21915907.384 6  89741945.21706     -3004.691 6        40.384
E12        13.000    26361529.521 4                       851.989 4        28.237                                                                    26361540.700 4 103448236.76904       636.592 4        25.414
E33        14.000                                                                                                                                    27120518.093 4                     -1401.801 4        27.880    27120535.538 5                     -1438.530 5        32.311
G12        15.000    20296620.216 8 106659436.58408     -1349.336 8        50.665                                    20296618.013 7  83111256.52007     -1051.431 7        46.194    20296619.154 7  83111274.55307     -1051.539 7        43.714
E24        16.000    24339612.698 7 127905490.01607     -2110.814 7        47.537                                                                    24339614.917 8  95513905.15408     -1576.285 8        49.484    24339614.055 8  98005598.19208     -1617.389 8        50.705
G32        17.000    22950208.297 8 120604588.08308      -501.041 8        48.198                                    22950214.460 5  93977251.17505      -390.428 5        35.548    22950213.982 5  93977371.16505      -390.516 5        33.437
E05        18.000    24826296.336 5                     -3789.640 5        30.717                                                                    24826301.856 6  97423738.39106     -2830.227 6        36.722    24826297.761 5  99965249.83705     -2903.757 5        30.453
E08        20.000    27161497.566 6 142734487.96906       891.053 6        38.619                                                                    27161483.301 7 106587552.50907       665.223 7        42.457    27161479.646 6 109368106.33406       682.548 6        39.778
E02        21.000    27729338.930 4                      1568.103 4        29.052                                                                    27729376.766 3                      1171.224 3        19.164    27729342.005 4                      1201.233 4        25.789
S23        22.000    38243503.813 6 200971002.87806      -863.653 6        36.643
R14        23.000    20017263.084 7 106703261.96207     -2335.717 7        45.099                                                                    20017268.089 7  82991372.75007     -1816.615 7        42.174
R06        24.000    22911850.057 4                       440.209 4        25.368
E03        26.000    25096811.163 6 131884825.04206     -1689.848 6        40.641                                                                    25096823.529 7  98485374.39207     -1261.885 7        42.445    25096826.406 6 101054538.09606     -1294.858 6        38.105
S21        27.000    38531650.194 5 202485301.77705      -858.331 5        32.629
R15        30.000    20111712.022 8 107471150.20208       985.764 8        53.138                                                                    20111714.800 7  83588496.44707       766.683 7        44.262
S36        31.000    38302800.256 6 201282539.17306      -858.968 6        36.420
C07        32.000                                                                                                                                                                                                    40633642.312 3                     -1382.055 3        21.595
C10        33.000                                                                                                                                    39575506.585 4                     -1578.704 4        26.635    39575506.305 4                     -1219.761 4        28.682    39575496.386 4                     -1282.471 4        26.575
R16        34.000    24075917.863 5 128609191.60905      2602.050 5        35.976                                                                    24075939.511 5 100029414.00305      2024.052 5        33.180
C44        35.000                                                                                                                                                                                                                                                                    25206217.850 5 106655765.08705      2129.788 5        33.551
R17        36.000    21865240.482 6 117005684.34106      3268.120 6        40.429                                                                    21865240.823 6  91004236.85206      2541.782 6        38.117
C45        37.000                                                                                                                                    23977931.248 7 124859508.80207     -3287.096 7        44.453                                                                    23977929.046 7 101458450.81107     -2671.131 7        42.688
R24        38.000    20188139.330 5 107955617.66615      -309.466 5        30.694                                                                    20188155.231 4                      -241.462 4        26.946
C33        39.000                                                                                                                                    25914956.388 4 134946052.82904     -1963.821 4        24.677                                                                    25914988.592 4                     -1597.028 4        26.647
C35        42.000                                                                                                                                    22626341.344 7 117821335.49807      1067.291 7        47.940                                                                    22626342.980 7  95739490.76107       867.195 7        47.912
R05        44.000    22091023.931 4 118089318.42704     -3687.208 4        29.507                                                                    22091065.120 5  91847205.27305     -2868.178 5        31.691
C42        45.000                                                                                                                                    26466284.065 4                     -3688.694 4        24.767
C29        46.000                                                                                                                                    23501224.308 7 122377011.36707     -2457.385 7        45.645                                                                    23501222.552 7  99441338.33407     -1996.890 7        44.179
C41        47.000                                                                                                                                    27094551.925 5 141088580.07005       345.942 5        31.336                                                                    27094567.634 4                       281.449 4        26.132
C26        48.000                                                                                                                                    21723975.642 8 113122462.60408      -661.101 8        48.514                                                                    21723977.487 7  91921277.90707      -537.148 7        45.561
C24        51.000                                                                                                                                    23742323.273 5 123632508.07405      1662.409 5        30.181                                                                    23742282.961 5 100461418.16805      1350.635 5        33.126
C14        53.000                                                                                                                                                                                                    25904282.169 6 104305811.30806     -2342.163 6        40.155    25904291.131 5 109609501.98805     -2461.425 5        34.643
I06        58.000    38598164.181 6 151467496.32006      -742.831 6        37.977
I02        59.000    37169837.962 5 145862433.69705      -850.125 5        32.910
> 2025 01 02 13 15 20.0000000  0 41
G06         1.000    23009066.824 6 120913456.10106      -798.465 6        36.408                                    23009073.374 3  94218208.11703      -622.185 3        19.761    23009075.335 5  94218317.10205      -622.429 5        31.026
G25         3.000    20829869.997 6 109461916.10606      1140.968 6        38.462                                    20829872.741 5  85294934.69705       889.062 5        34.905    20829874.398 6  85294869.68206       889.084 6        39.183
G19         4.000    23497503.537 6 123480275.29606     -4094.656 6        36.938                                    23497500.106 1  96218327.51201     -3190.590 1         5.286
E25         6.000    23912440.715 6 125660780.56806       242.226 6        38.117                                                                    23912445.743 7  93837694.20907       180.907 7        44.852    23912445.164 7  96285529.54407       185.690 7        47.541
G11         7.000    23305199.477 7 122469678.77407      1377.018 7        42.009                                    23305199.260 3  95430920.86803      1073.016 3        18.567    23305198.993 6  95430900.86206      1073.125 6        37.304
G28         8.000    24882246.335 6 130757168.80506      2680.973 6        40.887                                                                                                    24882277.628 4                      2089.459 4        27.257
G29         9.000    23944467.876 4                      2777.720 4        29.772                                                                                                    23944477.167 5  98048649.83405      2164.754 5        30.634
E10        11.000    26623005.203 5 139904851.89305      1779.951 5        31.555                                                                    26623031.427 5                      1329.106 5        30.702    26623037.707 4                      1363.501 4        27.940
G24        12.000    21919577.003 7 115188715.15707     -3857.820 7        43.418                                    21919583.364 5  89757079.55905     -3006.092 5        34.567    21919576.565 6  89756972.55106     -3006.010 6        40.799
E12        13.000    26360713.705 4                       849.526 4        29.554                                                                    26360728.955 4 103445061.21604       634.435 4        24.752
E33        14.000                                                                                                                                    27122312.676 4                     -1403.865 4        29.829    27122321.643 5                     -1440.486 5        32.653
G12        15.000    20297905.143 8 106666189.15808     -1351.485 8        50.337                                    20297903.385 7  83116518.27407     -1053.105 7        46.811    20297904.044 7  83116536.29007     -1053.084 7        44.181
E24        16.000    24341621.785 7 127916046.54307     -2111.656 7        47.380                                                                    24341623.719 8  95521788.26108     -1576.845 8        49.339    24341622.934 8  98013686.95208     -1618.010 8        50.948
G32        17.000    22950685.811 8 120607101.60908      -504.202 8        48.209                                    22950692.445 5  93979209.75405      -392.883 5        34.848    22950692.067 5  93979329.68105      -392.615 5        32.042
E05        18.000    24829906.881 5                     -3790.783 5        31.260                                                                    24829908.044 6  97437890.49706     -2830.659 6        37.335    24829904.460 5  99979771.14305     -2904.148 5        32.192
E08        20.000                                                                                                                                    27160636.702 7 106584230.20107       663.889 7        42.089    27160633.223 6 109364697.35606       681.140 6        40.088
E02        21.000    27727851.972 4                      1567.635 4        26.216                                                                    27727877.726 3                      1169.762 3        22.686    27727847.674 3                      1199.413 3        20.310
S23        22.000    38244321.516 5 200975321.59005      -863.791 5        35.852
R14        23.000    20019455.286 6 106714946.35706     -2337.821 6        41.514                                                                    20019459.442 7  83000460.59007     -1818.187 7        43.090
R23        25.000    22851782.109 6 122241586.69816     -4369.966 6        37.221
E03        26.000    25098420.159 6 131893280.29506     -1692.060 6        40.226                                                                    25098433.717 7  98491688.37607     -1263.550 7        43.416    25098434.210 6 101061016.77306     -1296.490 6        37.429
S21        27.000    38532460.801 5 202489594.32405      -858.359 5        30.347
R15        30.000    20110789.772 8 107466226.12608       984.091 8        52.277                                                                    20110792.991 7  83584666.61807       765.429 7        42.516
S36        31.000    38303625.556 6 201286834.67106      -859.102 6        37.214
C07        32.000                                                                                                                                                                                                    40635363.381 3                     -1383.504 3        22.114
C10        33.000                                                                                                                                    39577023.788 4                     -1578.102 4        26.144    39577020.437 4                     -1220.264 4        29.261    39577011.533 4                     -1282.676 4        26.683
R16        34.000    24073480.680 5 128596180.64705      2602.415 5        32.317                                                                    24073506.551 5 100019294.41905      2024.123 5        32.257
C44        35.000                                                                                                                                    25203714.096 3                      2619.864 3        22.438                                                                    25203701.051 5 106645116.68805      2129.718 5        33.431
R17        36.000    21862186.409 6 116989349.12106      3266.285 6        40.117                                                                    21862187.712 5  90991531.71005      2540.400 5        35.424
C45        37.000                                                                                                                                    23981086.867 7 124875947.37407     -3288.028 7        43.433                                                                    23981086.659 7 101471808.46007     -2671.710 7        43.240
R24        38.000    20188435.186 5 107957180.96215      -314.544 5        32.281                                                                    20188449.567 4                      -244.959 4        25.880
C35        42.000                                                                                                                                    22625316.955 7 117816005.47307      1064.938 7        47.087                                                                    22625319.216 7  95735159.67207       865.474 7        47.521
R05        44.000    22094478.943 5 118107764.37305     -3690.487 5        30.891                                                                    22094519.483 5  91861552.06705     -2870.587 5        31.826
C42        45.000                                                                                                                                    26469832.624 4                     -3689.144 4        27.916
C29        46.000                                                                                                                                    23503584.679 7 122389304.46407     -2459.694 7        47.106                                                                    23503583.387 7  99451327.49707     -1998.656 7        43.981
C41        47.000                                                                                                                                    27094222.251 4 141086858.19704       342.756 4        26.132                                                                    27094239.484 4                       279.430 4        25.459
C26        48.000                                                                                                                                    21724611.485 8 113125773.10608      -662.933 8        48.632                                                                    21724613.306 7  91923967.95807      -538.650 7        45.464
C24        51.000                                                                                                                                    23740740.974 5 123624200.03405      1661.619 5        32.479                                                                    23740688.204 5 100454667.34205      1350.142 5        34.671
C14        53.000                                                                                                                                    25907175.460 4 134905535.17604     -3030.300 4        27.078    25907193.842 6 104317525.21506     -2343.458 6        40.105    25907204.857 5 109621811.56605     -2462.728 5        32.922
I06        58.000    38599110.798 6 151471210.41106      -742.713 6        37.728
I02        59.000    37170922.088 5 145866684.13105      -850.233 5        32.772
> 2025 01 02 13 15 25.0000000  0 43
G06         1.000    23009830.720 6 120917457.13506      -801.908 6        37.701                                    23009836.219 3  94221325.85503      -624.861 3        19.672    23009837.652 4  94221434.78504      -624.543 4        27.353
G25         3.000    20828785.010 6 109456216.24106      1138.967 6        39.508                                    20828788.546 5  85290493.26005       887.505 5        34.952    20828789.514 6  85290428.24206       887.645 6        38.703
G19         4.000    23501400.244 6 123500751.62306     -4095.777 6        37.648                                    23501396.606 1  96234283.09001     -3191.527 1         5.714
E25         6.000    23912210.296 6 125659571.55106       241.431 6        38.231                                                                    23912216.045 7  93836791.37207       180.268 7        45.020    23912214.771 7  96284603.16107       184.978 7        46.866
G11         7.000    23303889.602 7 122462799.33507      1374.902 7        42.027                                    23303889.924 3  95425560.27603      1071.355 3        19.672    23303889.959 6  95425540.26706      1071.382 6        36.212
G28         8.000    24879694.704 6 130743765.44306      2680.475 6        40.603                                                                                                    24879722.548 4                      2089.235 4        27.078
G29         9.000    23941827.866 5                      2777.055 5        32.695                                                                                                    23941834.842 4  98037828.75504      2164.058 4        28.028
E10        11.000    26621310.925 5 139895955.24005      1778.392 5        33.042                                                                    26621337.143 5                      1328.248 5        30.792    26621343.682 4                      1362.977 4        25.654
G24        12.000    21923245.325 7 115208009.03807     -3859.542 7        43.441                                    21923252.790 6  89772113.73406     -3007.438 6        36.450    21923247.762 6  89772006.74506     -3007.651 6        40.744
E12        13.000    26359905.696 5                       847.585 5        30.400                                                                    26359917.104 4 103441892.93704       631.813 4        24.316
E33        14.000                                                                                                                                    27124106.128 5                     -1405.522 5        30.189    27124108.043 5                     -1442.186 5        32.581
G12        15.000    20299191.653 8 106672952.00108     -1353.514 8        49.679                                    20299190.720 7  83121788.03007     -1054.686 7        47.340    20299191.394 7  83121806.04307     -1054.730 7        44.877
E24        16.000    24343631.440 7 127926606.97607     -2112.464 7        47.427                                                                    24343633.174 8  95529674.30308     -1577.464 8        49.118    24343632.369 8  98021778.71208     -1618.601 8        50.817
G32        17.000    22951167.167 7 120609630.81807      -507.397 7        47.794                                    22951173.538 5  93981180.56605      -395.374 5        34.700    22951174.279 5  93981300.53705      -395.389 5        31.479
E05        18.000    24833513.209 5                     -3791.332 5        32.245                                                                    24833515.593 6  97452045.33906     -2831.157 6        37.652    24833511.624 5  99994295.26605     -2905.152 5        32.605
E08        20.000                                                                                                                                    27159791.336 6 106580914.82406       662.430 6        41.518    27159787.758 6 109361295.48906       679.689 6        39.538
E02        21.000    27726358.723 3                      1566.362 3        19.254                                                                    27726381.499 4                      1170.376 4        25.143    27726355.659 3                      1201.052 3        21.119
S23        22.000    38245147.787 6 200979639.76306      -863.407 6        36.329
R14        23.000    20021649.970 6 106726640.69506     -2339.903 6        40.698                                                                    20021653.505 7  83009556.22807     -1819.892 7        43.994
R06        24.000    22911014.079 4                       431.874 4        24.316
R23        25.000    22855868.436 6 122263442.62606     -4372.665 6        36.594
E03        26.000    25100031.772 6 131901746.91106     -1694.495 6        41.063                                                                    25100044.407 7  98498010.84907     -1265.333 7        42.851    25100043.530 6 101067504.18106     -1298.292 6        36.359
S21        27.000    38533291.404 5 202493886.70805      -858.607 5        32.150
R15        30.000    20109868.994 8 107461309.95608       982.445 8        51.123                                                                    20109873.215 7  83580842.96307       764.136 7        42.605
S36        31.000    38304429.201 6 201291129.17106      -858.763 6        36.151
