     3.04           OBSERVATION DATA    M                   RINEX VERSION / TYPE
ssrcrin-15.6.1x                         20250102 113000 UTC PGM / RUN BY / DATE 
(00000000023479385599111004) Septentrio proprietary         COMMENT             
ract                                                        MARKER NAME         
01                                                          MARKER NUMBER       
geodetic                                                    MARKER TYPE         
NFB                 CLIMERS@TUW                             OBSERVER / AGENCY   
3296359             SEPT ASTERX SB3 PROB4.14.4              REC # / TYPE / VERS 
Unknown             Unknown                                 ANT # / TYPE        
  4127445.7620  1206914.4365  4695542.1863                  APPROX POSITION XYZ 
        0.0000        0.0000        0.0000                  ANTENNA: DELTA H/E/N
G   23 X1  C1C L1C D1C S1C C1W S1W C2W L2W D2W S2W C2L L2L  SYS / # / OBS TYPES 
       D2L S2L C5Q L5Q D5Q S5Q C1L L1L D1L S1L              SYS / # / OBS TYPES 
E   21 X1  C1C L1C D1C S1C C6C L6C D6C S6C C5Q L5Q D5Q S5Q  SYS / # / OBS TYPES 
       C7Q L7Q D7Q S7Q C8Q L8Q D8Q S8Q                      SYS / # / OBS TYPES 
S    9 X1  C1C L1C D1C S1C C5I L5I D5I S5I                  SYS / # / OBS TYPES 
R   17 X1  C1C L1C D1C S1C C2P L2P D2P S2P C2C L2C D2C S2C  SYS / # / OBS TYPES 
       C3Q L3Q D3Q S3Q                                      SYS / # / OBS TYPES 
C   25 X1  C1P L1P D1P S1P C5P L5P D5P S5P C2I L2I D2I S2I  SYS / # / OBS TYPES 
       C7I L7I D7I S7I C6I L6I D6I S6I C7D L7D D7D S7D      SYS / # / OBS TYPES 
J   17 X1  C1C L1C D1C S1C C2L L2L D2L S2L C5Q L5Q D5Q S5Q  SYS / # / OBS TYPES 
       C1L L1L D1L S1L                                      SYS / # / OBS TYPES 
I    5 X1  C5A L5A D5A S5A                                  SYS / # / OBS TYPES 
SEPTENTRIO RECEIVERS OUTPUT ALIGNED CARRIER PHASES.         COMMENT             
NO FURTHER PHASE SHIFT APPLIED IN THE RINEX ENCODER.        COMMENT             
G L1C                                                       SYS / PHASE SHIFT   
G L2W                                                       SYS / PHASE SHIFT   
G L2L  0.00000                                              SYS / PHASE SHIFT   
G L5Q  0.00000                                              SYS / PHASE SHIFT   
G L1L  0.00000                                              SYS / PHASE SHIFT   
E L1C  0.00000                                              SYS / PHASE SHIFT   
E L6C  0.00000                                              SYS / PHASE SHIFT   
E L5Q  0.00000                                              SYS / PHASE SHIFT   
E L7Q  0.00000                                              SYS / PHASE SHIFT   
E L8Q  0.00000                                              SYS / PHASE SHIFT   
S L1C                                                       SYS / PHASE SHIFT   
S L5I                                                       SYS / PHASE SHIFT   
R L1C                                                       SYS / PHASE SHIFT   
R L2P  0.00000                                              SYS / PHASE SHIFT   
R L2C                                                       SYS / PHASE SHIFT   
R L3Q  0.00000                                              SYS / PHASE SHIFT   
C L1P  0.00000                                              SYS / PHASE SHIFT   
C L5P  0.00000                                              SYS / PHASE SHIFT   
C L2I                                                       SYS / PHASE SHIFT   
C L7I                                                       SYS / PHASE SHIFT   
C L6I                                                       SYS / PHASE SHIFT   
C L7D                                                       SYS / PHASE SHIFT   
J L1C                                                       SYS / PHASE SHIFT   
J L2L  0.00000                                              SYS / PHASE SHIFT   
J L5Q  0.00000                                              SYS / PHASE SHIFT   
J L1L  0.00000                                              SYS / PHASE SHIFT   
I L5A                                                       SYS / PHASE SHIFT   
  2025     1     2    11    30    0.0000000     GPS         TIME OF FIRST OBS   
 C1C    0.000 C2C    0.000 C2P    0.000                     GLONASS COD/PHS/BIS 
DBHZ                                                        SIGNAL STRENGTH UNIT
    18                                                      LEAP SECONDS        
 24 R01  1 R02 -4 R03  5 R04  6 R05  1 R06 -4 R07  5 R08  6 GLONASS SLOT / FRQ #
    R09 -2 R10 -7 R11  0 R12 -1 R13 -2 R14 -7 R15  0 R16 -1 GLONASS SLOT / FRQ #
    R17  4 R18 -3 R19  3 R20  2 R21  4 R22 -3 R23  3 R24  2 GLONASS SLOT / FRQ #
                                                            END OF HEADER       
> 2025 01 02 11 30  0.0000000  0 38
G13         1.000    24006472.662 4                     -4755.984 4        26.096
G17         2.000    22845623.250 5 120054524.94105     -3124.420 5        35.648                                    22845614.743 2  93549020.96202     -2434.655 2        13.879    22845610.831 4                     -2434.706 4        29.573
G25         3.000    24179110.488 3                      2690.121 3        21.452
E25         6.000    25850403.222 5 135844717.45905      1463.878 5        34.343                                                                    25850427.752 5 101442561.95205      1092.896 5        30.128    25850383.490 4 104088923.27404      1121.974 4        27.940
G10         7.000    24423350.631 5 128346070.02705     -1729.137 5        30.287
G15         9.000    22545757.880 6 118478790.02306     -4390.178 6        39.342                                    22545767.747 4  92321151.94504     -3420.912 4        26.228    22545769.389 6  92321165.93706     -3420.798 6        36.847
G23        10.000    24603845.326 4                     -3562.559 4        28.493
G24        12.000    20005693.915 8 105131239.70508      -637.766 8        50.473                                    20005695.721 8  81920012.80008      -496.960 8        48.264    20005696.292 7  81919986.79307      -496.936 7        43.886
E31        13.000    25005275.566 6 131403671.95306     -2931.464 6        40.672                                                                    25005281.789 7  98126073.78607     -2189.205 7        44.169    25005280.467 7 100685869.64507     -2246.251 7        46.356
G12        15.000    21279357.763 7 111823831.71007      1458.331 7        44.504                                    21279465.317 1  87135816.85001      1136.411 1         8.095    21279361.549 5  87135438.77005      1135.961 5        32.593
E24        16.000    23526070.790 7 123630309.11207      -603.403 7        42.952                                                                    23526072.706 8  92321403.07608      -450.618 8        49.722    23526071.179 8  94729813.12108      -462.346 8        48.161
G32        17.000    25336635.771 5                      2482.013 5        33.970                                                                                                    25336657.099 4 103749382.11904      1933.787 4        29.649
E05        18.000    22302348.273 8 117199635.51008     -1587.057 8        50.075                                                                    22302352.939 8  87519203.30608     -1185.180 8        51.070    22302351.837 8  89802316.14508     -1216.120 8        51.495
E09        21.000    26161927.487 6 137481831.89706     -3835.862 6        40.875                                                                    26161935.630 6 102665021.52406     -2864.437 6        41.318    26161935.268 7 105343206.00407     -2939.195 7        44.048
R14        23.000    19720338.936 7 105120423.07807       288.392 7        44.938                                                                    19720340.794 6  81760395.28106       224.376 6        41.974
S23        24.000    38106165.009 5 200249262.53405      -860.398 5        35.486
R23        25.000    21484212.848 6 114926183.62706       873.954 6        41.805
E03        26.000    25761645.646 7 135378500.22007      1133.823 7        44.498                                                                    25761650.401 6 101094290.06006       846.588 6        41.440    25761651.292 8 103731544.05908       868.736 8        48.156
R13        27.000    20725658.130 6 110673836.57306     -3282.526 6        39.670
R04        29.000    20175177.066 8 108037159.66908     -2228.719 8        51.323                                                                    20175173.422 6  84028882.87406     -1733.516 6        41.385
S36        31.000    38170568.751 5 200587766.82905      -857.227 5        34.957
C07        32.000                                                                                                                                    39409189.579 4                     -1643.448 4        28.199    39409199.726 4 158684525.59204     -1271.083 4        29.460
C10        33.000                                                                                                                                    38673949.662 6 201385389.88706     -1319.991 6        40.415    38673951.049 6 155723976.57606     -1020.831 6        41.068    38673949.579 6 163642116.89406     -1072.802 6        38.535
C36        34.000                                                                                                                                    24824930.412 4                     -3474.957 4        24.150                                                                    24824888.143 5                     -2821.977 5        31.321
R03        36.000    22157287.216 6 118609908.70706     -5143.237 6        41.468
C45        37.000                                                                                                                                    21803324.812 8 113535619.92808     -1708.567 8        50.392                                                                    21803318.673 7  92257006.73007     -1388.549 7        44.050
C33        39.000                                                                                                                                    26506806.367 6 138028070.45306      1358.286 6        36.779                                                                    26506832.159 4                      1103.273 4        29.185
C40        40.000                                                                                                                                    39704295.867 5                     -1917.627 5        31.517                                                                    39704297.930 5                     -1558.425 5        30.543
R22        41.000                                                                                                                                    22581383.644 4                     -1941.436 4        24.556
C30        43.000                                                                                                                                    24724458.634 5 128746754.26705     -2044.506 5        33.204                                                                    24724455.652 5 104617269.25305     -1661.614 5        30.989
R05        44.000    21712766.812 7 116067197.14807      1653.141 7        42.343                                                                    21712776.425 6  90274513.25606      1285.785 6        40.260
C42        45.000                                                                                                                                    24036693.396 6 125165355.16706     -1289.759 6        40.808                                                                    24036705.483 7 101707218.87607     -1048.254 7        46.348
C29        46.000                                                                                                                                    23504424.341 7 122393775.95007       954.707 7        44.376                                                                    23504417.831 5  99454941.21205       775.727 5        33.551
C26        48.000                                                                                                                                    22982101.684 7 119673842.99207      1087.892 7        43.850                                                                    22982102.850 6  97244827.48206       883.718 6        41.442
C14        53.000                                                                                                                                    24937251.693 7 129854862.34607       191.270 7        44.573    24937252.705 7 100412012.32007       147.902 7        46.380    24937246.972 6 105517702.07506       155.387 6        39.318
C21        55.000                                                                                                                                    24641491.354 5 128314681.13005     -3705.487 5        32.647                                                                    24641498.772 6 104266261.80006     -3011.125 6        40.915
I06        58.000    38291762.456 6 150265109.94706      -750.859 6        38.312
I02        59.000    36856189.831 6 144631580.79806      -642.817 6        37.380
> 2025 01 02 11 30  5.0000000  0 40
G13         1.000    24010998.208 4                     -4757.213 4        26.623
G17         2.000    22848600.331 5 120070153.27305     -3126.995 5        34.743                                    22848587.930 2  93561198.81602     -2436.596 2        13.394    22848588.717 5                     -2436.513 5        30.158
G25         3.000    24176548.749 3                      2687.380 3        21.810
G19         4.000    21169370.066 6 111245929.48316      -810.306 6        36.272
E25         6.000                                                                                                                                    25849039.818 4 101437098.22204      1092.347 4        28.417    25848991.731 4 104083317.02904      1120.958 4        28.142
G10         7.000    24425001.869 5 128354723.19605     -1732.208 5        31.540                                                                                                    24424997.146 4                     -1350.616 4        24.992
G15         9.000    22549941.341 6 118500744.52206     -4391.694 6        39.937                                    22549946.362 4  92338259.31604     -3422.094 4        29.242    22549946.814 6  92338273.30806     -3422.093 6        37.830
G23        10.000    24607238.693 5                     -3563.884 5        31.230                                                                                                    24607247.805 3                     -2775.308 3        23.371
G24        12.000    20006302.007 8 105134435.55808      -640.660 8        49.746                                    20006303.987 7  81922503.07007      -499.215 7        47.682    20006303.590 7  81922477.06407      -499.283 7        43.776
E31        13.000    25008065.853 6 131418332.27406     -2932.421 6        41.292                                                                    25008071.371 7  98137021.40407     -2189.823 7        43.958    25008070.436 7 100697102.86207     -2246.939 7        46.675
G12        15.000    21277971.952 7 111816545.01507      1456.188 7        45.115                                    21278078.833 1  87130138.69201      1134.686 1         4.857    21277975.226 5  87129760.82705      1134.594 5        32.072
E24        16.000    23526645.385 7 123633330.31807      -605.159 7        43.086                                                                    23526647.579 8  92323659.17308      -451.869 8        49.510    23526646.062 8  94732128.07308      -463.675 8        48.269
G32        17.000    25334275.209 5 133132502.25615      2480.935 5        35.252                                                                                                    25334293.344 4 103739714.35704      1933.325 4        28.559
E05        18.000    22303859.432 8 117207576.76708     -1589.477 8        50.062                                                                    22303864.144 8  87525133.46208     -1187.017 8        50.996    22303862.969 8  89808400.99708     -1217.959 8        51.498
E09        21.000    26165577.600 6 137501013.49306     -3836.805 6        40.832                                                                    26165585.913 7 102679345.39207     -2865.108 7        42.023    26165585.509 7 105357903.56007     -2939.933 7        43.869
R14        23.000    19720070.034 7 105118986.18807       286.216 7        45.941                                                                    19720070.783 7  81759277.69907       222.585 7        42.565
S23        24.000    38106982.717 5 200253565.93105      -860.769 5        35.614
R23        25.000    21483396.476 6 114921824.80506       869.630 6        41.704
E03        26.000    25760567.308 7 135372835.64507      1131.968 7        44.942                                                                    25760572.568 6 101090060.02306       845.261 6        41.359    25760573.356 8 103727203.67208       867.350 8        48.438
R13        27.000    20728733.381 6 110690252.19206     -3283.937 6        41.275
R04        29.000    20177261.008 8 108048314.80008     -2233.314 8        50.473                                                                    20177256.967 6  84037559.08506     -1737.081 6        41.282
R15        30.000    23103742.038 6 123459429.25116      2339.819 6        36.144
S36        31.000    38171379.381 5 200592053.34605      -857.428 5        34.681
C07        32.000                                                                                                                                    39410768.674 4                     -1643.230 4        27.772    39410780.476 4 158690878.52204     -1270.506 4        28.521
C10        33.000                                                                                                                                    38675217.334 6 201391991.49006     -1320.619 6        40.467    38675218.954 6 155729081.35306     -1021.250 6        40.861    38675217.326 6 163647481.23206     -1073.008 6        38.216
C36        34.000                                                                                                                                                                                                                                                                    24828222.681 5                     -2822.360 5        31.366
R03        36.000    22162094.501 6 118635628.84306     -5144.930 6        41.900
C45        37.000                                                                                                                                    21804966.088 8 113544166.79608     -1710.202 8        50.711                                                                    21804959.691 7  92263951.76307     -1389.690 7        44.292
C33        39.000                                                                                                                                    26505502.590 6 138021285.30706      1355.934 6        36.087                                                                    26505529.992 4                      1101.915 4        26.467
C40        40.000                                                                                                                                    39706136.427 5                     -1917.991 5        32.006                                                                    39706138.445 5                     -1558.582 5        30.951
R22        41.000                                                                                                                                    22583723.402 4                     -1943.285 4        28.152
C30        43.000                                                                                                                                    24726423.724 5 128756982.65805     -2046.924 5        35.029                                                                    24726418.252 4 104625580.63904     -1663.750 4        28.607
R05        44.000    21711222.904 6 116058940.86106      1649.237 6        41.135                                                                    21711230.798 6  90268091.70206      1282.859 6        40.698
C42        45.000                                                                                                                                    24037935.053 6 125171811.63806     -1292.836 6        41.161                                                                    24037945.337 7 101712465.29307     -1050.549 7        46.077
C29        46.000                                                                                                                                    23503508.760 7 122389008.29407       952.278 7        44.652                                                                    23503501.234 5  99451067.16505       773.742 5        32.904
C26        48.000                                                                                                                                    22981056.535 7 119668406.41307      1086.665 7        43.500                                                                    22981058.790 6  97240409.82806       882.958 6        40.994
C14        53.000                                                                                                                                    24937069.867 7 129853912.89707       188.387 7        44.698    24937070.995 7 100411278.15707       145.651 7        46.406    24937065.117 6 105516930.60406       153.071 6        39.375
C21        55.000                                                                                                                                    24645047.823 4 128333212.15604     -3706.273 4        26.838                                                                    24645057.590 6 104281319.85606     -3012.208 6        40.060
I06        58.000    38292719.209 6 150268865.07606      -751.194 6        38.177
I02        59.000    36857009.527 6 144634795.88806      -643.356 6        37.497
> 2025 01 02 11 30 10.0000000  0 39
G13         1.000    24015526.562 4                     -4757.196 4        25.910
G17         2.000    22851580.337 5 120085793.42005     -3129.233 5        33.766                                    22851563.897 2  93573385.91302     -2438.354 2        14.381    22851562.672 5                     -2438.429 5        30.513
G19         4.000    21170150.708 6 111249988.56406      -813.566 6        36.287
E25         6.000    25847602.961 5 135830088.83105      1462.101 5        32.419                                                                    25847647.793 4 101431638.01604      1091.530 4        27.772    25847600.829 4 104077714.44504      1119.643 4        27.126
G10         7.000    24426651.993 6 128363390.96306     -1735.037 6        36.076                                                                                                    24426656.471 4                     -1351.878 4        26.683
G15         9.000    22554124.095 6 118522706.32806     -4393.156 6        40.605                                    22554126.265 5  92355372.37405     -3423.233 5        31.411    22554126.592 6  92355386.37006     -3423.398 6        38.207
G23        10.000    24610633.156 5                     -3565.060 5        32.760                                                                                                    24610641.230 4                     -2777.947 4        26.251
G24        12.000    20006912.990 8 105137645.32608      -643.488 8        49.346                                    20006914.734 7  81925004.18507      -501.423 7        47.407    20006914.003 7  81924978.18607      -501.439 7        42.908
E31        13.000    25010856.367 6 131432996.50006     -2933.407 6        41.990                                                                    25010861.878 7  98147971.94107     -2190.438 7        43.807    25010861.117 7 100708339.06407     -2247.604 7        46.795
G12        15.000    21276587.505 7 111809268.72307      1454.061 7        45.523                                    21276694.038 1  87124468.52601      1133.067 1         7.500    21276586.437 4  87124091.01704      1132.838 4        29.554
E24        16.000    23527221.199 7 123636359.48507      -606.787 7        43.354                                                                    23527224.014 8  92325921.21708      -453.096 8        49.440    23527222.488 8  94734449.12208      -464.894 8        48.342
G32        17.000    25331915.928 6 133120100.96306      2479.603 6        36.318                                                                                                    25331936.316 4 103730050.96304      1931.333 4        27.485
E05        18.000    22305372.948 8 117215529.94508     -1591.964 8        49.980                                                                    22305377.596 8  87531072.51508     -1188.794 8        50.982    22305376.327 8  89814494.98608     -1219.796 8        51.278
E09        21.000    26169228.505 6 137520200.08506     -3838.000 6        40.884                                                                    26169237.072 7 102693672.98107     -2865.939 7        42.936    26169236.565 7 105372604.91007     -2940.733 7        43.350
R14        23.000    19719802.510 7 105117559.64107       284.115 7        45.294                                                                    19719803.808 7  81758168.15007       221.122 7        42.790
S23        24.000    38107798.725 5 200257869.67505      -860.937 5        35.348
R23        25.000    21482584.415 6 114917487.13606       865.226 6        40.374
E03        26.000    25759490.598 7 135367179.62707      1130.242 7        45.093                                                                    25759496.322 6 101085836.37606       844.100 6        41.664    25759496.875 8 103722869.85408       866.061 8        48.379
R13        27.000    20731808.674 6 110706674.57206     -3285.252 6        41.902
R04        29.000    20179344.349 8 108059492.69708     -2238.018 8        48.967                                                                    20179344.299 6  84046253.01106     -1740.688 6        41.878
R15        30.000    23101555.066 5 123447730.92205      2339.375 5        35.805                                                                    23101562.115 4                      1819.459 4        28.872
S36        31.000    38172196.006 5 200596340.15105      -857.269 5        34.700
C07        32.000                                                                                                                                    39412343.986 4                     -1644.103 4        27.868    39412358.044 4 158697232.96004     -1271.078 4        28.370
C10        33.000                                                                                                                                    38676485.623 6 201398595.40406     -1321.144 6        40.632    38676487.367 6 155734187.89906     -1021.573 6        40.844    38676485.545 6 163652847.45206     -1073.446 6        38.048
C36        34.000                                                                                                                                                                                                                                                                    24831557.855 5                     -2822.860 5        30.996
R03        36.000    22166900.996 6 118661356.80206     -5146.432 6        41.707                                                                    22166894.681 4                     -4002.293 4        24.406
C45        37.000                                                                                                                                    21806609.378 8 113552721.08108     -1711.730 8        51.130                                                                    21806602.309 7  92270902.83507     -1391.021 7        44.391
C33        39.000                                                                                                                                    26504202.451 6 138014510.83406      1353.865 6        36.314                                                                    26504228.092 3                      1099.741 3        23.981
C40        40.000                                                                                                                                    39707978.749 5                     -1918.398 5        31.464                                                                    39707979.663 5                     -1558.935 5        30.513
R22        41.000                                                                                                                                    22586070.646 5                     -1946.837 5        30.528
C30        43.000                                                                                                                                    24728393.339 6 128767224.65606     -2049.954 6        36.537                                                                    24728380.486 4 104633903.06604     -1665.725 4        27.413
R05        44.000    21709682.639 6 116050703.58906      1645.428 6        40.167                                                                    21709689.866 6  90261684.97906      1279.769 6        41.828
C42        45.000                                                                                                                                    24039178.964 6 125178282.82006     -1295.776 6        41.128                                                                    24039187.927 7 101717723.66507     -1053.073 7        45.685
C29        46.000                                                                                                                                    23502595.635 7 122384252.42707       949.854 7        44.715                                                                    23502587.864 5  99447202.66305       771.584 5        32.671
C26        48.000                                                                                                                                    22980013.416 7 119662975.28107      1085.627 7        42.995                                                                    22980015.730 6  97235996.60106       881.944 6        40.505
C14        53.000                                                                                                                                    24936889.243 7 129852977.59807       185.481 7        44.411    24936890.751 7 100410554.92107       143.459 7        46.440    24936885.486 6 105516170.62306       150.524 6        39.267
C21        55.000                                                                                                                                                                                                                                                                    24648617.305 6 104296383.66206     -3013.641 6        38.589
I06        58.000    38293676.159 6 150272620.53306      -751.294 6        38.162
I02        59.000    36857828.955 6 144638012.21206      -643.434 6        37.459
> 2025 01 02 11 30 15.0000000  0 40
G13         1.000    24020054.268 4                     -4758.555 4        26.826
G17         2.000    22854563.346 5 120101445.88705     -3131.742 5        30.506                                    22854542.293 2  93585582.69402     -2440.313 2        14.810    22854539.834 5                     -2440.451 5        30.921
G25         3.000    24171429.162 4                      2687.442 4        26.240
G19         4.000    21170927.063 5 111254065.48605      -817.344 5        31.841
E25         6.000    25846214.386 5 135822782.28705      1460.468 5        31.079                                                                                                                                    25846210.704 4 104072115.89504      1119.995 4        27.198
G10         7.000    24428308.581 6 128372074.01206     -1738.291 6        39.300                                                                                                    24428306.737 4                     -1354.323 4        28.370
G15         9.000    22558304.902 7 118544676.00107     -4394.815 7        42.163                                    22558307.563 5  92372491.57405     -3424.522 5        32.563    22558307.216 6  92372505.56506     -3424.723 6        38.808
G23        10.000    24614028.758 5                     -3566.585 5        33.437                                                                                                    24614035.249 4                     -2778.895 4        28.408
G24        12.000    20007526.846 8 105140869.60808      -646.448 8        49.717                                    20007528.026 7  81927516.61207      -503.725 7        46.949    20007528.010 6  81927490.61706      -503.789 6        41.499
E31        13.000    25013647.930 7 131447665.17507     -2934.306 7        43.191                                                                    25013653.157 7  98158925.82407     -2191.231 7        43.881    25013652.608 7 100719578.69907     -2248.440 7        47.016
G12        15.000    21275204.462 7 111802003.42607      1451.759 7        46.210                                    21275311.421 1  87118807.20101      1131.307 1         9.524    21275204.205 4  87118429.79704      1130.905 4        28.303
E24        16.000    23527799.362 7 123639397.17407      -608.493 7        43.740                                                                    23527802.057 8  92328189.63708      -454.475 8        49.374    23527800.584 8  94736776.71208      -466.331 8        48.329
G32        17.000    25329556.202 6 133107705.77906      2478.085 6        36.219                                                                                                    25329579.796 4 103720392.40504      1930.863 4        27.784
E05        18.000    22306888.915 8 117223495.62308     -1594.571 8        50.211                                                                    22306893.500 8  87537020.90708     -1190.770 8        51.006    22306892.054 8  89820598.55008     -1221.797 8        51.126
E09        21.000    26172881.017 6 137539392.17706     -3839.049 6        41.318                                                                    26172889.417 7 102708004.70407     -2866.909 7        43.685    26172888.780 7 105387310.50307     -2941.574 7        42.851
R14        23.000    19719536.119 7 105116144.06207       281.798 7        46.053                                                                    19719538.201 7  81757067.15507       219.167 7        43.879
S23        24.000    38108618.409 5 200262174.42505      -861.265 5        35.752
R23        25.000    21481776.651 6 114913171.09206       860.964 6        39.192
E03        26.000    25758415.922 7 135361532.77607      1128.301 7        45.759                                                                    25758421.644 6 101081619.57906       842.615 6        41.743    25758422.135 8 103718543.05408       864.603 8        48.306
R13        27.000    20734885.297 7 110723104.47107     -3286.960 7        42.042
R04        29.000    20181433.196 8 108070694.01908     -2242.759 8        48.166                                                                    20181436.404 7  84054965.18907     -1744.398 7        43.126
R15        30.000    23099367.483 5 123436036.76815      2338.192 5        35.357                                                                    23099373.555 4                      1818.810 4        25.669
S36        31.000    38173009.287 5 200600628.04905      -858.020 5        35.138
C07        32.000                                                                                                                                    39413920.712 4                     -1644.003 4        27.772    39413933.124 4 158703589.26704     -1271.733 4        27.665
C10        33.000                                                                                                                                    38677754.812 6 201405202.17406     -1321.637 6        40.787    38677756.180 6 155739296.67606     -1022.016 6        40.989    38677754.231 6 163658215.99006     -1074.154 6        38.195
C36        34.000                                                                                                                                    24834883.193 4                     -3474.704 4        28.161                                                                    24834893.336 5                     -2823.388 5        30.717
R03        36.000    22171709.127 6                     -5148.240 6        41.402                                                                    22171707.077 4                     -4004.053 4        28.863
C45        37.000                                                                                                                                    21808253.967 8 113561283.37708     -1713.418 8        51.280                                                                    21808246.577 7  92277860.37607     -1392.244 7        44.737
C33        39.000                                                                                                                                    26502903.947 6 138007747.65806      1351.252 6        37.161                                                                    26502928.907 3                      1103.841 3        20.976
C40        40.000                                                                                                                                    39709820.552 5                     -1918.965 5        31.947                                                                    39709822.548 5                     -1559.027 5        30.634
R22        41.000                                                                                                                                    22588416.053 5                     -1950.118 5        30.015
C30        43.000                                                                                                                                    24730366.293 5 128777480.77905     -2052.842 5        35.733                                                                    24730347.733 4 104642236.92804     -1667.773 4        26.647
R05        44.000    21708146.625 7 116042485.89307      1641.367 7        42.311                                                                    21708153.184 7  90255293.43507      1276.658 7        43.537
C42        45.000                                                                                                                                    24040424.688 6 125184769.29206     -1298.816 6        40.758                                                                    24040433.423 7 101722994.42607     -1055.524 7        45.395
C29        46.000                                                                                                                                    23501684.498 7 122379508.93407       947.362 7        44.346                                                                    23501677.674 5  99443348.20005       769.839 5        33.748
C26        48.000                                                                                                                                    22978971.811 7 119657550.18507      1084.298 7        43.263                                                                    22978973.950 6  97231588.26006       880.937 6        40.329
C14        53.000                                                                                                                                    24936712.061 7 129852057.02107       182.455 7        44.069    24936713.789 7 100409843.07207       141.084 7        46.114    24936708.028 6 105515422.56506       148.286 6        39.102
C21        55.000                                                                                                                                                                                                                                                                    24652179.159 6 104311453.65506     -3014.710 6        36.809
I06        58.000    38294633.381 6 150276376.67506      -751.518 6        38.282
I02        59.000    36858649.534 6 144641230.26606      -643.880 6        37.735
> 2025 01 02 11 30 20.0000000  0 40
G13         1.000    24024583.632 4                     -4758.489 4        27.257
G17         2.000    22857545.755 4 120117110.29304     -3133.866 4        28.209                                    22857523.081 2  93597788.75902     -2441.961 2        15.619    22857524.163 5                     -2442.042 5        32.689
G25         3.000    24168877.122 4                      2686.819 4        28.152
G19         4.000    21171704.396 4 111258159.86304      -821.171 4        27.126
E25         6.000    25844826.330 5 135815480.59105      1460.228 5        30.355                                                                    25844849.032 4 101420729.00204      1091.230 4        27.988    25844819.754 4 104066521.16104      1118.895 4        25.549
G10         7.000    24429967.152 6 128380771.88206     -1740.701 6        38.886                                    24429979.106 2                     -1356.467 2        13.030    24429959.811 4                     -1356.399 4        28.227
G15         9.000    22562487.772 7 118566653.07807     -4395.866 7        43.674                                    22562490.167 5  92389616.53405     -3425.340 5        33.335    22562489.045 6  92389630.52006     -3425.490 6        38.985
G23        10.000    24617420.162 5                     -3567.607 5        31.917                                                                                                    24617435.212 4                     -2779.933 4        29.659
G24        12.000    20008143.237 8 105144107.91708      -648.752 8        50.247                                    20008143.782 7  81930039.97307      -505.520 7        46.582    20008144.461 6  81930013.98006      -505.406 6        40.455
E31        13.000    25016439.726 7 131462337.84807     -2934.686 7        43.543                                                                    25016445.291 7  98169882.68907     -2191.495 7        43.882    25016444.832 7 100730821.38607     -2248.660 7        47.064
G12        15.000    21273824.435 7 111794748.64507      1450.205 7        46.638                                    21273931.027 1  87113153.91101      1130.003 1         8.571    21273826.324 4  87112776.69304      1130.284 4        26.970
E24        16.000    23528378.958 7 123642442.92907      -609.642 7        43.446                                                                    23528381.648 8  92330464.06208      -455.238 8        49.313    23528380.193 8  94739110.47008      -467.118 8        48.395
G32        17.000    25327198.290 6 133095316.23406      2477.591 6        36.673                                                                                                    25327216.446 4 103710738.13804      1930.111 4        27.329
E05        18.000    22308407.184 8 117231473.33808     -1596.459 8        50.020                                                                    22308411.613 8  87542978.28608     -1192.137 8        51.145    22308410.135 8  89826711.34408     -1223.199 8        50.819
E09        21.000    26176534.113 6 137558589.34906     -3839.673 6        40.994                                                                    26176542.640 7 102722340.19807     -2867.311 7        44.253    26176541.698 7 105402019.96907     -2942.053 7        42.459
R14        23.000    19719273.462 7 105114738.93707       280.236 7        45.127                                                                    19719274.734 7  81755974.27607       218.044 7        44.606
S23        24.000    38109437.472 5 200266479.64105      -860.794 5        35.752
R23        25.000    21480974.815 6 114908876.19206       857.145 6        38.114
E03        26.000    25757342.998 7 135355894.62107      1126.998 7        45.576                                                                    25757348.873 6 101077409.28306       841.573 6        41.917    25757349.023 8 103714222.92308       863.599 8        48.246
R13        27.000    20737963.623 7 110739541.18107     -3287.795 7        42.231
R04        29.000    20183530.187 8 108081918.28908     -2246.845 8        48.573                                                                    20183533.376 7  84063695.18207     -1747.555 7        44.050
R15        30.000    23097178.447 5 123424346.29505      2338.168 5        33.216
S36        31.000    38173828.144 5 200604916.42205      -857.607 5        34.619
C07        32.000                                                                                                                                    39415501.430 4                     -1644.941 4        28.578    39415512.658 4 158709947.10704     -1271.548 4        28.133
C10        33.000                                                                                                                                    38679023.944 6 201411811.35106     -1321.906 6        40.887    38679025.262 6 155744407.29906     -1022.127 6        41.004    38679023.372 6 163663586.48906     -1074.044 6        38.204
C36        34.000                                                                                                                                                                                                                                                                    24838229.247 5                     -2823.877 5        30.377
R03        36.000    22176516.531 6 118712837.60716     -5149.420 6        40.327                                                                    22176518.248 5                     -4005.364 5        31.336
C45        37.000                                                                                                                                    21809899.444 8 113569853.21208     -1714.391 8        51.031                                                                    21809892.431 7  92284824.08707     -1393.201 7        44.954
C33        39.000                                                                                                                                    26501607.703 6 138000995.25606      1349.650 6        38.006                                                                    26501633.026 3                      1100.957 3        20.667
C40        40.000                                                                                                                                    39711664.055 5                     -1919.195 5        31.608                                                                    39711664.320 5                     -1559.614 5        30.830
R22        41.000    22590754.237 4 120591133.74514     -2511.139 4        29.137                                                                    22590761.924 4                     -1953.311 4        26.659
C30        43.000                                                                                                                                    24732341.314 5 128787750.63205     -2055.091 5        34.181                                                                    24732316.217 4                     -1669.516 4        24.782
R05        44.000    21706613.704 7 116034287.33707      1638.111 7        44.441                                                                    21706619.673 7  90248916.77407      1274.120 7        43.784
C42        45.000                                                                                                                                    24041673.299 6 125191270.57906     -1301.428 6        40.610                                                                    24041681.696 7 101728277.27007     -1057.620 7        44.801
C29        46.000                                                                                                                                    23500775.889 7 122374777.36307       945.403 7        43.412                                                                    23500770.141 5  99439503.46605       768.422 5        33.449
C26        48.000                                                                                                                                    22977933.590 7 119652130.64307      1083.619 7        43.609                                                                    22977933.049 6  97227184.47906       880.539 6        39.907
C14        53.000                                                                                                                                    24936538.554 7 129851150.70207       180.131 7        43.716    24936539.480 7 100409142.25007       139.249 7        45.699    24936533.318 6 105514686.14506       146.320 6        38.709
C21        55.000                                                                                                                                    24655748.684 5                     -3710.956 5        34.205                                                                    24655744.032 5 104326529.54405     -3015.690 5        35.505
I06        58.000    38295590.549 6 150280133.21706      -751.127 6        38.249
I02        59.000    36859469.992 6 144644449.64206      -643.792 6        37.837
> 2025 01 02 11 30 25.0000000  0 39
G13         1.000    24029111.123 4                     -4758.532 4        28.076
G17         2.000    22860527.709 4 120132785.97704     -3134.982 4        27.868                                    22860506.221 2  93610003.71002     -2442.865 2        13.030    22860507.178 5                     -2443.616 5        32.599
G25         3.000    24166328.038 4                      2686.437 4        27.437
E25         6.000    25843439.586 5 135808183.27405      1459.622 5        30.581                                                                    25843463.309 4 101415279.79904      1089.652 4        27.820
G10         7.000    24431619.277 6 128389484.06806     -1743.314 6        38.805                                    24431637.957 1 100043469.19111     -1358.430 1        11.778    24431616.824 4                     -1358.609 4        27.605
G15         9.000    22566671.564 7 118588637.01207     -4397.133 7        44.916                                    22566673.857 5  92406746.83705     -3426.335 5        33.551    22566672.895 6  92406760.81606     -3426.501 6        38.982
G23        10.000    24620809.737 4                     -3568.513 4        27.760                                                                                                    24620838.018 4                     -2780.975 4        27.581
G24        12.000    20008762.109 8 105147359.79808      -651.510 8        50.675                                    20008762.015 7  81932573.90907      -507.672 7        46.204    20008763.448 6  81932547.92006      -507.608 6        40.448
E31        13.000    25019232.435 7 131477014.01607     -2935.333 7        44.095                                                                    25019238.149 7  98180842.14807     -2191.976 7        44.078    25019237.830 7 100742066.75107     -2249.181 7        47.019
G12        15.000    21272445.574 7 111787503.87007      1448.269 7        46.253                                    21272552.542 1  87107508.49701      1128.685 1         5.143    21272453.922 4  87107131.35404      1129.293 4        25.684
E24        16.000    23528960.007 7 123645496.24507      -611.190 7        43.270                                                                    23528962.631 8  92332744.14108      -456.395 8        49.302    23528961.246 8  94741450.02608      -468.320 8        48.488
G32        17.000    25324842.543 6 133082931.87606      2476.621 6        36.938                                                                                                    25324854.172 4 103701087.91004      1929.759 4        26.623
E05        18.000    22309927.669 8 117239462.58108     -1598.744 8        50.278                                                                    22309931.947 8  87548944.27408     -1193.858 8        51.241    22309930.408 8  89832832.96708     -1224.986 8        50.591
E09        21.000    26180188.224 6 137577791.04406     -3840.519 6        41.128                                                                    26180196.616 7 102736679.09407     -2867.927 7        44.680    26180195.439 7 105416732.92107     -2942.745 7        42.040
R14        23.000    19719011.074 7 105113343.89007       278.193 7        44.552                                                                    19719013.003 7  81754889.20307       216.498 7        44.457
S23        24.000    38110258.739 5 200270784.81905      -860.564 5        35.719
R23        25.000    21480176.567 6 114904602.02706       853.076 6        36.250
E03        26.000    25756271.702 7 135350264.67207      1125.445 7        45.618                                                                    25756277.498 7 101073205.10607       840.541 7        42.017    25756277.496 7 103709909.08207       862.291 7        47.928
R13        27.000    20741043.284 6 110755984.40006     -3289.027 6        41.323
R04        29.000    20185630.683 8 108093164.93608     -2251.298 8        48.482                                                                    20185633.891 7  84072442.57807     -1751.003 7        43.680
R15        30.000    23094987.956 5 123412658.98405      2337.340 5        31.343                                                                    23094998.663 3                      1816.933 3        23.448
S36        31.000    38174642.355 5 200609204.18305      -857.379 5        34.605
C07        32.000                                                                                                                                    39417082.077 4                     -1644.535 4        27.916    39417093.526 4 158716306.10404     -1271.556 4        27.413
C10        33.000                                                                                                                                    38680293.379 6 201418422.40606     -1322.160 6        40.977    38680294.931 6 155749519.37706     -1022.264 6        41.266    38680293.014 6 163668958.49506     -1074.389 6        38.186
C36        34.000                                                                                                                                    24841575.741 4                     -3475.275 4        29.384                                                                    24841565.677 4                     -2824.036 4        29.299
R03        36.000    22181325.124 6 118738589.17806     -5150.684 6        38.922                                                                    22181331.476 5                     -4006.192 5        32.569
C45        37.000                                                                                                                                    21811546.151 8 113578430.07708     -1715.766 8        50.892                                                                    21811539.692 7  92291793.47007     -1394.208 7        45.162
C33        39.000                                                                                                                                    26500313.154 6 137994253.18406      1347.440 6        39.165                                                                    26500336.698 3                      1092.096 3        22.648
C40        40.000                                                                                                                                    39713506.739 5                     -1919.325 5        31.343                                                                    39713507.250 5                     -1559.688 5        30.521
R22        41.000                                                                                                                                    22593119.024 4                     -1956.777 4        26.419
C30        43.000                                                                                                                                    24734321.783 5 128798033.60105     -2057.671 5        32.072                                                                    24734292.379 4                     -1672.231 4        24.150
R05        44.000    21705082.745 7 116026107.29607      1634.388 7        44.862                                                                    21705087.464 7  90242554.51507      1271.263 7        43.388
C42        45.000                                                                                                                                    24042924.584 6 125197786.20006     -1304.351 6        40.594                                                                    24042932.617 7 101733571.71307     -1059.788 7        44.379
C29        46.000                                                                                                                                    23499869.200 7 122370057.22207       943.155 7        42.021                                                                    23499865.062 5  99435667.98305       766.581 5        34.857
C26        48.000                                                                                                                                    22976895.329 7 119646716.19307      1082.607 7        42.690                                                                    22976893.383 6  97222784.77806       879.860 6        39.526
C14        53.000                                                                                                                                    24936367.969 7 129850258.12607       177.408 7        43.181    24936366.941 7 100408452.06607       137.136 7        45.081    24936361.330 6 105513960.85706       144.172 6        38.318
C21        55.000                                                                                                                                    24659309.743 5 128407513.72615     -3712.174 5        35.438                                                                    24659311.904 5 104341610.82005     -3016.475 5        34.886
I06        58.000    38296547.929 6 150283889.76606      -751.055 6        38.303
I02        59.000    36860290.376 6 144647670.06106      -644.299 6        38.147
> 2025 01 02 11 30 30.0000000  0 40
G13         1.000    24033638.328 4                     -4758.960 4        28.417
