     3.04           OBSERVATION DATA    M                   RINEX VERSION / TYPE
ssrcrin-15.6.1x                         20250102 104500 UTC PGM / RUN BY / DATE 
(00000000023479385599111004) Septentrio proprietary         COMMENT             
ract                                                        MARKER NAME         
01                                                          MARKER NUMBER       
geodetic                                                    MARKER TYPE         
NFB                 CLIMERS@TUW                             OBSERVER / AGENCY   
3296359             SEPT ASTERX SB3 PROB4.14.4              REC # / TYPE / VERS 
Unknown             Unknown                                 ANT # / TYPE        
  4127448.2180  1206915.0645  4695545.1790                  APPROX POSITION XYZ 
        0.0000        0.0000        0.0000                  ANTENNA: DELTA H/E/N
G   23 X1  C1C L1C D1C S1C C1W S1W C2W L2W D2W S2W C2L L2L  SYS / # / OBS TYPES 
       D2L S2L C5Q L5Q D5Q S5Q C1L L1L D1L S1L              SYS / # / OBS TYPES 
E   21 X1  C1C L1C D1C S1C C6C L6C D6C S6C C5Q L5Q D5Q S5Q  SYS / # / OBS TYPES 
       C7Q L7Q D7Q S7Q C8Q L8Q D8Q S8Q                      SYS / # / OBS TYPES 
S    9 X1  C1C L1C D1C S1C C5I L5I D5I S5I                  SYS / # / OBS TYPES 
R   17 X1  C1C L1C D1C S1C C2P L2P D2P S2P C2C L2C D2C S2C  SYS / # / OBS TYPES 
       C3Q L3Q D3Q S3Q                                      SYS / # / OBS TYPES 
C   25 X1  C1P L1P D1P S1P C5P L5P D5P S5P C2I L2I D2I S2I  SYS / # / OBS TYPES 
       C7I L7I D7I S7I C6I L6I D6I S6I C7D L7D D7D S7D      SYS / # / OBS TYPES 
J   17 X1  C1C L1C D1C S1C C2L L2L D2L S2L C5Q L5Q D5Q S5Q  SYS / # / OBS TYPES 
       C1L L1L D1L S1L                                      SYS / # / OBS TYPES 
I    5 X1  C5A L5A D5A S5A                                  SYS / # / OBS TYPES 
SEPTENTRIO RECEIVERS OUTPUT ALIGNED CARRIER PHASES.         COMMENT             
NO FURTHER PHASE SHIFT APPLIED IN THE RINEX ENCODER.        COMMENT             
G L1C                                                       SYS / PHASE SHIFT   
G L2W                                                       SYS / PHASE SHIFT   
G L2L  0.00000                                              SYS / PHASE SHIFT   
G L5Q  0.00000                                              SYS / PHASE SHIFT   
G L1L  0.00000                                              SYS / PHASE SHIFT   
E L1C  0.00000                                              SYS / PHASE SHIFT   
E L6C  0.00000                                              SYS / PHASE SHIFT   
E L5Q  0.00000                                              SYS / PHASE SHIFT   
E L7Q  0.00000                                              SYS / PHASE SHIFT   
E L8Q  0.00000                                              SYS / PHASE SHIFT   
S L1C                                                       SYS / PHASE SHIFT   
S L5I                                                       SYS / PHASE SHIFT   
R L1C                                                       SYS / PHASE SHIFT   
R L2P  0.00000                                              SYS / PHASE SHIFT   
R L2C                                                       SYS / PHASE SHIFT   
R L3Q  0.00000                                              SYS / PHASE SHIFT   
C L1P  0.00000                                              SYS / PHASE SHIFT   
C L5P  0.00000                                              SYS / PHASE SHIFT   
C L2I                                                       SYS / PHASE SHIFT   
C L7I                                                       SYS / PHASE SHIFT   
C L6I                                                       SYS / PHASE SHIFT   
C L7D                                                       SYS / PHASE SHIFT   
J L1C                                                       SYS / PHASE SHIFT   
J L2L  0.00000                                              SYS / PHASE SHIFT   
J L5Q  0.00000                                              SYS / PHASE SHIFT   
J L1L  0.00000                                              SYS / PHASE SHIFT   
I L5A                                                       SYS / PHASE SHIFT   
  2025     1     2    10    45    0.0000000     GPS         TIME OF FIRST OBS   
 C1C    0.000 C2C    0.000 C2P    0.000                     GLONASS COD/PHS/BIS 
DBHZ                                                        SIGNAL STRENGTH UNIT
    18                                                      LEAP SECONDS        
 24 R01  1 R02 -4 R03  5 R04  6 R05  1 R06 -4 R07  5 R08  6 GLONASS SLOT / FRQ #
    R09 -2 R10 -7 R11  0 R12 -1 R13 -2 R14 -7 R15  0 R16 -1 GLONASS SLOT / FRQ #
    R17  4 R18 -3 R19  3 R20  2 R21  4 R22 -3 R23  3 R24  2 GLONASS SLOT / FRQ #
                                                            END OF HEADER       
> 2025 01 02 10 45  0.0000000  0 39
G13         1.000    22279826.218 5 117081237.97705     -4196.194 5        34.467                                    22279831.092 2  91232167.31402     -3269.796 2        16.038
G17         2.000    22203554.353 7 116680849.34707     -1633.440 7        42.864                                    22203553.586 6  90919920.62706     -1272.803 6        37.437    22203554.395 6  90919844.60906     -1272.757 6        41.220
G19         4.000    21810848.476 6 114617036.72406       923.390 6        38.276                                    21810852.250 2  89311807.84002       719.530 2        16.792
G10         7.000    24554296.015 3                       -74.294 3        22.952                                                                                                    24554307.711 4                       -57.379 4        29.763
G14         8.000    23488240.102 6 123431570.89506     -4020.784 6        38.351                                                                                                    23488269.214 4  96180544.96804     -3133.880 4        27.892
G15         9.000    21149903.969 7 111143617.14307     -3250.907 7        44.724                                    21149898.924 5  86605351.02405     -2533.176 5        32.108    21149903.082 6  86605295.05506     -2533.200 6        36.919
G23        10.000    23612748.127 6 124085799.34506     -2496.731 6        38.628                                                                                                    23612751.774 5  96690301.97605     -1945.515 5        35.829
E06        11.000    26474828.949 5 139126153.66105     -3821.602 5        33.575                                                                    26474835.210 6 103892936.69906     -2853.937 6        41.959    26474832.261 7 106603167.86307     -2928.391 7        43.098
G24        12.000    20633614.235 7 108430460.18407       701.791 7        45.067                                    20633610.796 5  84491199.55705       546.847 5        32.096    20633614.153 5  84491220.57505       546.935 5        32.024
E31        13.000    24220235.862 7 127278157.86107     -2407.850 7        43.896                                                                    24220240.876 7  95045431.25507     -1798.043 7        46.565    24220239.433 7  97524851.85107     -1844.970 7        44.971
G12        15.000    22881859.684 6 120245013.95606      2392.461 6        36.783                                    22881864.527 3  93697375.58803      1864.241 3        23.314    22881866.766 6  93697428.58206      1864.210 6        37.701
E24        16.000    24034746.097 8 126303415.07108       263.303 8        48.068                                                                    24034748.254 8  94317553.43708       196.651 8        52.101    24034747.187 8  96778036.99308       201.741 8        51.174
E05        18.000    22405263.508 6 117740461.62406      -360.382 6        41.421                                                                    22405267.288 8  87923068.68808      -269.089 8        48.632    22405265.817 7  90216716.94207      -276.083 7        46.606
E25        20.000                                                                                                                                    27313942.700 4 107185768.34304      1402.057 4        29.735    27313948.010 5                      1438.936 5        30.053
E09        21.000    24950151.686 6 131113943.73806     -3156.303 6        36.382                                                                    24950159.209 5  97909800.59805     -2357.104 5        35.819    24950152.355 5 100463933.33205     -2418.779 5        32.317
R14        23.000    20734345.932 6 110525700.67006      1336.290 6        41.333                                                                    20734351.509 7  85964495.34507      1039.453 7        43.975
S23        24.000    38263866.299 6 201077992.03706      -858.979 6        37.410
E03        26.000    27133908.836 6 142589783.02606      1801.872 6        38.402                                                                    27133918.984 6 106479332.56106      1345.810 6        41.118    27133916.100 6 109257066.68006      1380.802 6        39.093
R13        27.000    19869561.356 6 106102329.19306     -2413.471 6        37.758
R04        29.000    20284455.070 7 108622354.89307       283.009 7        47.560                                                                    20284453.032 6  84483999.01206       220.095 6        38.285
S36        31.000    38329799.904 5 201424627.94505      -856.077 5        33.916
C07        32.000                                                                                                                                    39207026.775 5                     -1432.725 5        32.892    39207011.785 5 157870459.04105     -1107.637 5        31.562    39207005.720 3                     -1164.752 3        23.486
C10        33.000                                                                                                                                    38650131.722 6 201261377.26106     -1069.584 6        38.904    38650134.421 6 155628084.57506      -827.066 6        37.025    38650129.995 5 163541348.45805      -868.812 5        35.381
C36        34.000                                                                                                                                    23698628.329 8 123404926.32808     -3159.426 8        48.585                                                                    23698638.232 7 100276705.19907     -2567.186 7        46.087
R03        36.000    20462769.423 7 109538806.98307     -3765.771 7        43.892                                                                    20462772.334 6  85196900.16206     -2928.943 6        41.440
C45        37.000                                                                                                                                    21720726.886 7 113105486.42907      -909.476 7        46.953                                                                    21720722.091 7  91907520.40307      -738.961 7        46.577
R12        38.000    22915777.911 5                     -4257.794 5        33.485                                                                    22915794.843 4                     -3313.258 4        25.353
C40        40.000                                                                                                                                    39369317.927 4                     -1664.699 4        28.834                                                                    39369312.889 5                     -1352.676 5        30.777
R22        41.000    22503484.269 5 120125158.65805      -166.513 5        34.486
C30        43.000                                                                                                                                    24649797.399 4 128357980.39604      -543.345 4        26.000                                                                    24649805.503 5 104301393.12705      -441.241 5        34.671
R05        44.000                                                                                                                                    23566693.688 5                      2437.534 5        33.958
C42        45.000                                                                                                                                    24372860.960 6 126916160.82906       262.473 6        41.247                                                                    24372873.665 7 103129651.33207       213.353 7        43.719
C29        46.000                                                                                                                                    24869791.525 6 129503570.91706      1897.373 6        36.314                                                                    24869783.425 4                      1541.974 4        27.281
C26        48.000                                                                                                                                    24276517.496 7 126414203.63707      1572.567 7        42.301                                                                    24276522.569 6 102721937.72306      1277.917 6        40.336
C22        51.000                                                                                                                                    25624343.595 4                     -4348.129 4        24.376                                                                    25624337.302 4 108424947.49104     -3534.045 4        25.774
C14        53.000                                                                                                                                    25991532.995 5 135344881.47405      1492.567 5        33.012                                                                    25991551.476 6 109978743.20606      1212.937 6        36.885
C21        55.000                                                                                                                                    23563478.587 6 122701092.09906     -2664.489 6        36.215                                                                    23563473.927 6  99704742.94006     -2165.267 6        41.635
I06        58.000    38375643.300 4 150594294.02904      -747.502 4        28.047
I02        59.000    37052326.108 6 145401278.99006      -526.536 6        39.751
> 2025 01 02 10 45  5.0000000  0 40
G13         1.000    22283818.900 5 117102222.80905     -4197.914 5        34.581                                    22283824.604 2  91248519.13402     -3271.075 2        14.571
G17         2.000    22205110.539 7 116689025.16707     -1636.778 7        43.547                                    22205109.778 6  90926291.39006     -1275.407 6        36.972    22205109.719 6  90926215.37106     -1275.454 6        40.963
G19         4.000    21809970.798 5 114612427.41705       920.334 5        34.924                                    21809975.191 2  89308216.17902       717.195 2        14.095
G10         7.000                                                                                                                                                                    24554380.898 5                       -59.825 5        30.732
G14         8.000    23492067.057 6 123451677.62706     -4021.741 6        37.474                                                                                                    23492095.367 4  96196212.49604     -3133.959 4        27.701
G15         9.000    21152998.867 7 111159879.41407     -3253.936 7        45.260                                    21152995.053 5  86618022.91405     -2535.528 5        32.964    21152998.886 6  86617966.95706     -2535.531 6        38.231
G23        10.000    23615127.790 6 124098290.73606     -2499.644 6        39.715                                                                                                    23615125.789 5  96700035.46805     -1947.704 5        35.124
E06        11.000    26478467.579 5 139145265.94305     -3822.501 5        33.629                                                                    26478472.089 7 103907208.82407     -2854.887 7        42.083    26478469.330 7 106617812.30807     -2929.253 7        43.172
G24        12.000    20632948.130 7 108426957.24907       699.471 7        46.692                                    20632944.390 5  84488470.01305       545.039 5        33.174    20632948.301 5  84488490.98105       545.137 5        33.419
E31        13.000    24222527.742 7 127290201.13007     -2409.383 7        44.823                                                                    24222532.628 7  95054424.58807     -1799.148 7        46.697    24222530.914 7  97534079.80207     -1846.128 7        44.564
G12        15.000    22879588.605 6 120233056.17006      2390.761 6        38.541                                    22879589.782 4  93688057.86904      1862.934 4        24.767    22879591.027 6  93688110.88206      1862.968 6        36.616
E24        16.000    24034496.509 8 126302103.67008       261.402 8        48.134                                                                    24034498.807 8  94316574.14008       195.227 8        52.245    24034497.749 8  96777032.15308       200.291 8        51.508
E05        18.000    22405607.612 7 117742269.38307      -362.650 7        42.142                                                                    22405611.251 8  87924418.62408      -270.813 8        48.637    22405609.680 7  90218102.09007      -277.859 7        46.889
E25        20.000                                                                                                                                    27312155.503 4 107178758.64004      1401.351 4        28.284    27312156.427 4                      1438.144 4        29.109
E09        21.000    24953156.376 6 131129731.18906     -3158.229 6        36.454                                                                    24953161.985 5  97921589.92305     -2358.344 5        35.814    24953161.106 5 100476030.21305     -2420.218 5        34.538
R14        23.000    20733090.524 5 110519023.70805      1334.228 5        34.414                                                                    20733098.876 7  85959302.20507      1037.774 7        45.530
S23        24.000    38264684.221 6 201082286.99106      -859.061 6        37.342
E03        26.000    27132194.818 6 142580776.25206      1800.884 6        38.910                                                                    27132204.991 6 106472606.74306      1344.800 6        41.023    27132201.959 6 109250165.39806      1379.839 6        38.796
R13        27.000    19871822.030 6 106114402.90106     -2415.904 6        37.274
R21        28.000    24220245.714 5 129607509.11015     -3596.709 5        34.648
R04        29.000    20284193.549 7 108620951.71307       278.296 7        47.450                                                                    20284191.402 6  84482907.61606       216.376 6        38.168
S36        31.000    38330617.276 5 201428910.44505      -856.681 5        34.186
C07        32.000                                                                                                                                    39208401.562 5                     -1433.315 5        33.551    39208388.432 5 157875999.18105     -1108.398 5        32.467    39208380.623 4                     -1164.354 4        24.346
C10        33.000                                                                                                                                    38651159.210 6 201266727.18006     -1070.260 6        38.441    38651161.974 6 155632221.42806      -827.594 6        36.669    38651157.364 5 163545695.68805      -869.698 5        35.757
C36        34.000                                                                                                                                    23701662.667 8 123420726.21408     -3160.442 8        48.733                                                                    23701672.354 7 100289543.89007     -2568.242 7        45.749
R03        36.000    20466288.128 6 109557645.64406     -3769.425 6        41.032                                                                    20466290.547 6  85211552.48706     -2931.909 6        40.529
C45        37.000                                                                                                                                    21721600.992 7 113110038.81907      -911.304 7        46.422                                                                    21721596.149 7  91911219.59307      -740.543 7        46.825
R12        38.000    22919771.110 5                     -4258.356 5        34.838
C40        40.000                                                                                                                                    39370912.874 4                     -1665.171 4        29.052                                                                    39370911.110 4                     -1353.092 4        29.716
R22        41.000    22503651.926 5 120126003.20615      -171.498 5        31.132                                                                    22503688.135 3                      -132.617 3        23.143
C30        43.000                                                                                                                                    24650317.221 3                      -545.504 3        20.881                                                                    24650328.816 5 104303606.42005      -444.009 5        35.048
R05        44.000                                                                                                                                    23563763.884 5  97970304.41515      2435.807 5        33.497
C42        45.000                                                                                                                                    24372608.921 6 126914856.62706       259.319 6        40.274                                                                    24372623.554 7 103128591.55607       210.667 7        43.975
C29        46.000                                                                                                                                    24867973.183 6 129494087.02906      1896.082 6        37.535                                                                    24867962.661 4                      1540.666 4        28.028
C26        48.000                                                                                                                                    24275007.923 7 126406344.42107      1571.426 7        43.299                                                                    24275012.944 6 102715551.48506      1276.784 6        40.484
C22        51.000                                                                                                                                    25628520.538 4                     -4349.270 4        28.237                                                                    25628514.902 4 108442616.33004     -3534.668 4        25.278
C14        53.000                                                                                                                                    25990109.485 5 135337424.35605      1490.385 5        35.262    25990134.081 5 104651694.43615      1152.403 5        35.452    25990118.773 6 109972683.68706      1210.895 6        36.904
C21        55.000                                                                                                                                    23566039.532 6 122714422.38006     -2667.405 6        39.745                                                                    23566033.790 7  99715574.90707     -2167.516 7        42.186
I06        58.000    38376595.899 4 150598028.64304      -746.951 4        27.665
I02        59.000    37052997.563 6 145403913.12106      -527.139 6        39.811
> 2025 01 02 10 45 10.0000000  0 38
G13         1.000    22287813.306 5 117123216.10705     -4199.479 5        35.743                                    22287819.753 2  91264877.55302     -3272.350 2        13.394
G17         2.000    22206669.765 7 116697217.02207     -1639.963 7        42.502                                    22206668.894 6  90932674.64406     -1277.890 6        36.469    22206668.056 6  90932598.63106     -1277.794 6        40.813
G10         7.000    24554504.509 4                       -80.051 4        27.976                                                                                                    24554455.923 5                       -62.313 5        32.539
G14         8.000    23495892.120 5 123471788.20005     -4022.571 5        35.605                                                                                                    23495922.691 4  96211883.06604     -3134.699 4        27.569
G15         9.000    21156095.997 7 111176156.03707     -3256.769 7        45.177                                    21156094.022 5  86630705.99005     -2537.739 5        33.880    21156098.832 6  86630650.01106     -2537.712 6        38.817
G23        10.000    23617511.204 6 124110795.91806     -2502.420 6        40.584                                    23617513.037 2  96709768.73512     -1949.924 2        14.429    23617504.996 5  96709779.72705     -1950.016 5        35.748
E06        11.000    26482107.223 5 139164382.72005     -3823.740 5        32.886                                                                    26482109.877 7 103921484.27907     -2855.361 7        42.284    26482107.399 7 106632460.17207     -2929.836 7        43.225
G24        12.000    20632283.445 7 108423465.77807       697.176 7        46.858                                    20632280.309 5  84485749.40005       543.245 5        34.429    20632283.074 5  84485770.39205       543.236 5        35.143
E31        13.000    24224820.818 7 127302251.11707     -2410.661 7        45.470                                                                    24224825.687 7  95063422.94407     -1800.196 7        46.840    24224823.787 7  97543312.89107     -1847.049 7        44.144
G12        15.000    22877316.751 6 120221105.90006      2389.293 6        40.188                                    22877316.377 4  93678746.02104      1861.782 4        26.431    22877317.660 6  93678799.03106      1861.744 6        36.571
E24        16.000    24034248.635 8 126300801.06408       259.674 8        48.024                                                                    24034250.925 8  94315601.40608       193.908 8        52.296    24034249.910 8  96776034.04808       199.026 8        51.704
E05        18.000    22405953.475 7 117744088.35907      -364.974 7        43.065                                                                    22405957.422 8  87925776.93908      -272.518 8        48.676    22405955.809 7  90219495.84407      -279.566 7        46.898
E25        20.000                                                                                                                                    27310368.123 4 107171751.58104      1401.075 4        25.203    27310367.894 4                      1437.411 4        27.329
E09        21.000    24956163.021 6 131145526.87206     -3159.834 6        37.399                                                                    24956167.341 5  97933385.37305     -2359.638 5        34.962    24956170.572 6 100488133.37606     -2421.084 6        36.624
R14        23.000    20731837.575 4 110512356.63504      1332.736 4        28.389                                                                    20731848.781 7  85954116.74707      1036.361 7        46.166
S23        24.000    38265500.708 6 201086582.36206      -858.881 6        37.161
E03        26.000    27130482.263 6 142571774.12706      1799.985 6        39.402                                                                    27130492.113 6 106465884.38306      1344.061 6        40.977    27130489.017 6 109243267.66706      1379.253 6        38.459
R13        27.000    19874084.900 6 106126487.02906     -2417.902 6        38.222
R04        29.000    20283935.652 7 108619571.47107       273.746 7        47.015                                                                    20283934.035 6  84481834.10506       213.006 6        38.192
S36        31.000    38331427.270 5 201433194.12405      -856.899 5        33.904
C07        32.000                                                                                                                                    39209776.183 5                     -1434.024 5        33.311    39209765.230 5 157881541.55005     -1108.545 5        32.006    39209758.388 4                     -1165.109 4        25.053
C10        33.000                                                                                                                                    38652187.235 6 201272080.25106     -1070.799 6        38.258    38652189.466 6 155636360.77106      -828.150 6        37.006    38652185.570 5 163550045.49205      -870.022 5        35.852
C36        34.000                                                                                                                                    23704697.482 8 123436530.17008     -3161.147 8        48.954                                                                    23704707.369 7 100302385.89607     -2568.737 7        45.419
R03        36.000    20469810.449 6 109576502.41806     -3773.132 6        39.709                                                                    20469812.858 6  85226218.85706     -2934.453 6        39.261
C45        37.000                                                                                                                                    21722476.408 7 113114599.42907      -912.849 7        45.559                                                                    21722471.918 7  91914925.46007      -741.811 7        46.968
R12        38.000    22923761.269 5 122454557.05815     -4258.416 5        34.671                                                                    22923787.694 4                     -3312.582 4        27.090
C40        40.000                                                                                                                                    39372513.165 4                     -1666.206 4        29.763                                                                    39372510.895 4                     -1354.036 4        29.299
R22        41.000    22503810.911 4 120126869.54204      -175.276 4        29.393
C30        43.000                                                                                                                                                                                                                                                                    24650855.236 5 104305831.38105      -446.232 5        34.157
R05        44.000                                                                                                                                    23560839.663 5  97958128.33505      2434.607 5        32.790
C42        45.000                                                                                                                                    24372360.957 6 126913566.52506       256.593 6        41.106                                                                    24372376.019 7 103127543.26907       208.519 7        44.220
C29        46.000                                                                                                                                    24866155.973 6 129484609.41306      1894.844 6        37.754                                                                    24866143.820 4                      1539.464 4        28.948
C26        48.000                                                                                                                                    24273500.515 7 126398489.58307      1570.526 7        44.820                                                                    24273504.630 6 102709168.80906      1276.120 6        40.834
C22        51.000                                                                                                                                    25632695.651 5                     -4349.661 5        30.981                                                                    25632689.565 4 108460286.54204     -3534.690 4        25.744
C14        53.000                                                                                                                                    25988684.397 6 135329977.60206      1488.364 6        36.087    25988703.840 5 104645936.16405      1150.587 5        35.290    25988688.440 6 109966632.60506      1209.464 6        37.369
C21        55.000                                                                                                                                    23568602.846 7 122727765.34807     -2669.912 7        42.445                                                                    23568596.085 7  99726417.20107     -2169.516 7        42.491
I06        58.000    38377547.049 4 150601763.75404      -746.537 4        28.038
I02        59.000    37053669.021 6 145406548.62806      -527.083 6        40.017
> 2025 01 02 10 45 15.0000000  0 38
G13         1.000    22291811.683 6 117144216.88206     -4200.625 6        37.516                                    22291816.605 1  91281241.78001     -3273.176 1        11.407
G17         2.000    22208231.102 6 116705423.97406     -1642.704 6        40.999                                    22208230.689 5  90939069.66005     -1280.029 5        35.681    22208229.490 6  90938993.65306     -1280.008 6        40.241
G10         7.000                                                                                                                                                                    24554533.702 5                       -64.547 5        33.677
G14         8.000    23499717.979 5 123491901.62105     -4022.865 5        34.700                                                                                                    23499746.928 4  96227555.82004     -3134.454 4        27.617
G15         9.000    21159195.355 7 111192446.04707     -3259.211 7        44.840                                    21159195.418 5  86643399.49705     -2539.639 5        34.476    21159198.885 6  86643343.49506     -2539.436 6        38.574
G23        10.000    23619894.796 6 124123313.89306     -2504.796 6        40.410                                    23619894.797 2  96719523.03802     -1951.803 2        15.429    23619890.099 5  96719533.98505     -1951.662 5        35.767
E06        11.000    26485748.107 5 139183503.02605     -3824.179 5        32.156                                                                    26485748.379 7 103935762.37007     -2855.745 7        42.299    26485745.990 7 106647110.74607     -2930.378 7        43.033
G24        12.000    20631620.523 7 108419984.79707       695.342 7        46.650                                    20631618.299 5  84483036.96505       541.823 5        35.390    20631621.201 6  84483057.95506       542.075 6        36.336
E31        13.000    24227114.762 7 127314306.85607     -2411.531 7        45.849                                                                    24227119.783 7  95072425.59607     -1800.830 7        46.574    24227117.761 7  97552550.40507     -1847.807 7        43.786
G12        15.000    22875044.193 6 120209162.19606      2388.159 6        41.247                                    22875044.100 4  93669439.27204      1860.903 4        28.379    22875044.141 5  93669492.27405      1860.950 5        35.790
E24        16.000    24034002.257 8 126299506.20708       258.408 8        48.166                                                                    24034004.475 8  94314634.46808       192.929 8        52.306    24034003.479 8  96775041.89208       197.962 8        52.003
E05        18.000    22406301.590 7 117745917.57307      -366.678 7        43.661                                                                    22406305.370 8  87927142.90308      -273.840 8        48.450    22406303.861 7  90220897.44507      -280.968 7        47.035
E25        20.000                                                                                                                                    27308575.795 3 107164746.58103      1401.307 3        22.971    27308581.499 4                      1438.119 4        24.977
E09        21.000    24959169.532 6 131161329.82406     -3161.120 6        37.463                                                                    24959174.090 5  97945186.29405     -2360.500 5        34.190    24959179.567 6 100500242.14806     -2422.250 6        38.177
R14        23.000    20730593.136 6 110505698.36406      1330.957 6        38.198                                                                    20730598.767 7  85948938.01207      1035.175 7        46.244
S23        24.000    38266321.412 6 201090877.35406      -858.719 6        36.866
E03        26.000    27128770.549 6 142562775.69406      1799.556 6        39.324                                                                    27128779.747 6 106459164.77906      1343.802 6        41.108    27128776.883 6 109236372.78606      1378.662 6        38.384
R13        27.000    19876350.051 6 106138580.43106     -2419.504 6        38.613
R04        29.000    20283680.926 7 108618213.02907       269.719 7        45.446                                                                    20283681.014 6  84480777.55306       209.825 6        38.709
S36        31.000    38332243.422 5 201437476.72705      -856.091 5        33.653
C07        32.000                                                                                                                                    39211152.218 5                     -1434.021 5        33.335    39211141.442 5 157887085.38305     -1108.591 5        32.707    39211134.771 4                     -1164.949 4        24.932
C10        33.000                                                                                                                                    38653214.493 6 201277435.58406     -1071.122 6        37.577    38653218.214 6 155640501.85006      -828.094 6        37.119    38653213.959 6 163554397.17506      -870.456 6        36.095
C36        34.000                                                                                                                                    23707732.800 8 123452337.26308     -3161.535 8        48.707                                                                    23707743.005 7 100315230.45307     -2569.111 7        44.909
R03        36.000    20473335.382 6 109595376.57606     -3776.407 6        41.335                                                                    20473339.261 6  85240898.75106     -2937.197 6        38.640
C45        37.000                                                                                                                                    21723353.640 7 113119167.28307      -914.081 7        45.081                                                                    21723349.070 7  91918637.22707      -742.818 7        47.028
R12        38.000    22927750.479 5 122475849.10815     -4258.417 5        34.652                                                                    22927771.065 4                     -3312.244 4        27.832
C40        40.000                                                                                                                                    39374113.581 5                     -1666.302 5        30.951                                                                    39374110.792 4                     -1354.084 4        29.943
R22        41.000    22503974.680 4 120127756.89504      -180.416 4        25.684
C30        43.000                                                                                                                                                                                                                                                                    24651381.997 5 104308067.18605      -448.009 5        33.359
R05        44.000    23557864.453 5                      3128.541 5        31.547
C42        45.000                                                                                                                                    24372116.967 6 126912289.62106       254.232 6        41.771                                                                    24372130.989 7 103126505.72707       206.503 7        44.438
C29        46.000                                                                                                                                    24864338.909 6 129475137.07806      1894.192 6        36.178                                                                    24864325.716 5                      1538.978 5        30.030
C26        48.000                                                                                                                                    24271993.705 7 126390638.20307      1570.075 7        45.264                                                                    24271996.917 6 102702788.93206      1275.819 6        41.025
C22        51.000                                                                                                                                    25636872.795 5                     -4349.154 5        32.635                                                                    25636864.411 4 108477957.25904     -3534.237 4        25.474
C14        53.000                                                                                                                                    25987255.407 6 135322540.32106      1486.673 6        36.102    25987279.778 5 104640185.20105      1149.644 5        34.810    25987260.010 6 109960589.18806      1208.103 6        37.629
C21        55.000                                                                                                                                    23571169.098 7 122741120.05607     -2672.032 7        43.117                                                                    23571160.770 7  99737269.01707     -2171.271 7        42.781
I06        58.000    38378499.871 4 150605498.56504      -746.912 4        28.834
I02        59.000    37054341.161 6 145409184.97706      -527.258 6        39.910
> 2025 01 02 10 45 20.0000000  0 40
G13         1.000    22295808.973 6 117165225.03406     -4202.663 6        39.084                                    22295814.781 1  91297611.83001     -3274.732 1        10.296
G17         2.000    22209795.971 6 116713645.97606     -1646.097 6        40.072                                    22209795.104 5  90945476.41205     -1282.675 5        34.995    22209794.222 6  90945400.40706     -1282.707 6        39.763
G19         4.000    21807390.357 5 114598684.92405       911.916 5        35.138                                    21807360.624 2  89297507.47202       710.575 2        14.524
G10         7.000    24554632.334 5                       -85.766 5        32.659                                                                                                    24554614.679 5 100547041.50915       -67.000 5        33.916
G14         8.000    23503548.044 5 123512017.82405     -4023.782 5        33.120                                                                                                    23503575.600 4  96243230.78404     -3135.501 4        27.641
G15         9.000    21162297.421 7 111208749.32707     -3262.283 7        44.432                                    21162299.140 5  86656103.34605     -2542.035 5        34.495    21162300.224 6  86656047.33606     -2542.048 6        37.554
G23        10.000    23622276.522 6 124135844.57006     -2507.733 6        39.237                                    23622279.254 2  96729287.18002     -1954.061 2        16.755    23622276.284 6  96729298.13306     -1953.997 6        37.524
E06        11.000    26489389.170 5 139202626.73205     -3825.835 5        30.279                                                                    26489387.407 7 103950043.02707     -2856.579 7        42.176    26489385.269 7 106661763.94107     -2931.147 7        42.718
G24        12.000    20630959.840 7 108416514.21507       692.765 7        45.743                                    20630958.408 5  84480332.62805       539.821 5        35.938    20630960.422 6  84480353.62806       539.684 6        36.548
E31        13.000    24229409.846 7 127326368.28207     -2413.179 7        45.863                                                                    24229414.986 7  95081432.48507     -1801.996 7        46.349    24229412.777 7  97561792.26007     -1849.012 7        43.272
G12        15.000    22872772.331 7 120197224.97307      2386.599 7        42.059                                    22872772.941 5  93660137.57605      1859.683 5        30.340    22872772.685 6  93660190.58006      1859.335 6        36.314
E24        16.000    24033757.368 8 126298219.10708       256.325 8        48.079                                                                    24033759.521 8  94313673.31708       191.454 8        52.223    24033758.605 8  96774055.67208       196.433 8        52.085
E05        18.000    22406651.742 7 117747756.98507      -369.245 7        44.233                                                                    22406655.378 8  87928516.47608      -275.700 8        48.274    22406653.883 7  90222306.85107      -282.930 7        47.088
E25        20.000                                                                                                                                    27306785.372 3                      1399.646 3        20.310    27306796.293 3                      1437.666 3        22.457
E09        21.000    24962176.718 6 131177139.97806     -3163.041 6        36.798                                                                    24962181.985 5  97956992.59205     -2362.072 5        32.964    24962187.292 6 100512356.41606     -2423.717 6        38.498
R14        23.000    20729350.956 7 110499048.70107      1328.636 7        42.199                                                                    20729351.432 7  85943766.07507      1033.515 7        45.985
S23        24.000    38267137.680 6 201095171.79506      -859.100 6        36.707
E03        26.000    27127058.912 6 142553780.87506      1798.309 6        39.192                                                                    27127068.077 6 106452447.87906      1342.860 6        40.956    27127065.207 6 109229480.65106      1377.947 6        38.075
R13        27.000    19878615.533 6 106150682.98906     -2421.886 6        36.442
R21        28.000    24230366.589 6 129661529.15006     -3606.146 6        36.068
R04        29.000    20283430.220 7 108616876.36807       264.847 7        44.581                                                                    20283431.063 6  84479737.90706       206.052 6        38.898
S36        31.000    38333054.029 5 201441758.51305      -856.746 5        33.389
C07        32.000                                                                                                                                    39212529.791 5                     -1434.461 5        32.904    39212519.509 5 157892630.61505     -1109.590 5        32.503    39212511.754 4                     -1164.661 4        24.827
C10        33.000                                                                                                                                    38654242.462 6 201282793.07906     -1071.993 6        37.210    38654246.261 6 155644644.58106      -828.804 6        37.444    38654242.894 6 163558750.54406      -871.051 6        36.140
C36        34.000                                                                                                                                    23710768.737 8 123468147.40108     -3162.664 8        48.445                                                                    23710779.092 7 100328077.45907     -2569.896 7        44.497
R03        36.000    20476863.597 7 109614267.70007     -3780.238 7        42.832                                                                    20476867.430 6  85255591.80906     -2940.174 6        37.384
C45        37.000                                                                                                                                    21724232.630 7 113123742.29907      -916.000 7        45.138                                                                    21724227.597 7  91922354.80507      -744.259 7        46.900
R12        38.000    22931739.885 5                     -4258.744 5        34.410                                                                    22931757.945 4                     -3312.175 4        29.194
C40        40.000                                                                                                                                    39375711.591 5                     -1666.864 5        30.860                                                                    39375710.524 4                     -1354.437 4        29.735
R22        41.000    22504135.501 4                      -184.098 4        27.701                                                                    22504162.972 4                      -142.685 4        28.209
C30        43.000                                                                                                                                                                                                                                                                    24651908.851 5 104310313.84105      -450.437 5        31.909
R05        44.000    23554946.335 5                      3126.739 5        34.838
C42        45.000                                                                                                                                    24371878.719 6 126911025.84106       251.235 6        41.578                                                                    24371888.370 7 103125478.83907       204.044 7        44.259
C29        46.000                                                                                                                                    24862524.272 5 129465669.99505      1892.648 5        33.605                                                                    24862507.241 5                      1538.007 5        30.438
C26        48.000                                                                                                                                    24270485.925 7 126382790.20307      1568.909 7        45.582                                                                    24270490.029 6 102696411.79506      1274.865 6        41.089
C22        51.000                                                                                                                                    25641049.085 5                     -4349.840 5        34.329
C14        53.000                                                                                                                                    25985824.641 6 135315112.34006      1484.548 6        36.155    25985854.522 5 104634441.45605      1147.677 5        33.138    25985833.276 6 109954553.34106      1206.082 6        37.773
C21        55.000                                                                                                                                    23573736.851 7 122754486.42107     -2674.730 7        42.980                                                                    23573727.548 7  99748130.28707     -2173.402 7        42.840
I06        58.000    38379449.571 4 150609232.93304      -746.661 4        28.995
I02        59.000    37055013.141 6 145411822.26706      -527.835 6        40.138
> 2025 01 02 10 45 25.0000000  0 39
G13         1.000    22299807.458 6 117186241.78406     -4204.127 6        39.727                                    22299814.151 1  91313988.52601     -3275.927 1         8.381
G17         2.000    22211364.132 6 116721884.22306     -1649.297 6        41.497                                    22211362.377 5  90951895.82005     -1285.166 5        34.314    22211361.182 6  90951819.81306     -1285.109 6        38.883
G19         4.000    21806514.353 5 114594132.57105       908.932 5        35.662                                    21806494.538 2  89293960.26802       708.207 2        13.515
G10         7.000    24554722.120 5 129035907.69115       -88.840 5        32.665                                                                                                    24554697.384 5 100547382.27205       -69.356 5        34.195
G14         8.000    23507377.548 5 123532138.11705     -4024.949 5        32.760                                                                                                    23507400.523 4  96258908.86504     -3136.007 4        28.739
G15         9.000    21165402.502 7 111225067.12807     -3264.952 7        44.364                                    21165405.161 5  86668818.50605     -2544.114 5        33.838    21165402.522 6  86668762.51706     -2544.139 6        36.688
G23        10.000    23624662.702 6 124148389.23506     -2510.398 6        39.198                                    23624666.824 2  96739062.20502     -1956.175 2        16.189    23624667.315 6  96739073.18206     -1955.979 6        39.048
E06        11.000    26493036.083 4 139221755.06804     -3826.357 4        26.323                                                                    26493027.362 7 103964327.17707     -2857.173 7        42.127    26493025.575 7 106676420.71907     -2931.585 7        42.601
G24        12.000    20630301.301 7 108413055.34407       690.656 7        44.123                                    20630300.695 6  84477637.40906       538.173 6        36.049    20630301.880 6  84477658.38606       538.188 6        36.586
E31        13.000    24231705.823 7 127338436.63207     -2414.348 7        45.553                                                                    24231711.568 7  95090444.55307     -1802.949 7        46.065    24231709.307 7  97571039.42507     -1849.931 7        42.984
G12        15.000    22870502.712 7 120185295.51207      2385.136 7        43.130                                    22870503.212 5  93650841.90705      1858.538 5        31.758    22870503.520 6  93650894.90006      1858.441 6        36.915
E24        16.000    24033514.473 8 126296940.95208       254.754 8        48.365                                                                    24033516.318 8  94312718.85408       190.216 8        52.135    24033515.408 8  96773076.31108       195.188 8        52.155
E05        18.000    22407003.710 7 117749607.82307      -371.329 7        44.367                                                                    22407007.493 8  87929898.59008      -277.266 8        48.011    22407006.062 7  90223725.02107      -284.533 7        47.137
E09        21.000    24965185.736 6 131192958.60606     -3164.793 6        36.049                                                                    24965191.362 5  97968805.19505     -2363.199 5        31.358    24965195.051 6 100524477.16706     -2424.885 6        38.937
R14        23.000    20728106.925 7 110492409.14007      1326.967 7        42.933                                                                    20728105.623 7  85938601.98107      1032.092 7        44.703
S23        24.000    38267954.381 6 201099466.85706      -859.022 6        36.620
E03        26.000    27125348.557 6 142544790.92906      1797.490 6        39.042                                                                    27125357.339 6 106445734.61306      1342.297 6        41.063    27125354.467 6 109222592.25706      1377.316 6        37.958
R13        27.000    19880883.503 6 106162796.14106     -2423.723 6        36.132
R21        28.000    24233732.705 5 129679567.56005     -3609.089 5        35.190                                                                    24233788.616 3                     -2807.708 3        22.667
R04        29.000    20283185.102 7 108615562.93607       260.378 7        44.336                                                                    20283185.732 6  84478716.33606       202.535 6        39.372
S36        31.000    38333873.029 5 201446041.24605      -856.468 5        33.635
C07        32.000                                                                                                                                    39213908.365 5                     -1435.178 5        33.455    39213898.493 5 157898178.24005     -1109.903 5        32.838    39213889.233 4                     -1165.456 4        26.024
C10        33.000                                                                                                                                    38655271.934 6 201288153.88806     -1072.508 6        37.093    38655275.687 6 155648789.90606      -829.337 6        37.233    38655272.442 6 163563106.60506      -871.661 6        36.393
C36        34.000                                                                                                                                    23713805.777 8 123483961.81508     -3163.320 8        48.157                                                                    23713815.904 7 100340927.92407     -2570.470 7        44.205
R03        36.000    20480394.756 7 109633177.13007     -3783.783 7        43.001                                                                    20480399.220 5  85270299.11005     -2942.707 5        35.690
C45        37.000                                                                                                                                    21725113.483 7 113128325.73007      -917.561 7        45.559                                                                    21725107.838 7  91926079.19707      -745.640 7        46.970
R12        38.000    22935728.231 5 122518436.58715     -4259.361 5        34.986                                                                    22935748.538 4                     -3312.736 4        28.256
C40        40.000                                                                                                                                    39377312.987 5                     -1667.764 5        31.494                                                                    39377311.665 4                     -1355.035 4        29.905
R22        41.000    22504308.153 5 120129594.28015      -188.347 5        30.136                                                                    22504334.968 4                      -146.483 4        28.104
C30        43.000                                                                                                                                                                                                                                                                    24652439.146 5 104312572.36505      -452.618 5        30.589
R05        44.000    23552024.071 6 125899054.43616      3124.833 6        38.444                                                                    23552114.982 4  97921638.81004      2430.321 4        26.443
