     3.04           OBSERVATION DATA    M                   RINEX VERSION / TYPE
ssrcrin-15.6.1x                         20250102 143000 UTC PGM / RUN BY / DATE 
(00000000023479385599111004) Septentrio proprietary         COMMENT             
ract                                                        MARKER NAME         
01                                                          MARKER NUMBER       
geodetic                                                    MARKER TYPE         
NFB                 CLIMERS@TUW                             OBSERVER / AGENCY   
3296359             SEPT ASTERX SB3 PROB4.14.4              REC # / TYPE / VERS 
Unknown             Unknown                                 ANT # / TYPE        
  4127445.4122  1206914.2473  4695543.0280                  APPROX POSITION XYZ 
        0.0000        0.0000        0.0000                  ANTENNA: DELTA H/E/N
G   23 X1  C1C L1C D1C S1C C1W S1W C2W L2W D2W S2W C2L L2L  SYS / # / OBS TYPES 
       D2L S2L C5Q L5Q D5Q S5Q C1L L1L D1L S1L              SYS / # / OBS TYPES 
E   21 X1  C1C L1C D1C S1C C6C L6C D6C S6C C5Q L5Q D5Q S5Q  SYS / # / OBS TYPES 
       C7Q L7Q D7Q S7Q C8Q L8Q D8Q S8Q                      SYS / # / OBS TYPES 
S    9 X1  C1C L1C D1C S1C C5I L5I D5I S5I                  SYS / # / OBS TYPES 
R   17 X1  C1C L1C D1C S1C C2P L2P D2P S2P C2C L2C D2C S2C  SYS / # / OBS TYPES 
       C3Q L3Q D3Q S3Q                                      SYS / # / OBS TYPES 
C   25 X1  C1P L1P D1P S1P C5P L5P D5P S5P C2I L2I D2I S2I  SYS / # / OBS TYPES 
       C7I L7I D7I S7I C6I L6I D6I S6I C7D L7D D7D S7D      SYS / # / OBS TYPES 
J   17 X1  C1C L1C D1C S1C C2L L2L D2L S2L C5Q L5Q D5Q S5Q  SYS / # / OBS TYPES 
       C1L L1L D1L S1L                                      SYS / # / OBS TYPES 
I    5 X1  C5A L5A D5A S5A                                  SYS / # / OBS TYPES 
SEPTENTRIO RECEIVERS OUTPUT ALIGNED CARRIER PHASES.         COMMENT             
NO FURTHER PHASE SHIFT APPLIED IN THE RINEX ENCODER.        COMMENT             
G L1C                                                       SYS / PHASE SHIFT   
G L2W                                                       SYS / PHASE SHIFT   
G L2L  0.00000                                              SYS / PHASE SHIFT   
G L5Q  0.00000                                              SYS / PHASE SHIFT   
G L1L  0.00000                                              SYS / PHASE SHIFT   
E L1C  0.00000                                              SYS / PHASE SHIFT   
E L6C  0.00000                                              SYS / PHASE SHIFT   
E L5Q  0.00000                                              SYS / PHASE SHIFT   
E L7Q  0.00000                                              SYS / PHASE SHIFT   
E L8Q  0.00000                                              SYS / PHASE SHIFT   
S L1C                                                       SYS / PHASE SHIFT   
S L5I                                                       SYS / PHASE SHIFT   
R L1C                                                       SYS / PHASE SHIFT   
R L2P  0.00000                                              SYS / PHASE SHIFT   
R L2C                                                       SYS / PHASE SHIFT   
R L3Q  0.00000                                              SYS / PHASE SHIFT   
C L1P  0.00000                                              SYS / PHASE SHIFT   
C L5P  0.00000                                              SYS / PHASE SHIFT   
C L2I                                                       SYS / PHASE SHIFT   
C L7I                                                       SYS / PHASE SHIFT   
C L6I                                                       SYS / PHASE SHIFT   
C L7D                                                       SYS / PHASE SHIFT   
J L1C                                                       SYS / PHASE SHIFT   
J L2L  0.00000                                              SYS / PHASE SHIFT   
J L5Q  0.00000                                              SYS / PHASE SHIFT   
J L1L  0.00000                                              SYS / PHASE SHIFT   
I L5A                                                       SYS / PHASE SHIFT   
  2025     1     2    14    30    0.0000000     GPS         TIME OF FIRST OBS   
 C1C    0.000 C2C    0.000 C2P    0.000                     GLONASS COD/PHS/BIS 
DBHZ                                                        SIGNAL STRENGTH UNIT
    18                                                      LEAP SECONDS        
 24 R01  1 R02 -4 R03  5 R04  6 R05  1 R06 -4 R07  5 R08  6 GLONASS SLOT / FRQ #
    R09 -2 R10 -7 R11  0 R12 -1 R13 -2 R14 -7 R15  0 R16 -1 GLONASS SLOT / FRQ #
    R17  4 R18 -3 R19  3 R20  2 R21  4 R22 -3 R23  3 R24  2 GLONASS SLOT / FRQ #
                                                            END OF HEADER       
> 2025 01 02 14 30  0.0000000  0 38
G06         1.000    24024398.774 4                     -3518.010 4        24.887                                                                                                    24024394.224 3                     -2739.334 3        22.076
G11         2.000    22314346.919 5 117262635.10605     -1329.995 5        35.567                                    22314335.955 4  91373478.29604     -1036.357 4        24.256    22314338.329 7  91373504.29007     -1036.382 7        43.503
G25         3.000    19721124.250 7 103635158.04107      -732.631 7        45.356                                    19721123.535 6  80754743.48806      -570.879 6        36.246    19721123.747 5  80754730.46705      -570.747 5        35.862
E25         6.000    23196079.823 7 121896254.68207      -687.116 7        43.494                                                                    23196081.973 7  91026551.61107      -513.124 7        45.073    23196081.225 7  93401053.26707      -526.547 7        43.776
G31         7.000    23923211.903 5                      2508.456 5        35.967                                                                                                    23923198.200 5  97961574.40305      1954.468 5        31.321
G28         8.000    22100175.355 7 116137159.82607      1437.528 7        45.145                                    22100173.601 4  90496551.86804      1120.148 4        24.105    22100173.851 6  90496632.85106      1120.006 6        37.871
G29         9.000    21217777.180 7 111500210.36007      1314.002 7        42.148                                    21217776.964 6  86883277.10106      1023.894 6        39.535    21217777.814 6  86883255.10506      1023.964 6        40.932
E11        10.000    25064946.392 5 131717200.56105      1435.645 5        33.395                                                                    25064948.569 5  98360252.41905      1071.889 5        32.904    25064951.264 5 100926186.28205      1099.832 5        34.619
E10        11.000    24870206.595 5 130693857.07705        31.162 5        35.067                                                                    24870217.397 6  97596118.84706        23.360 6        41.616    24870210.862 7 100142022.06307        23.923 7        43.003
E12        13.000    25639706.648 6 134737567.16506     -1339.881 6        39.204                                                                    25639706.618 7 100615766.79507     -1000.599 7        42.356    25639705.387 7 103240517.26907     -1026.800 7        42.203
G12        15.000    21316557.799 5 112019314.82005     -3064.112 5        34.190                                    21316546.785 1  87287637.48401     -2387.646 1         9.238    21316563.643 3                     -2387.805 3        23.962
E24        16.000    25552061.935 5 134277088.13005     -2808.169 5        32.311                                                                    25552068.322 5 100271785.45105     -2097.011 5        35.838    25552066.794 5 102887656.02305     -2151.768 5        32.563
G32        17.000                                                                                                                                                                    23648548.920 6  96836855.59906     -2380.097 6        36.159
E08        20.000    26363293.291 6 138540047.17206     -1201.625 6        41.628                                                                    26363297.620 5 103455269.25105      -897.044 5        32.078    26363298.751 6 106154078.40606      -920.983 6        36.843
E02        21.000    25608010.302 6 134571010.46506      1271.063 6        36.268                                                                    25608014.894 6 100491360.61106       949.031 6        39.363    25608014.315 6 103113031.65906       974.030 6        40.377
S23        22.000    38082372.051 6 200124259.05906      -865.559 6        36.355
R14        23.000    21849981.958 6 116472635.52006     -4086.656 6        41.700                                                                    21850001.863 6  90589957.76506     -3178.698 6        36.427
R06        24.000    23244679.606 4                     -3209.656 4        29.763
R18        25.000    21654290.289 6 115592127.14606      3298.263 6        40.579                                                                    21654295.349 6  89904998.66606      2565.147 6        39.486
E03        26.000    26434037.150 5 138911696.78705     -3366.102 5        35.962                                                                    26434077.630 4 103732867.08204     -2514.101 4        26.802    26434041.475 6 106438994.43906     -2579.214 6        40.434
S21        27.000    38366169.108 5 201615693.19705      -860.415 5        35.952
R07        28.000    23266970.403 6 124549877.58406      -166.098 6        37.849                                                                    23267018.541 5                      -129.123 5        31.864
R15        30.000    19184495.223 5 102516422.26105     -1103.570 5        35.067                                                                    19184500.246 7  79734795.10007      -858.227 7        44.962
S36        31.000    38137500.982 6 200413938.50406      -860.475 6        36.314
R16        34.000    21064515.013 8 112523404.20208      2237.481 8        52.202                                                                    21064518.427 7  87517880.51207      1740.320 7        43.541
C44        35.000                                                                                                                                    22436383.860 8 116832425.44408      1498.427 8        48.121                                                                    22436386.796 8  94935801.69908      1217.681 8        49.396
R17        36.000    19332422.913 7 103451809.73007       235.859 7        42.961                                                                    19332425.896 6  80462464.89906       183.422 6        37.819
R24        38.000    21200556.734 7 113369456.65707     -3971.028 7        45.552                                                                    21200559.861 6  88175846.21106     -3088.786 6        36.775
C05        40.000                                                                                                                                    39377889.585 5 205050999.49305      -826.590 5        32.234    39377894.304 5 158558460.99305      -639.441 5        34.552
C12        41.000                                                                                                                                    24520729.992 5 127685940.46005      2406.170 5        35.576    24520735.220 5  98734862.77505      1860.651 5        34.190    24520732.613 5 103755315.39105      1955.178 5        33.910
C35        42.000                                                                                                                                    21814827.524 6 113595513.25806     -1310.340 6        40.784                                                                    21814830.143 6  92305696.90006     -1064.814 6        41.237
C25        45.000                                                                                                                                    25936260.235 5                      2264.870 5        34.919
C29        46.000                                                                                                                                    25454117.364 3                     -3920.827 3        22.171                                                                    25454144.182 3                     -3185.389 3        23.314
C26        48.000                                                                                                                                    22130571.571 6 115239693.15206     -2398.117 6        41.802                                                                    22130578.139 7  93641736.22507     -1948.702 7        42.135
C41        49.000                                                                                                                                    26914357.245 5 140149997.64405     -1990.681 5        32.503                                                                    26914353.487 5 113883423.82005     -1617.443 5        31.336
C24        51.000                                                                                                                                    21809948.985 6 113570136.64806       573.977 6        39.114                                                                    21809951.045 6  92285097.78506       466.403 6        41.828
I02        55.000    37306284.660 6 146397886.32106      -959.135 6        39.087
I06        58.000    38537672.820 6 151230123.50406      -723.013 6        41.356
> 2025 01 02 14 30  5.0000000  0 39
G06         1.000    24027742.018 4                     -3521.135 4        28.209                                                                                                    24027738.690 3                     -2743.189 3        23.790
G11         2.000                                                                                                                                                                    22315605.007 7  91378692.22607     -1038.842 7        44.411
G25         3.000    19721822.530 7 103638825.73507      -734.556 7        45.532                                    19721820.791 5  80757601.44505      -572.383 5        35.938    19721821.975 5  80757588.42605      -572.324 5        35.648
E25         6.000    23196733.858 7 121899692.39407      -687.921 7        42.950                                                                    23196736.233 7  91029118.74807      -513.687 7        45.023    23196735.218 7  93403687.37407      -527.206 7        43.043
G31         7.000    23920823.080 6 125704805.21116      2507.409 6        36.771                                    23920824.341 3  97951776.95013      1953.841 3        19.522    23920812.160 5  97951802.99805      1954.022 5        30.770
G28         8.000    22098808.920 7 116129977.32307      1435.464 7        46.386                                    22098806.926 4  90490955.13304      1118.546 4        24.286    22098806.969 6  90491036.12206      1118.461 6        37.021
G29         9.000    21216528.238 6 111493644.93206      1312.078 6        41.869                                    21216527.673 6  86878161.18906      1022.398 6        38.700    21216528.718 6  86878139.19506      1022.355 6        40.992
E11        10.000    25063581.534 5 131710026.78305      1434.192 5        33.611                                                                    25063582.558 5  98354895.38605      1070.737 5        31.781    25063585.593 5 100920689.49905      1098.882 5        34.305
E10        11.000    24870179.161 6 130693706.07506        29.094 6        37.788                                                                    24870189.452 6  97596006.09806        21.799 6        41.590    24870181.608 7 100141906.37007        22.164 7        42.108
G24        12.000    24814471.387 3                     -4769.521 3        23.810
E12        13.000    25640982.567 6 134744272.55106     -1342.173 6        40.038                                                                    25640982.646 7 100620774.07707     -1002.414 7        42.197    25640981.514 7 103245655.16807     -1028.507 7        42.222
G12        15.000    21319473.567 5 112034638.85805     -3065.683 5        32.850                                    21319462.828 1  87299578.18401     -2388.803 1        11.111    21319485.423 4                     -2389.188 4        27.341
E24        16.000    25554733.614 5 134291129.55705     -2808.616 5        31.894                                                                    25554739.790 6 100282270.90906     -2097.123 6        36.367    25554735.485 4 102898414.97404     -2152.164 4        28.663
G32        17.000                                                                                                                                                                    23651461.190 6  96848759.19206     -2381.301 6        36.972
E08        20.000    26364437.545 6 138546060.90806     -1203.732 6        41.042                                                                    26364442.035 5 103459760.08205      -899.396 5        31.260    26364443.022 5 106158686.33405      -922.300 5        35.524
E02        21.000    25606802.696 6 134564655.79406      1270.891 6        37.724                                                                    25606805.762 6 100486615.24106       949.060 6        40.060    25606804.992 6 103108162.51106       973.836 6        40.782
S23        22.000    38083197.204 6 200128585.80306      -865.241 6        36.601
R14        23.000    21853813.842 6 116493071.94506     -4088.036 6        41.108
R06        24.000    23247687.375 4                     -3212.728 4        29.100
R18        25.000    21651200.741 6 115575640.31606      3296.583 6        40.126                                                                    21651206.858 6  89892175.62306      2563.956 6        37.815
E03        26.000    26437240.748 6 138928529.77106     -3366.835 6        36.272                                                                                                                                    26437244.821 6 106451892.45306     -2579.899 6        40.286
S21        27.000    38366991.524 6 201619995.34606      -860.341 6        36.151
R07        28.000    23267125.787 6 124550717.81606      -169.955 6        36.628                                                                    23267174.480 5                      -132.385 5        32.210
R15        30.000    19185534.416 6 102521946.24206     -1106.294 6        37.516                                                                    19185533.704 7  79739091.55607      -860.341 7        44.566
S36        31.000    38138316.360 6 200418240.46506      -860.190 6        36.397
R16        34.000    21062420.689 8 112512218.68308      2236.662 8        51.273                                                                    21062424.521 7  87509180.69407      1739.563 7        45.088
C44        35.000                                                                                                                                    22434946.202 8 116824937.43308      1496.731 8        48.316                                                                    22434948.733 8  94929717.07208      1216.380 8        49.292
R17        36.000    19332203.235 6 103450639.94706       231.917 6        41.282                                                                    19332206.399 6  80461555.12106       180.458 6        39.168
R24        38.000    21204272.318 7 113389318.44307     -3973.701 7        44.740                                                                    21204275.656 6  88191294.24206     -3090.592 6        36.915
C05        40.000                                                                                                                                    39378683.535 5 205055131.83005      -826.638 5        32.234    39378687.615 5 158561656.34605      -639.069 5        34.714
C12        41.000                                                                                                                                    24518421.092 6 127673910.65806      2405.427 6        37.406    24518424.438 5  98725560.66205      1860.027 5        31.857    24518422.480 5 103745540.20905      1954.997 5        34.371
C35        42.000                                                                                                                                    21816087.590 6 113602071.45306     -1312.911 6        39.727                                                                    21816089.737 6  92311025.93306     -1066.566 6        41.633
C25        45.000                                                                                                                                    25934083.795 6 135045610.86016      2265.012 6        36.144
C29        46.000                                                                                                                                                                                                                                                                    25457908.560 4                     -3186.966 4        24.150
C26        48.000                                                                                                                                    22132876.663 6 115251688.23806     -2399.944 6        41.735                                                                    22132881.395 7  93651483.22207     -1950.018 7        42.353
C41        49.000                                                                                                                                    26916273.115 4 140159955.62404     -1993.365 4        25.835                                                                    26916268.259 5 113891515.47605     -1619.187 5        32.395
C24        51.000                                                                                                                                    21809398.757 6 113567270.85706       572.353 6        38.706                                                                    21809401.230 7  92282769.10207       465.154 7        42.195
I02        55.000    37307507.152 6 146402681.49206      -959.070 6        38.856
I06        58.000    38538593.690 6 151233737.28306      -722.788 6        41.306
> 2025 01 02 14 30 10.0000000  0 39
G06         1.000                                                                                                                                                                    24031084.246 4                     -2745.341 4        26.886
G11         2.000    22316870.196 6 117275967.52706     -1336.760 6        36.711                                    22316873.748 3  91383867.10203     -1041.638 3        21.881    22316874.627 7  91383893.12607     -1041.634 7        44.831
G25         3.000    19722521.642 7 103642505.05007      -737.176 7        45.117                                    19722520.229 5  80760468.45705      -574.431 5        35.524    19722522.532 5  80760455.46005      -574.347 5        34.652
E25         6.000    23197388.565 7 121903135.59807      -689.341 7        42.036                                                                    23197391.507 7  91031689.96807      -514.781 7        44.871    23197390.148 7  93406325.65607      -528.151 7        42.809
G31         7.000                                                                                                                                                                    23918428.544 5  97942036.47405      1952.843 5        31.879
G28         8.000    22097444.158 7 116122806.77907      1432.826 7        47.762                                    22097442.656 4  90485367.70404      1116.477 4        24.406    22097442.680 6  90485448.71106      1116.314 6        36.824
G29         9.000    21215280.673 6 111487090.48606      1309.691 6        41.120                                    21215280.435 6  86873053.84106      1020.534 6        37.750    21215280.415 6  86873031.84906      1020.481 6        40.436
E11        10.000    25062217.894 5 131702861.70505      1431.997 5        33.683                                                                    25062218.681 5  98349544.80005      1069.431 5        32.240    25062222.450 5 100915199.37105      1097.508 5        34.190
E10        11.000    24870152.612 6 130693567.43606        26.196 6        39.213                                                                    24870163.989 6  97595902.57906        19.636 6        41.204    24870154.671 6 100141800.13206        20.174 6        41.049
G24        12.000    24819015.495 4                     -4769.442 4        24.060
E12        13.000    25642260.805 6 134750990.56306     -1345.051 6        39.513                                                                    25642261.233 7 100625790.76907     -1004.509 7        42.045    25642259.977 7 103250802.72907     -1030.592 7        42.385
G12        15.000    21322390.794 5 112049970.83005     -3067.201 5        33.790                                    21322380.320 1  87311525.01001     -2390.010 1        11.630    21322405.446 4                     -2389.967 4        28.427
E24        16.000    25557406.937 5 134305174.33605     -2809.513 5        32.455                                                                    25557412.157 6 100292758.91306     -2098.044 6        36.363
G32        17.000                                                                                                                                                                    23654371.688 6  96860670.66706     -2383.218 6        37.161
E08        20.000    26365585.423 6 138552086.79606     -1206.564 6        40.796                                                                    26365588.016 5 103464259.91105      -900.868 5        30.755    26365589.722 5 106163303.59205      -924.600 5        34.995
E02        21.000    25605593.641 6 134558303.22306      1270.134 6        38.799                                                                    25605596.841 6 100481871.46506       948.458 6        40.555    25605595.858 6 103103294.96406       973.291 6        41.356
S23        22.000    38084019.830 6 200132912.60206      -865.604 6        36.197
R14        23.000    21857648.191 6 116513516.56506     -4089.844 6        40.024                                                                    21857646.670 5  90621754.15505     -3181.125 5        35.462
R06        24.000    23250696.706 4                     -3215.814 4        28.313
R18        25.000    21648113.284 6 115559162.85206      3294.402 6        38.417                                                                    21648117.885 5  89879359.84505      2562.514 5        35.771
E03        26.000    26440446.285 6 138945368.56206     -3368.367 6        36.257                                                                    26440468.523 4 103758011.83204     -2515.734 4        28.739    26440449.415 6 106464794.89506     -2581.202 6        40.617
S21        27.000    38367811.803 6 201624297.51006      -860.522 6        36.246
R07        28.000    23267283.216 6 124551579.08706      -174.425 6        36.862
R15        30.000    19186582.196 6 102527484.64006     -1109.106 6        37.338                                                                    19186570.476 7  79743399.21607      -862.745 7        44.966
S36        31.000    38139135.503 6 200422542.53506      -860.370 6        36.306
R16        34.000    21060327.377 8 112501039.08208      2235.233 8        50.814                                                                    21060331.510 7  87500485.46207      1738.512 7        46.230
C44        35.000                                                                                                                                    22433510.467 8 116817459.07708      1494.597 8        48.706                                                                    22433512.453 8  94923640.30208      1214.487 8        49.079
R17        36.000    19331988.643 6 103449492.25906       227.231 6        41.485                                                                    19331992.036 6  80460662.47306       176.779 6        38.988
R24        38.000    21207987.340 7 113409194.47207     -3976.699 7        44.421                                                                    21207991.449 6  88206753.40506     -3093.044 6        37.104
C05        40.000                                                                                                                                    39379478.249 5 205059263.97105      -826.445 5        31.909    39379481.596 5 158564851.59405      -639.019 5        34.810
C12        41.000                                                                                                                                    24516112.396 6 127661885.91706      2404.114 6        38.766    24516114.160 4  98716262.42304      1859.278 4        28.682    24516113.453 5 103735769.14405      1953.722 5        34.962
C35        42.000                                                                                                                                    21817349.304 6 113608642.66806     -1315.633 6        38.501                                                                    21817351.740 6  92316365.54606     -1069.065 6        41.645
C25        45.000                                                                                                                                    25931905.245 6 135034286.61006      2264.782 6        36.726                                                                    25931940.477 5 109726391.26615      1840.443 5        30.143
C29        46.000                                                                                                                                    25461639.792 3                     -3920.583 3        19.791                                                                    25461671.233 3                     -3187.027 3        22.952
C26        48.000                                                                                                                                    22135183.879 7 115263693.00907     -2402.157 7        42.286                                                                    22135186.516 7  93661238.09207     -1951.853 7        42.447
C41        49.000                                                                                                                                                                                                                                                                    26918183.936 5 113899616.56605     -1620.859 5        33.311
C24        51.000                                                                                                                                    21808851.201 6 113564413.85506       570.434 6        39.033                                                                    21808852.637 7  92280447.56807       463.597 7        42.609
I02        55.000    37308729.252 6 146407477.49106      -959.540 6        38.685
I06        58.000    38539515.019 6 151237350.86806      -722.754 6        41.316
> 2025 01 02 14 30 15.0000000  0 39
G06         1.000                                                                                                                                                                    24034425.952 4                     -2746.914 4        28.047
G11         2.000    22318147.121 6 117282658.98906     -1339.752 6        38.465                                    22318147.288 3  91389081.23703     -1043.958 3        23.238    22318147.811 7  91389107.26407     -1044.036 7        44.683
G25         3.000    19723224.305 7 103646196.28807      -739.279 7        44.731                                    19723222.081 5  80763344.75605      -576.065 5        35.581    19723225.417 5  80763331.72705      -576.142 5        34.152
E25         6.000    23198044.565 6 121906584.59406      -690.150 6        40.307                                                                    23198047.865 7  91034265.52707      -515.457 7        45.001    23198046.312 7  93408968.40107      -528.894 7        42.688
G31         7.000    23916034.520 6 125679744.35506      2504.916 6        40.191                                    23916048.295 3  97932249.08403      1951.874 3        22.362    23916046.433 5  97932275.14805      1951.742 5        34.271
G28         8.000    22096082.039 8 116115648.54608      1430.543 8        49.014                                    22096080.738 4  90479789.87004      1114.700 4        25.233    22096080.561 6  90479870.85006      1114.821 6        37.074
G29         9.000    21214035.702 6 111480547.33506      1307.736 6        40.946                                    21214035.222 6  86867955.28206      1019.014 6        37.013    21214035.140 6  86867933.29806      1018.984 6        39.961
E11        10.000    25060857.127 5 131695705.73305      1430.391 5        34.986                                                                    25060857.405 5  98344201.06905      1068.205 5        31.796    25060863.195 5 100909716.23205      1095.932 5        33.599
E10        11.000    24870128.360 6 130693441.47406        24.082 6        39.541                                                                    24870140.913 6  97595808.52506        18.052 6        40.710    24870130.412 6 100141703.59706        18.583 6        39.793
G24        12.000    24823554.769 4                     -4770.047 4        24.647
E12        13.000    25643541.067 6 134757721.50406     -1347.391 6        38.634                                                                    25643542.215 6 100630817.10506     -1005.987 6        41.890    25643541.008 7 103255960.20307     -1032.351 7        42.489
G12        15.000    21325310.679 5 112065311.17805     -3069.042 5        33.796                                    21325299.297 2  87323478.43702     -2391.444 2        14.571    21325320.591 4                     -2391.422 4        29.156
E24        16.000    25560080.834 5 134319222.92705     -2810.021 5        33.820                                                                    25560085.247 6 100303249.71006     -2098.283 6        36.476    25560066.031 3                     -2153.172 3        20.643
G32        17.000    23657238.976 6 124319782.11516     -3060.187 6        36.200                                    23657299.100 1  96872693.09811     -2384.531 1         8.476    23657279.883 6  96872590.17506     -2384.540 6        37.115
E08        20.000    26366734.884 6 138558125.18206     -1208.662 6        39.477                                                                    26366736.390 5 103468769.09205      -902.507 5        30.045    26366738.851 5 106167930.38705      -926.270 5        33.653
E02        21.000    25604385.753 6 134551953.07106      1269.938 6        38.670                                                                    25604388.657 6 100477129.49406       948.341 6        41.135    25604387.408 6 103098429.29206       972.925 6        41.836
S23        22.000    38084843.901 6 200137239.63806      -865.211 6        36.193
R14        23.000    21861485.061 6 116533969.74106     -4091.226 6        38.580                                                                    21861487.972 6  90637662.18006     -3182.164 6        36.866
R06        24.000    23253708.728 4                     -3219.298 4        28.237
R18        25.000    21645028.418 6 115542695.21106      3292.690 6        36.881                                                                    21645033.301 5  89866551.74305      2561.011 5        33.210
E03        26.000    26443651.422 6 138962213.44806     -3369.372 6        36.223                                                                                                                                    26443654.579 6 106477701.99706     -2581.703 6        40.260
S21        27.000    38368628.527 6 201628600.04206      -860.428 6        36.439
R07        28.000    23267446.656 5 124552461.41115      -178.270 5        30.445                                                                    23267473.832 5                      -138.930 5        33.299
R15        30.000    19187628.697 6 102533037.71206     -1111.937 6        36.257                                                                    19187609.619 7  79747718.37407      -864.958 7        45.427
S36        31.000    38139958.442 6 200426845.10606      -860.391 6        36.605
R16        34.000    21058235.964 8 112489865.40808      2234.292 8        50.366                                                                    21058239.679 7  87491794.82707      1737.758 7        46.751
C44        35.000                                                                                                                                    22432076.476 8 116809990.73208      1492.761 8        48.942                                                                    22432078.229 8  94917571.67608      1213.126 8        48.750
R17        36.000    19331777.710 7 103448366.90507       222.980 7        42.419                                                                    19331781.148 6  80459787.16906       173.514 6        37.403
R24        38.000    21211706.627 7 113429085.11207     -3979.330 7        46.093                                                                    21211711.166 6  88222223.89906     -3095.005 6        37.641
C05        40.000                                                                                                                                    39380271.658 5 205063396.26805      -826.361 5        31.789    39380276.083 5 158568046.96705      -638.972 5        34.652
C12        41.000                                                                                                                                    24513804.667 6 127649866.55506      2403.480 6        40.114    24513802.591 4  98706968.36604      1858.306 4        25.008    24513805.427 5 103726002.47605      1953.232 5        35.438
C35        42.000                                                                                                                                    21818612.704 6 113615227.20906     -1318.188 6        39.456                                                                    21818616.607 6  92321716.03406     -1070.958 6        41.828
C25        45.000                                                                                                                                    25929723.859 6 135022963.38506      2264.727 6        37.263                                                                    25929757.497 5 109717190.18705      1840.734 5        30.717
C29        46.000                                                                                                                                    25465407.393 3                     -3924.479 3        22.933                                                                    25465436.585 4                     -3187.794 4        24.256
C26        48.000                                                                                                                                    22137492.459 7 115275707.81407     -2403.779 7        43.064                                                                    22137493.766 7  93671001.13907     -1953.207 7        42.758
C41        49.000                                                                                                                                                                                                                                                                    26920100.996 5 113907727.48705     -1623.037 5        33.940
C24        51.000                                                                                                                                    21808305.243 6 113561566.00206       568.845 6        40.505                                                                    21808305.938 7  92278133.52107       462.228 7        43.147
I02        55.000    37309951.942 6 146412274.10806      -959.089 6        38.754
I06        58.000    38540435.356 6 151240964.52606      -722.660 6        41.261
> 2025 01 02 14 30 20.0000000  0 39
G06         1.000    24037763.778 4                     -3527.409 4        28.844                                                                                                    24037776.557 4                     -2748.878 4        28.825
G11         2.000    22319426.508 6 117289366.84106     -1343.308 6        39.153                                    22319423.986 4  91394308.15804     -1046.731 4        24.015    22319423.661 7  91394334.15807     -1046.817 7        43.956
G25         3.000    19723929.018 7 103649898.82607      -741.755 7        44.119                                    19723926.237 5  80766229.86005      -577.995 5        35.405    19723930.131 5  80766216.85905      -578.047 5        33.946
E25         6.000    23198701.831 6 121910038.80206      -691.522 6        38.544                                                                    23198704.985 7  91036844.97307      -516.391 7        45.165    23198703.695 7  93411615.12007      -529.896 7        42.766
G31         7.000    23913655.697 6 125667223.33106      2503.387 6        40.675                                    23913662.130 4  97922492.50404      1950.677 4        25.338    23913662.619 5  97922518.51205      1950.656 5        35.924
G28         8.000    22094722.125 8 116108502.00208      1427.968 8        49.638                                    22094720.918 4  90474221.13504      1112.708 4        25.489    22094720.158 6  90474302.13806      1112.961 6        36.650
G29         9.000    21212792.639 6 111474014.90106      1305.230 6        41.816                                    21212792.017 6  86862865.07306      1017.062 6        36.620    21212791.923 6  86862843.08906      1017.164 6        39.306
E11        10.000    25059497.939 6 131688558.17306      1428.757 6        37.297                                                                    25059497.547 5  98338863.60105      1066.750 5        31.675    25059507.130 5 100904239.58405      1094.534 5        32.946
E10        11.000    24870106.244 6 130693327.60106        21.411 6        40.012                                                                    24870120.001 6  97595723.48406        16.006 6        39.985    24870107.923 6 100141616.33406        16.415 6        37.675
G24        12.000    24828093.975 4                     -4769.029 4        25.459                                                                                                    24828099.836 3                     -3717.697 3        20.524
E12        13.000    25644824.539 6 134764464.79706     -1350.173 6        38.006                                                                    25644825.630 7 100635852.67807     -1008.098 7        42.155    25644824.403 7 103261127.12807     -1034.402 7        42.523
G12        15.000    21328230.516 5 112080659.08605     -3070.594 5        35.695                                    21328219.839 2  87335437.76102     -2392.678 2        15.810
E24        16.000    25562754.953 6 134333274.58806     -2810.742 6        36.185                                                                    25562758.507 6 100313742.85206     -2098.896 6        36.367
G32        17.000                                                                                                                                                                    23660189.082 6  96884517.27506     -2386.070 6        36.688
E08        20.000    26367886.645 6 138564175.43906     -1211.412 6        38.550                                                                    26367886.660 4 103473287.23004      -905.142 4        29.791    26367889.924 5 106172566.31905      -928.335 5        32.832
E02        21.000    25603178.266 6 134545604.78906      1269.257 6        38.865                                                                    25603180.764 6 100472388.89606       947.946 6        41.721    25603179.328 7 103093565.00407       972.632 7        42.220
S23        22.000    38085662.888 5 200141566.27005      -865.289 5        35.229
R14        23.000    21865322.790 6 116554430.57706     -4093.155 6        37.478                                                                    21865331.817 6  90653576.10106     -3183.468 6        38.339
R06        24.000    23256730.400 4                     -3222.593 4        28.976
R18        25.000    21641945.868 6 115526236.76206      3290.694 6        36.469                                                                    21641951.641 5  89853750.75805      2559.505 5        30.068
E03        26.000    26446857.822 5 138979063.83905     -3370.772 5        35.957                                                                    26446855.779 5 103783173.93705     -2517.164 5        32.431    26446860.847 6 106490613.32406     -2582.729 6        39.970
S21        27.000    38369448.677 6 201632902.39206      -860.609 6        36.382
R07        28.000                                                                                                                                    23267644.648 5                      -142.075 5        31.992
R15        30.000    19188670.734 5 102538604.87105     -1114.877 5        32.090                                                                    19188651.011 7  79752048.56207      -867.225 7        45.099
S36        31.000    38140774.411 6 200431147.36806      -860.436 6        36.427
R16        34.000    21056145.021 8 112478697.48408      2232.964 8        49.015                                                                    21056149.122 7  87483108.68607      1736.769 7        46.868
C44        35.000                                                                                                                                    22430643.972 8 116802531.78908      1490.666 8        48.703                                                                    22430645.718 8  94911510.68208      1211.127 8        48.391
R17        36.000    19331571.723 7 103447263.28307       218.391 7        44.656                                                                    19331574.336 6  80458928.78306       169.761 6        36.900
R24        38.000    21215431.240 7 113448989.94107     -3982.458 7        47.314                                                                    21215432.752 6  88237705.41506     -3097.386 6        37.641
C05        40.000                                                                                                                                    39381062.957 5 205067528.12505      -826.339 5        32.204    39381068.504 5 158571241.94105      -638.944 5        34.486
C12        41.000                                                                                                                                    24511498.131 6 127637852.00806      2402.266 6        40.739                                                                    24511498.023 5 103716239.70405      1952.046 5        35.862
C35        42.000                                                                                                                                    21819879.999 6 113621824.45906     -1321.054 6        41.304                                                                    21819883.698 6  92327076.84406     -1073.563 6        41.897
C25        45.000                                                                                                                                    25927547.454 6 135011640.48406      2264.285 6        38.279
C29        46.000                                                                                                                                    25469174.453 4                     -3923.767 4        26.551                                                                    25469201.437 4                     -3189.103 4        24.917
C26        48.000                                                                                                                                    22139801.628 7 115287732.05307     -2405.976 7        44.360                                                                    22139803.067 7  93680771.83607     -1955.223 7        42.950
C41        49.000                                                                                                                                                                                                                                                                    26922020.422 5 113915847.57705     -1625.328 5        34.557
C24        51.000                                                                                                                                    21807760.493 6 113558726.75306       566.738 6        40.343                                                                    21807760.483 7  92275826.40507       460.433 7        43.386
I02        55.000    37311174.005 6 146417071.22606      -959.622 6        38.874
I06        58.000    38541355.763 6 151244577.77906      -722.727 6        41.383
> 2025 01 02 14 30 25.0000000  0 39
G06         1.000    24041124.024 4                     -3529.078 4        27.832                                                                                                    24041139.203 4                     -2750.589 4        28.408
G11         2.000    22320706.108 6 117296091.52306     -1346.217 6        38.850                                    22320703.657 4  91399548.16504     -1049.000 4        24.752    22320703.620 7  91399574.18107     -1049.165 7        43.839
G25         3.000    19724636.123 7 103653613.15607      -743.874 7        43.934                                    19724632.757 5  80769124.16105      -579.636 5        35.476    19724638.655 5  80769111.11905      -579.505 5        35.600
E25         6.000    23199360.816 6 121913498.67906      -692.372 6        37.195                                                                    23199363.305 7  91039428.63707      -516.923 7        44.974    23199362.190 7  93414266.17407      -530.442 7        42.554
G31         7.000    23911276.918 6 125654708.86106      2502.454 6        41.135                                    23911278.630 4  97912741.02104      1949.938 4        26.443    23911279.337 6  97912767.06906      1950.014 6        36.801
G28         8.000    22093364.082 8 116101367.62908      1425.920 8        49.792                                    22093363.553 4  90468661.90004      1111.097 4        26.144    22093363.125 6  90468742.90906      1110.910 6        36.253
G29         9.000    21211551.744 6 111467493.64906      1303.475 6        41.292                                    21211550.905 6  86857783.58606      1015.702 6        36.401    21211551.158 6  86857761.59506      1015.631 6        39.048
E11        10.000    25058140.699 6 131681419.61006      1427.054 6        38.727                                                                    25058139.572 5  98333532.85405      1065.741 5        31.449    25058152.832 5 100898769.76405      1093.230 5        32.305
E10        11.000    24870087.647 6 130693226.25606        19.331 6        39.604                                                                    24870100.538 6  97595647.82206        14.349 6        38.069    24870086.893 5 100141538.66605        14.896 5        35.152
G24        12.000    24832630.240 4                     -4770.473 4        25.759                                                                                                    24832636.896 3                     -3720.634 3        20.976
E12        13.000    25646109.793 6 134771220.81506     -1352.062 6        37.164                                                                    25646111.357 6 100640897.77606     -1009.796 6        41.938    25646110.215 7 103266303.83707     -1036.138 7        42.464
G12        15.000    21331151.400 6 112096015.20306     -3071.883 6        39.006                                    21331142.147 3  87347403.52603     -2393.672 3        18.896    21331138.861 4                     -2393.872 4        29.640
E24        16.000    25565429.422 6 134347329.84306     -2811.214 6        37.875                                                                    25565433.085 6 100324238.65406     -2099.053 6        36.030
G32        17.000    23663098.820 6 124350405.21506     -3064.004 6        38.799                                    23663120.509 3  96896555.28203     -2387.519 3        19.940    23663103.656 6  96896452.33906     -2387.792 6        36.820
E08        20.000    26369040.183 6 138570238.02406     -1213.372 6        37.214                                                                    26369040.808 5 103477814.42505      -906.238 5        30.143    26369043.307 5 106177211.69105      -930.130 5        32.192
E02        21.000    25601969.588 6 134539258.79506      1269.221 6        38.303                                                                    25601973.317 6 100467650.00806       947.879 6        41.914    25601971.616 7 103088702.48907       972.505 7        42.172
S23        22.000    38086475.981 5 200145893.09105      -865.161 5        34.581
R14        23.000    21869162.274 6 116574899.78106     -4094.493 6        38.093                                                                    21869173.379 6  90669496.58206     -3184.567 6        39.000
R06        24.000    23259750.780 4                     -3225.678 4        28.171
R18        25.000    21638866.248 6 115509787.92706      3289.029 6        38.291                                                                    21638868.829 4  89840957.27904      2557.881 4        27.066
E03        26.000    26450063.739 5 138995920.13405     -3371.512 5        35.152                                                                    26450066.519 5 103795761.39805     -2517.699 5        32.144    26450068.204 6 106503529.17106     -2583.463 6        39.471
S21        27.000    38370266.121 6 201637204.88306      -860.243 6        36.427
R07        28.000                                                                                                                                    23267816.395 5                      -145.413 5        33.790
R15        30.000    19189699.957 5 102544186.70405     -1117.638 5        34.452                                                                    19189695.664 7  79756390.02907      -869.268 7        44.763
S36        31.000    38141585.791 6 200435449.41906      -860.179 6        36.212
R16        34.000    21054055.192 8 112467535.49308      2232.108 8        48.207                                                                    21054058.976 7  87474427.15507      1735.905 7        46.658
C44        35.000                                                                                                                                    22429213.147 8 116795082.70208      1489.113 8        48.731                                                                    22429215.048 7  94905457.68107      1210.098 7        47.772
R17        36.000    19331371.205 7 103446182.00907       214.354 7        46.328                                                                    19331372.259 6  80458087.75506       166.447 6        36.612
R24        38.000    21219159.287 7 113468909.04007     -3985.086 7        47.884                                                                    21219156.642 6  88253198.01306     -3099.434 6        36.302
C05        40.000                                                                                                                                    39381856.723 5 205071660.00105      -826.226 5        32.156    39381862.082 5 158574436.95805      -638.589 5        34.571
C12        41.000                                                                                                                                    24509191.508 6 127625842.72406      2401.734 6        41.361                                                                    24509191.679 6 103706481.24206      1951.395 6        36.151
C35        42.000                                                                                                                                    21821150.448 7 113628434.89907     -1323.147 7        42.995                                                                    21821153.110 6  92332448.35906     -1075.124 6        41.566
C25        45.000                                                                                                                                    25925375.924 6 135000318.32806      2264.566 6        39.405                                                                    25925382.369 5 109698789.36605      1840.233 5        34.171
C29        46.000                                                                                                                                    25472942.636 4                     -3923.878 4        27.617                                                                    25472967.379 4                     -3189.201 4        24.737
C26        48.000                                                                                                                                    22142112.113 7 115299766.16807     -2407.548 7        45.350                                                                    22142114.186 7  93690550.54207     -1956.380 7        43.035
C41        49.000                                                                                                                                                                                                                                                                    26923940.815 5 113923977.27005     -1626.730 5        34.629
C24        51.000                                                                                                                                    21807216.316 6 113555896.52306       565.420 6        38.345                                                                    21807216.882 7  92273526.60507       459.437 7        43.300
I02        55.000    37312396.538 6 146421868.88206      -959.343 6        38.805
I06        58.000    38542276.884 6 151248190.96006      -722.388 6        41.566
> 2025 01 02 14 30 30.0000000  0 39
G06         1.000    24044489.211 4                     -3531.401 4        27.401                                                                                                    24044501.694 4                     -2752.147 4        28.730
G11         2.000    22321988.439 6 117302832.94706     -1350.045 6        40.086                                    22321986.503 4  91404801.21104     -1051.984 4        25.188    22321986.420 7  91404827.21007     -1052.019 7        43.759
