     3.04           OBSERVATION DATA    M                   RINEX VERSION / TYPE
ssrcrin-15.6.1x                         20250102 021500 UTC PGM / RUN BY / DATE 
(00000000023479385599111004) Septentrio proprietary         COMMENT             
ract                                                        MARKER NAME         
01                                                          MARKER NUMBER       
geodetic                                                    MARKER TYPE         
NFB                 CLIMERS@TUW                             OBSERVER / AGENCY   
3296359             SEPT ASTERX SB3 PROB4.14.4              REC # / TYPE / VERS 
Unknown             Unknown                                 ANT # / TYPE        
  4127446.0125  1206914.7654  4695542.3274                  APPROX POSITION XYZ 
        0.0000        0.0000        0.0000                  ANTENNA: DELTA H/E/N
G   23 X1  C1C L1C D1C S1C C1W S1W C2W L2W D2W S2W C2L L2L  SYS / # / OBS TYPES 
       D2L S2L C5Q L5Q D5Q S5Q C1L L1L D1L S1L              SYS / # / OBS TYPES 
E   21 X1  C1C L1C D1C S1C C6C L6C D6C S6C C5Q L5Q D5Q S5Q  SYS / # / OBS TYPES 
       C7Q L7Q D7Q S7Q C8Q L8Q D8Q S8Q                      SYS / # / OBS TYPES 
S    9 X1  C1C L1C D1C S1C C5I L5I D5I S5I                  SYS / # / OBS TYPES 
R   17 X1  C1C L1C D1C S1C C2P L2P D2P S2P C2C L2C D2C S2C  SYS / # / OBS TYPES 
       C3Q L3Q D3Q S3Q                                      SYS / # / OBS TYPES 
C   25 X1  C1P L1P D1P S1P C5P L5P D5P S5P C2I L2I D2I S2I  SYS / # / OBS TYPES 
       C7I L7I D7I S7I C6I L6I D6I S6I C7D L7D D7D S7D      SYS / # / OBS TYPES 
J   17 X1  C1C L1C D1C S1C C2L L2L D2L S2L C5Q L5Q D5Q S5Q  SYS / # / OBS TYPES 
       C1L L1L D1L S1L                                      SYS / # / OBS TYPES 
I    5 X1  C5A L5A D5A S5A                                  SYS / # / OBS TYPES 
SEPTENTRIO RECEIVERS OUTPUT ALIGNED CARRIER PHASES.         COMMENT             
NO FURTHER PHASE SHIFT APPLIED IN THE RINEX ENCODER.        COMMENT             
G L1C                                                       SYS / PHASE SHIFT   
G L2W                                                       SYS / PHASE SHIFT   
G L2L  0.00000                                              SYS / PHASE SHIFT   
G L5Q  0.00000                                              SYS / PHASE SHIFT   
G L1L  0.00000                                              SYS / PHASE SHIFT   
E L1C  0.00000                                              SYS / PHASE SHIFT   
E L6C  0.00000                                              SYS / PHASE SHIFT   
E L5Q  0.00000                                              SYS / PHASE SHIFT   
E L7Q  0.00000                                              SYS / PHASE SHIFT   
E L8Q  0.00000                                              SYS / PHASE SHIFT   
S L1C                                                       SYS / PHASE SHIFT   
S L5I                                                       SYS / PHASE SHIFT   
R L1C                                                       SYS / PHASE SHIFT   
R L2P  0.00000                                              SYS / PHASE SHIFT   
R L2C                                                       SYS / PHASE SHIFT   
R L3Q  0.00000                                              SYS / PHASE SHIFT   
C L1P  0.00000                                              SYS / PHASE SHIFT   
C L5P  0.00000                                              SYS / PHASE SHIFT   
C L2I                                                       SYS / PHASE SHIFT   
C L7I                                                       SYS / PHASE SHIFT   
C L6I                                                       SYS / PHASE SHIFT   
C L7D                                                       SYS / PHASE SHIFT   
J L1C                                                       SYS / PHASE SHIFT   
J L2L  0.00000                                              SYS / PHASE SHIFT   
J L5Q  0.00000                                              SYS / PHASE SHIFT   
J L1L  0.00000                                              SYS / PHASE SHIFT   
I L5A                                                       SYS / PHASE SHIFT   
  2025     1     2     2    15    0.0000000     GPS         TIME OF FIRST OBS   
 C1C    0.000 C2C    0.000 C2P    0.000                     GLONASS COD/PHS/BIS 
DBHZ                                                        SIGNAL STRENGTH UNIT
    18                                                      LEAP SECONDS        
 24 R01  1 R02 -4 R03  5 R04  6 R05  1 R06 -4 R07  5 R08  6 GLONASS SLOT / FRQ #
    R09 -2 R10 -7 R11  0 R12 -1 R13 -2 R14 -7 R15  0 R16 -1 GLONASS SLOT / FRQ #
    R17  4 R18 -3 R19  3 R20  2 R21  4 R22 -3 R23  3 R24  2 GLONASS SLOT / FRQ #
                                                            END OF HEADER       
> 2025 01 02 02 15  0.0000000  0 38
G03         1.000    20197811.501 8 106140194.13508     -2001.035 8        48.907                                    20197808.863 7  82706655.01007     -1559.249 7        45.345    20197809.345 7  82706682.01707     -1559.382 7        42.893
G19         2.000    22307766.053 7 117228062.82707     -1556.302 7        42.610                                    22307753.736 2  91346529.26702     -1212.690 2        17.924
G28         3.000    24034518.953 5                     -3254.588 5        33.168                                                                                                    24034521.773 5                     -2536.224 5        30.075
G02         4.000    23140441.618 6 121603922.40306     -4009.579 6        38.015                                    23140434.565 3  94756270.58003     -3124.316 3        19.104
G09         6.000    21465360.475 6 112801226.77906      1796.143 6        38.556                                    21465352.924 3  87897072.76903      1399.590 3        23.848    21465358.777 4                      1399.678 4        29.204
G21         8.000    24915246.924 3                     -4160.297 3        19.104
G31        10.000    22269986.918 7 117029577.39307     -1748.458 7        42.586                                    22269980.828 4  91191798.71304     -1362.440 4        28.900    22269980.549 6  91191869.76006     -1362.398 6        37.157
G04        12.000    20194145.841 7 106120994.44207       171.296 7        47.566                                    20194140.431 6  82691606.42806       133.480 6        37.716    20194140.990 7  82691630.43307       133.499 7        47.479
E12        13.000    24111057.560 7 126704475.09107       131.043 7        42.290                                                                    24111052.214 6  94616958.54706        97.759 6        37.698    24111054.110 6  97085300.27506       100.497 6        36.597
E29        14.000    23842725.220 7 125294360.57807     -2132.377 7        43.354                                                                    23842723.210 7  93563963.62707     -1592.340 7        46.953    23842724.568 7  96004807.55107     -1633.857 7        47.198
G06        15.000    22840793.242 7 120029204.41607      2097.321 7        44.992                                    22840792.237 6  93529270.65906      1634.275 6        38.940    22840792.272 6  93529263.65406      1634.265 6        40.310
E11        16.000                                                                                                                                    27431975.407 5 107648972.44805      1499.891 5        33.210    27431974.455 5 110457192.77505      1538.897 5        31.547
R08        18.000    21617797.630 7 115762176.57407      2009.028 7        42.381                                                                    21617788.656 5  90037342.17405      1562.461 5        31.434
E19        20.000    23167429.646 6 121745669.20506       314.898 6        40.665                                                                    23167428.070 7  90913984.86607       235.188 7        43.509    23167426.356 7  93285641.17107       241.349 7        42.432
R06        21.000    20945343.622 5                     -3689.654 5        30.664
R15        22.000    23373988.250 5 124903527.35905     -2263.141 5        33.671                                                                    23373988.484 4  97147200.48204     -1760.227 4        28.938
S36        23.000    38163118.854 5 200548595.03905      -852.036 5        35.262
S23        24.000    38109707.142 6 200267820.12106      -847.715 6        40.358
R16        26.000                                                                                                                                    22597655.211 5  93887550.04505       849.971 5        31.230
E33        28.000    24190774.860 6 127123366.66606     -2841.852 6        41.669                                                                    24190772.490 7  94929833.44007     -2122.300 7        44.661    24190770.319 6  97406218.31806     -2177.620 6        40.324
E10        29.000    25264686.736 7 132767058.53307      1272.232 7        47.951                                                                    25264685.131 7  99144124.24207       949.982 7        47.778    25264683.980 7 101730432.46307       974.769 7        47.804
C20        31.000                                                                                                                                    22830708.303 8 118885642.14708       859.724 8        53.551                                                                    22830700.841 7  96604177.69007       698.711 7        46.179
C05        32.000                                                                                                                                                                                                    39085862.692 5 157382572.02505      -668.635 5        35.800
R23        33.000    20602855.979 7 110211347.72907      1539.478 7        47.843
R07        34.000    19297399.624 8 103300465.76408      -809.492 8        48.613                                                                    19297398.430 6  80344822.73206      -629.418 6        40.765
R22        35.000    19581903.122 8 104529522.14408     -2359.433 8        50.121                                                                    19581899.193 7  81300726.93507     -1835.121 7        43.572
C32        36.000                                                                                                                                    22177145.503 7 115482174.86007     -2035.622 7        47.174                                                                    22177144.457 7  93838774.97107     -1654.060 7        44.795
C25        37.000                                                                                                                                    25381236.571 5 132166766.43805     -1291.531 5        33.665
C30        38.000                                                                                                                                    23833242.560 6 124105941.71306     -3770.925 6        36.612                                                                    23833237.716 5 100846217.55805     -3064.074 5        33.371
C23        40.000                                                                                                                                    25292664.062 5                      1150.514 5        31.034                                                                    25292630.831 4                       935.047 4        28.218
C35        41.000                                                                                                                                    26145312.049 5 136145520.59405      1851.632 5        32.874                                                                    26145304.951 5 110629328.95505      1504.505 5        33.180
C16        45.000                                                                                                                                    38726560.405 6 201659374.86306     -1113.218 6        36.552    38726556.514 5 155935822.19205      -860.885 5        34.405    38726551.664 3                      -902.904 3        23.333
C39        46.000                                                                                                                                    39128571.211 5 203752778.88505     -1524.176 5        34.757                                                                    39128562.827 5                     -1238.447 5        33.096
C09        47.000                                                                                                                                    38487906.372 6 200416631.69906      -502.558 6        41.828    38487903.322 6 154974858.02606      -388.602 6        39.556    38487902.261 6 162854898.26906      -408.171 6        37.448
C06        50.000                                                                                                                                    38234222.746 5 199095633.79405     -1016.308 5        30.755    38234215.569 6 153953354.29406      -785.592 6        40.036    38234215.928 5 161781478.57805      -825.424 5        34.405
C29        54.000                                                                                                                                    22871025.659 8 119095392.21808      -917.569 8        48.384                                                                    22871021.348 6  96774811.42306      -745.550 6        38.336
I01        57.000   378362976.446 6 181636786.32006     -2960.345 6        37.497
I09        58.000    37255471.362 4 146198454.36804      -844.142 4        26.970
> 2025 01 02 02 15  5.0000000  0 40
G03         1.000    20199716.665 8 106150204.41508     -2002.771 8        50.033                                    20199714.011 7  82714455.23407     -1560.593 7        45.991    20199714.296 7  82714482.22907     -1560.577 7        42.883
G19         2.000    22309248.734 7 117235853.31407     -1559.703 7        43.357                                    22309236.768 3  91352599.75203     -1215.354 3        18.478
G28         3.000    24037616.312 5                     -3257.226 5        34.076                                                                                                    24037618.407 4                     -2537.734 4        28.645
G02         4.000    23144257.643 6 121623974.60206     -4010.987 6        36.843                                    23144248.939 3  94771895.62303     -3125.435 3        18.597
G09         6.000    21463652.747 6 112792250.24606      1794.637 6        36.427                                    21463645.528 3  87890078.06903      1398.426 3        23.943    21463647.630 4                      1398.057 4        29.886
G21         8.000    24919211.961 3                     -4162.562 3        19.791
G31        10.000    22271653.698 7 117038328.93507     -1751.820 7        43.575                                    22271646.735 4  91198618.09004     -1365.051 4        28.777    22271644.867 6  91198689.12106     -1365.133 6        37.085
G17        11.000    23078665.414 4                     -3017.329 4        24.090
G04        12.000    20193983.772 7 106120144.78207       168.800 7        47.222                                    20193978.661 6  82690944.35006       131.537 6        37.743    20193979.527 7  82690968.35707       131.514 7        47.652
E12        13.000    24110933.068 7 126703824.89507       129.377 7        42.417                                                                    24110928.565 6  94616473.01006        96.520 6        37.338    24110929.586 6  97084802.09306        99.203 6        36.741
E29        14.000    23844754.784 7 125305026.29307     -2133.618 7        44.172                                                                    23844752.747 7  93571928.29407     -1593.422 7        46.707    23844754.339 7  96012979.98907     -1634.894 7        46.996
G06        15.000    22838798.593 7 120018722.24007      2095.907 7        44.921                                    22838797.469 6  93521102.73306      1633.175 6        38.667    22838798.163 6  93521095.73406      1633.063 6        39.508
E11        16.000    27430127.325 4 144146017.23214      2007.683 4        26.671                                                                    27430064.387 5 107641474.50205      1499.633 5        32.725    27430063.305 5 110449499.19805      1539.004 5        30.928
R08        18.000    21615919.054 6 115752135.64006      2007.567 6        39.231
E19        20.000    23167130.836 6 121744099.20606       313.312 6        40.622                                                                    23167129.493 7  90912812.46707       234.087 7        43.577    23167127.655 7  93284438.18707       240.081 7        42.163
R06        21.000    20948800.472 5                     -3691.150 5        30.989
R15        22.000    23376111.487 5 124914853.96205     -2267.122 5        34.486                                                                    23376111.327 4  97156009.99504     -1763.344 4        25.835
S36        23.000    38163923.902 5 200552854.11405      -851.577 5        35.314
S23        24.000    38110512.325 6 200272059.62706      -847.706 6        40.307
R16        26.000    22596652.478 4                      1088.909 4        24.391                                                                    22596641.907 5  93883308.60305       846.943 5        30.921
E33        28.000    24193479.249 6 127137580.70206     -2843.342 6        41.845                                                                    24193477.289 7  94940447.79607     -2123.322 7        44.615    24193474.951 6  97417109.58506     -2178.737 6        40.574
E10        29.000    25263476.539 7 132760701.00907      1271.056 7        47.665                                                                    25263475.273 7  99139376.73807       949.166 7        47.556    25263474.344 7 101725561.11007       973.956 7        47.879
R21        30.000    22765029.915 4                     -5401.836 4        28.986
C20        31.000                                                                                                                                    22829883.426 8 118881347.08908       858.586 8        53.450                                                                    22829876.032 7  96600687.65107       697.657 7        46.141
C05        32.000                                                                                                                                                                                                    39086692.178 6 157385915.51306      -668.615 6        36.068
R23        33.000    20601417.359 7 110203660.11807      1535.907 7        46.173
R07        34.000    19298157.121 8 103304519.80608      -811.880 8        48.413                                                                    19298156.032 6  80347975.91206      -631.648 6        41.928
R22        35.000    19584114.970 8 104541330.38008     -2363.549 8        50.433                                                                    19584111.499 7  81309911.11507     -1838.367 7        44.605
C32        36.000                                                                                                                                    22179100.793 7 115492356.54407     -2036.792 7        47.448                                                                    22179099.891 7  93847048.45307     -1655.143 7        44.847
C25        37.000                                                                                                                                    25382480.701 5 132173231.92805     -1294.438 5        30.302
C30        38.000                                                                                                                                    23836867.372 6 124124799.96506     -3772.371 6        37.350                                                                    23836859.095 5 100861541.44405     -3064.882 5        32.629
C23        40.000                                                                                                                                    25291557.555 5                      1148.581 5        31.766                                                                    25291524.775 4                       933.395 4        26.754
C35        41.000                                                                                                                                    26143534.607 5 136136267.64405      1850.089 5        32.754                                                                    26143527.170 5 110621810.22305      1503.147 5        32.898
C16        45.000                                                                                                                                    38727629.953 6 201664942.99606     -1113.848 6        36.287    38727627.446 5 155940127.80605      -861.310 5        34.590    38727623.163 3                      -905.032 3        23.581
C39        46.000                                                                                                                                    39130034.306 5 203760401.51205     -1524.606 5        34.376                                                                    39130026.541 5                     -1239.044 5        33.653
C09        47.000                                                                                                                                    38488389.931 6 200419146.50906      -503.054 6        41.897    38488386.577 6 154976802.64206      -388.996 6        39.360    38488385.233 6 162856941.78506      -408.826 6        37.183
C06        50.000                                                                                                                                    38235198.008 5 199100716.51905     -1016.805 5        31.970    38235192.003 6 153957284.58306      -786.300 6        39.553    38235191.875 5 161785608.75605      -826.253 5        34.562
C29        54.000                                                                                                                                    22871908.432 8 119099987.28208      -920.241 8        48.373                                                                    22871904.195 6  96778545.33106      -747.910 6        39.051
I01        57.000   378366748.835 6 181651588.35906     -2960.460 6        37.883
I09        58.000    37256545.119 4 146202675.05104      -844.028 4        27.892
> 2025 01 02 02 15 10.0000000  0 40
G03         1.000    20201623.339 8 106160223.90708     -2004.832 8        50.174                                    20201620.876 7  82722262.63607     -1562.204 7        46.491    20201621.427 7  82722289.63507     -1562.209 7        43.185
G19         2.000    22310734.719 7 117243660.49307     -1563.067 7        43.073                                    22310723.189 3  91358683.22903     -1217.979 3        18.269
G28         3.000    24040714.462 5 126334817.04515     -3259.581 5        32.934                                                                                                    24040718.793 4                     -2540.113 4        27.593
G02         4.000    23148075.331 6 121644032.61906     -4012.231 6        37.289                                    23148064.736 3  94787525.23003     -3126.431 3        18.388
G09         6.000    21461946.860 5 112783282.74605      1792.723 5        34.100                                    21461940.034 3  87883090.39103      1396.932 3        23.829    21461943.200 5                      1396.688 5        32.425
G21         8.000    24923174.843 3                     -4167.604 3        20.143
G31        10.000    22273321.612 7 117047097.72907     -1755.432 7        43.064                                    22273316.131 4  91205450.92204     -1367.861 4        29.441    22273314.200 6  91205521.95406     -1368.033 6        37.739
G17        11.000    23081538.535 5                     -3019.242 5        30.219                                                                                                    23081574.547 4                     -2353.026 4        27.677
G04        12.000    20193824.118 7 106119307.99707       166.071 7        46.552                                    20193819.386 6  82690292.30706       129.408 6        37.902    20193820.282 8  82690316.30608       129.450 8        48.267
E12        13.000    24110810.732 6 126703183.91806       127.311 6        41.800                                                                    24110806.588 6  94615994.35206        94.965 6        37.130    24110807.883 6  97084310.94706        97.628 6        37.059
E29        14.000    23846785.874 7 125315699.25007     -2135.304 7        44.667                                                                    23846783.693 7  93579898.35507     -1594.606 7        46.655    23846785.432 7  96021157.96507     -1636.137 7        46.992
G06        15.000    22836804.774 7 120008247.67807      2094.209 7        44.367                                    22836804.096 6  93512940.73506      1631.851 6        38.393    22836804.813 6  93512933.74006      1631.755 6        39.258
E11        16.000                                                                                                                                    27428154.003 5 107633977.84305      1499.159 5        32.731    27428153.047 5 110441807.00305      1538.679 5        31.057
R08        18.000    21614046.362 6 115742102.44706      2005.978 6        36.129
E19        20.000    23166833.942 6 121742537.74606       311.311 6        41.173                                                                    23166832.340 7  90911646.45207       232.564 7        43.494    23166830.478 6  93283241.74306       238.564 6        41.907
R06        21.000    20952258.002 5                     -3692.005 5        31.351
R15        22.000    23378239.180 5 124926199.96805     -2271.184 5        34.857                                                                    23378237.354 4  97164834.76004     -1766.566 4        26.479
S36        23.000    38164745.509 5 200557112.90405      -851.745 5        35.571
S23        24.000    38111318.532 6 200276298.80806      -847.881 6        40.241
R16        26.000                                                                                                                                    22595627.820 4  93879080.82504       843.933 4        27.593
E33        28.000    24196185.824 6 127151802.88206     -2845.227 6        41.282                                                                    24196183.690 7  94951068.24507     -2124.604 7        44.546    24196181.124 6  97428007.09106     -2180.193 6        41.080
E10        29.000    25262267.838 7 132754349.57307      1269.673 7        47.215                                                                    25262266.511 7  99134633.78707       948.121 7        47.650    25262265.831 8 101720694.43208       972.868 8        48.082
R21        30.000    22770081.257 5                     -5402.867 5        30.128                                                                    22770093.575 3                     -4203.516 3        20.476
C20        31.000                                                                                                                                    22829059.621 8 118877058.21108       857.115 8        53.381                                                                    22829052.534 7  96597202.57007       696.494 7        46.198
C05        32.000                                                                                                                                                                                                    39087522.947 6 157389258.76206      -668.711 6        36.151
R23        33.000    20599984.876 7 110195990.63807      1532.007 7        46.164
R07        34.000    19298916.957 8 103308586.36308      -814.520 8        48.224                                                                    19298915.516 7  80351138.77507      -633.569 7        42.222
R22        35.000    19586330.449 8 104553159.64808     -2367.989 8        50.247                                                                    19586328.507 7  81319111.66207     -1841.816 7        45.818
C32        36.000                                                                                                                                    22181057.244 7 115502544.52207     -2038.152 7        47.788                                                                    22181056.246 7  93855326.99807     -1656.246 7        45.129
C30        38.000                                                                                                                                    23840492.169 6 124143664.67306     -3773.646 6        38.715                                                                    23840480.302 5 100876870.58205     -3066.517 5        32.934
C23        40.000                                                                                                                                    25290450.466 4                      1146.641 4        29.365                                                                    25290419.716 4                       931.889 4        25.008
C35        41.000                                                                                                                                    26141757.707 5 136127021.80305      1848.426 5        32.251                                                                    26141751.051 5 110614297.18805      1502.296 5        32.653
C16        45.000                                                                                                                                    38728699.896 6 201670514.58206     -1114.746 6        36.144    38728698.393 5 155944436.12005      -861.908 5        35.267    38728692.655 4                      -904.693 4        24.496
C39        46.000                                                                                                                                    39131499.229 5 203768027.04005     -1525.243 5        34.595                                                                    39131491.109 5                     -1239.598 5        33.485
C09        47.000                                                                                                                                    38488873.923 6 200421664.99106      -504.063 6        41.783    38488869.504 6 154978750.09006      -389.657 6        39.498    38488868.837 6 162858988.26606      -409.816 6        36.896
C41        49.000                                                                                                                                    26084048.860 3                     -3649.877 3        19.075
C06        50.000                                                                                                                                    38236176.562 5 199105802.88905     -1017.363 5        32.114    38236168.876 6 153961217.70606      -786.899 6        39.333    38236168.795 5 161789741.83405      -826.769 5        34.481
C29        54.000                                                                                                                                    22872793.801 7 119104596.36707      -923.251 7        47.904                                                                    22872789.724 6  96782290.56606      -750.188 6        39.901
I01        57.000   378370520.730 6 181666390.56606     -2960.438 6        37.981
I09        58.000    37257621.752 4 146206896.10904      -843.871 4        27.916
> 2025 01 02 02 15 15.0000000  0 40
G03         1.000    20203531.571 8 106170253.12108     -2006.901 8        49.829                                    20203529.463 7  82730077.61607     -1563.821 7        46.710    20203530.050 7  82730104.59707     -1563.765 7        43.090
G19         2.000    22312223.436 7 117251484.90107     -1566.622 7        42.423                                    22312212.968 3  91364780.16603     -1220.752 3        18.776
G28         3.000    24043814.055 5 126351120.07305     -3261.934 5        33.563                                                                                                    24043823.741 4                     -2541.979 4        27.245
G02         4.000    23151894.568 6 121664096.97406     -4013.531 6        38.504                                    23151882.245 3  94803159.79203     -3127.434 3        18.179
G09         6.000    21460243.117 5 112774324.79005      1790.986 5        34.033                                    21460236.515 4  87876110.16304      1395.589 4        24.211    21460241.009 5  87876097.17415      1395.136 5        34.200
G21         8.000    24927136.772 3                     -4165.825 3        19.582
G31        10.000    22274990.811 7 117055884.32807     -1759.179 7        42.347                                    22274988.974 4  91212297.62104     -1370.783 4        29.867    22274987.238 6  91212368.63606     -1370.748 6        37.996
G17        11.000    23084415.299 5                     -3021.038 5        35.119
G04        12.000    20193667.621 7 106118484.61807       163.243 7        46.598                                    20193662.728 6  82689650.71106       127.201 6        38.159    20193663.490 8  82689674.71108       127.237 8        48.409
E12        13.000    24110689.881 6 126702552.64506       125.226 6        41.116                                                                    24110686.264 6  94615522.97106        93.448 6        36.888    24110687.729 6  97083827.26106        95.938 6        37.206
E29        14.000    23848818.156 7 125326379.95907     -2136.919 7        44.358                                                                    23848816.285 7  93587874.20607     -1595.785 7        46.488    23848817.965 7  96029341.89007     -1637.405 7        46.972
G06        15.000    22834813.025 7 119997781.27307      2092.401 7        44.200                                    22834812.252 6  93504785.09506      1630.442 6        38.189    22834813.453 6  93504778.11206      1630.418 6        38.670
E11        16.000                                                                                                                                    27426244.157 5 107626482.92905      1498.817 5        32.647    27426242.739 5 110434116.55505      1537.752 5        30.377
R08        18.000    21612177.661 5 115732077.59205      2004.031 5        35.252                                                                    21612177.537 5                      1558.694 5        30.362
E19        20.000    23166538.932 6 121740985.33106       309.490 6        41.263                                                                    23166537.008 7  90910487.19107       231.217 7        43.384    23166535.228 6  93282052.23706       237.196 6        41.597
R06        21.000    20955715.380 5                     -3693.301 5        31.351
R15        22.000                                                                                                                                    23380362.399 4  97173674.88804     -1769.762 4        26.599
S36        23.000    38165553.755 5 200561371.61605      -851.921 5        35.448
S23        24.000    38112127.265 6 200280537.97506      -847.917 6        40.036
R16        26.000    22594602.615 5 120696329.82915      1081.631 5        35.733
E33        28.000    24198893.912 6 127166033.72306     -2847.084 6        40.992                                                                    24198891.843 7  94961695.16407     -2126.051 7        44.554    24198889.146 6  97438911.23506     -2181.494 6        41.590
E10        29.000    25261060.440 7 132748004.76507      1268.248 7        46.656                                                                    25261059.106 7  99129895.78207       947.147 7        47.592    25261058.549 8 101715832.82708       971.800 8        48.154
R21        30.000    22775129.504 4                     -5403.991 4        29.100                                                                    22775138.638 4                     -4203.463 4        24.090
C20        31.000                                                                                                                                    22828236.877 8 118872776.04808       855.675 8        53.056                                                                    22828230.249 7  96593722.96307       695.150 7        46.091
C05        32.000                                                                                                                                                                                                    39088352.943 5 157392602.17505      -668.759 5        35.886
R23        33.000    20598557.828 8 110188339.82208      1528.217 8        48.124
R07        34.000    19299680.088 8 103312665.88008      -817.254 8        48.426                                                                    19299677.820 7  80354311.75507      -635.657 7        42.508
R22        35.000    19588549.830 8 104565010.44908     -2372.375 8        50.198                                                                    19588548.521 7  81328328.95207     -1845.130 7        46.439
C32        36.000                                                                                                                                    22183015.187 8 115512739.29408     -2039.691 8        48.315                                                                    22183014.058 7  93863611.08407     -1657.645 7        45.229
C30        38.000                                                                                                                                    23844115.049 6 124162536.31406     -3775.102 6        39.652                                                                    23844103.984 5 100892205.34905     -3067.755 5        34.033
C23        40.000                                                                                                                                                                                                                                                                    25289317.126 3                       933.061 3        21.881
C35        41.000                                                                                                                                    26139982.372 5 136117783.66405      1846.850 5        31.079                                                                    26139976.986 5 110606790.42005      1500.662 5        33.186
C16        45.000                                                                                                                                    38729771.133 5 201676090.09405     -1115.417 5        35.843    38729769.456 5 155948747.46205      -862.645 5        35.267    38729762.911 4                      -905.759 4        24.511
C39        46.000                                                                                                                                    39132965.224 5 203775656.00205     -1526.233 5        34.562                                                                    39132956.223 5 165584343.56415     -1240.258 5        34.143
C09        47.000                                                                                                                                    38489357.898 6 200424187.68906      -505.272 6        41.609    38489354.084 6 154980700.78206      -390.354 6        39.426    38489353.413 6 162861038.14506      -410.517 6        36.575
C41        49.000                                                                                                                                    26087560.050 3                     -3655.664 3        19.403
C06        50.000                                                                                                                                    38237158.343 5 199110893.44305     -1018.050 5        32.263    38237145.859 6 153965154.04906      -787.632 6        39.177    38237146.290 5 161793878.35505      -828.391 5        33.886
C29        54.000                                                                                                                                    22873681.821 7 119109219.99007      -926.204 7        47.169                                                                    22873677.786 6  96786047.64406      -752.806 6        40.501
I01        57.000   378374293.034 6 181681193.45306     -2960.854 6        38.036
I09        58.000    37258696.364 4 146211117.88904      -844.922 4        28.133
> 2025 01 02 02 15 20.0000000  0 40
G03         1.000    20205441.094 8 106180291.76408     -2008.488 8        48.719                                    20205439.678 7  82737899.93507     -1565.059 7        46.613    20205440.650 7  82737926.91707     -1565.007 7        42.597
G19         2.000    22313715.826 6 117259326.18006     -1569.809 6        41.156                                    22313705.596 3  91370890.26003     -1223.222 3        18.597
G28         3.000    24046919.271 5 126367435.11105     -3264.467 5        34.133                                                                                                    24046928.907 4                     -2543.724 4        26.539
G02         4.000    23155713.126 6 121684167.40406     -4014.623 6        39.246                                    23155701.082 2  94818799.07502     -3128.260 2        17.962
G09         6.000    21458540.428 5 112765376.04805      1789.146 5        34.752                                    21458534.746 4  87869137.10904      1394.153 4        25.008    21458538.026 5  87869124.09105      1393.996 5        35.205
G21         8.000    24931099.980 3                     -4168.128 3        20.690
G31        10.000    22276663.979 6 117064688.42206     -1762.344 6        41.588                                    22276665.175 5  91219157.95305     -1373.248 5        30.211    22276662.742 6  91219228.97006     -1373.400 6        37.664
G17        11.000    23087289.752 6 121324528.62016     -3022.828 6        38.679                                    23087285.619 2  94538573.79112     -2355.433 2        12.727
G04        12.000    20193513.533 7 106117674.31707       160.901 7        47.063                                    20193508.653 6  82689019.30506       125.374 6        38.565    20193509.370 8  82689043.31308       125.391 8        48.745
E12        13.000    24110571.559 6 126701930.76706       123.668 6        40.756                                                                    24110567.977 6  94615058.56806        92.283 6        37.089    24110569.056 6  97083350.75606        94.500 6        37.267
E29        14.000    23850852.184 7 125337068.09307     -2138.190 7        44.382                                                                    23850850.168 7  93595855.60207     -1596.687 7        46.397    23850851.787 7  96037531.49707     -1638.331 7        46.701
G06        15.000    22832822.960 7 119987322.69307      2091.086 7        43.918                                    22832821.937 6  93496635.55106      1629.417 6        38.039    22832823.336 6  93496628.56506      1629.453 6        39.066
E11        16.000                                                                                                                                    27424334.560 5 107618989.42505      1498.901 5        33.389    27424332.653 4 110426427.54104      1538.658 4        28.720
R08        18.000    21610307.056 6 115722060.69406      2002.792 6        36.329                                                                    21610301.839 5                      1557.564 5        32.000
E19        20.000    23166245.032 6 121739441.57606       308.108 6        41.373                                                                    23166243.160 7  90909334.39907       230.027 7        43.346    23166241.557 6  93280869.36606       236.040 6        41.135
R06        21.000    20959177.319 5                     -3694.303 5        31.449
R15        22.000    23382487.206 4 124948951.41604     -2278.885 4        27.341                                                                    23382492.760 4  97182530.34004     -1772.602 4        24.526
S36        23.000    38166365.507 5 200565630.27805      -851.749 5        35.457
S23        24.000    38112934.236 6 200284776.95906      -847.822 6        40.098
R16        26.000    22593587.727 6 120690930.01306      1078.252 6        36.098
E33        28.000    24201603.245 6 127180272.89706     -2848.547 6        41.139                                                                    24201601.441 7  94972328.31907     -2127.119 7        44.748    24201598.943 6  97449821.79406     -2182.677 6        41.866
E10        29.000    25259854.358 7 132741666.26607      1267.255 7        45.997                                                                    25259852.843 7  99125162.49507       946.323 7        47.570    25259852.514 8 101710976.06308       970.984 8        48.227
R21        30.000    22780174.769 4                     -5405.445 4        25.158                                                                    22780192.376 4                     -4203.858 4        27.078
C20        31.000                                                                                                                                    22827415.065 8 118868500.26708       854.628 8        52.587                                                                    22827409.304 7  96590248.52207       694.575 7        46.173
C05        32.000                                                                                                                                                                                                    39089182.559 5 157395945.51505      -668.580 5        35.938
R23        33.000    20597132.000 8 110180707.41908      1524.760 8        48.923
R07        34.000    19300444.300 8 103316758.00008      -819.541 8        49.344                                                                    19300442.379 7  80357494.51707      -637.396 7        42.438
R22        35.000    19590774.057 8 104576882.50908     -2376.410 8        50.622                                                                    19590772.076 7  81337562.76607     -1848.308 7        46.163
C32        36.000                                                                                                                                    22184974.296 8 115522940.56408     -2040.755 8        48.778                                                                    22184973.169 7  93871900.42407     -1658.166 7        45.710
C30        38.000                                                                                                                                    23847739.481 6 124181414.61006     -3776.148 6        40.193                                                                    23847731.144 5 100907545.49605     -3068.635 5        35.471
C23        40.000                                                                                                                                    25288240.174 5                      1143.314 5        31.675                                                                    25288216.262 3                       929.502 3        21.357
C35        41.000                                                                                                                                    26138208.655 5 136108552.79205      1845.781 5        30.981                                                                    26138204.561 5 110599289.58705      1500.085 5        33.719
C16        45.000                                                                                                                                    38730841.667 5 201681669.28005     -1115.967 5        35.662    38730840.791 5 155953061.64705      -863.083 5        35.829    38730831.163 4                      -907.254 4        24.632
C39        46.000                                                                                                                                    39134431.109 5 203783288.09005     -1526.349 5        34.552                                                                    39134424.839 5 165590545.29505     -1240.518 5        34.095
C09        47.000                                                                                                                                    38489843.082 6 200426714.22906      -505.368 6        41.642    38489839.142 6 154982654.48106      -390.835 6        39.276    38489838.444 6 162863091.15806      -410.646 6        36.544
C41        49.000                                                                                                                                    26091069.142 3                     -3651.536 3        18.507
C06        50.000                                                                                                                                    38238141.442 5 199115987.88605     -1019.023 5        32.138    38238124.563 6 153969093.36706      -788.020 6        39.219    38238124.636 5 161798017.96205      -828.168 5        34.210
C29        54.000                                                                                                                                    22874572.093 7 119113857.83807      -928.874 7        46.245                                                                    22874568.790 6  96789816.24906      -754.669 6        41.051
I01        57.000   378378065.343 6 181695996.67606     -2960.568 6        38.207
I09        58.000    37259774.047 4 146215340.22004      -844.525 4        29.052
> 2025 01 02 02 15 25.0000000  0 38
G03         1.000    20207352.834 7 106190339.97307     -2010.670 7        47.311                                    20207351.578 7  82745729.71007     -1566.758 7        46.112    20207352.598 7  82745756.69107     -1566.689 7        42.027
G19         2.000    22315212.064 6 117267184.50406     -1573.383 6        40.923                                    22315201.197 3  91377013.66103     -1226.031 3        18.030
G28         3.000    24050029.585 5 126383762.23505     -3266.807 5        34.762
G02         4.000    23159532.779 6 121704243.97806     -4015.723 6        39.655                                    23159521.409 3  94834443.16103     -3129.142 3        19.104
G09         6.000    21456839.443 6 112756436.74306      1786.913 6        36.200                                    21456834.568 4  87862171.40404      1392.405 4        26.132    21456836.798 5  87862158.36805      1392.552 5        35.219
G31        10.000    22278343.674 6 117073510.15306     -1766.053 6        41.166                                    22278344.609 4  91226032.02504     -1376.142 4        29.659    22278340.054 6  91226103.04506     -1376.230 6        36.737
G17        11.000    23090170.613 6 121339648.67106     -3024.918 6        40.253                                    23090164.534 2  94550355.65702     -2357.098 2        14.095    23090163.635 4                     -2356.845 4        24.376
G04        12.000    20193361.932 7 106116877.28207       158.133 7        47.515                                    20193357.204 6  82688398.24206       123.224 6        39.024    20193357.874 8  82688422.24508       123.224 8        49.266
E12        13.000    24110455.488 6 126701318.45806       121.461 6        40.894                                                                    24110451.716 6  94614601.34006        90.717 6        36.631    24110452.257 6  97082881.58406        93.096 6        37.115
E29        14.000    23852888.151 7 125347763.81807     -2139.840 7        44.710                                                                    23852885.540 7  93603842.66607     -1597.994 7        46.305    23852887.130 7  96045726.92307     -1639.659 7        46.782
G06        15.000    22830834.340 7 119976872.15207      2089.302 7        43.759                                    22830833.259 6  93488492.27806      1628.030 6        37.834    22830834.288 6  93488485.28106      1628.059 6        39.907
E11        16.000    27422422.142 5 144105873.94305      2006.610 5        33.850                                                                    27422425.238 5 107611497.58005      1498.014 5        32.886    27422421.582 4 110418740.37404      1537.482 4        27.808
R08        18.000    21608437.560 6 115712051.87906      2001.015 6        38.144                                                                    21608429.396 5                      1556.398 5        31.766
E19        20.000    23165953.019 6 121737906.71506       306.129 6        41.502                                                                    23165950.774 7  90908188.22907       228.656 7        43.058    23165949.489 6  93279693.30106       234.562 6        40.951
R06        21.000    20962640.296 5                     -3695.654 5        32.066
R15        22.000    23384622.972 4 124960356.64504     -2282.683 4        28.057                                                                    23384626.940 3                     -1774.633 3        22.571
S36        23.000    38167173.931 5 200569888.91605      -851.912 5        35.443
S23        24.000    38113742.491 6 200289015.95406      -847.825 6        40.102
R16        26.000    22592574.574 5 120685548.13405      1074.674 5        35.724
E33        28.000    24204314.180 6 127194520.59606     -2850.388 6        41.709                                                                    24204312.920 7  94982967.82207     -2128.463 7        44.566    24204310.317 7  97460738.84707     -2184.012 7        42.597
E10        29.000    25258649.315 7 132735334.27307      1265.723 7        45.753                                                                    25258647.828 7  99120434.05507       945.179 7        47.506    25258647.632 8 101706124.26408       969.863 8        48.547
R21        30.000    22785217.883 4                     -5406.068 4        27.054                                                                    22785247.546 4                     -4205.062 4        27.940
C20        31.000                                                                                                                                    22826594.732 8 118864231.05008       853.233 8        52.277                                                                    22826589.448 7  96586779.46507       693.162 7        46.123
C05        32.000                                                                                                                                                                                                    39090012.232 5 157399288.90105      -668.769 5        35.976
R23        33.000    20595707.371 8 110173093.45608      1520.946 8        48.987
R07        34.000    19301211.011 8 103320863.06508      -822.233 8        49.713                                                                    19301208.945 7  80360687.35307      -639.596 7        42.123
R22        35.000    19593003.018 8 104588775.92808     -2380.771 8        50.520                                                                    19592999.771 7  81346813.18707     -1851.730 7        46.108
C32        36.000                                                                                                                                    22186934.532 8 115533148.49208     -2042.244 8        49.289                                                                    22186933.282 7  93880195.22907     -1659.505 7        45.637
C30        38.000                                                                                                                                    23851364.686 6 124200299.68806     -3777.651 6        41.039                                                                    23851359.241 6 100922891.19306     -3069.844 6        36.866
C23        40.000                                                                                                                                                                                                                                                                    25287124.247 3                       927.481 3        23.638
C35        41.000                                                                                                                                    26136436.541 5 136099329.47505      1843.690 5        30.883                                                                    26136433.905 5 110591794.94705      1498.185 5        34.029
C16        45.000                                                                                                                                    38731913.515 5 201687252.28105     -1116.915 5        35.486    38731912.441 5 155957378.76005      -863.692 5        35.500    38731904.380 4                      -908.292 4        25.429
C39        46.000                                                                                                                                    39135897.194 5 203790923.46205     -1527.350 5        35.138                                                                    39135891.174 5 165596749.69305     -1241.124 5        34.267
C09        47.000                                                                                                                                    38490328.744 7 200429244.84607      -506.684 7        42.097    38490324.791 6 154984611.30306      -391.592 6        38.994    38490324.276 6 162865147.51606      -411.586 6        36.140
C06        50.000                                                                                                                                    38239124.038 5 199121086.34905     -1019.878 5        32.569    38239103.734 6 153973035.82406      -788.714 6        39.027    38239103.451 5 161802160.88405      -828.933 5        33.880
C29        54.000                                                                                                                                    22875465.171 7 119118510.07607      -931.874 7        45.750                                                                    22875462.293 6  96793596.59506      -757.332 6        41.395
I01        57.000   378381837.442 6 181710800.42106     -2960.804 6        38.291
I09        58.000    37260849.653 4 146219563.02804      -844.517 4        28.882
> 2025 01 02 02 15 30.0000000  0 39
G03         1.000    20209267.034 7 106200398.01607     -2012.661 7        46.336                                    20209265.294 7  82753567.15007     -1568.309 7        45.369    20209267.323 6  82753594.12606     -1568.259 6        41.392
G19         2.000    22316711.145 6 117275060.16206     -1577.047 6        41.392                                    22316699.897 2  91383150.52002     -1228.820 2        16.868
G28         3.000    24053139.845 5 126400101.67205     -3269.180 5        35.229
