     3.04           OBSERVATION DATA    M                   RINEX VERSION / TYPE
ssrcrin-15.6.1x                         20250102 210000 UTC PGM / RUN BY / DATE 
(00000000023479385599111004) Septentrio proprietary         COMMENT             
ract                                                        MARKER NAME         
01                                                          MARKER NUMBER       
geodetic                                                    MARKER TYPE         
NFB                 CLIMERS@TUW                             OBSERVER / AGENCY   
3296359             SEPT ASTERX SB3 PROB4.14.4              REC # / TYPE / VERS 
Unknown             Unknown                                 ANT # / TYPE        
  4127446.3470  1206915.5086  4695541.7499                  APPROX POSITION XYZ 
        0.0000        0.0000        0.0000                  ANTENNA: DELTA H/E/N
G   23 X1  C1C L1C D1C S1C C1W S1W C2W L2W D2W S2W C2L L2L  SYS / # / OBS TYPES 
       D2L S2L C5Q L5Q D5Q S5Q C1L L1L D1L S1L              SYS / # / OBS TYPES 
E   21 X1  C1C L1C D1C S1C C6C L6C D6C S6C C5Q L5Q D5Q S5Q  SYS / # / OBS TYPES 
       C7Q L7Q D7Q S7Q C8Q L8Q D8Q S8Q                      SYS / # / OBS TYPES 
S    9 X1  C1C L1C D1C S1C C5I L5I D5I S5I                  SYS / # / OBS TYPES 
R   17 X1  C1C L1C D1C S1C C2P L2P D2P S2P C2C L2C D2C S2C  SYS / # / OBS TYPES 
       C3Q L3Q D3Q S3Q                                      SYS / # / OBS TYPES 
C   25 X1  C1P L1P D1P S1P C5P L5P D5P S5P C2I L2I D2I S2I  SYS / # / OBS TYPES 
       C7I L7I D7I S7I C6I L6I D6I S6I C7D L7D D7D S7D      SYS / # / OBS TYPES 
J   17 X1  C1C L1C D1C S1C C2L L2L D2L S2L C5Q L5Q D5Q S5Q  SYS / # / OBS TYPES 
       C1L L1L D1L S1L                                      SYS / # / OBS TYPES 
I    5 X1  C5A L5A D5A S5A                                  SYS / # / OBS TYPES 
SEPTENTRIO RECEIVERS OUTPUT ALIGNED CARRIER PHASES.         COMMENT             
NO FURTHER PHASE SHIFT APPLIED IN THE RINEX ENCODER.        COMMENT             
G L1C                                                       SYS / PHASE SHIFT   
G L2W                                                       SYS / PHASE SHIFT   
G L2L  0.00000                                              SYS / PHASE SHIFT   
G L5Q  0.00000                                              SYS / PHASE SHIFT   
G L1L  0.00000                                              SYS / PHASE SHIFT   
E L1C  0.00000                                              SYS / PHASE SHIFT   
E L6C  0.00000                                              SYS / PHASE SHIFT   
E L5Q  0.00000                                              SYS / PHASE SHIFT   
E L7Q  0.00000                                              SYS / PHASE SHIFT   
E L8Q  0.00000                                              SYS / PHASE SHIFT   
S L1C                                                       SYS / PHASE SHIFT   
S L5I                                                       SYS / PHASE SHIFT   
R L1C                                                       SYS / PHASE SHIFT   
R L2P  0.00000                                              SYS / PHASE SHIFT   
R L2C                                                       SYS / PHASE SHIFT   
R L3Q  0.00000                                              SYS / PHASE SHIFT   
C L1P  0.00000                                              SYS / PHASE SHIFT   
C L5P  0.00000                                              SYS / PHASE SHIFT   
C L2I                                                       SYS / PHASE SHIFT   
C L7I                                                       SYS / PHASE SHIFT   
C L6I                                                       SYS / PHASE SHIFT   
C L7D                                                       SYS / PHASE SHIFT   
J L1C                                                       SYS / PHASE SHIFT   
J L2L  0.00000                                              SYS / PHASE SHIFT   
J L5Q  0.00000                                              SYS / PHASE SHIFT   
J L1L  0.00000                                              SYS / PHASE SHIFT   
I L5A                                                       SYS / PHASE SHIFT   
  2025     1     2    21     0    0.0000000     GPS         TIME OF FIRST OBS   
 C1C    0.000 C2C    0.000 C2P    0.000                     GLONASS COD/PHS/BIS 
DBHZ                                                        SIGNAL STRENGTH UNIT
    18                                                      LEAP SECONDS        
 24 R01  1 R02 -4 R03  5 R04  6 R05  1 R06 -4 R07  5 R08  6 GLONASS SLOT / FRQ #
    R09 -2 R10 -7 R11  0 R12 -1 R13 -2 R14 -7 R15  0 R16 -1 GLONASS SLOT / FRQ #
    R17  4 R18 -3 R19  3 R20  2 R21  4 R22 -3 R23  3 R24  2 GLONASS SLOT / FRQ #
                                                            END OF HEADER       
> 2025 01 02 21 00  0.0000000  0 38
G10         1.000    20885569.257 7 109754389.51907     -1118.557 7        45.354                                    20885570.098 6  85522888.06006      -871.609 6        38.150    20885568.435 6  85522905.09606      -871.429 6        37.456
G23         2.000    22479337.069 7 118129700.09107     -3603.196 7        42.626                                    22479332.654 1  92049192.86301     -2807.350 1         6.625
G21         4.000    22239455.235 6 116869505.59706      1280.881 6        39.435                                    22239441.357 2  91066831.78402       998.120 2        14.952
G08         5.000    20704775.965 7 108804373.07007       394.413 7        42.965                                    20704774.681 5  84782587.04305       307.339 5        34.524    20704773.160 6  84782569.01106       307.346 6        40.300
G02         6.000    24292312.901 5 127657040.66105      1868.409 5        33.683                                    24292315.366 1  99472979.62301      1455.979 1         9.143
E09         8.000    27144758.075 4 142646724.84804     -1121.675 4        27.234                                                                    27144784.619 4                      -837.082 4        29.848    27144774.953 4                      -858.886 4        29.441
E05        11.000    25018275.353 6 131471942.17906      1285.611 6        40.362                                                                    25018275.804 7  98177086.87007       960.188 7        42.178    25018276.171 6 100738237.98006       985.134 6        39.498
G27        13.000    20455962.988 7 107496797.52407     -2028.373 7        46.647                                    20455959.528 7  83763692.91207     -1580.550 7        44.035    20455958.596 7  83763770.92007     -1580.630 7        43.536
E27        14.000    25332446.589 6 133122921.14206      -877.046 6        37.388                                                                    25332453.051 6  99410007.74706      -654.896 6        39.553    25332449.152 5 102003288.32005      -671.954 5        32.832
E21        15.000    28249816.636 5 148453769.37505      1477.319 5        30.996                                                                    28249865.507 4                      1102.931 4        25.699    28249813.526 4                      1132.119 4        26.180
E15        16.000    24623576.058 6 129397764.22006       623.678 6        40.293                                                                    24623577.264 7  96628233.35907       465.713 7        44.038    24623578.276 7  99148934.90007       477.804 7        47.279
S36        17.000    38379795.206 6 201687238.52606      -862.089 6        38.892
E30        19.000    25874931.376 5 135973736.67105     -3397.792 5        35.848                                                                    25874930.400 6 101538785.16706     -2537.392 6        39.850    25874938.538 5 104187654.19205     -2603.621 5        34.933
R20        20.000    20117795.738 6 107578919.58606     -2113.246 6        37.486                                                                    20117797.466 6  83672479.40706     -1643.741 6        39.405
S23        22.000    38337275.723 6 201463723.87606      -861.585 6        38.544
E36        24.000                                                                                                                                    27144415.100 4                     -2397.444 4        29.109
G16        26.000    23994578.437 7 126092468.10507     -4552.601 7        43.962                                    23994573.395 3  98253755.34803     -3547.493 3        21.357
R05        28.000    20328375.261 7 108666896.25607       190.499 7        46.794                                                                    20328373.793 7  84518641.79607       148.303 7        44.193
R12        30.000    22798549.194 7 121785733.73407       642.590 7        42.967                                                                    22798550.082 5  94722394.13405       499.710 5        33.772
E34        32.000    23744910.962 8 124780338.75208     -1652.717 8        49.224                                                                    23744910.419 8  93180146.06408     -1234.237 8        48.985    23744910.841 8  95610991.76908     -1266.380 8        52.709
R11        33.000    22021003.252 6 117673532.54506     -3390.702 6        39.480                                                                    22021015.118 6  91523866.24506     -2637.272 6        41.483
R22        35.000    24771483.750 4                      2520.378 4        27.581
C08        36.000                                                                                                                                    39824004.593 5                     -2090.419 5        30.045    39823995.468 4 160354721.26304     -1616.585 4        29.782    39823993.742 4                     -1698.761 4        24.586
C33        37.000                                                                                                                                    25336017.383 6 131931291.38906      2599.558 6        37.388                                                                    25336030.039 6 107205042.85006      2112.183 6        41.213
C11        38.000                                                                                                                                    22534955.907 6 117345432.00906     -2379.477 6        41.769    22534946.979 7  90738880.75407     -1839.909 7        42.578    22534946.358 6  95352783.30306     -1933.489 6        41.209
R21        39.000    20595553.960 8 110210952.45508      1216.321 8        48.206                                                                    20595551.410 7  85719629.45907       946.058 7        42.049
R04        40.000    22048255.044 5                     -3635.883 5        32.006                                                                    22048249.052 5  91830182.73505     -2828.242 5        30.838
C14        42.000                                                                                                                                    23589468.989 4 122836646.38204      1806.126 4        29.991    23589458.911 6  94984963.89406      1396.637 6        40.508    23589457.803 6  99814845.26206      1467.636 6        36.170
C13        43.000                                                                                                                                    39220575.382 4 204231825.53804     -1893.816 4        28.360    39220616.250 4 157925015.15404     -1466.743 4        25.714
C05        44.000                                                                                                                                                                                                    39369418.397 6 158524338.52106      -618.102 6        36.374
C21        46.000                                                                                                                                    24409432.212 6 127106336.75406     -2667.151 6        41.404                                                                    24409425.632 6 103284241.60706     -2167.372 6        38.523
C23        47.000                                                                                                                                                                                                                                                                    26719828.974 3                     -3027.879 3        22.876
C43        48.000                                                                                                                                    21725147.156 8 113128564.67508     -1293.244 8        48.735                                                                    21725147.430 7  91926205.89307     -1050.815 7        43.898
C42        50.000                                                                                                                                    22829840.165 7 118880920.56607       327.969 7        46.744                                                                    22829844.837 7  96600554.02807       266.497 7        45.543
C34        52.000                                                                                                                                    24089028.517 7 125437921.54107     -3365.363 7        43.799                                                                    24089029.628 6 101928549.16406     -2734.446 6        41.125
C37        54.000                                                                                                                                    25831079.213 5 134509155.67805     -2329.848 5        34.514                                                                    25831088.809 5 109299789.03305     -1893.210 5        31.057
C28        55.000                                                                                                                                    23982183.460 6 124881419.15006      1634.568 6        41.440                                                                    23982186.712 5                      1328.290 5        32.305
I06        58.000    38737108.171 6 152012865.72706      -555.220 6        37.599
> 2025 01 02 21 00  5.0000000  0 37
G10         1.000    20886636.127 7 109759989.20407     -1121.438 7        44.984                                    20886635.480 6  85527251.45706      -873.851 6        38.222    20886634.043 6  85527268.49706      -873.899 6        37.664
G23         2.000    22482765.861 7 118147720.20507     -3604.909 7        42.427                                    22482761.919 1  92063234.83401     -2809.083 1         5.286    22482774.632 4                     -2809.030 4        29.839
G32         3.000    24210609.213 3                      2192.697 3        22.876
G21         4.000    22238232.226 6 116863104.48806      1279.555 6        38.625                                    22238223.456 2  91061843.92602       997.037 2        15.333
G08         5.000    20704401.962 7 108802406.93907       391.929 7        42.760                                    20704400.191 5  84781054.96505       305.393 5        34.033    20704398.788 6  84781036.96306       305.401 6        39.060
G02         6.000    24290535.774 5 127647700.74105      1867.311 5        30.340                                    24290537.186 1  99465701.68201      1455.048 1         8.571
E09         8.000    27145824.557 4 142652336.47804     -1123.611 4        27.760                                                                    27145849.782 4                      -839.343 4        29.754    27145844.561 4                      -861.231 4        29.299
E05        11.000    25017053.304 6 131465517.26306      1284.267 6        40.639                                                                    25017052.961 7  98172289.08207       958.938 7        42.099    25017053.532 6 100733315.02006       984.016 6        40.329
G27        13.000    20457893.539 8 107506946.30008     -2031.150 8        48.730                                    20457890.679 7  83771601.05107     -1582.717 7        44.394    20457889.851 7  83771679.05607     -1582.783 7        42.993
E27        14.000    25333285.798 6 133127312.37306      -879.580 6        40.274                                                                    25333288.333 6  99413286.91906      -656.853 6        37.652    25333284.523 5 102006653.03205      -673.387 5        31.351
E21        15.000    28248410.708 4 148446387.93404      1475.823 4        29.611                                                                    28248468.358 4                      1101.361 4        25.955    28248412.719 4                      1130.241 4        26.515
E15        16.000    24622982.185 6 129394647.69006       623.017 6        39.604                                                                    24622984.172 7  96625906.06607       465.137 7        43.852    24622985.171 7  99146546.89707       477.277 7        47.555
S36        17.000    38380615.382 6 201691548.50506      -861.938 6        38.925
E30        19.000    25878166.273 5 135990729.65405     -3399.023 5        34.433                                                                    25878164.124 6 101551474.70006     -2538.203 6        40.024    25878168.589 5 104200674.73305     -2604.739 5        35.214
R20        20.000    20119772.804 6 107589490.55206     -2115.055 6        37.875                                                                    20119774.549 6  83680701.29206     -1645.124 6        38.550
S23        22.000    38338086.996 6 201468032.00006      -861.826 6        37.115
E36        24.000                                                                                                                                    27147472.165 4                     -2397.722 4        28.720
G16        26.000    23998910.057 7 126115231.76307     -4553.013 7        42.590                                    23998905.453 3  98271493.26003     -3547.800 3        20.262
R05        28.000    20328199.508 7 108665954.72707       186.010 7        43.968                                                                    20328197.451 7  84517909.52507       144.622 7        43.977
R12        30.000    22797950.969 7 121782531.06607       638.471 7        44.584                                                                    22797951.667 6  94719903.15506       496.705 6        37.009
E34        32.000    23746483.947 8 124788604.63208     -1653.620 8        49.217                                                                    23746483.323 8  93186318.63108     -1234.826 8        49.034    23746483.855 8  95617325.36308     -1267.068 8        52.649
R11        33.000    22024179.412 6 117690494.20106     -3393.926 6        41.187                                                                    22024188.411 6  91537058.59306     -2639.681 6        41.263
C08        36.000                                                                                                                                    39826020.369 4                     -2090.906 4        29.090    39826003.070 4 160362804.50004     -1616.603 4        28.180    39826000.750 4                     -1699.026 4        24.511
C33        37.000                                                                                                                                    25333521.391 6 131918295.90806      2598.560 6        37.474                                                                    25333534.351 6 107194482.95506      2111.680 6        41.099
C11        38.000                                                                                                                                    22537242.515 7 117357332.83407     -2380.767 7        42.398    22537232.771 6  90748083.19506     -1840.992 6        41.986    22537231.486 6  95362453.63306     -1934.498 6        40.946
R21        39.000    20594414.587 7 110204873.76707      1214.973 7        46.808                                                                    20594415.590 6  85714901.65806       944.911 6        41.993
R04        40.000                                                                                                                                    22051640.231 5  91844329.73015     -2830.730 5        33.275
C14        42.000                                                                                                                                    23587733.778 5 122827620.80905      1803.992 5        33.599    23587725.956 6  94977984.69906      1395.069 6        40.429    23587725.412 6  99807511.19706      1466.177 6        37.561
C13        43.000                                                                                                                                                                                                    39222436.563 4                     -1464.443 4        26.491
C05        44.000                                                                                                                                                                                                    39370186.828 6 158527428.59706      -618.042 6        36.552
C21        46.000                                                                                                                                    24411994.332 6 127119678.68106     -2669.543 6        41.159                                                                    24411987.538 6 103295082.96706     -2169.202 6        37.403
C23        47.000                                                                                                                                                                                                                                                                    26723410.256 3                     -3030.410 3        23.638
C43        48.000                                                                                                                                    21726389.580 8 113135035.08408     -1294.996 8        48.321                                                                    21726389.858 7  91931463.63507     -1052.182 7        44.158
C42        50.000                                                                                                                                    22829526.321 7 118879287.48707       325.216 7        45.764                                                                    22829531.484 7  96599226.99707       264.364 7        46.075
C34        52.000                                                                                                                                    24092261.628 7 125454749.82407     -3366.121 7        44.215                                                                    24092261.137 6 101942223.50206     -2735.237 6        40.448
C28        55.000                                                                                                                                    23980622.935 7 124873247.96707      1633.807 7        42.102                                                                    23980616.171 5                      1327.642 5        33.120
I06        58.000    38737816.390 6 152015641.58606      -555.271 6        39.093
> 2025 01 02 21 00 10.0000000  0 39
G10         1.000    20887704.988 7 109765603.15307     -1123.930 7        46.031                                    20887703.160 6  85531625.95506      -875.793 6        37.641    20887701.301 6  85531642.98406      -875.891 6        36.699
G23         2.000    22486197.012 6 118165748.86006     -3606.323 6        40.701                                    22486192.843 1  92077283.20601     -2810.128 1         7.625    22486202.126 5                     -2810.241 5        31.155
G32         3.000    24208520.022 4                      2192.327 4        24.977
G21         4.000    22237011.209 6 116856710.06406      1278.470 6        36.333                                    22237006.844 2  91056861.24902       996.201 2        15.952
G08         5.000    20704028.622 7 108800453.57807       389.616 7        42.510                                    20704028.045 5  84779532.86105       303.594 5        33.731    20704026.957 6  84779514.86506       303.589 6        38.880
G02         6.000    24288757.508 4 127638363.66904      1867.395 4        28.512                                    24288760.091 1  99458425.92101      1455.083 1         5.714
E09         8.000    27146895.956 4 142657960.35604     -1125.801 4        28.588                                                                    27146920.883 5                      -840.798 5        31.358    27146915.483 5                      -862.802 5        30.302
E05        11.000    25015830.706 6 131459099.97906      1282.928 6        40.641                                                                    25015831.918 7  98167496.96307       958.036 7        42.161    25015832.262 6 100728397.88306       983.039 6        40.312
G27        13.000    20459826.902 8 107517108.94008     -2033.635 8        49.436                                    20459824.347 7  83779519.99207     -1584.660 7        44.984    20459823.677 6  83779597.99406     -1584.628 6        41.628
E27        14.000    25334128.424 6 133131715.85106      -881.766 6        40.296                                                                    25334125.278 6  99416575.22606      -658.439 6        36.760    25334121.314 4 102010027.15604      -675.829 4        29.450
E21        15.000    28247008.835 4 148439013.70404      1474.007 4        29.175                                                                    28247063.611 4                      1100.996 4        26.898    28247002.199 4                      1129.927 4        26.898
E15        16.000    24622392.123 6 129391535.45006       622.284 6        39.462                                                                    24622392.115 7  96623582.02707       464.635 7        44.558    24622393.023 7  99144162.22307       476.775 7        47.252
S36        17.000    38381436.971 6 201695858.52606      -861.854 6        38.802
E06        18.000                                                                                                                                                                                                    28026936.973 5 112852865.45215     -1667.508 5        31.675
E30        19.000    25881401.183 5 136007729.49405     -3400.530 5        35.081                                                                    25881399.295 6 101564169.35506     -2539.154 6        39.946    25881403.582 6 104213700.51606     -2605.488 6        36.779
R20        20.000    20121751.602 6 107600071.07306     -2116.753 6        37.285                                                                    20121753.810 6  83688930.61206     -1646.482 6        41.540
S23        22.000    38338917.046 6 201472339.96406      -861.417 6        37.025
E36        24.000                                                                                                                                    27150525.357 4                     -2397.759 4        27.042
G16        26.000    24003241.352 7 126137998.24407     -4553.419 7        42.722                                    24003237.678 3  98289233.37403     -3548.114 3        19.582
R05        28.000    20328028.202 7 108665035.92607       181.637 7        42.379                                                                    20328024.941 7  84517194.91007       141.322 7        43.052
R12        30.000    22797356.406 7 121779348.82707       634.559 7        46.112                                                                    22797355.104 6  94717428.03806       493.664 6        38.000
E34        32.000    23748057.739 8 124796875.31508     -1654.417 8        49.220                                                                    23748057.212 8  93192494.79008     -1235.440 8        49.195    23748057.625 8  95623662.64108     -1267.692 8        52.600
R11        33.000    22027357.233 6 117707472.64706     -3397.148 6        40.579                                                                    22027361.450 6  91550264.05906     -2642.263 6        40.186
C08        36.000                                                                                                                                    39828035.184 5                     -2090.533 5        30.347    39828011.883 4 160370887.50104     -1616.383 4        29.801    39828007.261 4                     -1698.557 4        24.346
C33        37.000                                                                                                                                    25331027.546 6 131905303.81106      2598.344 6        40.122                                                                    25331039.592 6 107183925.86606      2111.193 6        41.118
C11        38.000                                                                                                                                    22539531.093 7 117369240.45007     -2382.047 7        42.900    22539519.030 6  90757290.92106     -1841.986 6        41.440    22539518.823 6  95372129.55106     -1935.631 6        41.361
R21        39.000    20593281.173 7 110198802.26007      1213.832 7        44.670                                                                    20593281.704 6  85710179.38906       943.983 6        41.924
R04        40.000    22055063.603 4                     -3642.974 4        28.389                                                                    22055040.525 4                     -2833.105 4        29.355
C14        42.000                                                                                                                                    23585995.451 4 122818604.40504      1803.422 4        29.308    23585995.229 7  94971012.71507      1393.950 7        42.313    23585994.114 6  99800184.72606      1464.565 6        37.671
C13        43.000                                                                                                                                    39224211.591 4 204250764.70504     -1893.393 4        27.844
C05        44.000                                                                                                                                                                                                    39370952.683 6 158530518.63506      -617.679 6        36.310
C21        46.000                                                                                                                                    24414559.097 6 127133032.43406     -2671.796 6        40.942                                                                    24414551.894 5 103305934.00805     -2171.031 5        35.948
C23        47.000                                                                                                                                    26727007.483 4                     -3728.024 4        24.060
C43        48.000                                                                                                                                    21727633.857 8 113141514.08608     -1296.444 8        48.829                                                                    21727633.961 7  91936728.38607     -1053.595 7        44.274
C42        50.000                                                                                                                                    22829211.005 7 118877668.10807       322.688 7        44.823                                                                    22829220.620 7  96597911.13807       262.180 7        45.609
C34        52.000                                                                                                                                    24095495.396 7 125471582.79207     -3366.790 7        44.123                                                                    24095493.056 6 101955901.66306     -2735.926 6        39.874
C37        54.000                                                                                                                                    25835575.289 5 134532473.70005     -2333.859 5        34.014                                                                    25835591.561 4 109318736.80404     -1896.679 4        28.768
C28        55.000                                                                                                                                    23979055.698 7 124865079.83307      1633.525 7        42.282                                                                    23979048.519 5                      1327.311 5        35.148
I06        58.000    38738523.406 6 152018417.25706      -555.116 6        38.826
> 2025 01 02 21 00 15.0000000  0 38
G10         1.000    20888775.575 7 109771231.10607     -1127.116 7        46.365                                    20888773.425 6  85536011.36906      -878.273 6        37.955    20888772.405 6  85536028.40806      -878.237 6        37.607
G23         2.000    22489629.567 6 118183785.85606     -3608.400 6        40.365                                    22489625.364 1  92091338.04501     -2811.731 1        10.518    22489632.639 5                     -2811.771 5        32.383
G32         3.000    24206439.161 4                      2192.066 4        28.616
G21         4.000    22235797.325 6 116850322.01006      1276.720 6        37.172                                    22235791.341 2  91051883.56902       994.839 2        16.377
G08         5.000    20703659.327 7 108798512.73107       386.785 7        42.946                                    20703658.282 5  84778020.50305       301.394 5        34.119    20703658.266 6  84778002.49906       301.394 6        39.447
G02         6.000    24286982.143 5 127629028.94105      1866.734 5        33.641                                    24286983.346 1  99451152.18901      1454.613 1         4.286
E09         8.000    27147968.567 4 142663596.16404     -1128.363 4        26.539                                                                    27147996.103 5 106534565.75315      -842.648 5        32.766    27147989.379 4                      -864.086 4        27.784
E05        11.000    25014611.708 6 131452690.04506      1281.216 6        39.970                                                                    25014612.489 6  98162710.33106       956.757 6        41.971    25014612.017 6 100723486.38406       981.658 6        40.470
G27        13.000    20461763.062 8 107527285.22408     -2036.790 8        50.521                                    20461760.573 7  83787449.56207     -1587.104 7        45.430    20461759.717 6  83787527.54906     -1587.233 6        41.111
E27        14.000    25334968.540 6 133136131.31006      -884.340 6        40.729                                                                    25334964.119 5  99419872.52905      -660.584 5        35.043    25334956.924 4 102013410.42504      -677.015 4        25.143
E21        15.000    28245606.858 5 148431646.26705      1473.105 5        30.996                                                                    28245668.206 4                      1099.879 4        28.076    28245605.609 4                      1128.497 4        29.327
E15        16.000    24621796.491 5 129388427.41605       620.988 5        34.857                                                                    24621800.678 7  96621261.03507       463.752 7        45.032    24621801.793 7  99141780.67807       475.875 7        47.314
S36        17.000    38382258.999 6 201700167.93806      -862.059 6        37.157
E06        18.000                                                                                                                                                                                                    28029008.485 5 112861207.52205     -1669.232 5        30.241
E30        19.000    25884634.615 5 136024735.97305     -3402.056 5        33.108                                                                    25884635.182 6 101576868.96006     -2540.542 6        40.572    25884640.523 6 104226731.42006     -2606.714 6        38.186
R20        20.000    20123732.031 6 107610660.89106     -2119.034 6        37.561                                                                    20123733.624 7  83697167.11607     -1648.054 7        42.590
S23        22.000    38339738.045 5 201476647.53605      -861.656 5        35.348
E36        24.000                                                                                                                                    27153580.607 3                     -2397.931 3        23.752
G16        26.000    24007574.760 6 126160767.20306     -4554.176 6        41.235                                    24007570.394 3  98306975.42203     -3548.708 3        18.597
R05        28.000    20327862.404 6 108664139.69106       176.934 6        39.345                                                                    20327857.814 7  84516497.86007       137.572 7        43.300
R12        30.000    22796765.326 7 121776186.67807       630.241 7        47.546                                                                    22796761.817 6  94714968.65006       490.160 6        39.862
E34        32.000    23749632.428 8 124805150.52708     -1655.634 8        48.984                                                                    23749631.952 8  93198674.33808     -1236.362 8        49.374    23749632.275 8  95630003.39508     -1268.583 8        52.579
R11        33.000    22030536.979 6 117724467.55306     -3400.761 6        40.839                                                                    22030540.741 6  91563482.27906     -2644.939 6        39.339
C08        36.000                                                                                                                                    39830050.782 4                     -2090.582 4        29.071    39830021.741 5 160378970.10005     -1616.311 5        30.521    39830015.296 4                     -1698.891 4        24.827
C33        37.000                                                                                                                                    25328532.235 6 131892314.89606      2597.341 6        41.197                                                                    25328545.295 6 107173371.33706      2110.452 6        41.185
C11        38.000                                                                                                                                    22541817.751 7 117381154.62407     -2383.593 7        42.064    22541807.007 6  90766503.69006     -1843.179 6        39.892    22541807.173 6  95381810.75806     -1936.948 6        41.344
R21        39.000    20592150.611 7 110192737.61607      1212.049 7        46.209                                                                    20592149.065 7  85705462.43007       942.789 7        42.546
R04        40.000                                                                                                                                    22058441.450 4  91872663.66414     -2835.491 4        28.882
C14        42.000                                                                                                                                    23584264.270 5 122809597.21705      1800.661 5        30.792    23584265.826 7  94964047.72907      1392.190 7        43.232    23584263.780 6  99792865.55106      1462.864 6        38.114
C13        43.000                                                                                                                                    39226028.911 4 204260234.15104     -1894.531 4        25.414
C05        44.000                                                                                                                                                                                                    39371719.002 5 158533608.47805      -618.141 5        34.109
C21        46.000                                                                                                                                    24417125.415 7 127146397.79407     -2674.359 7        42.571                                                                    24417118.293 5 103316794.47805     -2173.351 5        34.881
C23        47.000                                                                                                                                    26730591.305 3                     -3726.686 3        23.219                                                                    26730590.976 3                     -3029.663 3        22.267
C43        48.000                                                                                                                                    21728879.849 8 113148001.42408     -1298.401 8        48.950                                                                    21728879.770 7  91941999.87607     -1055.160 7        44.504
C42        50.000                                                                                                                                    22828898.605 7 118876062.22707       319.776 7        43.016                                                                    22828912.193 7  96596606.17907       259.719 7        45.398
C34        52.000                                                                                                                                    24098729.496 7 125488420.14107     -3368.057 7        44.977                                                                    24098726.404 6 101969583.37506     -2736.883 6        38.808
C28        55.000                                                                                                                                    23977481.647 7 124856914.50807      1632.533 7        43.731                                                                    23977477.096 5 101456562.10015      1326.569 5        34.329
I06        58.000    38739230.557 6 152021192.53306      -555.101 6        38.495
> 2025 01 02 21 00 20.0000000  0 39
G10         1.000    20889849.455 8 109776873.84708     -1129.806 8        48.817                                    20889846.735 6  85540408.31706      -880.374 6        39.480    20889846.888 6  85540425.38706      -880.573 6        37.112
G23         2.000    22493064.203 6 118201831.89706     -3609.913 6        37.958                                    22493059.695 1  92105399.93001     -2812.904 1        11.778    22493064.851 5  92105348.00415     -2812.624 5        30.664
G32         3.000    24204358.095 5                      2190.650 5        30.762
G21         4.000    22234584.973 6 116843941.17206      1275.637 6        40.081                                    22234577.291 3  91046911.46403       994.007 3        18.328
G08         5.000    20703292.185 7 108796585.20807       384.323 7        44.612                                    20703291.117 5  84776518.51305       299.475 5        34.719    20703291.615 6  84776500.51306       299.330 6        39.057
G02         6.000    24285211.639 6 127619697.63606      1866.026 6        37.834                                    24285207.365 1  99443880.98101      1454.011 1         6.000
E09         8.000    27149046.444 5 142669244.78205     -1130.738 5        31.381                                                                    27149071.065 5 106538783.90105      -844.403 5        32.132    27149057.247 4                      -866.653 4        26.503
E05        11.000    25013395.079 6 131446288.30806      1279.709 6        40.403                                                                    25013394.176 7  98157929.83407       955.517 7        42.301    25013394.278 6 100718581.17206       980.528 6        40.441
G27        13.000    20463702.459 8 107537475.88608     -2039.430 8        49.798                                    20463699.540 7  83795390.32807     -1589.162 7        45.687    20463699.406 6  83795468.32806     -1589.090 6        41.948
E27        14.000    25335811.189 6 133140559.62006      -887.022 6        38.958                                                                    25335806.698 5  99423179.37605      -662.303 5        32.539
E21        15.000    28244205.896 5 148424286.64005      1471.315 5        31.494                                                                    28244266.410 4                      1098.387 4        26.335    28244213.789 5                      1127.288 5        32.527
E15        16.000    24621206.334 5 129385324.12705       620.445 5        31.389                                                                    24621210.231 7  96618943.67607       463.149 7        44.339    24621210.780 7  99139402.87107       475.254 7        46.487
S36        17.000    38383082.779 6 201704477.86506      -862.015 6        36.745
E06        18.000    28031091.614 4 147304358.53514     -2180.780 4        28.758                                                                                                                                    28031079.880 4 112869558.15704     -1671.076 4        27.916
E30        19.000    25887873.289 5 136041749.81805     -3403.471 5        33.341                                                                    25887872.381 6 101589574.08906     -2541.393 6        39.697    25887878.648 6 104239767.98506     -2607.773 6        36.488
R20        20.000    20125715.049 6 107621260.66506     -2120.495 6        36.416                                                                    20125714.696 7  83705411.39307     -1649.456 7        42.665
S23        22.000    38340536.623 5 201480955.47805      -861.427 5        32.647
S21        23.000    38614188.123 6 202918937.60216      -862.319 6        36.045
E36        24.000                                                                                                                                    27156636.451 4                     -2397.393 4        27.138    27156625.640 4 109348486.43714     -2459.955 4        27.102
G16        26.000    24011908.126 6 126183539.45006     -4554.603 6        40.398                                    24011903.830 2  98324720.03802     -3549.023 2        17.509
R05        28.000    20327696.355 6 108663266.66506       172.378 6        40.889                                                                    20327694.989 7  84515818.89707       134.158 7        43.729
R12        30.000    22796177.225 7 121773045.46407       626.278 7        46.617                                                                    22796174.232 6  94712525.47106       487.179 6        40.605
E34        32.000    23751208.160 8 124813431.08208     -1656.488 8        48.637                                                                    23751207.609 8  93204857.85808     -1236.968 8        49.503    23751208.089 8  95636348.23508     -1269.270 8        52.746
R11        33.000    22033721.447 7 117741479.75007     -3404.013 7        44.296                                                                    22033725.903 6  91576714.05806     -2647.559 6        37.943
C08        36.000                                                                                                                                    39832065.283 4                     -2090.745 4        28.066    39832025.693 4 160387052.76604     -1615.860 4        26.503    39832025.121 4                     -1698.261 4        24.451
C33        37.000                                                                                                                                    25326038.410 7 131879329.98707      2596.715 7        43.048                                                                    25326051.436 6 107162820.03906      2109.924 6        41.497
C11        38.000                                                                                                                                    22544101.038 6 117393076.18106     -2384.973 6        41.993    22544095.542 6  90775722.20806     -1844.248 6        38.378    22544097.231 7  95391497.98107     -1938.021 7        42.398
R21        39.000    20591018.763 8 110186680.62208      1210.764 8        48.420                                                                    20591017.190 7  85700751.43007       941.753 7        42.991
R04        40.000    22061867.503 6 118140379.76116     -3649.871 6        40.248                                                                    22061844.069 4  91886850.97204     -2839.026 4        28.948
C14        42.000                                                                                                                                    23582539.337 5 122800599.77305      1798.773 5        33.084    23582538.012 7  94957090.33007      1390.813 7        43.596    23582535.866 6  99785554.36006      1461.414 6        40.303
C13        43.000                                                                                                                                    39227841.138 3                     -1896.982 3        22.343    39227892.577 4                     -1465.393 4        25.579
C05        44.000                                                                                                                                                                                                    39372487.419 5 158536698.67705      -617.971 5        34.829
C21        46.000                                                                                                                                    24419696.157 6 127159775.58006     -2676.679 6        41.690                                                                    24419685.439 5 103327664.91705     -2175.115 5        33.030
C43        48.000                                                                                                                                    21730128.427 8 113154497.90308     -1300.064 8        50.494                                                                    21730127.301 7  91947278.77907     -1056.509 7        43.412
C42        50.000                                                                                                                                    22828595.915 6 118874470.53406       316.935 6        41.633                                                                    22828606.290 7  96595312.78307       257.675 7        44.987
C34        52.000                                                                                                                                    24101964.257 7 125505262.65707     -3368.830 7        44.331                                                                    24101960.662 6 101983269.32806     -2737.749 6        37.433
C37        54.000                                                                                                                                                                                                                                                                    25840078.220 4                     -1899.727 4        24.571
C28        55.000                                                                                                                                    23975912.199 7 124848752.82307      1632.040 7        45.950                                                                    23975904.703 5 101449930.00905      1326.087 5        32.820
I06        58.000    38739938.795 6 152023968.02106      -555.053 6        40.369
> 2025 01 02 21 00 25.0000000  0 39
G10         1.000    20890926.321 8 109782530.86608     -1132.833 8        49.917                                    20890922.947 6  85544816.37806      -882.726 6        41.874    20890924.362 6  85544833.40406      -882.623 6        37.308
G23         2.000    22496499.552 6 118219886.56906     -3611.862 6        36.132                                    22496495.439 2  92119468.52802     -2814.440 2        12.848    22496499.850 6  92119416.57006     -2814.500 6        36.129
G21         4.000    22233372.703 6 116837567.02306      1274.261 6        39.976                                    22233364.909 3  91041944.58003       992.951 3        20.429
G08         5.000    20702926.924 7 108794670.47207       381.703 7        42.463                                    20702926.380 5  84775026.51105       297.436 5        35.076    20702927.611 6  84775008.48406       297.467 6        39.853
G02         6.000    24283436.369 6 127610369.09406      1865.431 6        39.667                                    24283432.063 1  99436611.93101      1453.548 1         5.714
E09         8.000    27150125.589 5 142674905.42805     -1133.673 5        30.679                                                                    27150147.378 5 106543010.99605      -846.164 5        30.717    27150131.107 4                      -868.880 4        27.030
E05        11.000    25012178.692 6 131439894.22606      1278.182 6        40.322                                                                    25012177.843 7  98153155.03807       954.434 7        42.720    25012177.180 6 100713681.81906       979.313 6        40.942
G27        13.000    20465643.736 8 107547680.40208     -2042.281 8        48.753                                    20465641.190 7  83803341.90207     -1591.394 7        45.475    20465641.650 6  83803419.93006     -1591.397 6        41.080
E27        14.000    25336655.410 6 133145000.14506      -889.236 6        38.069                                                                    25336651.706 5  99426495.39305      -664.115 5        34.590
E21        15.000    28242807.452 5 148416934.15205      1469.654 5        31.547                                                                    28242861.216 4                      1098.504 4        24.406    28242813.778 5 113722106.78715      1125.921 5        34.338
E15        16.000    24620616.759 4 129382225.35004       619.311 4        28.455                                                                    24620620.704 7  96616629.58707       462.550 7        45.345    24620620.505 7  99137028.41807       474.535 7        46.451
S36        17.000    38383898.864 6 201708787.31906      -861.761 6        39.510
E06        18.000    28033164.220 4 147315267.40404     -2182.952 4        28.872                                                                                                                                    28033154.729 4 112877916.76804     -1672.371 4        26.982
E30        19.000    25891114.688 6 136058770.57706     -3404.794 6        39.252                                                                    25891110.640 6 101602284.35206     -2542.579 6        40.069    25891117.911 6 104252809.79206     -2608.754 6        37.490
R20        20.000    20127696.510 6 107631869.90506     -2122.835 6        36.737                                                                    20127700.051 7  83713663.01607     -1651.131 7        42.428
S23        22.000    38341359.035 5 201485263.60205      -861.490 5        34.695
S21        23.000    38615010.106 6 202923250.45306      -862.459 6        37.338
E36        24.000                                                                                                                                    27159692.143 3                     -2396.797 3        19.970
G16        26.000    24016242.542 6 126206314.44906     -4555.310 6        40.095                                    24016237.391 2  98342466.76702     -3549.610 2        16.981
R05        28.000    20327536.365 7 108662416.84507       167.698 7        42.777                                                                    20327534.704 7  84515157.83207       130.489 7        42.442
R12        30.000    22795589.796 7 121769924.59507       622.098 7        46.326                                                                    22795589.057 6  94710098.16206       483.892 6        40.622
E34        32.000    23752785.065 8 124821716.44808     -1657.500 8        48.901                                                                    23752784.459 8  93211044.97308     -1237.766 8        49.566    23752784.792 8  95642696.75608     -1270.071 8        52.539
R11        33.000    22036911.301 7 117758508.81007     -3407.432 7        45.413                                                                    22036909.662 6  91589958.80206     -2650.296 6        37.924
C08        36.000                                                                                                                                    39834064.769 5                     -2090.465 5        30.060    39834031.456 4 160395135.28604     -1616.663 4        29.109    39834031.234 3                     -1704.102 3        19.761
C33        37.000                                                                                                                                    25323545.952 7 131866348.52807      2596.016 7        43.613                                                                    25323558.447 6 107152271.58706      2109.192 6        41.473
C11        38.000                                                                                                                                    22546390.655 6 117405004.59106     -2386.333 6        41.399    22546386.369 6  90784946.00706     -1845.372 6        38.931    22546388.626 7  95401190.81407     -1939.397 7        42.605
R21        39.000    20589887.373 7 110180630.85407      1209.270 7        47.786                                                                    20589887.015 7  85696046.06707       940.632 7        43.839
R04        40.000    22065270.491 7 118158637.65607     -3653.215 7        42.227                                                                    22065259.923 4                     -2841.879 4        24.376
C14        42.000                                                                                                                                    23580821.086 6 122791611.63006      1796.623 6        36.227    23580811.214 7  94950140.09307      1389.299 7        43.128    23580810.013 6  99778250.77706      1459.721 6        40.675
C13        43.000                                                                                                                                                                                                    39229707.931 5                     -1464.506 5        30.015
C05        44.000                                                                                                                                                                                                    39373253.932 5 158539788.82305      -617.990 5        34.857
C21        46.000                                                                                                                                    24422267.432 6 127173165.22606     -2679.147 6        40.961                                                                    24422253.293 5 103338545.09605     -2177.357 5        31.849
C23        47.000                                                                                                                                    26737758.337 3                     -3730.907 3        20.357
