     3.04           OBSERVATION DATA    M                   RINEX VERSION / TYPE
ssrcrin-15.6.1x                         20250102 103000 UTC PGM / RUN BY / DATE 
(00000000023479385599111004) Septentrio proprietary         COMMENT             
ract                                                        MARKER NAME         
01                                                          MARKER NUMBER       
geodetic                                                    MARKER TYPE         
NFB                 CLIMERS@TUW                             OBSERVER / AGENCY   
3296359             SEPT ASTERX SB3 PROB4.14.4              REC # / TYPE / VERS 
Unknown             Unknown                                 ANT # / TYPE        
  4127447.8512  1206914.9629  4695544.9877                  APPROX POSITION XYZ 
        0.0000        0.0000        0.0000                  ANTENNA: DELTA H/E/N
G   23 X1  C1C L1C D1C S1C C1W S1W C2W L2W D2W S2W C2L L2L  SYS / # / OBS TYPES 
       D2L S2L C5Q L5Q D5Q S5Q C1L L1L D1L S1L              SYS / # / OBS TYPES 
E   21 X1  C1C L1C D1C S1C C6C L6C D6C S6C C5Q L5Q D5Q S5Q  SYS / # / OBS TYPES 
       C7Q L7Q D7Q S7Q C8Q L8Q D8Q S8Q                      SYS / # / OBS TYPES 
S    9 X1  C1C L1C D1C S1C C5I L5I D5I S5I                  SYS / # / OBS TYPES 
R   17 X1  C1C L1C D1C S1C C2P L2P D2P S2P C2C L2C D2C S2C  SYS / # / OBS TYPES 
       C3Q L3Q D3Q S3Q                                      SYS / # / OBS TYPES 
C   25 X1  C1P L1P D1P S1P C5P L5P D5P S5P C2I L2I D2I S2I  SYS / # / OBS TYPES 
       C7I L7I D7I S7I C6I L6I D6I S6I C7D L7D D7D S7D      SYS / # / OBS TYPES 
J   17 X1  C1C L1C D1C S1C C2L L2L D2L S2L C5Q L5Q D5Q S5Q  SYS / # / OBS TYPES 
       C1L L1L D1L S1L                                      SYS / # / OBS TYPES 
I    5 X1  C5A L5A D5A S5A                                  SYS / # / OBS TYPES 
SEPTENTRIO RECEIVERS OUTPUT ALIGNED CARRIER PHASES.         COMMENT             
NO FURTHER PHASE SHIFT APPLIED IN THE RINEX ENCODER.        COMMENT             
G L1C                                                       SYS / PHASE SHIFT   
G L2W                                                       SYS / PHASE SHIFT   
G L2L  0.00000                                              SYS / PHASE SHIFT   
G L5Q  0.00000                                              SYS / PHASE SHIFT   
G L1L  0.00000                                              SYS / PHASE SHIFT   
E L1C  0.00000                                              SYS / PHASE SHIFT   
E L6C  0.00000                                              SYS / PHASE SHIFT   
E L5Q  0.00000                                              SYS / PHASE SHIFT   
E L7Q  0.00000                                              SYS / PHASE SHIFT   
E L8Q  0.00000                                              SYS / PHASE SHIFT   
S L1C                                                       SYS / PHASE SHIFT   
S L5I                                                       SYS / PHASE SHIFT   
R L1C                                                       SYS / PHASE SHIFT   
R L2P  0.00000                                              SYS / PHASE SHIFT   
R L2C                                                       SYS / PHASE SHIFT   
R L3Q  0.00000                                              SYS / PHASE SHIFT   
C L1P  0.00000                                              SYS / PHASE SHIFT   
C L5P  0.00000                                              SYS / PHASE SHIFT   
C L2I                                                       SYS / PHASE SHIFT   
C L7I                                                       SYS / PHASE SHIFT   
C L6I                                                       SYS / PHASE SHIFT   
C L7D                                                       SYS / PHASE SHIFT   
J L1C                                                       SYS / PHASE SHIFT   
J L2L  0.00000                                              SYS / PHASE SHIFT   
J L5Q  0.00000                                              SYS / PHASE SHIFT   
J L1L  0.00000                                              SYS / PHASE SHIFT   
I L5A                                                       SYS / PHASE SHIFT   
  2025     1     2    10    30    0.0000000     GPS         TIME OF FIRST OBS   
 C1C    0.000 C2C    0.000 C2P    0.000                     GLONASS COD/PHS/BIS 
DBHZ                                                        SIGNAL STRENGTH UNIT
    18                                                      LEAP SECONDS        
 24 R01  1 R02 -4 R03  5 R04  6 R05  1 R06 -4 R07  5 R08  6 GLONASS SLOT / FRQ #
    R09 -2 R10 -7 R11  0 R12 -1 R13 -2 R14 -7 R15  0 R16 -1 GLONASS SLOT / FRQ #
    R17  4 R18 -3 R19  3 R20  2 R21  4 R22 -3 R23  3 R24  2 GLONASS SLOT / FRQ #
                                                            END OF HEADER       
> 2025 01 02 10 30  0.0000000  0 38
G13         1.000    21587514.445 6 113443044.41206     -3878.662 6        38.465                                    21587518.593 2  88397263.04702     -3022.332 2        12.000
G17         2.000    21972341.223 7 115465825.73307     -1063.983 7        44.250                                    21972341.954 5  89973150.05805      -829.090 5        30.777    21972342.373 5  89973074.12805      -829.009 5        31.102
G19         4.000    22010941.572 6 115668289.22206      1401.700 6        38.658                                    22010943.366 2  90131136.99102      1092.212 2        16.038
G10         7.000    24588727.663 6 129214555.02906       470.609 6        39.261                                    24588721.034 3 100686614.37303       366.710 3        20.310    24588718.786 5 100686816.36205       366.937 5        33.269
G14         8.000    22811456.565 6 119874973.04906     -3873.405 6        36.824                                    22811462.985 2  93409064.90302     -3018.235 2        14.714    22811459.326 5  93409169.91305     -3018.443 5        33.575
G15         9.000    20637792.626 7 108452547.09207     -2718.906 7        45.941                                    20637793.033 6  84508380.52806     -2118.633 6        40.010    20637792.883 6  84508301.53906     -2118.565 6        41.106
E06        11.000    25833714.979 4                     -3659.005 4        28.142                                                                    25833706.113 6 101376930.73606     -2732.389 6        36.590    25833706.097 6 104021638.86106     -2803.567 6        38.949
G24        12.000    20786476.092 7 109233748.44007      1076.575 7        46.785                                    20786474.580 5  85117138.29005       838.890 5        34.710    20786474.829 5  85117207.31305       838.891 5        35.048
E31        13.000    23828146.698 7 125217725.96107     -2164.854 7        47.212                                                                    23828152.390 7  93506799.45707     -1616.630 7        47.120    23828149.648 7  95946081.50807     -1658.826 7        46.580
G12        15.000                                                                                                                                                                    23312051.765 4  95458775.88004      2043.648 4        27.006
E24        16.000    24105361.582 7 126674506.65807       561.171 7        44.719                                                                    24105364.186 8  94594667.28308       419.078 8        48.496    24105363.212 8  97062379.84408       429.999 8        48.997
E05        18.000    22375902.283 7 117586171.05407        12.764 7        45.819                                                                    22375909.379 7  87807852.43407         9.652 7        44.224    22375919.132 6  90098633.82606         9.899 6        38.033
E09        21.000    24434353.980 6 128403400.10306     -2862.383 6        36.329                                                                    24434351.631 7  95885558.50307     -2137.516 7        44.733    24434350.105 7  98386982.74407     -2193.227 7        43.128
R14        23.000    20987846.650 8 111876995.27008      1663.955 8        49.375                                                                    20987851.795 6  87015501.36806      1294.014 6        37.089
S23        24.000    38116812.801 5 200305235.09805      -858.529 5        35.452
E03        26.000    27454028.790 6 144272161.11006      1928.829 6        38.216                                                                    27454035.791 5 107735537.61205      1440.273 5        34.576    27454037.165 6 110546042.52206      1477.934 6        40.651
R13        27.000    19493873.396 6 104096164.54906     -2036.619 6        41.378
R21        28.000                                                                                                                                    23663384.593 4                     -2312.047 4        28.578
R04        29.000    20397833.575 7 109229501.44407      1053.777 7        47.198                                                                    20397833.170 7  84956325.94007       819.566 7        44.035
S36        31.000    38183143.607 5 200653917.13305      -856.397 5        33.683
C07        32.000                                                                                                                                    38967184.927 5 202912328.63605     -1340.943 5        32.144    38967173.967 5 156904773.19905     -1036.970 5        35.071    38967167.945 5                     -1089.452 5        30.958
C10        33.000                                                                                                                                    38473915.072 6 200343771.74806      -968.056 6        38.474    38473915.920 7 154918535.17407      -748.631 7        42.675    38473912.074 6 162795719.94806      -786.835 6        38.369
C36        34.000                                                                                                                                    23164381.457 7 120622977.24807     -3019.028 7        46.644                                                                    23164390.252 7  98016146.29407     -2453.210 7        45.561
R02        35.000    23176336.474 3                     -5474.876 3        20.190                                                                    23176357.539 3                     -4257.013 3        22.171
R03        36.000    19885973.878 8 106451195.29908     -3080.089 8        48.745                                                                    19885977.498 7  82795426.96607     -2395.675 7        42.246
C45        37.000                                                                                                                                    21587822.209 8 112413415.13208      -627.043 8        51.415                                                                    21587815.909 7  91345156.46307      -509.585 7        45.804
R12        38.000    22203530.133 4                     -4190.451 4        24.045                                                                    22203510.783 3                     -3260.243 3        18.179
C40        40.000                                                                                                                                    39091203.358 5 203558162.03205     -1551.146 5        35.805                                                                    39091200.730 5                     -1260.324 5        32.245
C30        43.000                                                                                                                                    24598536.410 4 128090946.57204       -54.224 4        27.820                                                                    24598518.727 5 104084417.57505       -43.906 5        31.411
R05        44.000    24116961.029 5 128919067.78205      3383.050 5        31.804
C42        45.000                                                                                                                                    24459734.197 7 127368525.94007       736.454 7        42.095                                                                    24459747.132 6 103497234.31606       598.310 6        41.168
C29        46.000                                                                                                                                                                                                                                                                    25213525.985 4                      1680.306 4        28.730
C26        48.000                                                                                                                                    24560135.191 6 127891043.47906      1707.430 6        40.012                                                                    24560135.487 6 103921988.83206      1387.482 6        38.583
C22        51.000                                                                                                                                    24878500.219 7 129548872.20807     -4270.314 7        44.537                                                                    24878500.309 7 105269098.90707     -3470.011 7        42.157
C14        53.000                                                                                                                                    26278441.559 5 136838633.41505      1816.633 5        32.922    26278435.061 5 105812519.35605      1404.641 5        34.467
C21        55.000                                                                                                                                                                                                                                                                    23142390.581 4  97922930.26204     -1788.568 4        25.218
I06        58.000    38204596.518 6 149923052.46106      -744.751 6        39.501
I02        59.000    36936338.378 7 144946110.08407      -484.707 7        42.445
> 2025 01 02 10 30  5.0000000  0 38
G13         1.000    21591201.919 6 113462441.12806     -3880.149 6        36.087                                    21591209.694 1  88412377.26701     -3023.564 1         8.857
G17         2.000    21973355.435 7 115471152.83007     -1066.985 7        42.764                                    21973354.521 4  89977301.06604      -831.422 4        29.393    21973353.426 4  89977225.06704      -831.378 4        27.725
G19         4.000    22009608.359 6 115661286.02906      1399.334 6        37.679                                    22009610.536 2  90125679.96402      1090.383 2        16.943
G10         7.000    24588283.184 6 129212209.15506       467.829 6        38.733                                    24588274.050 3 100684786.39103       364.549 3        19.015    24588272.021 5 100684988.40105       364.792 5        32.725
G14         8.000    22815143.804 6 119894342.57006     -3874.383 6        36.582                                    22815148.425 2  93424158.01902     -3018.940 2        13.273    22815145.169 5  93424262.98905     -3018.930 5        32.581
G15         9.000    20640380.483 7 108466148.57707     -2721.816 7        45.225                                    20640381.369 6  84518979.08606     -2120.898 6        38.946    20640381.587 6  84518900.09506     -2120.818 6        40.923
E06        11.000    25837199.545 5                     -3659.960 5        30.883                                                                    25837187.815 6 101390593.89206     -2732.828 6        36.771    25837187.866 6 104035658.46906     -2804.201 6        38.985
G24        12.000    20785452.871 7 109228369.98507      1074.691 7        46.220                                    20785451.705 5  85112947.27605       837.424 5        33.994    20785452.803 5  85113016.29705       837.388 5        35.024
E31        13.000    23830207.048 7 125228553.49507     -2166.219 7        46.747                                                                    23830212.791 7  93514884.93007     -1617.605 7        47.228    23830210.201 7  95954377.90007     -1659.739 7        46.750
G12        15.000                                                                                                                                                                    23309557.320 4  95448557.78304      2043.164 4        26.000
E24        16.000    24104828.830 7 126671704.07707       559.694 7        43.956                                                                    24104830.898 8  94592574.45308       417.990 8        48.350    24104829.843 8  97060232.40908       428.961 8        48.929
E05        18.000    22375891.492 7 117586111.01007        11.052 7        45.567                                                                    22375897.927 7  87807807.59907         8.380 7        43.987    22375907.985 6  90098587.81506         8.408 6        37.709
E09        21.000    24437075.968 6 128417715.59406     -2863.983 6        38.712                                                                    24437075.673 7  95896248.61707     -2138.559 7        45.013    24437074.155 7  98397951.72507     -2194.427 7        42.897
R14        23.000    20986286.698 8 111868679.42608      1662.368 8        48.764                                                                    20986288.815 5  87009033.47505      1293.306 5        34.595
S23        24.000    38117636.501 5 200309526.71205      -858.199 5        35.981
E03        26.000    27452193.704 6 144262518.09206      1928.158 6        39.021                                                                    27452201.205 5 107728336.67105      1440.089 5        34.210    27452202.001 6 110538653.72006      1477.623 6        40.732
R13        27.000    19495781.600 6 104106352.34206     -2038.637 6        41.778
R21        28.000                                                                                                                                    23666158.582 4                     -2315.043 4        26.599
R04        29.000    20396852.292 8 109224242.09908      1049.855 8        49.024                                                                    20396850.528 7  84952235.31307       816.579 7        43.716
S36        31.000    38183965.142 5 200658198.91405      -856.272 5        34.190
C07        32.000                                                                                                                                    38968469.120 5 202919034.38805     -1341.446 5        32.287    38968462.580 5 156909958.48405     -1037.224 5        35.710    38968456.787 5                     -1090.005 5        30.958
C10        33.000                                                                                                                                    38474844.431 6 200348613.05906      -968.357 6        38.423    38474845.424 7 154922278.78407      -748.827 7        42.874    38474841.970 6 162799653.88706      -786.837 6        38.580
C36        34.000                                                                                                                                    23167280.086 7 120638073.78207     -3019.746 7        45.944                                                                    23167289.488 7  98028413.44307     -2453.597 7        45.481
R02        35.000    23181463.891 3                     -5474.563 3        22.971                                                                    23181481.835 3                     -4257.021 3        22.667
R03        36.000    19888855.551 8 106466605.06508     -3083.921 8        50.038                                                                    19888856.739 7  82807412.31107     -2398.515 7        42.451
C45        37.000                                                                                                                                    21588424.840 8 112416553.56008      -628.477 8        51.139                                                                    21588418.651 7  91347706.68407      -510.509 7        46.167
C40        40.000                                                                                                                                    39092694.568 6 203565918.50306     -1551.546 6        36.548                                                                    39092690.845 5                     -1260.743 5        32.856
R22        41.000    22537843.635 6 120308565.80316       566.529 6        40.412
C30        43.000                                                                                                                                    24598590.713 5 128091223.82905       -56.491 5        31.358                                                                    24598571.527 5 104084642.90705       -45.712 5        30.868
R05        44.000    24113796.694 5 128902153.77105      3382.662 5        31.857
C42        45.000                                                                                                                                    24459030.211 7 127364849.45707       734.044 7        42.495                                                                    24459041.202 6 103494246.86206       596.662 6        41.607
C29        46.000                                                                                                                                                                                                                                                                    25211538.800 4                      1679.605 4        28.787
C26        48.000                                                                                                                                    24558496.826 6 127882507.41406      1706.994 6        40.296                                                                    24558496.265 6 103915052.60406      1387.095 6        38.754
C22        51.000                                                                                                                                    24882600.682 7 129570224.65807     -4270.779 7        44.399                                                                    24882600.796 7 105286449.48407     -3470.265 7        42.409
C14        53.000                                                                                                                                    26276695.163 5 136829553.62905      1815.077 5        31.562    26276691.129 5 105805498.25905      1403.610 5        34.171
C21        55.000                                                                                                                                    23144492.184 6 120519334.68716     -2203.271 6        40.043                                                                    23144510.063 3                     -1789.632 3        23.371
I06        58.000    38205544.948 6 149926775.48806      -744.690 6        39.144
I02        59.000    36936955.928 7 144948533.30307      -484.716 7        42.195
> 2025 01 02 10 30 10.0000000  0 38
G13         1.000    21594891.996 5 113481847.01205     -3882.061 5        34.200                                    21594902.574 1  88427498.67501     -3024.913 1         8.095
G17         2.000    21974371.801 7 115476495.38907     -1069.936 7        42.427                                    21974369.620 4  89981464.11104      -833.726 4        28.626    21974368.484 4  89981388.15504      -834.382 4        24.632
G19         4.000    22008276.056 5 115654294.65105      1397.101 5        35.324                                    22008280.291 2  90120232.11302      1088.649 2        15.857
G10         7.000    24587830.786 6 129209877.46406       465.139 6        36.783                                    24587829.611 3 100682969.49103       362.436 3        19.075    24587825.725 5 100683171.50105       361.922 5        31.623
G14         8.000    22818830.921 5 119913716.39805     -3874.987 5        35.667                                    22818834.888 2  93439254.47102     -3019.471 2        12.970    22818831.916 5  93439359.39705     -3019.692 5        33.090
G15         9.000    20642971.237 7 108479765.17207     -2724.812 7        44.572                                    20642972.280 6  84529589.42106     -2123.232 6        37.584    20642971.803 6  84529510.43306     -2123.156 6        39.709
E06        11.000    25840683.314 5                     -3660.952 5        31.268                                                                    25840670.128 6 101404260.43306     -2733.490 6        36.367    25840670.499 6 104049681.53606     -2805.098 6        39.201
G24        12.000    20784430.537 7 109223000.86907      1072.971 7        45.878                                    20784430.507 5  85108763.53605       836.092 5        33.030    20784431.919 5  85108832.55405       836.256 5        33.425
E31        13.000    23832268.647 7 125239387.74407     -2167.353 7        46.461                                                                    23832274.411 7  93522975.42607     -1618.589 7        47.264    23832272.104 7  95962679.46407     -1660.754 7        46.863
G12        15.000    23307081.621 5                      2620.959 5        30.015
E24        16.000    24104297.141 7 126668909.21407       558.304 7        43.560                                                                    24104299.093 8  94590487.38108       416.907 8        48.196    24104297.849 8  97058090.89508       427.747 8        48.833
E05        18.000    22375882.248 7 117586060.43307         9.290 7        46.004                                                                    22375888.259 7  87807769.84507         6.861 7        43.968    22375898.053 6  90098549.04206         7.173 6        36.578
E09        21.000    24439800.344 6 128432039.05806     -2865.279 6        40.715                                                                    24439801.173 7  95906944.71807     -2139.787 7        45.467    24439799.685 7  98408926.84507     -2195.536 7        42.648
R14        23.000    20984728.220 8 111860371.86908      1660.725 8        48.438                                                                    20984730.537 5  87002572.01505      1291.552 5        31.796
S23        24.000    38118450.510 5 200313817.91405      -858.053 5        35.552
E03        26.000    27450359.094 6 144252877.44106      1927.940 6        39.916                                                                    27450366.553 5 107721137.48705      1439.638 5        34.224    27450367.088 6 110531266.73306      1477.291 6        40.403
R13        27.000    19497690.599 6 104116550.71906     -2040.734 6        41.642
R21        28.000    23668985.881 4                     -2979.874 4        29.109                                                                    23668947.927 4                     -2317.804 4        28.891
R04        29.000    20395874.246 8 109219002.58408      1045.951 8        50.362                                                                    20395872.332 7  84948160.13307       813.526 7        44.370
S36        31.000    38184773.902 5 200662479.39705      -855.771 5        34.095
C07        32.000                                                                                                                                    38969755.256 5 202925742.24705     -1341.709 5        32.144    38969750.469 5 156915145.45305     -1037.408 5        35.462    38969744.637 5                     -1090.359 5        30.966
C10        33.000                                                                                                                                    38475774.295 6 200353456.78506      -968.824 6        38.453    38475775.906 7 154926024.27807      -749.184 7        42.897    38475772.361 6 162803589.82006      -787.337 6        38.865
C36        34.000                                                                                                                                    23170180.378 7 120653173.98707     -3020.323 7        45.106                                                                    23170189.612 7  98040683.58307     -2454.171 7        45.558
R02        35.000    23186590.718 3                     -5475.783 3        22.705
R03        36.000    19891738.056 8 106482034.62508     -3087.837 8        50.231                                                                    19891738.158 7  82819413.06707     -2401.665 7        42.428
C45        37.000                                                                                                                                    21589028.838 8 112419699.44108      -629.858 8        50.715                                                                    21589022.788 7  91350262.95207      -511.749 7        46.493
C40        40.000                                                                                                                                    39094184.204 6 203573677.84706     -1552.137 6        37.353                                                                    39094181.348 5                     -1261.156 5        33.347
R22        41.000    22537312.648 6 120305742.70606       562.970 6        38.997
C30        43.000                                                                                                                                    24598642.398 5 128091513.99005       -58.968 5        31.472                                                                    24598627.114 5 104084878.59605       -47.911 5        31.117
R05        44.000    24110631.990 5 128885244.43305      3381.745 5        31.298
C42        45.000                                                                                                                                    24458327.991 7 127361185.06707       731.816 7        43.086                                                                    24458337.587 6 103491269.24506       594.612 6        41.955
C29        46.000                                                                                                                                                                                                                                                                    25209552.407 4                      1679.022 4        26.359
C26        48.000                                                                                                                                    24556857.451 6 127873974.44606      1706.373 6        40.420                                                                    24556857.568 6 103908118.88506      1386.469 6        38.520
C22        51.000                                                                                                                                    24886701.401 7 129591579.72707     -4271.210 7        44.364                                                                    24886701.879 7 105303802.17407     -3470.612 7        42.514
C14        53.000                                                                                                                                    26274949.624 4 136820481.47704      1813.834 4        28.512    26274948.535 5 105798483.02205      1402.350 5        34.633
C21        55.000                                                                                                                                    23146603.329 6 120530357.18706     -2205.787 6        39.727                                                                    23146630.792 4                     -1792.050 4        24.331
I06        58.000    38206493.886 6 149930498.24306      -744.456 6        39.321
I02        59.000    36937573.378 7 144950957.04907      -484.776 7        42.377
> 2025 01 02 10 30 15.0000000  0 36
G13         1.000    21598586.250 5 113501262.78505     -3884.113 5        32.635                                    21598597.168 1  88442627.76101     -3026.613 1         6.250
G17         2.000    21975392.504 7 115481854.22607     -1073.324 7        43.915                                    21975387.965 4  89985639.84604      -836.361 4        28.408    21975391.426 4  89985563.83804      -836.044 4        27.222
G19         4.000    22006946.495 5 115647315.90705      1394.703 5        30.913                                    22006952.098 2  90114794.05302      1086.801 2        12.909
G10         7.000    24587384.163 6 129207560.72506       462.008 6        38.279                                    24587387.708 2 100681164.21902       360.012 2        17.472    24587385.557 5 100681366.26005       359.675 5        31.343
G14         8.000    22822520.743 5 119933095.33205     -3876.160 5        33.479                                    22822522.466 2  93454354.89602     -3020.364 2        12.061    22822518.463 5  93454459.81805     -3020.201 5        32.695
G15         9.000    20645565.301 7 108493397.64507     -2727.923 7        44.989                                    20645565.857 6  84540212.13606     -2125.657 6        36.151    20645564.844 6  84540133.13506     -2125.545 6        37.853
E06        11.000    25844165.295 5                     -3661.720 5        31.849                                                                    25844153.551 5 101417930.89505     -2734.339 5        35.624    25844154.488 6 104063708.63706     -2805.739 6        39.312
G24        12.000    20783410.855 7 109217641.87707      1070.794 7        45.397                                    20783411.062 5  85104587.69505       834.398 5        32.377    20783411.005 5  85104656.73405       834.473 5        32.251
E31        13.000    23834331.893 7 125250229.51407     -2168.977 7        46.129                                                                    23834337.174 7  93531071.53107     -1619.667 7        47.163    23834335.274 7  95970986.77407     -1661.948 7        46.965
E24        16.000    24103767.070 7 126666122.91107       556.568 7        43.266                                                                    24103768.927 8  94588406.70108       415.603 8        48.230    24103767.562 8  97055955.93308       426.461 8        48.556
E05        18.000    22375874.373 7 117586020.12207         7.157 7        45.846                                                                    22375880.532 7  87807739.72707         5.318 7        43.735    22375888.408 5  90098518.17805         5.487 5        34.810
E09        21.000    24442526.561 6 128446371.35506     -2867.232 6        41.242                                                                    24442528.532 7  95917647.38107     -2141.104 7        45.800    24442526.726 7  98419908.71107     -2196.867 7        42.624
R14        23.000    20983171.791 8 111852073.50908      1658.808 8        48.027                                                                    20983177.182 6  86996117.74106      1290.044 6        36.582
S23        24.000    38119270.856 6 200318109.34206      -858.138 6        36.238
E03        26.000    27448525.313 6 144243239.99206      1927.271 6        40.107                                                                    27448533.021 5 107713940.69305      1439.243 5        34.624    27448533.114 6 110523882.19506      1476.763 6        40.398
R13        27.000    19499602.360 7 104126760.58607     -2042.909 7        42.315
R04        29.000    20394899.899 8 109213783.61508      1041.856 8        50.713                                                                    20394897.751 7  84944100.94607       810.235 7        45.074
S36        31.000    38185585.131 5 200666759.86305      -855.894 5        33.886
C07        32.000                                                                                                                                    38971041.385 5 202932453.13205     -1342.324 5        31.774    38971039.502 5 156920334.70705     -1037.956 5        35.786    38971033.470 5                     -1090.897 5        31.185
C10        33.000                                                                                                                                    38476705.351 6 200358303.74906      -969.675 6        38.237    38476706.656 7 154929772.25407      -749.761 7        42.646    38476703.409 6 162807528.38506      -787.965 6        38.784
C36        34.000                                                                                                                                    23173081.883 7 120668278.68807     -3021.268 7        44.558                                                                    23173090.344 7  98052957.39607     -2455.064 7        45.561
R03        36.000    19894623.601 8 106497484.62508     -3091.926 8        50.733                                                                    19894623.620 6  82831429.71106     -2404.787 6        41.440
C45        37.000                                                                                                                                    21589634.859 8 112422853.54208      -631.495 8        50.261                                                                    21589628.549 7  91352825.92707      -513.142 7        46.820
R12        38.000                                                                                                                                    22215304.535 4                     -3260.461 4        29.934
C40        40.000                                                                                                                                    39095675.003 6 203581440.80506     -1552.882 6        38.087                                                                    39095672.581 5                     -1261.908 5        33.545
R22        41.000    22536788.382 6 120302939.50706       558.655 6        37.282
C30        43.000                                                                                                                                    24598703.396 5 128091817.55205       -61.975 5        30.672                                                                    24598685.891 5 104085125.21705       -50.001 5        30.709
R05        44.000    24107469.250 5 128868340.84805      3380.155 5        30.174
C42        45.000                                                                                                                                    24457627.500 7 127357533.55507       729.057 7        43.771                                                                    24457636.498 7 103488302.11207       592.419 7        42.203
C29        46.000                                                                                                                                                                                                                                                                    25207569.198 4                      1678.319 4        25.684
C26        48.000                                                                                                                                    24555219.806 6 127865445.32506      1705.678 6        40.350                                                                    24555219.274 6 103901188.29206      1385.882 6        38.513
C22        51.000                                                                                                                                    24890802.592 7 129612938.19907     -4271.926 7        44.072                                                                    24890803.639 7 105321157.65707     -3471.209 7        42.427
C14        53.000                                                                                                                                    26273206.933 4 136811417.74404      1812.349 4        25.308    26273208.624 5 105791474.30405      1401.371 5        35.586
C21        55.000                                                                                                                                    23148723.984 6 120541393.40906     -2208.466 6        39.303                                                                    23148747.851 3                     -1794.963 3        22.686
I06        58.000    38207442.224 6 149934221.23606      -744.626 6        39.159
I02        59.000    36938191.496 6 144953382.26106      -485.010 6        41.928
> 2025 01 02 10 30 20.0000000  0 38
G13         1.000    21602282.527 4 113520688.26604     -3886.031 4        29.393                                    21602293.751 1  88457764.53301     -3028.133 1         5.000
G17         2.000    21976416.000 7 115487229.09707     -1076.725 7        44.564                                    21976409.887 4  89989828.06104      -839.004 4        28.237    21976415.181 4  89989752.04304      -838.602 4        28.758
G19         4.000    22005620.164 4 115640349.59804      1391.955 4        28.531                                    22005626.441 1  90109365.74701      1084.656 1         9.143
G10         7.000    24586952.406 6 129205258.76906       458.771 6        39.745                                    24586948.880 2 100679370.45002       357.460 2        16.604    24586946.721 5 100679572.48305       357.617 5        30.996
G14         8.000    22826212.635 5 119952479.18005     -3877.081 5        33.216                                    22826211.049 2  93469459.15802     -3021.057 2        12.303    22826206.307 5  93469564.06905     -3021.212 5        32.850
G15         9.000    20648162.492 7 108507045.75807     -2731.346 7        45.403                                    20648161.970 5  84550847.04605     -2128.319 5        34.890    20648162.283 5  84550768.04205     -2128.113 5        35.462
G23        10.000    23235695.007 6 122104402.93316     -1996.260 6        39.901                                    23235698.713 2  95146298.74312     -1555.503 2        13.151    23235691.641 6  95146606.73316     -1555.608 6        37.690
E06        11.000    25847646.020 5                     -3662.942 5        32.976                                                                    25847637.980 5 101431605.15605     -2735.429 5        35.443    25847639.064 6 104077739.61306     -2806.595 6        39.345
G24        12.000    20782392.581 7 109212292.79507      1068.629 7        44.992                                    20782393.451 5  85100419.56405       832.703 5        31.253    20782390.302 5  85100488.59205       832.882 5        32.371
E31        13.000    23836396.270 7 125261078.55907     -2170.729 7        46.234                                                                    23836401.440 7  93539173.07307     -1620.948 7        46.824    23836399.807 7  95979299.65907     -1663.269 7        47.142
E24        16.000    24103238.191 7 126663344.90007       554.670 7        43.118                                                                    24103240.291 8  94586332.21208       414.185 8        48.217    24103238.841 8  97053827.32608       425.002 8        48.301
E05        18.000    22375868.180 7 117585989.82907         4.982 7        46.128                                                                    22375874.455 7  87807717.10707         3.670 7        43.206
E09        21.000    24445254.333 6 128460712.23006     -2869.173 6        41.855                                                                    24445257.568 7  95928356.47507     -2142.575 7        46.067    24445255.239 7  98430897.14907     -2198.430 7        42.508
R14        23.000    20981615.875 7 111843784.05607      1656.847 7        45.362
S23        24.000    38120086.623 6 200322400.87606      -858.409 6        36.745
E03        26.000    27446692.165 6 144233605.51006      1926.326 6        40.327                                                                    27446699.686 5 107706746.10505      1438.606 5        34.710    27446699.570 6 110516499.92306      1476.246 6        40.181
R13        27.000    19501516.360 6 104136981.60706     -2045.464 6        41.881
R21        28.000    23674530.783 6 126687648.96416     -2987.555 6        36.684
R04        29.000    20393928.064 8 109208585.17508      1037.541 8        50.886                                                                    20393927.797 7  84940057.71307       806.975 7        45.607
S36        31.000    38186409.407 5 200671039.38205      -855.915 5        34.676
C07        32.000                                                                                                                                    38972326.293 5 202939166.81205     -1343.582 5        30.845    38972329.844 6 156925526.13906     -1038.770 6        36.314    38972323.198 5                     -1091.168 5        31.162
C10        33.000                                                                                                                                    38477636.266 6 200363153.66106      -970.359 6        38.513    38477638.163 7 154933522.51707      -750.339 7        42.675    38477634.670 6 162811469.31106      -788.297 6        38.532
C36        34.000                                                                                                                                    23175984.784 7 120683387.63807     -3022.309 7        44.235                                                                    23175991.912 7  98065234.62807     -2455.723 7        45.427
R03        36.000    19897514.373 8 106512954.98008     -3096.245 8        50.954                                                                    19897513.187 6  82843462.18106     -2408.194 6        40.732
C45        37.000                                                                                                                                    21590242.477 8 112426015.66108      -633.292 8        50.098                                                                    21590235.842 7  91355395.39007      -514.425 7        47.182
R12        38.000                                                                                                                                    22219232.086 4                     -3261.162 4        29.820
C40        40.000                                                                                                                                    39097165.636 6 203589207.16406     -1553.843 6        38.030                                                                    39097164.542 5                     -1262.393 5        33.629
R22        41.000    22536266.500 6 120300155.88006       554.647 6        38.216
C30        43.000                                                                                                                                    24598770.858 5 128092134.26205       -64.915 5        33.790                                                                    24598746.097 5 104085382.66705       -52.634 5        30.732
R05        44.000    24104309.272 4 128851442.59104      3378.808 4        27.748
C42        45.000                                                                                                                                    24456929.772 7 127353894.73707       726.345 7        44.698                                                                    24456937.814 7 103485345.25107       590.492 7        42.326
C29        46.000                                                                                                                                                                                                                                                                    25205582.751 3                      1678.127 3        23.162
C26        48.000                                                                                                                                    24553583.046 6 127856919.85006      1704.598 6        39.763                                                                    24553581.818 6 103894260.62406      1385.464 6        37.853
C22        51.000                                                                                                                                    24894904.763 7 129634299.84007     -4272.787 7        44.316                                                                    24894905.868 7 105338515.68707     -3471.666 7        42.470
C14        53.000                                                                                                                                                                                                    26271470.409 6 105784471.93306      1399.657 6        36.442
C21        55.000                                                                                                                                    23150849.486 6 120552443.21206     -2211.538 6        39.207
I06        58.000    38208391.475 6 149937944.36306      -744.765 6        39.129
I02        59.000    36938809.729 7 144955808.72207      -485.463 7        42.144
> 2025 01 02 10 30 25.0000000  0 40
G13         1.000    21605981.551 5 113540123.51605     -3888.365 5        31.834                                    21605992.140 1  88472908.85401     -3030.033 1         4.429
G17         2.000    21977442.244 7 115492620.09607     -1079.850 7        43.954                                    21977435.686 4  89994028.84404      -841.441 4        28.720    21977442.246 5  89993952.84905      -841.100 5        32.024
G19         4.000    22004299.144 5 115633395.89705      1389.438 5        35.648                                    22004303.230 1  90103947.17801      1082.564 1         7.750
G10         7.000    24586523.984 6 129202971.64806       455.869 6        39.934                                    24586512.955 2 100677588.27202       355.287 2        14.857    24586510.594 4 100677790.30504       355.141 4        29.147
G14         8.000    22829904.346 5 119971868.01105     -3878.455 5        33.168                                    22829900.647 2  93484567.25702     -3022.184 2        12.848    22829896.459 5  93484672.18605     -3022.265 5        33.437
G15         9.000    20650762.437 7 108520709.59507     -2734.405 7        44.688                                    20650760.747 5  84561494.20705     -2130.711 5        34.081    20650762.674 5  84561415.21505     -2130.708 5        32.737
G23        10.000    23237598.997 6 122114391.12906     -1999.320 6        41.092                                    23237599.971 2  95154081.74002     -1557.927 2        14.619    23237598.329 6  95154389.74106     -1557.877 6        39.517
E06        11.000    25851130.898 5 135848609.69815     -3664.143 5        34.224                                                                    25851122.894 5 101445283.26405     -2736.226 5        35.186    25851124.407 6 104091774.54706     -2807.461 6        39.252
G24        12.000    20781376.936 7 109206953.76907      1066.658 7        45.387                                    20781377.560 5  85096259.25605       831.170 5        30.762    20781375.454 5  85096328.28505       831.292 5        30.098
E31        13.000    23838462.172 7 125271934.97707     -2171.993 7        46.114                                                                    23838467.018 7  93547280.12307     -1622.004 7        46.198    23838465.931 7  95987618.19107     -1664.274 7        47.374
G12        15.000    23299543.172 5                      2617.322 5        33.389
E24        16.000    24102710.651 7 126660575.29607       552.931 7        43.209                                                                    24102713.261 8  94584263.99908       412.911 8        48.179    24102711.648 7  97051705.15907       423.720 7        47.990
E05        18.000    22375864.240 7 117585969.69007         2.874 7        45.935                                                                    22375870.341 7  87807702.07707         2.119 7        42.768    22375862.459 5  90098479.59205         2.197 5        34.452
E09        21.000    24447984.158 6 128475061.77906     -2870.855 6        41.805                                                                    24447988.206 7  95939072.03507     -2143.820 7        46.189    24447985.440 7  98441892.24107     -2199.748 7        42.571
R14        23.000    20980061.689 7 111835503.76407      1655.139 7        43.771                                                                    20980084.941 6  86983230.09606      1287.255 6        38.162
S23        24.000    38120905.628 6 200326692.54206      -858.347 6        37.512
E03        26.000    27444859.352 6 144223974.11006      1925.858 6        40.458                                                                    27444867.206 5 107699553.85505      1438.097 5        35.076    27444866.615 6 110509120.02606      1475.684 6        40.510
R13        27.000    19503432.576 7 104147213.81107     -2047.535 7        42.025
R21        28.000    23677325.879 6 126702595.64806     -2991.442 6        37.531
R04        29.000    20392960.240 8 109203407.14808      1033.446 8        50.477                                                                    20392960.736 7  84936030.37407       803.768 7        45.801
S36        31.000    38187227.915 5 200675319.28405      -856.180 5        34.695
C07        32.000                                                                                                                                    38973614.973 5 202945883.24005     -1343.830 5        32.204    38973619.471 6 156930719.70906     -1038.939 6        36.393    38973612.134 5                     -1091.983 5        31.275
C10        33.000                                                                                                                                    38478569.357 6 200368006.68106      -971.026 6        38.483    38478570.059 7 154937275.18707      -750.796 7        42.707    38478566.608 6 162815412.83806      -789.183 6        38.577
C36        34.000                                                                                                                                    23178888.077 7 120698500.93707     -3023.219 7        44.310                                                                    23178894.236 7  98077515.42707     -2456.582 7        45.485
R02        35.000    23202001.445 3                     -5477.148 3        20.976
R03        36.000    19900408.590 8 106528445.78208     -3100.297 8        50.483                                                                    19900406.626 6  82855510.55806     -2411.388 6        39.613
C45        37.000                                                                                                                                    21590851.158 8 112429185.89508      -634.951 8        49.585                                                                    21590844.641 7  91357971.48307      -516.013 7        47.286
R12        38.000                                                                                                                                    22223152.233 4                     -3261.338 4        29.725
C40        40.000                                                                                                                                    39098656.001 6 203596977.02306     -1554.501 6        37.713                                                                    39098657.736 5 165439209.03015     -1263.127 5        34.048
R22        41.000    22535753.098 6 120297392.04806       550.687 6        39.841
C30        43.000                                                                                                                                    24598840.399 6 128092464.35406       -67.244 6        36.049                                                                    24598808.887 5 104085650.98605       -54.982 5        30.106
R05        44.000    24101147.427 4 128834549.85404      3377.469 4        27.497
C42        45.000                                                                                                                                    24456234.689 7 127350268.67507       723.825 7        45.353                                                                    24456241.635 7 103482398.81707       588.155 7        42.478
C29        46.000                                                                                                                                                                                                                                                                    25203600.704 3                      1675.562 3        22.000
C26        48.000                                                                                                                                    24551946.880 6 127848398.13106      1703.783 6        38.354                                                                    24551945.135 6 103887336.09006      1384.203 6        37.244
C22        51.000                                                                                                                                    24899007.180 7 129655664.74207     -4273.454 7        44.120                                                                    24899008.846 7 105355876.41507     -3472.557 7        42.409
C14        53.000                                                                                                                                                                                                    26269734.231 6 105777475.98306      1398.569 6        36.412
C21        55.000                                                                                                                                    23152972.628 6 120563506.61006     -2214.034 6        38.219
I06        58.000    38209340.547 6 149941667.66806      -744.836 6        39.192
I02        59.000    36939428.291 6 144958236.43306      -485.647 6        41.940
> 2025 01 02 10 30 30.0000000  0 39
G13         1.000    21609687.513 5 113559568.44205     -3889.641 5        34.414                                    21609692.225 1  88488060.65601     -3030.793 1         2.800
G17         2.000    21978469.873 6 115498027.18306     -1082.770 6        40.939                                    21978465.130 4  89998242.17504      -843.718 4        28.673    21978471.308 5  89998166.19605      -843.574 5        33.425
G19         4.000    22002985.225 7 115626454.54107      1387.296 7        42.171                                    22002981.888 1  90098538.21701      1080.989 1        10.518
G10         7.000    24586097.199 6 129200699.35006       453.323 6        40.930                                    24586080.049 2 100675817.66302       353.237 2        12.000    24586077.188 4 100676019.68504       353.509 4        24.752
G14         8.000    22833596.709 5 119991261.66805     -3879.047 5        32.850                                    22833591.301 2  93499679.14402     -3022.630 2        12.848    22833586.710 5  93499784.09105     -3022.480 5        34.929
G15         9.000    20653365.618 7 108534389.10807     -2737.158 7        44.704                                    20653362.610 5  84572153.58305     -2132.862 5        33.491    20653364.600 5  84572074.57305     -2132.656 5        31.902
G23        10.000    23239503.394 6 122124394.47506     -2001.859 6        40.920                                    23239504.368 2  95161876.55502     -1559.882 2        15.905    23239508.966 6  95162184.55706     -1560.040 6        40.250
