     3.04           OBSERVATION DATA    M                   RINEX VERSION / TYPE
ssrcrin-15.6.1x                         20250102 213000 UTC PGM / RUN BY / DATE 
(00000000023479385599111004) Septentrio proprietary         COMMENT             
ract                                                        MARKER NAME         
01                                                          MARKER NUMBER       
geodetic                                                    MARKER TYPE         
NFB                 CLIMERS@TUW                             OBSERVER / AGENCY   
3296359             SEPT ASTERX SB3 PROB4.14.4              REC # / TYPE / VERS 
Unknown             Unknown                                 ANT # / TYPE        
  4127447.3607  1206914.6845  4695543.4977                  APPROX POSITION XYZ 
        0.0000        0.0000        0.0000                  ANTENNA: DELTA H/E/N
G   23 X1  C1C L1C D1C S1C C1W S1W C2W L2W D2W S2W C2L L2L  SYS / # / OBS TYPES 
       D2L S2L C5Q L5Q D5Q S5Q C1L L1L D1L S1L              SYS / # / OBS TYPES 
E   21 X1  C1C L1C D1C S1C C6C L6C D6C S6C C5Q L5Q D5Q S5Q  SYS / # / OBS TYPES 
       C7Q L7Q D7Q S7Q C8Q L8Q D8Q S8Q                      SYS / # / OBS TYPES 
S    9 X1  C1C L1C D1C S1C C5I L5I D5I S5I                  SYS / # / OBS TYPES 
R   17 X1  C1C L1C D1C S1C C2P L2P D2P S2P C2C L2C D2C S2C  SYS / # / OBS TYPES 
       C3Q L3Q D3Q S3Q                                      SYS / # / OBS TYPES 
C   25 X1  C1P L1P D1P S1P C5P L5P D5P S5P C2I L2I D2I S2I  SYS / # / OBS TYPES 
       C7I L7I D7I S7I C6I L6I D6I S6I C7D L7D D7D S7D      SYS / # / OBS TYPES 
J   17 X1  C1C L1C D1C S1C C2L L2L D2L S2L C5Q L5Q D5Q S5Q  SYS / # / OBS TYPES 
       C1L L1L D1L S1L                                      SYS / # / OBS TYPES 
I    5 X1  C5A L5A D5A S5A                                  SYS / # / OBS TYPES 
SEPTENTRIO RECEIVERS OUTPUT ALIGNED CARRIER PHASES.         COMMENT             
NO FURTHER PHASE SHIFT APPLIED IN THE RINEX ENCODER.        COMMENT             
G L1C                                                       SYS / PHASE SHIFT   
G L2W                                                       SYS / PHASE SHIFT   
G L2L  0.00000                                              SYS / PHASE SHIFT   
G L5Q  0.00000                                              SYS / PHASE SHIFT   
G L1L  0.00000                                              SYS / PHASE SHIFT   
E L1C  0.00000                                              SYS / PHASE SHIFT   
E L6C  0.00000                                              SYS / PHASE SHIFT   
E L5Q  0.00000                                              SYS / PHASE SHIFT   
E L7Q  0.00000                                              SYS / PHASE SHIFT   
E L8Q  0.00000                                              SYS / PHASE SHIFT   
S L1C                                                       SYS / PHASE SHIFT   
S L5I                                                       SYS / PHASE SHIFT   
R L1C                                                       SYS / PHASE SHIFT   
R L2P  0.00000                                              SYS / PHASE SHIFT   
R L2C                                                       SYS / PHASE SHIFT   
R L3Q  0.00000                                              SYS / PHASE SHIFT   
C L1P  0.00000                                              SYS / PHASE SHIFT   
C L5P  0.00000                                              SYS / PHASE SHIFT   
C L2I                                                       SYS / PHASE SHIFT   
C L7I                                                       SYS / PHASE SHIFT   
C L6I                                                       SYS / PHASE SHIFT   
C L7D                                                       SYS / PHASE SHIFT   
J L1C                                                       SYS / PHASE SHIFT   
J L2L  0.00000                                              SYS / PHASE SHIFT   
J L5Q  0.00000                                              SYS / PHASE SHIFT   
J L1L  0.00000                                              SYS / PHASE SHIFT   
I L5A                                                       SYS / PHASE SHIFT   
  2025     1     2    21    30    0.0000000     GPS         TIME OF FIRST OBS   
 C1C    0.000 C2C    0.000 C2P    0.000                     GLONASS COD/PHS/BIS 
DBHZ                                                        SIGNAL STRENGTH UNIT
    18                                                      LEAP SECONDS        
 24 R01  1 R02 -4 R03  5 R04  6 R05  1 R06 -4 R07  5 R08  6 GLONASS SLOT / FRQ #
    R09 -2 R10 -7 R11  0 R12 -1 R13 -2 R14 -7 R15  0 R16 -1 GLONASS SLOT / FRQ #
    R17  4 R18 -3 R19  3 R20  2 R21  4 R22 -3 R23  3 R24  2 GLONASS SLOT / FRQ #
                                                            END OF HEADER       
> 2025 01 02 21 30  0.0000000  0 42
G10         1.000    21139149.076 7 111086959.21607     -2087.081 7        45.234                                    21139147.076 7  86561274.58307     -1626.299 7        43.573    21139146.851 7  86561266.57907     -1626.299 7        42.590
G23         2.000                                                                                                                                                                    23504962.122 3                     -3186.675 3        20.643
G32         3.000    23236950.169 5 122110962.77505      1694.629 5        31.434                                    23236947.162 3  95151404.83803      1320.491 3        20.286    23236948.947 5  95151423.81405      1321.032 5        33.635
G21         4.000    21586346.791 5                       775.547 5        32.186
G08         5.000    20437975.587 8 107402339.48308      -610.209 8        51.202                                    20437972.795 7  83690093.72507      -475.489 7        47.696    20437974.505 7  83690075.73507      -475.478 7        43.973
G02         6.000    23391269.387 4                      1633.715 4        24.541
G14         7.000    25249471.024 5 132686886.06805      1730.350 5        33.653
E09         8.000    27378425.765 5 143874600.93805     -1982.359 5        34.624                                                                    27378411.671 4 107438822.81704     -1480.286 4        26.012    27378437.242 5                     -1519.334 5        30.075
E05        11.000    24385331.226 6 128145785.15206       627.585 6        36.639                                                                    24385329.898 6  95693275.80206       468.692 6        36.004    24385330.845 5  98189701.80405       480.964 5        33.425
E13        12.000    28125421.690 4 147800144.46604      1538.859 4        25.744
G27        13.000    21018891.638 6 110454992.10706     -2990.981 6        39.012                                    21018886.387 4  86068829.67104     -2330.635 4        27.485    21018886.296 5  86068829.65305     -2330.608 5        35.229
E27        14.000    25484915.484 6 133924212.07106     -1756.344 6        41.866                                                                    25484912.985 6 100008307.28006     -1311.555 6        39.580    25484913.911 7 102617229.48307     -1345.745 7        44.772
E21        15.000    27544973.635 6 144749797.90906       857.104 6        37.380                                                                    27544972.340 7 108092429.78107       640.130 7        42.599    27544973.554 6 110912247.74406       656.731 6        40.482
E15        16.000    24165307.948 7 126989673.89507       301.364 7        43.932                                                                    24165308.498 7  94829853.01707       225.001 7        44.512    24165307.774 6  97303700.05906       230.756 6        41.683
E30        19.000    26812934.239 4                     -3791.875 4        24.737                                                                    26812887.588 6 105219522.95406     -2831.483 6        38.000    26812885.259 5 107964375.64005     -2905.192 5        30.906
R20        20.000    20645066.563 5 110398450.29605     -2797.538 5        34.995                                                                    20645068.584 6  85865552.51306     -2175.957 6        40.331
S23        22.000    38332683.470 6 201439602.98206      -861.653 6        40.613
S36        23.000    38375336.815 6 201663808.14606      -862.164 6        37.006
R06        24.000    21609714.878 5 115313574.57405      3064.227 5        34.724
G16        26.000    25271247.649 4                     -4598.109 4        25.098
R05        28.000    20247916.817 6 108236700.89806     -1496.191 6        41.249
R12        30.000    22540187.778 7 120405915.43407      -904.396 7        43.329                                                                    22540188.564 6  93648880.18406      -703.419 6        41.225
E34        32.000    24069422.603 7 126485658.47407     -1985.694 7        45.416                                                                    24069421.770 7  94453599.33707     -1482.907 7        44.540    24069421.924 7  96917665.51707     -1521.621 7        42.085
R11        33.000    23040829.777 6 123123051.76806     -4357.818 6        37.902                                                                    23040824.745 4  95762512.05304     -3389.367 4        28.408
R22        35.000    23614956.040 6 126058262.73306      2547.190 6        36.650                                                                    23614941.542 5  98045221.88705      1981.352 5        34.457
C08        36.000                                                                                                                                                                                                    40241949.077 5                     -1589.166 5        33.419
C33        37.000                                                                                                                                    24196773.674 6 125998951.71206      2214.909 6        37.527                                                                    24196782.634 6 102384473.32606      1799.671 6        41.037
C11        38.000                                                                                                                                    23143247.262 6 120512974.58506     -2870.813 6        41.392    23143246.563 6  93188249.25606     -2219.838 6        40.102    23143242.445 6  97926683.60506     -2332.904 6        40.849
R21        39.000    19983224.789 7 106934264.42007       614.063 7        43.740                                                                    19983224.419 7  83171095.34607       477.648 7        43.926
R04        40.000    23154686.554 5 123992264.58005     -4650.717 5        33.054                                                                    23154710.345 5  96438542.51705     -3617.522 5        35.038
C27        41.000                                                                                                                                                                                                                                                                    27021100.126 4 114335154.24104      1759.901 4        27.305
C14        42.000                                                                                                                                    22795584.045 7 118702593.51307      1017.651 7        47.062    22795580.149 8  91788324.77208       786.864 8        51.596    22795578.699 8  96455564.51208       826.813 8        50.472
C13        43.000                                                                                                                                    39575175.814 5 206078419.65605     -1885.446 5        31.434
C05        44.000                                                                                                                                                                                                    39346925.063 5 158433764.88605      -622.397 5        35.981
C21        46.000                                                                                                                                    25167963.231 5 131056296.45305     -3416.103 5        35.024                                                                    25167956.801 5 106493847.65405     -2775.686 5        31.162
C43        48.000                                                                                                                                    21982457.898 8 114468444.26008     -1933.427 8        51.703                                                                    21982456.935 8  93014967.84208     -1571.157 8        50.095
C42        50.000                                                                                                                                    22593338.333 7 117649411.86507      -702.009 7        43.558                                                                    22593344.928 7  95599843.80307      -570.610 7        43.759
C34        52.000                                                                                                                                    25008549.719 6 130226084.67606     -3678.047 6        36.533                                                                    25008534.911 4 105819312.36704     -2989.089 4        29.763
I01        53.000   413942118.853 6 321257014.48006     -2270.857 6        38.718
C37        54.000                                                                                                                                    26456918.744 4                     -2983.851 4        27.102                                                                    26456887.136 4                     -2424.344 4        24.872
C28        55.000                                                                                                                                    23164113.740 5                      1343.096 5        35.981                                                                    23164105.224 4  98014898.02404      1091.573 4        29.754
I06        58.000    38690395.545 6 151829555.22606      -548.466 6        40.067
> 2025 01 02 21 30  5.0000000  0 41
G10         1.000    21141136.257 7 111097401.01207     -2089.558 7        45.585                                    21141133.863 7  86569411.04107     -1628.221 7        42.485    21141133.820 7  86569403.04307     -1628.217 7        42.131
G32         3.000    23235337.764 5 122102492.23305      1693.144 5        33.611                                    23235335.992 3  95144804.42303      1319.333 3        18.418    23235338.205 5  95144823.48505      1319.066 5        34.714
G21         4.000    21585612.994 5                       773.937 5        32.617
G08         5.000    20438557.698 8 107405397.94608      -613.101 8        51.389                                    20438554.821 7  83692476.94507      -477.740 7        47.840    20438556.550 7  83692458.95207      -477.789 7        43.718
G02         6.000    23389702.419 3                      1632.479 3        22.476
G14         7.000    25247823.178 5 132678239.27205      1728.508 5        34.457
E09         8.000    27380309.349 5 143884519.91505     -1984.950 5        35.205                                                                    27380300.701 4 107446229.70004     -1481.913 4        24.977    27380325.166 5                     -1520.965 5        31.804
E05        11.000    24384736.769 6 128142653.44706       625.208 6        36.435                                                                    24384734.032 5  95690937.19705       466.934 5        35.695    24384733.762 5  98187302.15205       479.145 5        32.174
E13        12.000    28123954.567 4 147792448.05904      1539.237 4        26.491
G27        13.000    21021737.821 6 110469952.94606     -2993.615 6        37.974                                    21021732.794 4  86080487.49404     -2332.686 4        27.653    21021733.205 5  86080487.48605     -2332.568 5        35.938
E27        14.000    25486587.555 6 133932999.83606     -1758.658 6        41.864                                                                    25486584.954 6 100014869.58506     -1313.472 6        39.045    25486585.825 7 102623962.97407     -1347.625 7        44.760
E21        15.000    27544159.788 6 144745517.19606       855.208 6        37.849                                                                    27544157.714 7 108089233.15907       638.597 7        42.546    27544157.554 6 110908967.73606       655.247 6        40.043
E15        16.000    24165021.789 7 126988169.83107       300.349 7        44.167                                                                    24165022.467 7  94828729.86807       224.272 7        44.468    24165021.111 6  97302547.57306       230.228 6        41.433
E30        19.000    26816536.426 4                     -3792.447 4        25.248                                                                    26816496.001 6 105233682.01206     -2832.206 6        38.138    26816491.486 4 107978904.08304     -2905.935 4        29.924
R20        20.000    20647684.391 5 110412443.58105     -2799.590 5        35.505                                                                    20647684.672 6  85876436.18106     -2177.375 6        38.688
S23        22.000    38333502.792 6 201443911.92606      -861.822 6        39.787
S36        23.000    38376157.962 6 201668120.51306      -862.484 6        36.386
R06        24.000    21606847.679 5 115298259.12005      3062.242 5        35.567
G16        26.000    25275619.644 4                     -4598.994 4        26.012
R05        28.000    20249317.315 6 108244194.19906     -1500.912 6        41.414
R12        30.000    22541035.285 7 120410448.84107      -908.865 7        42.159                                                                    22541037.069 6  93652406.14506      -706.807 6        41.023
E34        32.000    24071312.252 7 126495589.61607     -1986.608 7        45.741                                                                    24071311.643 7  94461015.44507     -1483.486 7        44.403    24071312.091 6  96925275.09306     -1522.250 6        41.545
R11        33.000    23044910.251 6 123144845.62406     -4359.635 6        37.214                                                                    23044903.814 4  95779462.66504     -3390.451 4        26.611
R22        35.000                                                                                                                                    23612553.788 5  98035316.47205      1981.057 5        32.108
C08        36.000                                                                                                                                                                                                    40243920.674 5                     -1589.220 5        32.569
C33        37.000                                                                                                                                    24194647.848 5 125987881.88705      2213.225 5        35.995                                                                    24194656.652 6 102375478.17406      1798.331 6        40.520
C11        38.000                                                                                                                                    23146004.929 6 120527332.13606     -2872.170 6        41.673    23146001.191 5  93199351.29705     -2220.747 5        34.990    23145999.289 6  97938350.27706     -2333.811 6        40.756
R21        39.000    19982652.183 7 106931199.05007       612.258 7        43.117                                                                    19982652.041 7  83168711.17507       476.147 7        42.887
R04        40.000    23159028.228 5 124015525.05805     -4652.961 5        32.371                                                                    23159049.653 5  96456634.10705     -3619.171 5        32.605
C27        41.000                                                                                                                                                                                                                                                                    27019020.683 4 114326352.40904      1760.351 4        28.047
C14        42.000                                                                                                                                    22794606.712 7 118697511.79207      1015.138 7        46.686    22794604.450 8  91784395.27208       784.936 8        51.599    22794602.741 8  96451435.19608       824.773 8        50.518
C13        43.000                                                                                                                                    39576985.429 5 206087846.45605     -1885.253 5        30.408
C05        44.000                                                                                                                                                                                                    39347698.103 5 158436877.79405      -622.739 5        35.243
C21        46.000                                                                                                                                    25171244.063 5 131073381.35705     -3418.141 5        35.333                                                                    25171238.280 5 106507730.50505     -2777.476 5        31.819
C43        48.000                                                                                                                                    21984315.395 8 114478116.29008     -1935.229 8        51.919                                                                    21984314.387 8  93022827.16508     -1572.609 8        50.168
C42        50.000                                                                                                                                    22594013.477 7 117652929.79007      -704.993 7        44.777                                                                    22594020.698 7  95602702.40807      -572.933 7        43.907
C34        52.000                                                                                                                                    25012086.132 5 130244477.70305     -3678.896 5        34.590                                                                    25012066.046 5 105834258.17405     -2989.361 5        30.506
I01        53.000   413945012.194 6 321268369.96206     -2271.242 6        38.949
C37        54.000                                                                                                                                    26459787.531 4                     -2985.250 4        27.222                                                                    26459752.230 3                     -2426.960 3        23.752
C28        55.000                                                                                                                                    23162821.696 6 120614925.73516      1341.898 6        38.913
I06        58.000    38691094.651 6 151832297.36906      -548.391 6        40.029
> 2025 01 02 21 30 10.0000000  0 41
G10         1.000    21143125.013 7 111107855.11907     -2092.131 7        44.495                                    21143123.109 6  86577557.08206     -1630.229 6        41.385    21143123.067 7  86577549.07507     -1630.166 7        42.580
G23         2.000                                                                                                                                                                    23512746.318 4                     -3187.618 4        27.521
G32         3.000                                                                                                                                                                    23233728.109 5  95138230.36705      1317.907 5        34.595
G21         4.000    21584879.093 5                       772.720 5        30.815
G08         5.000    20439142.306 8 107408471.26208      -616.253 8        51.389                                    20439139.736 8  83694871.74108      -480.201 8        48.043    20439141.608 7  83694853.75207      -480.265 7        44.170
G14         7.000    25246179.384 5 132669602.76205      1726.500 5        34.314
E09         8.000    27382196.753 5 143894450.27505     -1987.115 5        35.267                                                                    27382194.462 3 107453645.18303     -1483.493 3        23.333    27382213.773 5                     -1522.692 5        31.796
E05        11.000    24384142.792 6 128139532.16806       623.242 6        36.068                                                                    24384139.963 5  95688606.37805       465.347 5        35.348    24384138.254 5  98184910.51505       477.455 5        30.747
E13        12.000    28122490.067 4 147784752.51604      1538.759 4        29.280
G27        13.000    21024586.440 6 110484926.30506     -2996.108 6        36.741                                    21024581.410 4  86092155.07104     -2334.635 4        27.317    21024582.643 5  86092155.04205     -2334.433 5        35.586
E27        14.000    25488261.980 7 133941799.44507     -1761.241 7        42.250                                                                    25488259.839 6 100021440.69906     -1315.166 6        39.498    25488260.555 7 102630705.52607     -1349.503 7        44.406
E21        15.000    27543346.270 6 144741246.37606       853.146 6        38.580                                                                    27543345.091 7 108086043.92007       637.032 7        42.607    27543342.904 6 110905695.29506       653.669 6        39.586
E15        16.000    24164735.394 7 126986670.30507       299.535 7        44.325                                                                    24164737.292 7  94827610.08107       223.525 7        44.372    24164735.734 6  97301398.57806       229.428 6        41.468
E30        19.000    26820135.850 4                     -3792.586 4        24.271                                                                    26820104.811 6 105247843.98406     -2832.779 6        37.928    26820100.649 5 107993435.53905     -2906.837 5        30.106
R20        20.000    20650302.866 5 110426446.27605     -2801.395 5        35.833                                                                    20650302.605 6  85887327.16806     -2179.003 6        38.841
S23        22.000    38334327.990 6 201448220.73106      -861.834 6        40.400
S36        23.000    38376984.022 6 201672432.65106      -862.739 6        36.023
R06        24.000    21603979.988 5 115282954.83605      3059.417 5        32.527
G16        26.000    25279995.757 4                     -4598.088 4        27.317
R05        28.000    20250727.366 7                     -1505.655 7        42.356
R12        30.000    22541888.254 6 120415004.03706      -913.355 6        41.726                                                                    22541890.155 6  93655949.09306      -710.332 6        40.267
E34        32.000    24073203.237 7 126505525.17907     -1987.671 7        46.257                                                                    24073202.641 7  94468434.84607     -1484.273 7        44.513    24073202.925 6  96932888.05006     -1522.996 6        41.220
R11        33.000    23048984.981 5 123166649.21415     -4361.507 5        34.795
R22        35.000    23610168.513 5 126032791.98205      2546.950 5        34.195                                                                    23610166.303 5  98025411.28005      1981.135 5        30.913
C08        36.000                                                                                                                                                                                                    40245895.186 5                     -1588.906 5        33.886
C33        37.000                                                                                                                                    24192522.383 5 125976819.23805      2211.933 5        32.443                                                                    24192532.077 6 102366488.79206      1797.428 6        40.827
C11        38.000                                                                                                                                    23148764.443 7 120541696.36507     -2873.406 7        42.406    23148752.322 4  93210458.61404     -2222.582 4        28.389    23148757.782 6  97950022.37506     -2334.781 6        40.584
R21        39.000    19982082.821 7 106928143.25907       610.155 7        45.154                                                                    19982080.513 7  83166334.42007       474.540 7        43.164
R04        40.000    23163377.483 5 124038796.25905     -4655.289 5        30.943                                                                    23163392.658 4  96474733.95104     -3620.517 4        29.441
C27        41.000                                                                                                                                                                                                                                                                    27016940.619 4 114317549.87504      1760.930 4        26.371
C14        42.000                                                                                                                                    22793632.350 7 118692442.44107      1012.617 7        46.610    22793630.819 8  91780475.32708       782.983 8        51.464    22793629.301 8  96447315.90608       822.953 8        50.778
C13        43.000                                                                                                                                    39578795.561 5 206097272.99305     -1885.322 5        31.094
C05        44.000                                                                                                                                                                                                    39348470.514 5 158439990.74905      -622.818 5        35.281
C21        46.000                                                                                                                                    25174526.386 5 131090474.96805     -3419.853 5        33.000                                                                    25174521.409 5 106521620.44305     -2778.759 5        32.060
C43        48.000                                                                                                                                    21986174.789 8 114487797.35608     -1937.212 8        51.863                                                                    21986173.587 8  93030693.80408     -1573.978 8        50.134
C42        50.000                                                                                                                                    22594691.834 7 117656462.25107      -707.982 7        45.880                                                                    22594699.185 7  95605572.79707      -575.171 7        44.256
C34        52.000                                                                                                                                    25015618.420 5 130262874.66905     -3680.134 5        30.558                                                                    25015599.304 4 105849207.16904     -2989.914 4        29.991
I01        53.000   413947906.684 6 321279727.07606     -2271.677 6        39.192
C37        54.000                                                                                                                                    26462652.053 4                     -2986.186 4        26.467                                                                    26462621.102 4                     -2426.607 4        24.090
C28        55.000                                                                                                                                    23161528.260 6 120608218.47106      1340.977 6        39.700                                                                    23161541.503 5  98003993.40005      1089.359 5        31.343
I06        58.000    38691792.778 6 151835039.42306      -548.435 6        39.859
> 2025 01 02 21 30 15.0000000  0 42
G10         1.000    21145115.237 7 111118321.15007     -2094.540 7        44.280                                    21145114.693 6  86585712.41206     -1632.105 6        40.317    21145114.657 7  86585704.42407     -1632.013 7        43.124
G23         2.000                                                                                                                                                                    23516636.428 4                     -3188.777 4        24.797
G32         3.000                                                                                                                                                                    23232119.227 5  95131644.25605      1316.425 5        34.671
G21         4.000    21584141.794 4                       771.129 4        29.403
G08         5.000    20439729.972 8 107411559.01908      -619.092 8        51.556                                    20439727.446 8  83697277.78908      -482.413 8        48.285    20439729.227 7  83697259.79307      -482.430 7        44.420
G02         6.000    23386597.758 4                      1631.929 4        27.006
G14         7.000    25244539.052 5 132660976.17805      1724.114 5        33.808
E09         8.000    27384084.355 5 143904391.65505     -1989.376 5        35.538                                                                    27384092.927 3                     -1485.334 3        21.976    27384109.160 5                     -1524.348 5        31.472
E05        11.000    24383548.962 5 128136421.00305       621.207 5        35.086                                                                    24383548.089 5  95686283.09905       463.823 5        35.343    24383546.463 5  98182526.59705       476.008 5        30.098
E13        12.000    28121033.877 4 147777057.53404      1538.961 4        28.834
G27        13.000    21027436.344 6 110499911.80906     -2998.290 6        36.726                                    21027432.646 4  86103832.09204     -2336.332 4        26.695    21027435.350 5  86103832.07205     -2336.373 5        35.914
E27        14.000    25489938.239 7 133950610.47907     -1763.535 7        42.521                                                                    25489936.734 6 100028020.37906     -1316.871 6        39.489    25489937.714 7 102637456.84107     -1351.129 7        44.497
E21        15.000    27542535.470 6 144736985.09006       851.304 6        38.276                                                                    27542534.004 7 108082861.79207       635.708 7        42.478    27542531.141 6 110902430.15306       652.266 6        38.982
E15        16.000    24164450.266 7 126985174.94307       298.615 7        44.295                                                                    24164452.617 7  94826493.40607       222.949 7        44.199    24164450.748 6  97300252.77106       228.789 6        41.335
E06        18.000    28598961.618 3                     -2871.880 3        21.143
E30        19.000                                                                                                                                    26823714.624 6 105262008.61406     -2833.355 6        38.102    26823713.193 5 108007969.74705     -2907.733 5        30.634
R20        20.000    20652924.559 6 110440458.05906     -2803.530 6        36.246                                                                    20652923.865 6  85898225.21606     -2180.427 6        38.697
S23        22.000    38335147.902 6 201452529.18406      -861.700 6        40.513
S36        23.000    38377803.304 6 201676744.62506      -862.607 6        36.480
R06        24.000    21601107.227 4 115267661.34804      3057.739 4        29.839
G16        26.000    25284373.802 4                     -4596.989 4        28.047
R05        28.000                                                                                                                                    20252149.063 5                     -1174.617 5        33.305
R12        30.000    22542745.437 6 120419580.73006      -917.653 6        40.336                                                                    22542747.950 6  93659508.72706      -713.605 6        39.231
E34        32.000    24075095.144 7 126515464.73007     -1988.378 7        46.724                                                                    24075094.143 7  94475857.24107     -1484.843 7        44.409    24075094.568 6  96940504.07706     -1523.549 6        40.963
R11        33.000    23053058.356 5 123188462.09805     -4363.698 5        34.057
R22        35.000    23607783.681 5 126020056.63305      2547.038 5        30.808                                                                    23607782.548 5  98015506.11305      1981.096 5        34.705
C08        36.000                                                                                                                                                                                                    40247868.233 5 162061487.33215     -1588.895 5        34.438
C33        37.000                                                                                                                                    24190398.267 5 125965763.34905      2210.499 5        32.701                                                                    24190409.259 6 102357504.98606      1796.073 6        41.049
C11        38.000                                                                                                                                    23151525.558 7 120556066.91107     -2874.741 7        43.064    23151513.616 5  93221570.85205     -2223.180 5        31.547    23151517.102 6  97961699.65206     -2336.027 6        40.501
R21        39.000    19981515.615 7 106925096.76007       608.330 7        46.117                                                                    19981512.297 7  83163964.92807       473.097 7        44.132
R04        40.000    23167725.167 5 124062077.83205     -4657.577 5        30.460
C27        41.000                                                                                                                                                                                                                                                                    27014862.694 4 114308746.36704      1761.532 4        24.451
C14        42.000                                                                                                                                    22792661.968 7 118687385.06807      1010.240 7        47.158    22792659.289 8  91776564.65808       781.180 8        51.092    22792658.184 8  96443206.42108       820.844 8        50.881
C13        43.000                                                                                                                                    39580604.337 4 206106698.82204     -1885.422 4        29.100
C05        44.000                                                                                                                                                                                                    39349242.723 5 158443103.51805      -622.856 5        34.952
C21        46.000                                                                                                                                    25177810.150 5 131107576.89505     -3421.595 5        32.030                                                                    25177806.998 5 106535517.10705     -2779.771 5        32.126
C43        48.000                                                                                                                                    21988035.605 8 114497487.07508     -1938.873 8        51.491                                                                    21988034.449 8  93038567.53308     -1575.560 8        50.357
C42        50.000                                                                                                                                    22595373.086 7 117660008.83607      -710.806 7        47.121                                                                    22595380.450 7  95608454.73707      -577.616 7        45.056
C34        52.000                                                                                                                                                                                                                                                                    25019132.576 5 105864159.05105     -2990.951 5        30.075
I01        53.000   413950801.114 6 321291085.48106     -2271.735 6        38.937
C28        55.000                                                                                                                                    23160236.589 6 120601515.86806      1340.042 6        38.871                                                                    23160247.623 5  97998546.96805      1088.905 5        32.192
I06        58.000    38692491.571 6 151837781.15206      -548.469 6        40.083
> 2025 01 02 21 30 20.0000000  0 42
G10         1.000    21147108.724 7 111128799.50307     -2097.063 7        42.618                                    21147108.818 6  86593877.33806     -1634.073 6        39.171    21147108.986 7  86593869.35807     -1633.965 7        42.997
G23         2.000                                                                                                                                                                    23520531.064 4                     -3189.800 4        25.008
G32         3.000    23230553.593 5 122077136.19405      1687.104 5        30.958                                    23230512.904 2  95125046.47802      1314.685 2        12.182    23230514.935 6  95125065.45806      1314.771 6        36.287
G08         5.000    20440320.234 8 107414661.64708      -622.246 8        51.191                                    20440318.009 8  83699695.42808      -484.867 8        48.300    20440319.609 7  83699677.42507      -484.883 7        43.791
G02         6.000    23385032.390 5                      1631.144 5        32.335
G14         7.000    25242897.898 5 132652359.92705      1722.312 5        32.072
E09         8.000    27385978.650 6 143914344.46906     -1991.953 6        36.185                                                                    27385994.024 4                     -1487.190 4        24.466    27386007.028 5                     -1526.201 5        31.200
E05        11.000    24382960.539 6 128133320.29106       618.980 6        36.291                                                                    24382957.918 5  95683967.60205       462.307 5        34.510    24382956.427 4  98180150.71104       474.050 4        29.194
E13        12.000    28119579.504 5 147769363.47305      1538.304 5        30.408                                                                    28119577.741 4 110347260.40114      1149.310 4        29.659
G27        13.000    21030290.789 6 110514909.88306     -3000.781 6        36.314                                    21030286.605 4  86115518.90304     -2338.268 4        26.623    21030289.474 6  86115518.88106     -2338.393 6        36.949
E27        14.000    25491616.934 7 133959433.34407     -1765.971 7        43.117                                                                    25491615.841 6 100034608.88106     -1318.715 6        39.378    25491616.910 7 102644217.21407     -1352.985 7        44.479
E21        15.000    27541725.869 6 144732733.73206       848.993 6        38.159                                                                    27541725.120 7 108079687.07907       634.140 7        42.097    27541721.869 6 110899172.61806       650.604 6        38.315
E15        16.000    24164167.440 7 126983684.12207       297.558 7        44.366                                                                    24164168.817 7  94825380.13407       222.187 7        43.875    24164166.977 6  97299110.44906       227.933 6        41.223
E06        18.000    28601704.453 3                     -2872.431 3        20.690
E30        19.000    26827325.472 4                     -3794.811 4        28.322                                                                    26827325.325 6 105276176.13406     -2833.774 6        38.102    26827324.516 5 108022506.84105     -2907.938 5        30.347
R20        20.000    20655547.919 6 110454479.20106     -2805.476 6        36.563                                                                    20655545.108 6  85909130.56806     -2182.137 6        37.853
S23        22.000    38335959.099 6 201456837.69006      -861.944 6        40.322
S36        23.000    38378616.482 6 201681056.53906      -862.416 6        36.541
R06        24.000    21598241.370 4 115252379.27804      3054.940 4        29.564
G16        26.000    25288753.202 4                     -4596.733 4        27.677
R05        28.000                                                                                                                                    20253548.475 5                     -1178.534 5        34.829
R12        30.000    22543607.354 6 120424179.25206      -922.030 6        41.666                                                                    22543610.046 6  93663085.33706      -717.149 6        38.225
E34        32.000    24076987.250 7 126525408.70707     -1989.365 7        47.285                                                                    24076986.420 7  94483282.93907     -1485.572 7        44.123    24076986.229 6  96948123.49306     -1524.454 6        40.026
R11        33.000    23057140.365 6 123210284.70606     -4365.664 6        36.405
R22        35.000    23605396.257 4 126007321.62804      2546.582 4        28.275                                                                    23605399.727 5  98005601.17205      1980.885 5        35.652
C08        36.000                                                                                                                                                                                                    40249840.948 5 162069430.75605     -1588.678 5        34.362
C33        37.000                                                                                                                                    24188273.823 5 125954714.59605      2208.970 5        33.341                                                                    24188287.618 6 102348526.96006      1794.922 6        41.383
C11        38.000                                                                                                                                    23154286.855 7 120570444.15007     -2876.282 7        43.149    23154278.309 6  93232688.30906     -2224.168 6        36.197    23154277.529 6  97973382.32606     -2337.129 6        40.014
R21        39.000    19980948.332 7 106922059.87507       606.224 7        46.334                                                                    19980944.394 7  83161602.89307       471.523 7        44.083
R04        40.000    23172074.961 5 124085370.04105     -4659.708 5        30.302                                                                    23172073.825 4  96510958.21704     -3624.326 4        29.204
C27        41.000                                                                                                                                                                                                                                                                    27012785.259 4 114299942.26304      1760.502 4        24.902
C14        42.000                                                                                                                                    22791694.731 7 118682340.07907      1007.525 7        47.907    22791690.209 8  91772663.56008       779.161 8        50.648    22791689.347 8  96439106.94708       818.835 8        50.652
C13        43.000                                                                                                                                    39582414.166 4 206116124.17404     -1885.317 4        28.910
C05        44.000                                                                                                                                                                                                    39350016.032 5 158446216.39105      -622.686 5        34.738
C21        46.000                                                                                                                                    25181097.377 5 131124687.58805     -3423.495 5        30.634                                                                    25181095.007 5 106549420.91405     -2781.584 5        31.992
C43        48.000                                                                                                                                    21989897.955 8 114507185.84208     -1940.833 8        51.187                                                                    21989897.192 8  93046448.56508     -1577.013 8        50.413
C42        50.000                                                                                                                                    22596057.502 7 117663569.96307      -713.796 7        47.772                                                                    22596064.703 7  95611348.43807      -580.112 7        45.579
C34        52.000                                                                                                                                    25022661.998 4 130299679.61304     -3681.792 4        28.995                                                                    25022666.603 4 105879114.06604     -2991.268 4        28.455
I01        53.000   413953695.755 6 321302445.57006     -2272.334 6        38.411
C37        54.000                                                                                                                                    26468383.622 4                     -2987.692 4        24.045                                                                    26468377.583 4                     -2428.922 4        27.557
C28        55.000                                                                                                                                    23158949.972 6 120594818.29506      1338.968 6        38.405                                                                    23158960.330 5  97993104.61605      1087.888 5        32.198
I06        58.000    38693190.313 6 151840522.83106      -548.548 6        40.336
> 2025 01 02 21 30 25.0000000  0 42
G10         1.000    21149104.404 6 111139289.57906     -2098.965 6        39.135                                    21149105.330 6  86602051.41606     -1635.560 6        38.144    21149105.674 7  86602043.46207     -1635.758 7        43.901
G23         2.000                                                                                                                                                                    23524426.330 3                     -3191.285 3        21.071
G32         3.000                                                                                                                                                                    23228910.894 6  95118493.51806      1314.040 6        36.639
G21         4.000    21582661.879 5                       768.367 5        30.543
G08         5.000    20440913.290 8 107417778.54708      -624.663 8        50.485                                    20440911.322 8  83702124.18408      -486.749 8        48.103    20440912.831 7  83702106.19207      -486.817 7        44.218
G02         6.000    23383483.136 6 122881019.42116      1630.527 6        37.505
G14         7.000    25241258.151 5 132643753.45605      1720.564 5        30.574
E09         8.000    27387875.237 6 143924308.13906     -1993.877 6        36.631                                                                    27387892.795 4                     -1488.927 4        26.060    27387903.842 4                     -1527.724 4        29.640
E05        11.000    24382375.311 6 128130229.44806       617.097 6        36.529                                                                    24382369.243 5  95681659.56305       461.054 5        34.124    24382370.325 4  98177782.42004       472.888 4        29.972
E13        12.000    28118116.760 4 147761669.64604      1538.911 4        27.593                                                                    28118113.842 5 110341515.01205      1149.372 5        30.868    28118106.248 5 113219951.43015      1178.785 5        32.048
G27        13.000    21033147.268 5 110529919.86105     -3003.342 5        33.952                                    21033143.056 4  86127215.00704     -2340.265 4        26.251    21033146.122 6  86127214.98306     -2340.068 6        37.142
E27        14.000    25493297.984 7 133968267.46407     -1767.888 7        43.992                                                                    25493296.978 6 100041205.79606     -1320.194 6        39.462    25493298.307 7 102650986.23807     -1354.672 7        44.668
E21        15.000    27540918.003 6 144728491.71706       847.647 6        38.589                                                                    27540917.692 6 108076519.34706       632.777 6        41.924    27540914.069 6 110895922.24506       649.217 6        37.902
E15        16.000    24163885.103 7 126982197.29007       297.046 7        45.272                                                                    24163885.921 7  94824269.84007       221.665 7        43.710    24163884.377 6  97297971.17006       227.582 6        41.597
E06        18.000    28604445.258 3                     -2876.869 3        20.905
E30        19.000    26830940.671 4                     -3795.840 4        27.509                                                                    26830936.759 6 105290346.14306     -2834.097 6        37.448    26830936.910 5 108037046.53105     -2908.386 5        30.996
R20        20.000    20658171.761 6 110468509.09206     -2806.723 6        36.552                                                                    20658167.211 6  85920042.70306     -2183.189 6        36.389
S23        22.000    38336780.590 6 201461145.64206      -861.495 6        39.847
S36        23.000    38379440.642 5 201685367.89005      -862.252 5        35.948
R06        24.000    21595382.044 4 115237107.99204      3053.409 4        28.739
G16        26.000    25293132.190 4                     -4596.382 4        27.725
R05        28.000    20255001.626 6 108274397.71516     -1519.101 6        36.166                                                                    20254966.478 6  84213429.43716     -1181.598 6        36.015
R12        30.000    22544472.018 7 120428799.05007      -926.030 7        42.900                                                                    22544471.848 6  93666678.50806      -720.269 6        37.524
E34        32.000    24078880.241 7 126535356.52407     -1989.827 7        47.486                                                                    24078879.295 7  94490711.50807     -1485.977 7        44.008    24078879.420 6  96955745.85006     -1524.810 6        40.010
R11        33.000    23061230.308 5 123232116.46005     -4367.390 5        34.881                                                                    23061285.891 4                     -3396.976 4        29.185
R22        35.000                                                                                                                                    23603016.361 5  97995696.03405      1981.117 5        35.448
C08        36.000                                                                                                                                                                                                    40251814.192 5 162077373.16405     -1588.436 5        34.452
C33        37.000                                                                                                                                    24186154.156 5 125943672.43405      2207.928 5        34.600                                                                    24186167.349 6 102339554.35006      1793.664 6        41.943
C11        38.000                                                                                                                                    23157046.987 7 120584827.51707     -2877.220 7        42.671    23157040.323 6  93243810.45106     -2224.770 6        40.086    23157039.536 6  97985069.98506     -2338.211 6        39.778
R21        39.000    19980382.584 7 106919032.01107       604.680 7        46.704                                                                    19980377.522 7  83159247.88907       470.356 7        43.429
R04        40.000                                                                                                                                    23176422.769 5  96529082.27705     -3625.367 5        31.706
C14        42.000                                                                                                                                    22790728.795 8 118677306.92508      1005.497 8        48.179    22790723.362 8  91768771.60808       777.481 8        50.841    22790722.753 8  96435017.10108       816.785 8        50.545
C13        43.000                                                                                                                                    39584226.893 4 206125548.64604     -1884.504 4        28.256
C05        44.000                                                                                                                                                                                                    39350788.858 5 158449328.92805      -622.522 5        33.389
C21        46.000                                                                                                                                    25184384.746 4 131141806.32704     -3424.188 4        27.293                                                                    25184386.154 5 106563331.30405     -2783.107 5        32.623
C43        48.000                                                                                                                                    21991762.511 8 114516893.08308     -1942.290 8        51.131                                                                    21991761.263 8  93054336.50708     -1578.564 8        50.364
C42        50.000                                                                                                                                    22596744.022 7 117667145.07807      -716.359 7        47.686                                                                    22596751.251 7  95614253.50207      -582.363 7        45.989
