     3.04           OBSERVATION DATA    M                   RINEX VERSION / TYPE
ssrcrin-15.6.1x                         20250102 144500 UTC PGM / RUN BY / DATE 
(00000000023479385599111004) Septentrio proprietary         COMMENT             
ract                                                        MARKER NAME         
01                                                          MARKER NUMBER       
geodetic                                                    MARKER TYPE         
NFB                 CLIMERS@TUW                             OBSERVER / AGENCY   
3296359             SEPT ASTERX SB3 PROB4.14.4              REC # / TYPE / VERS 
Unknown             Unknown                                 ANT # / TYPE        
  4127445.4475  1206913.9397  4695543.0116                  APPROX POSITION XYZ 
        0.0000        0.0000        0.0000                  ANTENNA: DELTA H/E/N
G   23 X1  C1C L1C D1C S1C C1W S1W C2W L2W D2W S2W C2L L2L  SYS / # / OBS TYPES 
       D2L S2L C5Q L5Q D5Q S5Q C1L L1L D1L S1L              SYS / # / OBS TYPES 
E   21 X1  C1C L1C D1C S1C C6C L6C D6C S6C C5Q L5Q D5Q S5Q  SYS / # / OBS TYPES 
       C7Q L7Q D7Q S7Q C8Q L8Q D8Q S8Q                      SYS / # / OBS TYPES 
S    9 X1  C1C L1C D1C S1C C5I L5I D5I S5I                  SYS / # / OBS TYPES 
R   17 X1  C1C L1C D1C S1C C2P L2P D2P S2P C2C L2C D2C S2C  SYS / # / OBS TYPES 
       C3Q L3Q D3Q S3Q                                      SYS / # / OBS TYPES 
C   25 X1  C1P L1P D1P S1P C5P L5P D5P S5P C2I L2I D2I S2I  SYS / # / OBS TYPES 
       C7I L7I D7I S7I C6I L6I D6I S6I C7D L7D D7D S7D      SYS / # / OBS TYPES 
J   17 X1  C1C L1C D1C S1C C2L L2L D2L S2L C5Q L5Q D5Q S5Q  SYS / # / OBS TYPES 
       C1L L1L D1L S1L                                      SYS / # / OBS TYPES 
I    5 X1  C5A L5A D5A S5A                                  SYS / # / OBS TYPES 
SEPTENTRIO RECEIVERS OUTPUT ALIGNED CARRIER PHASES.         COMMENT             
NO FURTHER PHASE SHIFT APPLIED IN THE RINEX ENCODER.        COMMENT             
G L1C                                                       SYS / PHASE SHIFT   
G L2W                                                       SYS / PHASE SHIFT   
G L2L  0.00000                                              SYS / PHASE SHIFT   
G L5Q  0.00000                                              SYS / PHASE SHIFT   
G L1L  0.00000                                              SYS / PHASE SHIFT   
E L1C  0.00000                                              SYS / PHASE SHIFT   
E L6C  0.00000                                              SYS / PHASE SHIFT   
E L5Q  0.00000                                              SYS / PHASE SHIFT   
E L7Q  0.00000                                              SYS / PHASE SHIFT   
E L8Q  0.00000                                              SYS / PHASE SHIFT   
S L1C                                                       SYS / PHASE SHIFT   
S L5I                                                       SYS / PHASE SHIFT   
R L1C                                                       SYS / PHASE SHIFT   
R L2P  0.00000                                              SYS / PHASE SHIFT   
R L2C                                                       SYS / PHASE SHIFT   
R L3Q  0.00000                                              SYS / PHASE SHIFT   
C L1P  0.00000                                              SYS / PHASE SHIFT   
C L5P  0.00000                                              SYS / PHASE SHIFT   
C L2I                                                       SYS / PHASE SHIFT   
C L7I                                                       SYS / PHASE SHIFT   
C L6I                                                       SYS / PHASE SHIFT   
C L7D                                                       SYS / PHASE SHIFT   
J L1C                                                       SYS / PHASE SHIFT   
J L2L  0.00000                                              SYS / PHASE SHIFT   
J L5Q  0.00000                                              SYS / PHASE SHIFT   
J L1L  0.00000                                              SYS / PHASE SHIFT   
I L5A                                                       SYS / PHASE SHIFT   
  2025     1     2    14    45    0.0000000     GPS         TIME OF FIRST OBS   
 C1C    0.000 C2C    0.000 C2P    0.000                     GLONASS COD/PHS/BIS 
DBHZ                                                        SIGNAL STRENGTH UNIT
    18                                                      LEAP SECONDS        
 24 R01  1 R02 -4 R03  5 R04  6 R05  1 R06 -4 R07  5 R08  6 GLONASS SLOT / FRQ #
    R09 -2 R10 -7 R11  0 R12 -1 R13 -2 R14 -7 R15  0 R16 -1 GLONASS SLOT / FRQ #
    R17  4 R18 -3 R19  3 R20  2 R21  4 R22 -3 R23  3 R24  2 GLONASS SLOT / FRQ #
                                                            END OF HEADER       
> 2025 01 02 14 45  0.0000000  0 39
G06         1.000    24659615.923 4                     -3886.527 4        28.739                                                                                                    24659596.412 3                     -3028.427 3        21.143
G11         2.000    22593111.036 7 118727595.07707     -1921.260 7        42.205                                    22593108.615 4  92515005.54404     -1497.083 4        27.054    22593110.684 6  92515031.53406     -1497.081 6        40.462
G25         3.000    19882732.820 7 104484421.92407     -1155.873 7        45.770                                    19882731.058 6  81416508.00506      -900.674 6        36.314    19882735.092 5  81416495.01005      -900.822 5        34.238
G32         4.000                                                                                                                                                                    24200391.868 4                     -2630.121 4        25.699
E25         6.000    23331018.817 7 122605369.16307      -889.771 7        44.668                                                                    23331022.067 7  91556085.57807      -664.402 7        45.646    23331019.515 7  93944401.05307      -681.804 7        42.125
G31         7.000    23515430.987 6 123574404.15606      2240.038 6        36.665                                    23515434.334 5  96291765.11305      1745.488 5        35.152    23515438.130 6  96291804.06306      1745.647 6        38.207
G28         8.000    21892945.080 5 115048531.45205       971.351 5        35.424                                    21892950.959 1  89647935.88601       756.954 1         6.750
G29         9.000    21027443.060 7 110500006.79807       904.987 7        45.178                                    21027440.107 7  86103899.58107       705.180 7        43.915    21027440.290 7  86103851.59407       705.204 7        44.185
E11        10.000    24847568.083 6 130574956.43506      1095.379 6        39.517                                                                    24847563.040 6  97507176.42806       817.992 6        40.327    24847560.170 5 100050868.38305       839.410 5        34.657
E10        11.000    24903571.032 5 130869239.62405      -422.946 5        32.892                                                                    24903581.424 5  97727066.97705      -315.703 5        34.933    24903613.728 5 100276430.25705      -323.813 5        34.667
E12        13.000    25907732.373 5 136146063.45005     -1786.254 5        34.710                                                                    25907736.049 6 101667566.34806     -1333.997 6        39.853    25907733.281 6 104319755.01706     -1368.719 6        37.146
G12        15.000    21865468.589 6 114903783.39606     -3341.910 6        37.819                                    21865472.444 2  89535407.36002     -2604.073 2        14.333    21865490.778 5                     -2604.344 5        30.083
E24        16.000    26043547.995 6 136859745.98106     -2930.475 6        37.376                                                                    26043544.035 5 102200528.94205     -2188.306 5        35.443    26043543.300 6 104866641.52906     -2245.430 6        39.498
E07        18.000    28417657.391 4                       708.277 4        24.677                                                                    28417656.383 4 111516999.82304       529.549 4        28.379    28417672.531 4 114426226.13004       543.424 4        28.815
E08        20.000    26606314.065 6 139817004.25006     -1632.849 6        40.172                                                                    26606317.633 6 104408919.66206     -1219.455 6        36.336    26606319.775 5 107132604.85205     -1251.418 5        33.748
E02        21.000    25397312.047 6 133463941.19706      1187.766 6        41.893                                                                    25397312.377 5  99664539.20005       886.936 5        34.195    25397313.328 7 102264462.65407       910.120 7        42.347
S23        22.000    38230580.511 6 200903106.79506      -865.206 6        36.321
R14        23.000    22563760.273 6 120277416.73206     -4361.597 6        36.318                                                                    22563768.894 5  93549232.76605     -3392.628 5        33.898
R18        25.000    21129945.995 5 112793571.17705      2904.215 5        35.605                                                                    21129972.234 5                      2258.462 5        31.736
E03        26.000    27026828.691 4                     -3546.577 4        28.711                                                                    27026832.445 6 106059081.48406     -2647.948 6        39.523    27026830.309 6 108825833.08306     -2716.867 6        36.064
S21        27.000    38513539.492 6 202390110.14306      -860.360 6        36.401
R07        28.000    23358882.974 5 125041982.95605      -928.150 5        35.352                                                                    23358892.930 4  97254958.34204      -721.528 4        27.317
S48        29.000    77225447.862 5 405823404.21905      -884.352 5        32.443
R15        30.000    19414973.831 7 103748016.05707     -1637.006 7        45.777                                                                    19414976.227 7  80692670.72507     -1273.305 7        43.378
S36        31.000    38284882.133 6 201188431.34406      -860.086 6        36.181
R16        34.000    20707227.482 8 110614859.19808      1991.273 8        48.534                                                                    20707230.996 7  86033459.60207      1548.750 7        46.392
C44        35.000                                                                                                                                    22208684.584 8 115646740.41408      1130.840 8        50.775                                                                    22208685.189 7  93972337.27707       918.724 7        47.191
R17        36.000    19360100.049 8 103600521.95308      -566.373 8        49.839                                                                    19360102.528 7  80577666.92007      -440.532 7        43.579
R24        38.000                                                                                                                                    21909163.329 4  91122883.33904     -3444.600 4        26.371
C05        40.000                                                                                                                                    39520388.230 5 205793028.14605      -822.024 5        31.026
C12        41.000                                                                                                                                    24122186.958 4 125610538.36504      2197.198 4        29.517    24122184.294 6  97130096.90706      1699.160 6        40.153
C35        42.000                                                                                                                                    22081172.433 8 114982432.26308     -1766.169 8        48.903                                                                    22081173.218 7  93432683.20807     -1435.333 7        46.077
C25        45.000                                                                                                                                    25547950.509 5 133035118.93505      2221.938 5        30.641                                                                    25547963.112 6 108101844.22706      1805.220 6        41.993
C29        46.000                                                                                                                                    26142523.417 3                     -4039.481 3        20.929
C26        48.000                                                                                                                                    22575086.506 7 117554388.12707     -2743.007 7        44.898                                                                    22575086.550 4  95522579.19104     -2228.997 4        29.611
C41        49.000                                                                                                                                    27293451.286 5 142124178.39705     -2387.846 5        33.856
C24        51.000                                                                                                                                    21739525.911 8 113203410.76208       234.642 8        49.854                                                                    21739523.829 6  91987104.44406       190.567 6        41.182
I02        55.000    37528558.277 6 147270129.34506      -979.057 6        38.844
I06        58.000    38702828.377 6 151878233.07206      -716.935 6        37.894
> 2025 01 02 14 45  5.0000000  0 39
G06         1.000    24663322.970 4                     -3888.628 4        29.517
G11         2.000    22594939.851 7 118737211.40807     -1924.829 7        42.813                                    22594938.836 4  92522498.78404     -1499.875 4        26.946    22594940.385 7  92522524.79407     -1499.874 7        42.309
G25         3.000    19883834.077 7 104490209.10107     -1158.590 7        45.878                                    19883832.436 6  81421017.48506      -902.791 6        36.533    19883835.721 5  81421004.49805      -902.732 5        35.886
G32         4.000                                                                                                                                                                    24203593.143 3                     -2629.772 3        21.714
E25         6.000    23331866.264 7 122609823.21507      -891.396 7        45.144                                                                    23331869.757 7  91559411.64407      -665.584 7        45.916    23331866.915 6  93947813.88406      -683.011 6        40.808
G31         7.000    23513304.654 6 123563208.97006      2238.228 6        40.834                                    23513303.995 5  96283041.64805      1744.070 5        35.095    23513307.490 6  96283080.64506      1743.980 6        39.030
G28         8.000    21892020.615 5 115043683.17005       968.355 5        35.795                                    21892028.700 1  89644157.94601       754.578 1         9.429
G29         9.000    21026583.894 7 110495489.98107       902.287 7        45.523                                    21026580.514 7  86100380.00107       703.080 7        43.386    21026580.757 7  86100332.00607       703.065 7        43.754
E11        10.000    24846527.054 6 130569486.64006      1093.065 6        40.582                                                                    24846522.213 6  97503091.85906       816.255 6        40.188    24846518.875 5 100046677.22505       837.875 5        33.054
E10        11.000    24903974.458 4 130871363.39304      -425.971 4        28.095                                                                    24903995.950 6  97728653.02706      -318.165 6        37.055    24904020.411 5 100278057.59505      -326.133 5        32.311
E12        13.000    25909433.500 5 136155003.20605     -1789.097 5        35.700                                                                    25909437.594 6 101674242.12206     -1335.983 6        40.322    25909434.413 6 104326604.93406     -1370.823 6        37.709
G12        15.000    21868649.920 6 114920498.06506     -3343.698 6        39.646                                    21868654.303 2  89548431.81502     -2605.521 2        12.606    21868674.765 4                     -2605.525 4        26.719
E24        16.000    26046333.905 6 136874402.14606     -2931.563 6        38.168                                                                    26046332.840 5 102211473.40305     -2189.069 5        34.824    26046332.127 6 104877871.54106     -2246.282 6        39.183
E07        18.000    28416987.922 3                       705.938 3        23.848                                                                    28416977.065 4 111514359.41504       527.351 4        27.988    28416997.866 4 114423516.65904       541.302 4        28.246
E08        20.000    26607867.336 6 139825176.88606     -1635.583 6        40.639                                                                    26607873.152 6 104415022.59206     -1221.589 6        37.134    26607874.805 5 107138866.99505     -1253.044 5        33.060
E02        21.000    25396182.761 7 133458006.25207      1186.828 7        42.284                                                                    25396183.642 6  99660107.29606       886.266 6        36.268    25396183.798 7 102259915.14607       909.299 7        42.701
S23        22.000    38231406.969 6 200907434.35706      -865.428 6        36.253
R14        23.000    22567851.464 5 120299230.99205     -4363.388 5        34.567                                                                    22567859.128 5  93566199.48105     -3393.937 5        32.701
R18        25.000    21127228.938 6                      2901.365 6        36.582                                                                    21127259.909 5                      2256.585 5        31.766
E03        26.000    27030202.445 4                     -3547.048 4        27.593                                                                    27030207.287 6 106072324.53306     -2649.004 6        40.026    27030204.792 6 108839421.61506     -2718.097 6        36.348
S21        27.000    38514357.204 6 202394412.72306      -860.554 6        36.246
R07        28.000    23359751.216 5 125046637.29405      -933.007 5        34.405
S48        29.000    77226268.168 5 405827828.43705      -884.726 5        32.377
R15        30.000    19416507.194 7 103756210.82607     -1640.372 7        46.433                                                                    19416509.618 7  80699044.43707     -1275.830 7        42.999
S36        31.000    38285705.278 6 201192734.12406      -860.418 6        37.134
R16        34.000    20705365.070 8 110604909.09708      1989.251 8        49.102                                                                    20705368.582 7  86025720.65107      1547.213 7        46.536
C44        35.000                                                                                                                                    22207600.447 8 115641093.95808      1128.278 8        50.782                                                                    22207600.542 7  93967749.05807       916.777 7        47.081
R17        36.000    19360632.217 8 103603367.04808      -571.162 8        49.764                                                                    19360634.479 7  80579879.78807      -444.272 7        44.611
R24        38.000    21913385.587 4                     -4432.108 4        29.128                                                                    21913314.792 4                     -3446.299 4        24.962
C05        40.000                                                                                                                                    39521179.130 5 205797141.03905      -822.530 5        30.551
C12        41.000                                                                                                                                    24120082.325 4 125599556.64004      2196.006 4        29.327    24120074.411 6  97121605.26406      1697.976 6        40.787
C35        42.000                                                                                                                                    22082870.464 8 114991271.20808     -1768.977 8        49.459                                                                    22082870.582 7  93439865.54707     -1437.410 7        46.268
C25        45.000                                                                                                                                    25545822.268 5 133024013.24405      2221.206 5        30.687                                                                    25545830.244 7 108092819.96307      1804.766 7        42.064
C29        46.000                                                                                                                                    26146396.356 3                     -4037.635 3        23.257
C26        48.000                                                                                                                                    22577722.633 7 117568109.99007     -2745.266 7        45.511                                                                    22577721.224 4  95533729.34104     -2230.932 4        29.043
C41        49.000                                                                                                                                    27295745.058 5 142136124.96305     -2390.377 5        33.413
C24        51.000                                                                                                                                    21739302.374 8 113202244.91908       232.158 8        49.092                                                                    21739299.927 6  91986157.08106       188.731 6        40.861
I02        55.000    37529805.885 6 147275026.22206      -979.378 6        39.369
I06        58.000    38703741.787 6 151881820.39606      -717.338 6        37.962
> 2025 01 02 14 45 10.0000000  0 38
G06         1.000    24667029.574 4                     -3890.058 4        29.469
G11         2.000    22596772.822 7 118746843.26507     -1927.856 7        42.828                                    22596771.848 4  92530004.11204     -1502.227 4        26.659    22596773.099 7  92530030.13407     -1502.257 7        43.160
G25         3.000    19884936.775 7 104496007.59507     -1160.800 7        46.082                                    19884936.346 6  81425535.78606      -904.518 6        36.594    19884939.028 6  81425522.79706      -904.560 6        36.435
E25         6.000    23332715.052 7 122614282.45707      -892.426 7        45.634                                                                    23332718.489 7  91562741.59607      -666.310 7        45.737    23332715.241 6  93951230.69906      -683.757 6        39.826
G31         7.000    23511177.338 7 123552021.89207      2236.726 7        44.361                                    23511175.221 6  96274324.49706      1742.894 6        36.000    23511178.041 6  96274363.53206      1742.769 6        40.756
G28         8.000    21891101.786 6 115038848.24406       965.802 6        36.650                                    21891108.641 1  89640390.40601       752.524 1         7.500    21891098.723 4                       752.385 4        28.332
G29         9.000    21025726.190 7 110490984.31307       900.042 7        44.364                                    21025723.009 7  86096869.09707       701.330 7        42.804    21025723.585 7  86096821.08907       701.329 7        43.941
E11        10.000    24845487.760 6 130564026.40506      1091.118 6        41.106                                                                    24845483.151 6  97499014.40506       814.842 6        39.366    24845479.950 5 100042493.41805       835.978 5        32.970
E10        11.000    24904376.515 3                      -424.389 3        19.582                                                                    24904403.101 6  97730248.11706      -319.878 6        37.527    24904425.010 4 100279694.34904      -328.404 4        24.722
E12        13.000    25911137.826 6 136163954.47506     -1791.426 6        36.741                                                                    25911141.009 6 101680926.50606     -1337.648 6        40.310    25911138.264 6 104333463.70106     -1372.612 6        37.887
G12        15.000    21871831.367 6 114937219.56006     -3344.945 6        39.964                                    21871837.137 1  89561461.65101     -2606.479 1        11.926    21871857.774 3                     -2606.763 3        19.940
E24        16.000    26049122.693 6 136889061.04006     -2932.073 6        38.535                                                                    26049121.810 5 102222419.98205     -2189.474 5        33.431    26049121.587 6 104889103.66406     -2246.669 6        39.132
E07        18.000    28416313.964 4                       705.249 4        25.398                                                                                                                                    28416327.887 4 114420814.45904       539.884 4        28.000
E08        20.000    26609424.327 6 139833360.69206     -1637.769 6        40.586                                                                    26609430.659 6 104421133.88706     -1223.136 6        36.193    26609430.334 5 107145137.68505     -1255.094 5        30.747
E02        21.000    25395052.949 7 133452073.27307      1186.322 7        42.066                                                                    25395058.168 6  99655676.89106       886.073 6        37.516    25395054.665 7 102255369.12107       909.113 7        42.895
S23        22.000    38232227.937 6 200911761.50906      -865.354 6        36.098
R14        23.000    22571936.043 6 120321051.92206     -4364.771 6        36.087                                                                    22571950.980 5  93583171.36005     -3395.108 5        31.125
R18        25.000    21124513.333 6 112764558.28516      2899.033 6        39.393                                                                    21124546.815 5                      2254.681 5        32.665
E03        26.000    27033575.511 4                     -3547.852 4        25.248                                                                    27033582.762 6 106085570.25706     -2649.266 6        40.117    27033579.656 5 108853012.84805     -2718.340 5        35.609
S21        27.000    38515176.566 6 202398714.95106      -860.528 6        36.125
R07        28.000    23360623.906 5 125051312.43705      -937.066 5        32.892                                                                    23360645.272 4  97262214.66704      -728.694 4        27.784
S48        29.000    77227102.282 5 405832251.84205      -884.705 5        32.593
R15        30.000    19418043.502 7 103764420.17007     -1643.312 7        45.955                                                                    19418045.563 7  80705429.47007     -1278.102 7        42.341
S36        31.000    38286520.062 6 201197035.93506      -860.236 6        36.287
R16        34.000    20703504.180 8 110594966.41808      1987.788 8        49.903                                                                    20703507.282 7  86017987.46307      1546.036 7        47.074
C44        35.000                                                                                                                                    22206518.281 8 115635457.65708      1126.247 8        51.130                                                                    22206517.827 7  93963169.13107       914.989 7        46.518
R17        36.000    19361168.110 8 103606233.91508      -575.550 8        50.455                                                                    19361169.933 7  80582109.57207      -447.638 7        45.430
R24        38.000                                                                                                                                    21917452.873 5  91157353.41515     -3448.744 5        30.430
C05        40.000                                                                                                                                    39521968.407 5 205801253.26105      -822.289 5        31.487
C12        41.000                                                                                                                                    24117980.475 5 125588580.94705      2194.439 5        30.355    24117966.994 6  97113118.22506      1697.012 6        41.030
C35        42.000                                                                                                                                    22084570.287 8 115000121.81508     -1771.257 8        50.177                                                                    22084570.356 7  93447057.40707     -1439.493 7        46.280
C25        45.000                                                                                                                                    25543694.818 5 133012908.80605      2220.803 5        31.592                                                                    25543697.801 7 108083796.74907      1804.335 7        42.555
C29        46.000                                                                                                                                    26150277.510 3                     -4039.257 3        23.276
C26        48.000                                                                                                                                    22580359.645 7 117581840.69107     -2747.003 7        46.558                                                                    22580356.341 4  95544886.57704     -2232.489 4        27.557
C41        49.000                                                                                                                                    27298039.601 5 142148081.37805     -2392.523 5        32.748
C24        51.000                                                                                                                                    21739080.286 8 113201088.50008       230.319 8        49.080                                                                    21739077.884 6  91985217.41906       187.064 6        41.042
I02        55.000    37531053.251 6 147279923.23006      -979.389 6        39.333
I06        58.000    38704656.227 6 151885407.16506      -717.359 6        37.629
> 2025 01 02 14 45 15.0000000  0 39
G06         1.000    24670733.473 4                     -3892.079 4        28.645
G11         2.000    22598608.927 7 118756491.15107     -1930.969 7        44.632                                    22598608.125 4  92537521.94704     -1504.642 4        26.671    22598608.482 7  92537547.96807     -1504.635 7        43.134
G25         3.000    19886042.710 7 104501817.95507     -1163.096 7        45.198                                    19886042.563 6  81430063.34206      -906.314 6        36.344    19886043.921 6  81430050.37506      -906.377 6        37.410
G32         4.000    24210011.756 4                     -3380.165 4        27.090
E25         6.000    23333564.465 7 122618747.45507      -893.391 7        45.506                                                                    23333568.159 7  91566075.86107      -667.138 7        45.905    23333564.828 6  93954651.94406      -684.570 6        38.988
G31         7.000    23509049.033 7 123540843.42707      2235.126 7        46.385                                    23509048.120 6  96265614.03506      1741.646 6        37.062    23509050.692 6  96265653.05006      1741.704 6        41.101
G28         8.000    21890185.202 6 115034027.18906       963.345 6        36.049                                    21890191.194 1  89636633.70001       750.650 1         8.476    21890184.071 5                       750.233 5        31.223
G29         9.000    21024870.724 7 110486490.31707       897.795 7        43.192                                    21024867.712 7  86093367.28807       699.578 7        42.214    21024868.948 7  86093319.28107       699.604 7        44.223
E11        10.000    24844449.352 6 130558576.26406      1089.392 6        40.901                                                                    24844446.009 6  97494944.51006       813.604 6        38.769    24844442.144 5 100038317.36705       834.522 5        32.156
E10        11.000                                                                                                                                    24904807.013 6  97731852.72706      -321.751 6        37.353
E12        13.000    25912843.675 6 136172917.85306     -1793.727 6        38.042                                                                    25912846.753 6 101687619.92506     -1339.470 6        40.443    25912844.089 6 104340331.73806     -1374.316 6        38.568
G12        15.000    21875013.851 6 114953948.40606     -3346.260 6        39.288                                    21875020.803 2  89574497.26802     -2607.478 2        12.788    21875013.666 3                     -2607.796 3        18.687
E24        16.000    26051911.253 6 136903723.29106     -2932.486 6        38.087                                                                    26051911.862 5 102233369.06105     -2189.657 5        32.778    26051911.707 6 104900338.35706     -2246.966 6        38.838
E07        18.000    28415640.001 4                       702.390 4        24.301                                                                    28415622.995 4 111509099.74904       524.985 4        29.081    28415659.936 4 114418119.79304       538.470 4        27.665
E08        20.000    26610984.029 6 139841556.18106     -1640.053 6        40.126                                                                    26610990.022 5 104427253.90005     -1224.605 5        35.010    26610988.764 4 107151417.26104     -1256.291 4        28.370
E02        21.000    25393923.423 6 133446142.80006      1186.120 6        41.168                                                                    25393935.019 6  99651248.36306       885.631 6        38.811    25393925.856 7 102250825.02607       908.686 7        43.270
S23        22.000    38233051.605 5 200916088.65105      -864.922 5        35.990
R14        23.000    22576024.310 6 120342879.89306     -4365.974 6        37.701                                                                    22576045.249 5  93600148.62305     -3395.516 5        30.287
R18        25.000    21121800.314 7 112750070.19107      2896.691 7        42.082                                                                    21121820.811 5  87694231.88215      2252.808 5        34.533
E03        26.000    27036945.393 3                     -3548.259 3        23.714                                                                    27036958.957 6 106098819.07506     -2649.802 6        40.145    27036955.304 5 108866607.31705     -2719.056 5        35.005
S21        27.000    38515998.075 6 202403017.44406      -860.206 6        36.147
R07        28.000    23361500.526 5 125056008.52905      -940.979 5        34.614
S48        29.000    77227923.460 5 405836675.47005      -884.640 5        33.353
R15        30.000    19419582.283 7 103772644.56007     -1646.189 7        46.581                                                                    19419584.599 7  80711826.22307     -1280.443 7        42.451
S36        31.000    38287339.737 5 201201337.60405      -860.082 5        35.895
R16        34.000    20701644.510 8 110585031.84908      1986.407 8        50.284                                                                    20701647.736 7  86010260.60307      1544.946 7        47.205
C44        35.000                                                                                                                                    22205438.084 8 115629832.05908      1124.251 8        51.630                                                                    22205437.155 7  93958597.90507       913.429 7        46.204
R17        36.000    19361708.616 8 103609123.16108      -579.917 8        51.022                                                                    19361710.085 7  80584356.76807      -450.977 7        45.517
R24        38.000                                                                                                                                    21921591.569 5  91174600.86005     -3450.204 5        34.600
C05        40.000                                                                                                                                    39522758.239 5 205805365.34505      -822.200 5        30.966
C12        41.000                                                                                                                                    24115874.557 4 125577611.77604      2193.180 4        29.450    24115861.305 6  97104636.22606      1695.998 6        41.337
C35        42.000                                                                                                                                    22086272.159 8 115008984.63608     -1773.542 8        50.680                                                                    22086272.398 7  93454259.19907     -1441.237 7        46.496
C25        45.000                                                                                                                                    25541566.642 5 133001806.14105      2220.489 5        33.856                                                                    25541565.702 7 108074774.97507      1804.339 7        43.103
C29        46.000                                                                                                                                    26154162.581 3                     -4037.041 3        22.019
C26        48.000                                                                                                                                    22582997.238 7 117595580.77607     -2748.707 7        46.610                                                                    22582993.826 4  95556051.46604     -2233.157 4        27.665
C41        49.000                                                                                                                                    27300337.484 5 142160048.06905     -2394.252 5        31.713
C24        51.000                                                                                                                                    21738860.051 8 113199942.09508       228.505 8        48.853                                                                    21738857.599 6  91984285.89706       185.583 6        41.123
I02        55.000    37532301.912 6 147284820.91206      -979.341 6        39.498
I06        58.000    38705569.839 6 151888993.73406      -716.983 6        37.535
> 2025 01 02 14 45 20.0000000  0 38
G06         1.000    24674438.713 4                     -3893.620 4        26.347
G11         2.000    22600448.425 7 118766155.11807     -1934.471 7        44.983                                    22600447.392 4  92545052.30504     -1507.382 4        26.934    22600447.301 7  92545078.30907     -1507.328 7        42.753
G25         3.000    19887150.324 7 104507640.21907     -1165.716 7        43.979                                    19887151.082 6  81434600.17106      -908.353 6        36.261    19887152.032 6  81434587.19506      -908.215 6        37.917
G32         4.000    24213235.765 5                     -3381.800 5        30.475
E25         6.000    23334414.822 7 122623218.25707      -894.780 7        45.345                                                                    23334418.935 7  91569414.43807      -668.191 7        46.047    23334415.877 6  93958077.62406      -685.574 6        37.769
G31         7.000    23506922.092 7 123529673.57207      2233.081 7        46.971                                    23506922.766 6  96256910.28506      1740.054 6        38.315    23506924.951 6  96256949.28606      1740.171 6        41.638
G28         8.000    21889273.395 5 115029220.15205       960.068 5        33.120                                    21889276.349 1  89632887.83201       748.097 1         8.095    21889269.530 5                       748.035 5        32.976
G29         9.000    21024018.150 6 110482008.04806       895.223 6        41.421                                    21024014.674 7  86089874.61407       697.576 7        42.055    21024015.904 7  86089826.60507       697.597 7        44.266
E11        10.000    24843414.118 6 130553136.28006      1087.008 6        40.746                                                                    24843410.947 6  97490882.22506       811.669 6        38.405    24843406.181 5 100034149.08405       832.849 5        31.660
E10        11.000    24905228.426 5 130877859.52615      -433.689 5        34.814                                                                    24905216.046 6  97733466.93906      -323.728 6        36.238
E12        13.000    25914550.998 6 136181893.31706     -1796.420 6        37.868                                                                    25914554.444 6 101694322.37306     -1341.536 6        40.327    25914552.505 6 104347209.04406     -1376.411 6        38.946
G12        15.000    21878197.768 6 114970684.69906     -3348.128 6        39.480                                    21878205.716 2  89587538.61602     -2608.933 2        13.091    21878203.417 4                     -2608.703 4        27.341
E24        16.000    26054701.448 6 136918388.98006     -2933.749 6        37.342                                                                    26054702.676 5 102244320.70105     -2190.480 5        32.545    26054702.598 6 104911575.69606     -2247.867 6        38.291
E07        18.000    28414975.719 3                       699.678 3        23.581                                                                    28414959.207 4 111506481.13004       522.625 4        29.573    28414992.305 4 114415432.83604       535.854 4        27.892
E08        20.000    26612546.464 6 139849763.40406     -1642.719 6        40.131                                                                    26612551.741 5 104433382.67205     -1226.597 5        35.095    26612548.305 4 107157705.94004     -1258.884 4        26.240
E02        21.000    25392794.425 6 133440214.87406      1185.312 6        40.215                                                                    25392807.172 6  99646821.68706       885.176 6        39.892    25392797.573 7 102246282.87007       908.256 7        43.725
S23        22.000    38233874.259 6 200920415.68206      -865.256 6        36.253
R14        23.000    22580117.660 6 120364714.97506     -4367.707 6        37.546                                                                    22580137.973 4  93617131.54604     -3396.734 4        27.868
R18        25.000    21119089.515 7 112735594.64207      2893.828 7        42.754
E03        26.000    27040322.174 4                     -3550.652 4        24.256                                                                    27040335.966 6 106112071.01406     -2650.614 6        40.203    27040331.978 5 108880204.95105     -2720.117 5        34.457
S21        27.000    38516818.801 5 202407320.01805      -860.813 5        35.833
R07        28.000    23362383.649 6 125060726.05906      -945.595 6        36.696                                                                    23362432.166 5  97269536.43405      -735.463 5        32.060
S48        29.000    77228751.975 5 405841100.25905      -885.157 5        32.946
R15        30.000    19421123.711 7 103780884.24607     -1649.473 7        45.688                                                                    19421126.835 7  80718234.87107     -1282.909 7        42.762
S36        31.000    38288159.001 5 201205639.29405      -860.286 5        35.624
R16        34.000    20699786.401 8 110575105.10808      1984.522 8        50.939                                                                    20699789.212 7  86002539.82207      1543.462 7        46.956
C44        35.000                                                                                                                                    22204359.696 8 115624217.19108      1121.825 8        52.071                                                                    22204358.669 7  93954035.37407       911.491 7        46.038
R17        36.000    19362252.598 8 103612034.79808      -584.620 8        50.721                                                                    19362253.440 7  80586621.37507      -454.745 7        44.835
R24        38.000                                                                                                                                    21925734.239 6  91191856.90906     -3452.283 6        38.141
C05        40.000                                                                                                                                    39523547.668 5 205809477.41805      -822.524 5        31.200
C12        41.000                                                                                                                                    24113767.003 4 125566649.09204      2191.778 4        28.341    24113755.595 7  97096159.32207      1694.851 7        42.375
C35        42.000                                                                                                                                    22087976.331 8 115017859.67908     -1776.327 8        51.217                                                                    22087976.737 7  93461470.88207     -1443.493 7        46.558
C25        45.000                                                                                                                                    25539440.221 5 132990705.32005      2219.896 5        34.938                                                                    25539433.964 7 108065754.68907      1803.766 7        43.272
C26        48.000                                                                                                                                    22585636.810 7 117609330.26407     -2750.907 7        45.764                                                                    22585634.107 4  95567224.04004     -2235.343 4        29.441
C41        49.000                                                                                                                                    27302638.994 4 142172025.10404     -2396.451 4        29.772
C24        51.000                                                                                                                                    21738641.100 8 113198805.73308       226.199 8        48.188                                                                    21738639.504 6  91983362.49806       183.696 6        41.483
I02        55.000    37533549.275 6 147289718.97206      -979.741 6        39.646
I06        58.000    38706484.112 6 151892580.21006      -717.464 6        37.656
> 2025 01 02 14 45 25.0000000  0 37
G06         1.000    24678142.030 4                     -3895.364 4        27.665
G11         2.000    22602290.498 7 118775835.10307     -1937.755 7        44.330                                    22602289.634 4  92552595.15104     -1509.943 4        26.982    22602289.611 7  92552621.16707     -1509.978 7        42.535
G25         3.000    19888260.994 7 104513474.33407     -1168.180 7        43.536                                    19888261.882 6  81439146.24606      -910.273 6        36.110    19888261.465 6  81439133.26006      -910.090 6        37.902
E25         6.000    23335266.296 7 122627694.81307      -895.981 7        45.783                                                                    23335270.922 7  91572757.32407      -669.134 7        45.788    23335267.767 6  93961507.70306      -686.468 6        37.187
G31         7.000    23504797.610 7 123518512.30907      2231.291 7        46.800                                    23504799.135 6  96248213.23706      1738.657 6        38.955    23504800.199 7  96248252.25007      1738.751 7        42.239
G28         8.000    21888357.411 4 115024427.03904       956.760 4        29.460                                    21888364.326 1  89629152.97501       745.540 1         7.250    21888357.154 5  89629167.89915       745.774 5        35.152
G29         9.000    21023166.754 6 110477537.46906       892.782 6        40.758                                    21023163.863 6  86086391.04606       695.675 6        41.828    21023164.889 7  86086343.03607       695.627 7        44.108
E11        10.000    24842381.671 6 130547706.41506      1084.906 6        39.907                                                                    24842377.543 6  97486827.48506       810.044 6        37.970    24842372.763 5 100029988.55105       831.123 5        30.679
E10        11.000    24905634.821 5 130880033.78605      -436.183 5        35.057                                                                    24905629.010 5  97735090.73705      -325.696 5        33.389    24905616.050 5 100284663.42405      -334.291 5        33.934
E12        13.000    25916261.103 6 136190880.85206     -1798.703 6        38.303                                                                    25916264.624 6 101701033.85006     -1343.252 6        40.024    25916263.159 6 104354095.59706     -1378.428 6        39.889
G12        15.000    21881382.804 6 114987428.35006     -3349.611 6        38.456                                    21881392.060 2  89600585.62302     -2610.152 2        12.182
E24        16.000    26057492.272 6 136933057.98006     -2934.369 6        36.499                                                                    26057493.885 5 102255274.81405     -2191.403 5        32.156    26057493.739 6 104922815.55806     -2248.171 6        38.258
E07        18.000    28414310.136 4                       698.025 4        24.451                                                                    28414294.869 5 111503869.77505       521.439 5        30.091    28414330.382 4 114412753.37304       535.628 4        28.000
E08        20.000    26614110.340 6 139857982.30206     -1645.104 6        40.138                                                                    26614115.879 5 104439520.19405     -1228.638 5        35.286    26614112.093 4 107164003.50404     -1260.949 4        24.917
E02        21.000    25391666.012 6 133434289.44806      1184.695 6        40.231                                                                    25391674.339 6  99642396.86806       884.749 6        40.601    25391669.924 7 102241742.64807       907.771 7        43.515
S23        22.000    38234700.592 6 200924742.96106      -865.628 6        36.684
R14        23.000    22584216.434 6 120386557.22406     -4369.100 6        37.599                                                                    22584232.196 4  93634120.10904     -3398.359 4        26.707
R18        25.000    21116380.958 7 112721131.54807      2891.240 7        42.603                                                                    21116381.395 6  87671723.97406      2248.715 6        36.752
E03        26.000    27043701.442 4                     -3550.229 4        26.754                                                                    27043713.914 6 106125326.04206     -2651.469 6        40.260    27043709.621 5 108893805.71705     -2720.332 5        33.389
S21        27.000    38517636.978 5 202411622.58005      -860.649 5        35.562
R07        28.000    23363269.545 5 125065464.62805      -949.744 5        35.700                                                                    23363310.332 5  97273221.84105      -739.029 5        32.347
S48        29.000    77229571.253 5 405845524.23005      -885.038 5        32.329
R15        30.000    19422668.528 7 103789138.98207     -1652.648 7        45.497                                                                    19422672.102 7  80724655.22907     -1285.329 7        42.694
S36        31.000    38288973.552 5 201209940.67705      -860.378 5        35.271
R16        34.000    20697929.909 8 110565186.45808      1982.889 8        50.881                                                                    20697932.405 7  85994825.32307      1542.277 7        47.417
C44        35.000                                                                                                                                    22203283.104 8 115618613.03108      1119.646 8        52.101                                                                    22203282.438 7  93949481.53807       909.916 7        45.803
R17        36.000    19362800.666 8 103614968.65808      -589.145 8        50.473                                                                    19362801.876 7  80588903.27907      -458.284 7        44.554
R24        38.000                                                                                                                                    21929882.316 6  91209121.53706     -3453.900 6        38.967
C05        40.000                                                                                                                                    39524338.206 5 205813589.34305      -822.486 5        31.479
C12        41.000                                                                                                                                    24111664.612 4 125555692.99304      2190.274 4        26.898    24111652.069 7  97087687.46307      1693.805 7        42.931
C35        42.000                                                                                                                                    22089683.294 8 115026746.90908     -1778.856 8        51.574                                                                    22089683.261 7  93468692.47007     -1445.341 7        46.434
C25        45.000                                                                                                                                    25537313.060 5 132979606.29105      2219.746 5        35.305                                                                    25537302.246 7 108056735.87407      1803.529 7        43.270
C26        48.000                                                                                                                                    22588279.067 7 117623089.12507     -2752.899 7        46.018                                                                    22588278.634 5  95578404.18005     -2236.950 5        30.158
C41        49.000                                                                                                                                    27304943.017 4 142184012.42204     -2398.817 4        27.162                                                                    27304966.679 5                     -1948.942 5        31.977
C24        51.000                                                                                                                                    21738423.906 7 113197679.37007       224.150 7        47.855                                                                    21738423.200 6  91982447.21006       182.150 6        41.743
I02        55.000    37534798.051 6 147294617.71506      -979.906 6        39.634
I06        58.000    38707397.688 6 151896166.52306      -717.560 6        37.482
> 2025 01 02 14 45 30.0000000  0 38
G11         2.000    22604134.272 7 118785531.12407     -1940.846 7        43.479                                    22604134.880 4  92560150.49904     -1512.345 4        27.293    22604134.005 7  92560176.50407     -1512.283 7        42.754
G25         3.000    19889374.249 7 104519320.33107     -1170.333 7        43.481                                    19889374.780 5  81443701.58305      -911.951 5        35.971    19889373.352 6  81443688.59606      -911.957 6        37.682
G32         4.000    24219695.457 5                     -3384.724 5        33.299
E25         6.000    23336119.516 7 122632177.13807      -897.003 7        46.102                                                                    23336123.807 7  91576104.50807      -669.907 7        45.594    23336121.005 6  93964942.21206      -687.428 6        36.393
G31         7.000    23502675.226 7 123507359.69207      2229.663 7        47.279                                    23502677.207 6  96239522.92506      1737.387 6        39.510    23502677.901 7  96239561.93707      1737.369 7        42.322
G28         8.000    21887444.412 4 115019647.75004       954.619 4        26.084                                    21887454.919 1  89625428.70801       743.847 1         7.375    21887446.686 6  89625443.75206       743.723 6        36.420
G29         9.000    21022319.046 6 110473078.58706       890.554 6        41.712                                    21022315.297 7  86082916.59207       693.944 7        42.042    21022316.708 7  86082868.57507       693.981 7        43.797
E11        10.000    24841349.884 6 130542286.69206      1082.931 6        38.411                                                                    24841345.785 6  97482780.28206       808.824 6        37.372    24841340.798 5 100025835.76105       829.945 5        30.521
E10        11.000    24906042.737 5 130882220.95005      -438.378 5        35.238                                                                    24906044.456 4  97736724.19704      -327.619 4        29.517    24906036.872 5 100286339.36605      -336.120 5        35.543
E12        13.000    25917973.749 6 136199880.49906     -1801.131 6        39.051                                                                    25917976.623 6 101707754.34206     -1344.905 6        39.390    25917975.891 6 104360991.42606     -1380.012 6        40.827
G12        15.000    21884569.010 6 115004179.33906     -3350.926 6        36.408                                    21884579.907 2  89613638.37602     -2611.091 2        12.667    21884594.569 4                     -2611.091 4        28.787
E24        16.000    26060283.449 5 136947730.33505     -2934.812 5        35.710                                                                    26060285.800 5 102266231.43705     -2191.355 5        31.494    26060285.701 6 104934058.01106     -2248.775 6        38.207
E07        18.000                                                                                                                                    28413630.509 5 111501265.95705       519.866 5        30.257    28413670.527 4 114410081.69804       533.060 4        26.383
E08        20.000    26615675.957 6 139866212.89206     -1647.213 6        40.381                                                                    26615682.050 5 104445666.39205     -1229.886 5        34.710    26615671.946 3 107170310.03803     -1262.291 3        23.486
E02        21.000    25390538.430 6 133428366.54506      1184.528 6        40.262                                                                    25390543.715 6  99637973.93506       884.459 6        40.803    25390542.944 7 102237204.33607       907.520 7        43.568
