     3.04           OBSERVATION DATA    M                   RINEX VERSION / TYPE
ssrcrin-15.6.1x                         20250102 231500 UTC PGM / RUN BY / DATE 
(00000000023479385599111004) Septentrio proprietary         COMMENT             
ract                                                        MARKER NAME         
01                                                          MARKER NUMBER       
geodetic                                                    MARKER TYPE         
NFB                 CLIMERS@TUW                             OBSERVER / AGENCY   
3296359             SEPT ASTERX SB3 PROB4.14.4              REC # / TYPE / VERS 
Unknown             Unknown                                 ANT # / TYPE        
  4127445.4619  1206914.7077  4695542.3240                  APPROX POSITION XYZ 
        0.0000        0.0000        0.0000                  ANTENNA: DELTA H/E/N
G   23 X1  C1C L1C D1C S1C C1W S1W C2W L2W D2W S2W C2L L2L  SYS / # / OBS TYPES 
       D2L S2L C5Q L5Q D5Q S5Q C1L L1L D1L S1L              SYS / # / OBS TYPES 
E   21 X1  C1C L1C D1C S1C C6C L6C D6C S6C C5Q L5Q D5Q S5Q  SYS / # / OBS TYPES 
       C7Q L7Q D7Q S7Q C8Q L8Q D8Q S8Q                      SYS / # / OBS TYPES 
S    9 X1  C1C L1C D1C S1C C5I L5I D5I S5I                  SYS / # / OBS TYPES 
R   17 X1  C1C L1C D1C S1C C2P L2P D2P S2P C2C L2C D2C S2C  SYS / # / OBS TYPES 
       C3Q L3Q D3Q S3Q                                      SYS / # / OBS TYPES 
C   25 X1  C1P L1P D1P S1P C5P L5P D5P S5P C2I L2I D2I S2I  SYS / # / OBS TYPES 
       C7I L7I D7I S7I C6I L6I D6I S6I C7D L7D D7D S7D      SYS / # / OBS TYPES 
J   17 X1  C1C L1C D1C S1C C2L L2L D2L S2L C5Q L5Q D5Q S5Q  SYS / # / OBS TYPES 
       C1L L1L D1L S1L                                      SYS / # / OBS TYPES 
I    5 X1  C5A L5A D5A S5A                                  SYS / # / OBS TYPES 
SEPTENTRIO RECEIVERS OUTPUT ALIGNED CARRIER PHASES.         COMMENT             
NO FURTHER PHASE SHIFT APPLIED IN THE RINEX ENCODER.        COMMENT             
G L1C                                                       SYS / PHASE SHIFT   
G L2W                                                       SYS / PHASE SHIFT   
G L2L  0.00000                                              SYS / PHASE SHIFT   
G L5Q  0.00000                                              SYS / PHASE SHIFT   
G L1L  0.00000                                              SYS / PHASE SHIFT   
E L1C  0.00000                                              SYS / PHASE SHIFT   
E L6C  0.00000                                              SYS / PHASE SHIFT   
E L5Q  0.00000                                              SYS / PHASE SHIFT   
E L7Q  0.00000                                              SYS / PHASE SHIFT   
E L8Q  0.00000                                              SYS / PHASE SHIFT   
S L1C                                                       SYS / PHASE SHIFT   
S L5I                                                       SYS / PHASE SHIFT   
R L1C                                                       SYS / PHASE SHIFT   
R L2P  0.00000                                              SYS / PHASE SHIFT   
R L2C                                                       SYS / PHASE SHIFT   
R L3Q  0.00000                                              SYS / PHASE SHIFT   
C L1P  0.00000                                              SYS / PHASE SHIFT   
C L5P  0.00000                                              SYS / PHASE SHIFT   
C L2I                                                       SYS / PHASE SHIFT   
C L7I                                                       SYS / PHASE SHIFT   
C L6I                                                       SYS / PHASE SHIFT   
C L7D                                                       SYS / PHASE SHIFT   
J L1C                                                       SYS / PHASE SHIFT   
J L2L  0.00000                                              SYS / PHASE SHIFT   
J L5Q  0.00000                                              SYS / PHASE SHIFT   
J L1L  0.00000                                              SYS / PHASE SHIFT   
I L5A                                                       SYS / PHASE SHIFT   
  2025     1     2    23    15    0.0000000     GPS         TIME OF FIRST OBS   
 C1C    0.000 C2C    0.000 C2P    0.000                     GLONASS COD/PHS/BIS 
DBHZ                                                        SIGNAL STRENGTH UNIT
    18                                                      LEAP SECONDS        
 24 R01  1 R02 -4 R03  5 R04  6 R05  1 R06 -4 R07  5 R08  6 GLONASS SLOT / FRQ #
    R09 -2 R10 -7 R11  0 R12 -1 R13 -2 R14 -7 R15  0 R16 -1 GLONASS SLOT / FRQ #
    R17  4 R18 -3 R19  3 R20  2 R21  4 R22 -3 R23  3 R24  2 GLONASS SLOT / FRQ #
                                                            END OF HEADER       
> 2025 01 02 23 15  0.0000000  0 33
G03         2.000    22135848.805 5 116324639.15205      2044.285 5        30.687                                    22135850.032 2  90642611.03502      1592.945 2        17.698    22135847.326 5  90642595.10005      1591.814 5        31.932
G32         3.000    21994249.732 7 115580673.97507     -1872.403 7        45.428                                    21994246.603 6  90062909.84106     -1459.021 6        37.667    21994245.811 5  90062766.89405     -1459.108 5        35.500
G21         4.000    20651074.537 7 108522180.17207     -1288.053 7        43.035                                    20651068.638 5  84562705.16505     -1003.676 5        30.634
G08         5.000    22135819.787 6 116324543.42006     -3941.892 6        38.667                                    22135816.413 4  90642455.03304     -3071.616 4        26.766    22135820.769 6  90642478.09706     -3071.741 6        36.575
G02         6.000    20968530.163 8 110190354.98908       212.131 8        50.001                                    20968520.706 5  85862591.17405       165.292 5        34.848
G14         7.000    24005961.053 6 126152286.83406     -1816.494 6        38.538                                    24005956.544 1  98300374.06801     -1415.452 1         9.143    24005959.646 5  98300464.06205     -1415.410 5        33.150
E03         9.000    24329031.385 6 127849935.89906       494.225 6        37.958                                                                    24329033.296 7  95472403.97607       368.900 7        43.088    24329030.174 6  97962959.58906       378.642 6        41.056
G17        10.000                                                                                                                                                                    24386600.778 4                      1718.336 4        28.607
E05        11.000    24202878.784 5 127187135.14405     -2314.418 5        35.633                                                                    24202876.302 5  94977275.98705     -1728.212 5        34.867    24202876.559 6  97455054.10506     -1773.461 6        41.042
E13        12.000    25250715.806 6 132693488.71106      1194.522 6        37.845                                                                    25250716.234 7  99089243.33007       891.939 7        43.509    25250717.099 6 101674156.53606       915.088 6        38.700
G27        13.000    24763649.809 5                     -4737.809 5        30.340                                                                                                    24763650.720 3                     -3690.826 3        23.810
E27        14.000                                                                                                                                    27780387.242 4 109016226.13704     -2721.322 4        29.194
E21        15.000    27040758.550 6 142100162.25506     -2047.846 6        38.363                                                                    27040756.018 6 106113842.97106     -1529.580 6        40.095    27040765.069 6 108881968.47906     -1569.419 6        36.548
E15        16.000    23333717.291 7 122619615.91407      -979.773 7        46.915                                                                    23333717.650 8  91566522.79208      -731.695 8        50.904    23333716.339 8  93955230.28108      -750.801 8        49.338
S23        17.000    38163709.890 6 200551706.68406      -852.844 6        41.509
E08        19.000    26733017.844 5                      2309.848 5        30.709                                                                    26733016.707 6 104906127.21106      1724.828 6        40.002    26733017.010 6 107642820.69106      1769.748 6        40.927
R06        25.000    19353672.955 5 103274893.71305     -1680.999 5        32.886
R07        27.000    20326788.947 7 108810913.74307      2137.668 7        46.337                                                                    20326786.309 7  84630662.84707      1662.689 7        42.622
R05        28.000    23458300.241 4                     -5103.417 4        28.986
C41        29.000                                                                                                                                    23969546.140 6 124815697.26906      1984.927 6        40.944                                                                    23969550.559 6 101422996.68506      1612.696 6        40.365
E34        32.000    25864215.471 6 135917371.40506     -2984.101 6        40.532                                                                    25864216.911 6 101496769.53606     -2228.434 6        37.112    25864212.613 5 104144471.81005     -2286.775 5        32.689
R23        33.000    23453696.220 6 125461447.89006      3076.558 6        40.238
R22        35.000    19874028.801 7 106088907.67407      1271.499 7        45.472                                                                    19874026.437 6  82513622.57406       988.862 6        40.620
C33        37.000                                                                                                                                    21872089.889 8 113893731.96308      -595.093 8        49.069                                                                    21872098.837 7  92547993.16507      -483.563 7        46.536
R21        39.000    19889507.999 6 106432852.70406     -2743.337 6        41.070                                                                    19889512.062 6  82781050.24006     -2133.767 6        37.728
C27        41.000                                                                                                                                    23358904.757 8 121636154.85808      1587.333 8        50.573                                                                    23358901.468 7  98839193.77007      1289.931 7        42.641
C14        42.000                                                                                                                                    22403280.953 7 116659791.22507     -2275.993 7        47.525    22403276.642 7  90208688.55407     -1759.855 7        45.050    22403275.054 7  94795608.48107     -1849.315 7        43.534
C43        48.000                                                                                                                                    24402404.129 4                     -3886.775 4        28.303                                                                    24402400.402 5 103254557.62605     -3158.524 5        34.843
C42        50.000                                                                                                                                    24167159.120 5                     -3504.755 5        32.371                                                                    24167155.359 5 102259130.15005     -2847.544 5        35.176
I01        53.000   416690059.067 6 332040527.14006     -2626.259 6        40.493
C28        55.000                                                                                                                                    21479387.272 7 111848769.74307      -842.316 7        45.521                                                                    21479383.593 7  90886290.35607      -684.434 7        46.699
I09        56.000    37204741.212 7 145999391.00807      -460.763 7        43.219
I06        58.000    38357588.191 5 150523411.77105      -531.721 5        32.641
> 2025 01 02 23 15  5.0000000  0 36
G10         1.000                                                                                                                                                                    23773230.816 4                     -3013.222 4        25.398
G03         2.000    22133904.356 5 116314425.69705      2041.452 5        33.060                                    22133905.775 3  90634652.49203      1590.769 3        19.403    22133906.713 5  90634636.42405      1590.832 5        33.120
G32         3.000    21996033.141 8 115590042.67108     -1875.688 8        48.493                                    21996029.198 6  90070210.14306     -1461.575 6        36.457    21996029.089 6  90070067.12906     -1461.470 6        39.012
G21         4.000    20652301.376 7 108528625.30907     -1290.058 7        42.373                                    20652295.396 5  84567727.35005     -1005.242 5        30.611
G08         5.000    22139571.750 6 116344257.82806     -3943.752 6        39.225                                    22139569.728 4  90657816.92604     -3073.075 4        28.275    22139571.975 6  90657839.97706     -3073.159 6        37.660
G02         6.000    20968328.697 8 110189298.60308       210.055 8        48.617                                    20968319.680 5  85861768.01505       163.678 5        35.476
G14         7.000    24007692.953 6 126161374.88006     -1819.249 6        36.635                                    24007686.378 1  98307455.68701     -1417.611 1         7.500    24007688.542 5  98307545.69305     -1417.645 5        33.234
E03         9.000    24328566.910 6 127847470.71406       491.918 6        36.722                                                                    24328562.425 6  95470563.11106       367.162 6        40.701    24328563.925 7  97961070.75607       376.718 7        43.860
G17        10.000    24384535.695 4                      2203.950 4        29.137                                                                                                    24384504.987 4                      1717.927 4        28.806
E05        11.000    24205080.479 5 127198713.12705     -2316.725 5        33.275                                                                    24205082.370 6  94985921.96806     -1730.103 6        40.095    24205078.957 6  97463925.65106     -1775.312 6        38.706
E13        12.000    25249578.896 6 132687518.04906      1193.798 6        40.903                                                                    25249578.811 6  99084784.74206       891.275 6        41.583    25249576.378 6 101669581.52606       914.628 6        37.773
G27        13.000    24768160.496 4                     -4738.192 4        28.123                                                                                                    24768161.773 4                     -3693.120 4        24.105
E27        14.000    27783861.803 3                     -3645.713 3        22.019                                                                    27783851.289 4 109029834.85204     -2721.903 4        26.251
E21        15.000    27042707.698 6 142110409.28506     -2050.423 6        37.524                                                                    27042703.873 6 106121494.95706     -1531.438 6        38.778    27042711.311 6 108889820.14506     -1571.281 6        36.125
E15        16.000    23334650.221 7 122624518.16807      -981.278 7        47.345                                                                    23334650.573 8  91570183.55608      -732.847 8        51.469    23334649.240 8  93958986.53608      -751.952 8        49.604
S23        17.000    38164525.184 6 200555971.48806      -853.282 6        40.648
E08        19.000    26730822.174 4                      2308.992 4        25.158                                                                    26730819.236 6 104897504.45506      1724.165 6        41.661    26730819.743 6 107633972.99606      1769.113 6        40.603
R06        25.000    19355248.748 5 103283308.72705     -1685.093 5        33.808
R13        26.000    23855249.303 4                     -3088.343 4        26.575
R07        27.000    20324793.256 8 108800232.57708      2134.514 8        49.142                                                                    20324791.576 7  84622355.27707      1660.149 7        44.670
R05        28.000    23463072.741 4                     -5103.702 4        25.098
C41        29.000                                                                                                                                    23967641.333 6 124805776.66606      1983.562 6        38.225                                                                    23967639.988 6 101414935.43306      1611.453 6        36.113
E34        32.000    25867054.171 6 135932292.83206     -2984.770 6        40.033                                                                    25867052.771 5 101507912.11605     -2228.652 5        33.671    25867052.330 5 104155905.15405     -2286.869 5        35.219
R23        33.000    23450827.785 6 125446064.13606      3076.438 6        40.293
R22        35.000    19872838.971 7 106082556.50007      1268.810 7        47.443                                                                    19872836.954 6  82508682.80706       986.760 6        41.447
C33        37.000                                                                                                                                    21872661.876 8 113896714.14308      -597.944 8        50.032                                                                    21872671.672 7  92550416.44307      -486.001 7        46.617
R21        39.000    19892074.408 6 106446576.13006     -2746.736 6        38.399                                                                    19892075.857 6  82791724.07006     -2136.067 6        36.193
C27        41.000                                                                                                                                    23357380.272 8 121628221.43508      1585.737 8        49.821                                                                    23357378.121 7  98832747.21607      1288.565 7        43.537
C14        42.000                                                                                                                                    22405466.145 7 116671176.41707     -2278.359 7        46.571    22405462.040 7  90217492.32907     -1761.773 7        47.904    22405461.106 7  94804859.88407     -1851.436 7        42.827
C39        45.000                                                                                                                                    39654805.461 3                       387.818 3        18.567
C43        48.000                                                                                                                                    24406146.729 4                     -3888.020 4        27.892                                                                    24406134.764 5 103270352.76705     -3159.688 5        33.024
C42        50.000                                                                                                                                    24170528.313 6                     -3505.566 6        36.268                                                                    24170521.938 6 102273370.83006     -2848.767 6        38.057
I01        53.000   416693404.908 7 332053659.21807     -2626.708 7        43.219
C28        55.000                                                                                                                                    21480197.151 7 111852987.53407      -844.976 7        44.486                                                                    21480193.831 7  90889717.66207      -686.636 7        46.723
I09        56.000    37205328.656 7 146001695.96507      -461.393 7        43.577
I06        58.000    38358265.361 6 150526069.95006      -531.987 6        36.601
> 2025 01 02 23 15 10.0000000  0 33
G10         1.000    23776948.372 4 124948738.88014     -3871.693 4        25.789                                                                                                    23776910.675 4                     -3013.284 4        25.414
G03         2.000    22131963.415 4 116304219.64504      2040.401 4        29.327                                    22131962.667 2  90626699.70602      1589.874 2        14.714
G32         3.000    21997817.698 8 115599426.50308     -1878.182 8        48.654                                    21997815.392 6  90077522.21406     -1463.530 6        37.588    21997816.797 6  90077379.25806     -1463.629 6        40.341
G21         4.000    20653529.313 7 108535079.57007     -1291.517 7        42.889                                    20653523.804 5  84572756.64205     -1006.366 5        31.132
G08         5.000    22143323.083 6 116363980.82006     -3945.118 6        38.898                                    22143323.870 4  90673185.50104     -3074.119 4        28.739    22143323.742 6  90673208.57406     -3074.485 6        37.890
G02         6.000    20968128.811 8 110188250.64508       208.853 8        49.836                                    20968120.107 5  85860951.43405       162.732 5        35.395
G14         7.000    24009426.647 5 126170476.85505     -1822.021 5        33.413                                    24009418.399 1  98314548.16001     -1419.794 1         8.762    24009421.462 5  98314638.14905     -1419.662 5        33.910
E03         9.000    24328099.121 6 127845016.84106       489.931 6        37.679                                                                    24328096.296 6  95468730.63306       365.803 6        39.784    24328095.981 7  97959190.46307       375.257 7        42.772
G17        10.000                                                                                                                                                                    24382409.509 3                      1719.288 3        22.781
E05        11.000    24207285.445 5 127210301.66005     -2318.280 5        35.000                                                                    24207286.846 6  94994575.69306     -1731.443 6        39.706    24207284.260 6  97472805.11406     -1776.617 6        39.673
E13        12.000    25248443.879 6 132681549.96306      1193.465 6        38.532                                                                    25248443.124 7  99080328.04007       891.262 7        42.415    25248442.388 6 101665008.61606       914.625 6        38.015
G27        13.000    24772671.545 3                     -4740.477 3        20.048
E27        14.000                                                                                                                                                                                                    27787328.105 5 111888068.85515     -2793.233 5        30.377
E21        15.000    27044661.262 6 142120667.01806     -2052.626 6        38.841                                                                    27044656.760 6 106129154.94406     -1532.616 6        38.444    27044661.815 5 108897679.97005     -1572.684 5        34.371
E15        16.000    23335584.149 8 122629426.63108      -982.253 8        48.526                                                                    23335584.561 8  91573848.95408      -733.478 8        51.111    23335583.290 8  93962747.56208      -752.583 8        49.887
S23        17.000    38165332.030 6 200560236.42706      -853.079 6        40.188
E08        19.000                                                                                                                                    26728622.609 6 104888883.80206      1724.000 6        40.484    26728621.184 6 107625127.46306      1769.089 6        38.601
R06        25.000    19356829.900 5 103291744.13805     -1688.998 5        34.457
R07        27.000    20322800.917 8 108789567.18908      2131.642 8        49.527                                                                    20322798.441 7  84614059.96707      1657.946 7        43.975
R05        28.000    23467843.618 4                     -5105.054 4        25.053                                                                    23467878.602 3                     -3969.605 3        20.381
C41        29.000                                                                                                                                    23965733.823 7 124795863.33007      1982.095 7        42.091                                                                    23965738.341 6 101406880.03406      1610.461 6        38.276
E34        32.000    25869893.624 6 135947218.18306     -2985.296 6        39.099                                                                    25869892.014 5 101519057.68505     -2229.312 5        32.593    25869893.760 6 104167341.39806     -2287.260 6        38.423
R22        35.000    19871650.676 7 106076217.28207      1266.819 7        47.201                                                                    19871649.494 6  82503752.32706       985.182 6        40.715
C33        37.000                                                                                                                                    21873237.242 8 113899709.11708      -600.147 8        49.155                                                                    21873246.922 7  92552850.13007      -487.726 7        46.141
R21        39.000    19894638.220 5 106460314.86805     -2749.383 5        35.400                                                                    19894643.632 6  82802409.68306     -2138.056 6        37.478
C27        41.000                                                                                                                                    23355858.263 8 121620294.74608      1584.796 8        51.135                                                                    23355856.187 7  98826306.16807      1287.641 7        43.710
C14        42.000                                                                                                                                    22407653.099 7 116682572.48007     -2280.168 7        45.875    22407652.450 8  90226304.46608     -1763.196 8        49.514    22407649.333 7  94814120.09907     -1852.945 7        44.125
C43        48.000                                                                                                                                    24409882.019 4                     -3889.006 4        26.335                                                                    24409868.790 6 103286152.35906     -3160.530 6        38.147
C42        50.000                                                                                                                                    24173893.230 5 125879797.46215     -3507.232 5        34.057                                                                    24173887.924 6 102287616.44906     -2849.548 6        38.411
I01        53.000   416696752.010 7 332066792.53407     -2626.634 7        43.014
C28        55.000                                                                                                                                    21481010.176 7 111857217.28707      -847.112 7        45.980                                                                    21481006.067 7  90893154.71607      -688.342 7        47.100
I09        56.000    37205916.371 7 146004002.17907      -461.217 7        43.655
I06        58.000    38358944.856 5 150528727.99105      -532.086 5        32.928
> 2025 01 02 23 15 15.0000000  0 34
G10         1.000    23780626.885 4                     -3867.236 4        27.641                                                                                                    23780588.598 4                     -3014.181 4        24.962
G03         2.000                                                                                                                                                                    22130016.798 5  90618736.64305      1589.208 5        30.475
G32         3.000    21999606.470 7 115608825.31307     -1881.135 7        47.071                                    21999603.840 6  90084845.97306     -1465.825 6        37.883    21999603.046 6  90084702.96506     -1465.947 6        36.907
G21         4.000    20654759.521 7 108541542.79807     -1293.400 7        43.854                                    20654754.055 5  84577792.92405     -1007.839 5        31.955
G08         5.000    22147079.109 5 116383712.29705     -3946.743 5        30.392                                    22147079.362 4  90688560.70904     -3075.403 4        25.970    22147078.562 5  90688583.72905     -3075.680 5        34.276
G02         6.000    20967931.789 8 110187210.95708       207.144 8        49.269                                    20967921.987 5  85860141.29805       161.407 5        35.381
G14         7.000    24011156.075 5 126179592.47605     -1824.247 5        34.224                                    24011153.017 1  98321651.21101     -1421.491 1         7.125    24011158.133 5  98321741.24805     -1421.315 5        33.311
E03         9.000    24327630.001 5 127842573.81205       487.738 5        32.497                                                                    24327632.175 6  95466906.41406       364.108 6        41.692    24327630.822 7  97957318.60407       373.593 7        42.281
G17        10.000    24380356.481 4                      2202.491 4        29.592                                                                                                    24380308.732 3                      1715.046 3        21.119
E05        11.000    24209493.138 5 127221900.45705     -2320.604 5        35.481                                                                    24209493.215 6  95003237.12806     -1732.893 6        39.249    24209491.134 6  97481692.50106     -1778.230 6        38.231
E13        12.000    25247309.278 6 132675584.29906      1193.077 6        36.450                                                                    25247309.124 7  99075873.18407       890.875 7        43.003    25247308.448 6 101660437.56506       914.073 6        36.684
G27        13.000    24777175.247 3                     -4739.506 3        20.452                                                                                                    24777178.000 3                     -3692.041 3        22.781
E27        14.000    27790804.248 3                     -3646.791 3        22.667                                                                    27790798.076 5 109057056.95505     -2722.396 5        30.166    27790795.090 4 111902035.67004     -2793.361 4        29.801
E21        15.000    27046615.444 6 142130935.32506     -2054.473 6        38.856                                                                    27046612.136 6 106136822.83606     -1534.282 6        38.000    27046616.572 5 108905547.86705     -1574.362 5        35.795
E15        16.000    23336519.318 8 122634341.17208      -983.417 8        48.348                                                                    23336519.576 8  91577518.89508      -734.394 8        51.278    23336518.510 8  93966513.24408      -753.526 8        49.934
S23        17.000    38166147.390 6 200564501.23106      -852.779 6        38.279
E08        19.000    26726436.796 5 140448382.50615      2308.208 5        34.329                                                                    26726426.137 6 104880265.22506      1723.554 6        40.486    26726424.204 6 107616284.05906      1768.561 6        37.043
R06        25.000    19358414.218 5 103300199.75605     -1693.061 5        34.724
R07        27.000    20320810.751 7 108778916.91107      2128.667 7        47.112                                                                    20320808.536 7  84605776.43907      1655.686 7        42.974
R05        28.000    23472628.044 4                     -5105.825 4        25.850                                                                    23472642.441 3                     -3971.695 3        22.971
C41        29.000                                                                                                                                    23963833.127 6 124785957.04906      1980.877 6        38.736                                                                    23963840.127 6 101398830.37006      1609.416 6        41.671
E34        32.000    25872734.418 6 135962147.23406     -2986.156 6        39.117                                                                    25872732.631 5 101530206.04205     -2230.150 5        33.323    25872733.837 6 104178780.63906     -2288.012 6        36.817
R23        33.000    23445060.933 5 125415297.70705      3077.139 5        34.538
R22        35.000    19870465.598 7 106069889.93107      1264.409 7        46.592                                                                    19870464.981 7  82498831.02407       983.460 7        43.473
C33        37.000                                                                                                                                    21873814.259 8 113902716.81608      -602.719 8        48.951                                                                    21873824.332 7  92555294.11507      -489.761 7        46.595
R21        39.000    19897209.262 6 106474068.61606     -2752.255 6        37.928                                                                    19897212.692 6  82813107.08606     -2140.575 6        37.293
C27        41.000                                                                                                                                    23354337.932 8 121612374.77308      1583.433 8        50.159                                                                    23354335.040 7  98819870.54307      1286.581 7        44.175
C14        42.000                                                                                                                                    22409843.960 7 116693979.28607     -2282.452 7        45.208    22409843.100 8  90235124.95308     -1764.894 8        49.084    22409840.365 7  94823389.04607     -1854.675 7        44.649
C43        48.000                                                                                                                                                                                                                                                                    24413603.593 6 103301956.12006     -3161.260 6        36.518
C42        50.000                                                                                                                                    24177263.780 5 125897334.85605     -3508.206 5        32.988                                                                    24177256.615 6 102301866.98706     -2850.535 6        38.291
I01        53.000   416700098.709 7 332079927.02407     -2626.917 7        43.297
C28        55.000                                                                                                                                    21481824.653 7 111861458.94607      -849.432 7        47.480                                                                    21481820.542 7  90896601.40307      -690.310 7        47.458
I09        56.000    37206504.241 7 146006309.59807      -461.528 7        43.204
I06        58.000    38359620.176 4 150531386.01304      -531.363 4        29.754
> 2025 01 02 23 15 20.0000000  0 35
G10         1.000    23784295.624 4                     -3866.721 4        29.554                                                                                                    23784264.441 4                     -3012.994 4        25.368
G03         2.000    22128106.104 5 116283981.29815      2037.678 5        32.760                                                                                                    22128084.161 5  90610795.41105      1587.479 5        34.629
G32         3.000    22001396.505 7 115618239.10607     -1884.000 7        45.002                                    22001394.818 6  90092181.39706     -1468.058 6        36.382    22001395.263 6  90092038.40406     -1468.009 6        38.345
G21         4.000    20655991.008 7 108548015.02907     -1295.193 7        44.652                                    20655985.893 5  84582836.20405     -1009.244 5        32.389
G08         5.000                                                                                                                                                                    22150836.867 5  90703965.36605     -3077.017 5        35.552
G02         6.000    20967735.464 8 110186179.54508       205.619 8        51.016                                    20967725.535 6  85859337.60906       160.221 6        36.083
G14         7.000    24012896.834 6 126188721.97306     -1826.921 6        37.584                                    24012890.412 1  98328765.15101     -1423.594 1         8.762    24012893.686 5  98328855.11605     -1423.398 5        35.414
E03         9.000    24327165.621 6 127840142.12706       485.552 6        36.042                                                                    24327168.870 7  95465090.42707       362.371 7        42.802    24327168.529 7  97955455.22707       371.933 7        44.963
G17        10.000                                                                                                                                                                    24378215.641 4                      1715.415 4        25.609
E05        11.000    24211702.614 5 127233509.48505     -2322.857 5        35.057                                                                    24211702.096 6  95011906.25706     -1734.369 6        39.240    24211700.619 6  97490587.71306     -1779.586 6        40.343
E13        12.000    25246176.025 6 132669621.14006      1192.580 6        39.880                                                                    25246174.992 7  99071420.16907       890.499 7        43.335    25246173.493 5 101655868.36305       913.636 5        35.286
G27        13.000                                                                                                                                                                    24781686.768 3                     -3692.014 3        19.910
E27        14.000                                                                                                                                                                                                    27794257.894 4 111916003.90804     -2793.568 4        29.725
E21        15.000    27048571.723 6 142141214.23106     -2056.522 6        36.756                                                                    27048569.218 6 106144498.59406     -1535.644 6        37.206    27048574.320 6 108913423.90306     -1575.840 6        37.716
E15        16.000    23337455.618 7 122639261.76407      -984.533 7        47.503                                                                    23337455.958 8  91581193.37208      -735.220 8        50.736    23337454.803 8  93970283.57708      -754.440 8        50.120
S23        17.000    38166960.420 6 200568766.05806      -852.748 6        40.200
E08        19.000    26724237.235 5 140436843.79005      2307.669 5        35.019                                                                    26724230.891 6 104871648.68306      1723.292 6        40.770    26724227.631 5 107607442.75705      1768.333 5        35.219
R14        24.000    23958966.815 3                       220.402 3        20.524
R06        25.000    19360002.612 5 103308675.48805     -1697.062 5        33.263
R07        27.000    20318821.904 7 108768282.32107      2125.665 7        45.135                                                                    20318821.173 7  84597505.09907      1653.133 7        42.148
R05        28.000                                                                                                                                    23477428.356 3                     -3971.478 3        21.976
C41        29.000                                                                                                                                    23961932.897 6 124776057.97306      1979.209 6        37.100                                                                    23961939.949 7 101390786.47107      1608.244 7        43.471
E34        32.000    25875576.859 6 135977079.96206     -2986.643 6        40.501                                                                    25875572.595 5 101541357.04105     -2230.025 5        30.060    25875573.799 6 104190222.55206     -2288.392 6        37.085
R23        33.000    23442181.658 5 125399914.75605      3076.906 5        35.024
R22        35.000    19869282.617 8 106063574.36808      1262.078 8        48.017                                                                    19869280.835 6  82493918.90106       981.741 6        41.969
C33        37.000                                                                                                                                    21874392.992 7 113905737.15907      -605.148 7        47.969                                                                    21874404.806 7  92557748.37307      -491.741 7        46.624
R21        39.000    19899784.081 7 106487837.37707     -2755.109 7        43.397                                                                    19899786.367 5  82823816.04605     -2142.639 5        33.880
C27        41.000                                                                                                                                    23352817.697 8 121604461.45208      1582.152 8        48.809                                                                    23352815.438 7  98813440.30607      1285.581 7        43.636
C14        42.000                                                                                                                                    22412036.635 7 116705396.80707     -2284.448 7        46.276    22412035.846 8  90243953.68008     -1766.432 8        49.007    22412032.677 7  94832666.73007     -1856.331 7        44.244
C43        48.000                                                                                                                                    24417345.904 6                     -3891.331 6        36.919                                                                    24417338.167 6 103317764.08506     -3161.814 6        37.338
C42        50.000                                                                                                                                    24180632.586 5 125914878.30005     -3509.012 5        32.545                                                                    24180624.842 6 102316122.27706     -2851.383 6        36.873
I01        53.000   416703446.406 7 332093062.66207     -2627.140 7        43.192
C28        55.000                                                                                                                                    21482641.548 7 111865712.48007      -851.772 7        47.193                                                                    21482637.427 7  90900057.73507      -692.072 7        47.016
I09        56.000    37207091.794 7 146008618.14407      -461.680 7        42.332
I06        58.000    38360304.478 5 150534044.07105      -531.537 5        32.916
> 2025 01 02 23 15 25.0000000  0 35
G10         1.000    23787966.168 4                     -3867.629 4        26.311                                                                                                    23787947.341 4                     -3013.902 4        24.150
G03         2.000                                                                                                                                                                    22126142.980 5  90602859.72105      1586.978 5        33.329
G32         3.000    22003190.554 7 115627667.54207     -1886.939 7        44.530                                    22003188.757 5  90099528.24105     -1470.321 5        35.171    22003189.551 6  90099385.21406     -1470.336 6        36.457
G21         4.000    20657224.516 7 108554495.92907     -1296.889 7        44.054                                    20657219.292 5  84587886.25605     -1010.563 5        32.174
G08         5.000                                                                                                                                                                    22154592.637 6  90719353.23306     -3078.108 6        36.488
G02         6.000    20967540.900 8 110185156.05608       204.106 8        50.238                                    20967530.988 5  85858540.08205       159.035 5        35.967
G14         7.000                                                                                                                                                                    24014633.196 5  98335979.42705     -1425.709 5        33.922
E03         9.000    24326715.285 5 127837720.88805       483.512 5        33.892                                                                    24326708.495 7  95463282.37707       360.964 7        43.354    24326708.259 7  97953600.04907       370.412 7        44.444
G17        10.000                                                                                                                                                                    24376126.213 4                      1714.593 4        27.796
E05        11.000    24213912.448 6 127245128.45206     -2324.724 6        36.794                                                                    24213914.012 6  95020582.75306     -1735.926 6        37.883    24213912.122 6  97499490.55906     -1781.210 6        39.330
E13        12.000    25245042.516 6 132663660.01206      1192.074 6        40.482                                                                    25245039.478 7  99066968.67807       890.241 7        42.445    25245037.724 5 101651300.73205       913.546 5        34.762
G27        13.000    24786196.898 3                     -4741.036 3        20.905                                                                                                    24786199.172 3                     -3693.316 3        18.239
E27        14.000                                                                                                                                    27797736.521 4                     -2722.545 4        28.834    27797726.123 5 111929973.40905     -2793.902 5        30.951
E21        15.000    27050526.609 6 142151503.19306     -2058.396 6        36.098                                                                    27050527.973 6 106152182.04006     -1537.411 6        38.210    27050530.184 6 108921307.73606     -1577.303 6        37.425
E15        16.000    23338393.266 7 122644188.08007      -985.745 7        47.265                                                                    23338393.368 8  91584872.12508      -736.028 8        50.746    23338392.502 8  93974058.29708      -755.241 8        49.878
S23        17.000    38167765.607 6 200573030.54906      -852.746 6        41.788
E08        19.000    26722041.146 5 140425307.46305      2307.210 5        35.057                                                                    26722036.299 6 104863033.94106      1723.082 6        41.249    26722033.072 5 107598603.26205      1767.926 5        35.295
R14        24.000    23958762.708 4                       218.132 4        25.594
R06        25.000    19361595.751 6 103317171.12206     -1700.902 6        38.054
R13        26.000    23866809.109 3                     -3101.999 3        23.029
R07        27.000    20316837.448 7 108757662.52307      2122.601 7        45.568                                                                    20316837.750 6  84589245.23106      1651.000 6        41.561
C41        29.000                                                                                                                                    23960038.168 5 124766165.60605      1977.918 5        33.353                                                                    23960037.825 7 101382748.06207      1607.242 7        43.187
E34        32.000    25878418.673 6 135992016.09406     -2987.385 6        36.779                                                                    25878411.021 4 101552510.63504     -2230.399 4        27.174    25878418.131 5 104201667.13905     -2289.027 5        35.671
R23        33.000    23439307.016 6 125384531.77406      3076.768 6        36.287
R22        35.000    19868102.247 8 106057270.26208      1259.807 8        49.744                                                                    19868099.508 7  82489015.72507       979.944 7        42.413
C33        37.000                                                                                                                                    21874975.057 7 113908769.82207      -607.531 7        45.991                                                                    21874987.390 7  92560212.67307      -493.669 7        46.455
R21        39.000    19902361.495 6 106501620.93206     -2757.914 6        41.089                                                                    19902361.660 5  82834536.58205     -2144.811 5        35.781
C27        41.000                                                                                                                                    23351299.336 8 121596554.44608      1580.926 8        49.847                                                                    23351296.999 7  98807015.22507      1284.637 7        44.485
C14        42.000                                                                                                                                    22414231.934 7 116716824.69207     -2286.383 7        45.383    22414230.722 8  90252790.45008     -1767.984 8        50.164    22414226.350 7  94841952.84207     -1857.964 7        43.983
C43        48.000                                                                                                                                    24421078.704 5 127166963.66315     -3892.069 5        34.467                                                                    24421076.216 5 103333575.97605     -3162.749 5        34.800
C42        50.000                                                                                                                                    24184002.015 5 125932427.16205     -3510.070 5        34.248                                                                    24183993.108 6 102330382.21906     -2852.480 6        36.076
I01        53.000   416706793.619 6 332106199.19506     -2627.244 6        41.783
C28        55.000                                                                                                                                    21483460.453 7 111869977.54407      -854.039 7        45.985                                                                    21483457.091 7  90903523.46507      -693.965 7        47.439
I09        56.000    37207680.853 6 146010927.53706      -461.797 6        41.981
I06        58.000    38360981.330 6 150536701.84906      -531.467 6        38.159
> 2025 01 02 23 15 30.0000000  0 36
G10         1.000    23791643.237 5                     -3868.362 5        31.630                                                                                                    23791633.474 4                     -3014.219 4        29.943
G03         2.000    22124211.299 5                      2034.805 5        33.868                                                                                                    22124209.131 6  90594929.26506      1585.849 6        36.771
G32         3.000    22004987.886 6 115637110.40506     -1889.744 6        41.135                                    22004985.388 5  90106886.32005     -1472.542 5        34.090    22004987.259 6  90106743.37906     -1472.672 6        36.412
G21         4.000    20658458.782 7 108560985.33007     -1298.440 7        43.791                                    20658454.327 5  84592942.94305     -1011.774 5        31.917
G08         5.000                                                                                                                                                                    22158348.367 5  90734747.31405     -3079.033 5        33.012
G02         6.000    20967347.322 8 110184140.44008       202.641 8        50.357                                    20967337.904 6  85857748.69106       157.898 6        36.023
G14         7.000                                                                                                                                                                    24016375.907 5  98343114.16205     -1427.719 5        32.431
E03         9.000    24326251.405 6 127835310.33506       481.186 6        36.654                                                                    24326249.350 7  95461482.26607       359.415 7        43.166    24326249.446 7  97951752.99307       368.779 7        44.635
G17        10.000    24374068.982 4                      2198.268 4        27.713
E05        11.000    24216126.715 5 127256757.20505     -2326.278 5        34.348                                                                    24216127.099 6  95029266.57306     -1737.350 6        38.318    24216124.324 6  97508400.94006     -1782.775 6        38.628
E13        12.000    25243906.440 6 132657700.89406      1191.874 6        39.979                                                                    25243905.060 6  99062518.74306       890.152 6        41.690
E27        14.000                                                                                                                                                                                                    27801197.299 4 111943943.97704     -2793.802 4        27.760
E21        15.000    27052485.661 5 142161802.43105     -2060.510 5        33.413                                                                    27052488.834 6 106159872.93906     -1538.650 6        37.607    27052486.695 5 108929199.26405     -1578.958 5        35.157
E15        16.000    23339331.934 7 122649120.01607      -986.698 7        47.763                                                                    23339331.732 8  91588555.07708      -736.813 8        51.012    23339331.100 8  93977837.32908      -756.024 8        50.020
S23        17.000    38168583.709 7 200577294.47507      -852.548 7        42.000
E08        19.000    26719845.486 5 140413773.47105      2307.170 5        33.359                                                                    26719840.924 6 104854420.94606      1722.695 6        41.232    26719837.881 5 107589765.55205      1767.495 5        35.100
R14        24.000    23958555.533 5 127712610.15715       214.125 5        35.838
R06        25.000    19363190.721 5 103325686.43205     -1704.773 5        34.681
R13        26.000    23869715.757 3                     -3102.757 3        19.940
R07        27.000    20314858.128 7 108747057.72807      2119.771 7        47.368                                                                    20314857.360 7  84580997.07907      1648.715 7        42.379
R05        28.000                                                                                                                                    23486998.183 3                     -3973.149 3        20.643
C41        29.000                                                                                                                                    23958137.678 4 124756279.79104      1976.289 4        28.341                                                                    23958137.557 6 101374715.00106      1606.585 6        40.791
E34        32.000    25881261.337 6 136006955.45806     -2987.903 6        38.195                                                                    25881255.907 4 101563666.69404     -2231.517 4        25.895    25881262.683 6 104213114.15506     -2289.391 6        36.662
R23        33.000    23436438.430 5 125369148.70305      3076.380 5        35.795
R22        35.000    19866923.968 8 106050977.59908      1257.732 8        49.366                                                                    19866921.725 7  82484121.46407       978.239 7        43.788
C33        37.000                                                                                                                                    21875561.990 7 113911814.72607      -609.966 7        44.470                                                                    21875572.024 7  92562686.85007      -495.347 7        46.739
R21        39.000    19904939.625 6 106515418.96906     -2760.652 6        38.931                                                                    19904940.425 6  82845268.36006     -2147.460 6        37.890
C27        41.000                                                                                                                                    23349782.438 8 121588653.68308      1579.755 8        49.097                                                                    23349779.562 7  98800595.17907      1283.920 7        43.755
C14        42.000                                                                                                                                    22416429.078 8 116728262.81208     -2288.340 8        48.196    22416426.646 8  90261635.10908     -1769.505 8        49.602    22416423.235 7  94851247.21507     -1859.197 7        44.299
C39        45.000                                                                                                                                    39652957.148 3                       386.897 3        22.419
C43        48.000                                                                                                                                    24424811.009 6 127186427.34606     -3893.004 6        36.026                                                                    24424813.857 6 103349391.69806     -3163.035 6        36.011
C42        50.000                                                                                                                                    24187378.356 6 125949981.61306     -3511.207 6        37.327                                                                    24187366.648 6 102344646.64106     -2852.811 6        37.713
I01        53.000   416710141.782 6 332119336.54206     -2627.349 6        41.797
C28        55.000                                                                                                                                    21484281.522 7 111874254.04707      -856.083 7        46.496                                                                    21484278.117 7  90906998.43907      -695.394 7        47.886
I09        56.000    37208269.915 6 146013237.78306      -462.047 6        40.858
I06        58.000    38361660.333 6 150539359.23406      -531.293 6        36.238
