     3.04           OBSERVATION DATA    M                   RINEX VERSION / TYPE
ssrcrin-15.6.1x                         20250102 114500 UTC PGM / RUN BY / DATE 
(00000000023479385599111004) Septentrio proprietary         COMMENT             
ract                                                        MARKER NAME         
01                                                          MARKER NUMBER       
geodetic                                                    MARKER TYPE         
NFB                 CLIMERS@TUW                             OBSERVER / AGENCY   
3296359             SEPT ASTERX SB3 PROB4.14.4              REC # / TYPE / VERS 
Unknown             Unknown                                 ANT # / TYPE        
  4127446.8416  1206914.8537  4695542.8513                  APPROX POSITION XYZ 
        0.0000        0.0000        0.0000                  ANTENNA: DELTA H/E/N
G   23 X1  C1C L1C D1C S1C C1W S1W C2W L2W D2W S2W C2L L2L  SYS / # / OBS TYPES 
       D2L S2L C5Q L5Q D5Q S5Q C1L L1L D1L S1L              SYS / # / OBS TYPES 
E   21 X1  C1C L1C D1C S1C C6C L6C D6C S6C C5Q L5Q D5Q S5Q  SYS / # / OBS TYPES 
       C7Q L7Q D7Q S7Q C8Q L8Q D8Q S8Q                      SYS / # / OBS TYPES 
S    9 X1  C1C L1C D1C S1C C5I L5I D5I S5I                  SYS / # / OBS TYPES 
R   17 X1  C1C L1C D1C S1C C2P L2P D2P S2P C2C L2C D2C S2C  SYS / # / OBS TYPES 
       C3Q L3Q D3Q S3Q                                      SYS / # / OBS TYPES 
C   25 X1  C1P L1P D1P S1P C5P L5P D5P S5P C2I L2I D2I S2I  SYS / # / OBS TYPES 
       C7I L7I D7I S7I C6I L6I D6I S6I C7D L7D D7D S7D      SYS / # / OBS TYPES 
J   17 X1  C1C L1C D1C S1C C2L L2L D2L S2L C5Q L5Q D5Q S5Q  SYS / # / OBS TYPES 
       C1L L1L D1L S1L                                      SYS / # / OBS TYPES 
I    5 X1  C5A L5A D5A S5A                                  SYS / # / OBS TYPES 
SEPTENTRIO RECEIVERS OUTPUT ALIGNED CARRIER PHASES.         COMMENT             
NO FURTHER PHASE SHIFT APPLIED IN THE RINEX ENCODER.        COMMENT             
G L1C                                                       SYS / PHASE SHIFT   
G L2W                                                       SYS / PHASE SHIFT   
G L2L  0.00000                                              SYS / PHASE SHIFT   
G L5Q  0.00000                                              SYS / PHASE SHIFT   
G L1L  0.00000                                              SYS / PHASE SHIFT   
E L1C  0.00000                                              SYS / PHASE SHIFT   
E L6C  0.00000                                              SYS / PHASE SHIFT   
E L5Q  0.00000                                              SYS / PHASE SHIFT   
E L7Q  0.00000                                              SYS / PHASE SHIFT   
E L8Q  0.00000                                              SYS / PHASE SHIFT   
S L1C                                                       SYS / PHASE SHIFT   
S L5I                                                       SYS / PHASE SHIFT   
R L1C                                                       SYS / PHASE SHIFT   
R L2P  0.00000                                              SYS / PHASE SHIFT   
R L2C                                                       SYS / PHASE SHIFT   
R L3Q  0.00000                                              SYS / PHASE SHIFT   
C L1P  0.00000                                              SYS / PHASE SHIFT   
C L5P  0.00000                                              SYS / PHASE SHIFT   
C L2I                                                       SYS / PHASE SHIFT   
C L7I                                                       SYS / PHASE SHIFT   
C L6I                                                       SYS / PHASE SHIFT   
C L7D                                                       SYS / PHASE SHIFT   
J L1C                                                       SYS / PHASE SHIFT   
J L2L  0.00000                                              SYS / PHASE SHIFT   
J L5Q  0.00000                                              SYS / PHASE SHIFT   
J L1L  0.00000                                              SYS / PHASE SHIFT   
I L5A                                                       SYS / PHASE SHIFT   
  2025     1     2    11    45    0.0000000     GPS         TIME OF FIRST OBS   
 C1C    0.000 C2C    0.000 C2P    0.000                     GLONASS COD/PHS/BIS 
DBHZ                                                        SIGNAL STRENGTH UNIT
    18                                                      LEAP SECONDS        
 24 R01  1 R02 -4 R03  5 R04  6 R05  1 R06 -4 R07  5 R08  6 GLONASS SLOT / FRQ #
    R09 -2 R10 -7 R11  0 R12 -1 R13 -2 R14 -7 R15  0 R16 -1 GLONASS SLOT / FRQ #
    R17  4 R18 -3 R19  3 R20  2 R21  4 R22 -3 R23  3 R24  2 GLONASS SLOT / FRQ #
                                                            END OF HEADER       
> 2025 01 02 11 45  0.0000000  0 42
G13         1.000    24826306.704 3                     -4815.017 3        18.985
G17         2.000    23414168.694 6 123042264.80306     -3503.625 6        40.398                                    23414168.528 1  95877090.17001     -2730.094 1         9.238    23414199.118 4                     -2729.571 4        26.826
G25         3.000    23728950.010 5                      2561.231 5        32.251
G19         4.000    21358922.163 6 112241908.65306     -1414.201 6        37.962                                    21358921.061 3  87461213.67403     -1102.001 3        20.381
E25         6.000    25613457.466 5 134599610.44505      1301.134 5        34.838                                                                                                                                    25613468.156 6 103134872.42006       997.189 6        36.405
G10         7.000    24762222.043 6 130126225.72206     -2218.857 6        36.934                                                                                                    24762239.821 4                     -1729.401 4        25.158
G15         9.000    23316527.844 6 122529303.00606     -4595.824 6        40.775                                    23316531.929 4  95477346.17304     -3581.144 4        24.632    23316528.482 5  95477269.09205     -3581.333 5        32.036
G23        10.000    25229948.611 3                     -3733.093 3        19.940
G24        12.000    20157183.447 8 105927319.91508     -1133.758 8        52.270                                    20157184.230 8  82540334.70008      -883.450 8        52.472    20157185.056 7  82540308.69607      -883.397 7        46.014
E31        13.000    25517445.037 6 134095130.53506     -3044.953 6        38.799                                                                    25517451.375 7 100135926.18307     -2273.721 7        42.849    25517451.214 6 102748153.34706     -2333.042 6        40.408
G12        15.000    21061221.736 7 110677561.90007      1084.860 7        44.453                                    21061297.421 2  86242577.51302       845.318 2        14.238    21061221.238 6  86242183.04706       845.347 6        40.153
E24        16.000    23652380.910 8 124294073.25108      -869.181 8        48.492                                                                    23652382.473 7  92817070.89007      -649.074 7        46.836    23652382.545 8  95238411.41008      -666.009 8        48.371
G32        17.000    24929589.161 6 131005864.58006      2258.590 6        41.266                                    24929594.570 4 102082517.12604      1759.934 4        25.955    24929594.409 5 102082525.12605      1760.266 5        30.226
E05        18.000    22609521.254 5 118813844.43505     -1998.209 5        35.014                                                                    22609527.098 7  88724618.20207     -1492.168 7        45.282    22609525.614 8  91039176.71608     -1531.172 8        49.259
E09        21.000    26831745.573 7 141001724.26607     -3978.596 7        42.624                                                                    26831755.732 7 105293504.57607     -2971.068 7        42.203    26831753.602 7 108040259.01107     -3048.542 7        43.702
R14        23.000    19702172.686 8 105023595.81108       -74.172 8        53.282                                                                    19702174.476 6  81685007.22406       -57.773 6        40.491
S23        24.000    38253635.311 6 201024182.29606      -861.556 6        36.072
R23        25.000    21401953.501 7 114486061.98607        92.070 7        47.952
E03        26.000    25594046.975 7 134497772.46707       815.807 7        42.421                                                                    25594052.692 7 100436605.26007       609.245 7        46.189    25594051.063 7 103056702.08907       625.029 7        43.970
R13        27.000    21297549.820 7 113727730.41107     -3498.868 7        44.820
R04        29.000    20615830.461 7 110396920.56307     -3002.388 7        46.406                                                                    20615828.633 6  85864263.68106     -2335.217 6        40.269
R15        30.000                                                                                                                                    22721794.514 4                      1725.386 4        29.554
S36        31.000    38317405.599 5 201359387.64905      -858.018 5        34.705
C07        32.000                                                                                                                                                                                                    39697533.004 4                     -1308.041 4        29.280    39697526.951 5 167973216.09905     -1374.574 5        33.329
C10        33.000                                                                                                                                    38907811.245 6 202603165.91006     -1384.621 6        37.248    38907814.540 7 156665637.19007     -1070.595 7        42.231    38907809.884 6 164631658.97406     -1125.050 6        36.083
C36        34.000                                                                                                                                    25431877.824 5 132430439.53605     -3548.971 5        30.672
R03        36.000    23040868.036 4                     -5345.892 4        28.009                                                                    23040876.079 5  95930806.03805     -4157.989 5        32.635
C45        37.000                                                                                                                                    22120376.446 6 115186616.83306     -1959.310 6        40.138                                                                    22120376.777 7  93598576.13107     -1591.934 7        45.466
R24        38.000    22885625.195 4 122379593.36904      3217.838 4        24.316                                                                    22885623.376 4  95184222.93704      2502.860 4        25.474
C33        39.000                                                                                                                                    26305881.225 3                       959.439 3        21.119                                                                    26305799.718 4                       779.833 4        24.481
C40        40.000                                                                                                                                    40040728.827 4                     -1972.752 4        28.408                                                                    40040723.977 3                     -1602.976 3        23.295
R22        41.000                                                                                                                                    23061804.164 3                     -2482.860 3        20.452
C35        42.000                                                                                                                                    25601173.928 5 133312008.87105      2531.230 5        34.048
R05        44.000    21493331.759 7 114894195.73507       938.232 7        47.652                                                                    21493338.031 7  89362182.47307       729.709 7        46.600
C42        45.000                                                                                                                                    24303633.741 7 126555520.17207     -1794.824 7        43.052                                                                    24303622.628 3                     -1458.116 3        20.881
C29        46.000                                                                                                                                    23376456.497 6 121727386.88006       517.567 6        41.645                                                                    23376459.155 6  98913496.58906       420.811 6        38.108
C30        47.000                                                                                                                                    25117920.119 4 130795691.15004     -2502.677 4        28.616
C26        48.000                                                                                                                                    22810364.037 7 118779571.70107       896.557 7        43.837                                                                    22810366.684 7  96518159.68307       728.501 7        42.952
C14        53.000                                                                                                                                    24947721.628 6 129909405.46906      -316.125 6        40.865    24947726.963 7 100454197.79307      -244.396 7        43.886    24947720.317 6 105562032.38106      -256.688 6        38.237
C21        55.000                                                                                                                                    25300680.119 6 131747292.24606     -3909.705 6        40.372                                                                    25300667.123 3                     -3176.981 3        22.324
I06        58.000    38464075.813 6 150941297.49606      -751.728 6        36.352
I02        59.000    37007700.860 6 145226135.88206      -678.181 6        39.967
> 2025 01 02 11 45  5.0000000  0 41
G17         2.000    23417502.023 6 123059786.40606     -3505.115 6        40.660                                    23417502.968 2  95890743.41402     -2731.256 2        13.273    23417525.706 4                     -2731.560 4        27.449
G25         3.000    23726516.508 5                      2560.361 5        34.776
G19         4.000    21360269.809 6 112248988.34806     -1417.535 6        36.053                                    21360268.710 3  87466730.35003     -1104.567 3        20.429
E25         6.000    25612218.576 5 134593105.09005      1300.534 5        35.757                                                                    25612239.756 4                       971.277 4        29.118    25612227.958 6 103129887.77406       996.869 6        36.836
G10         7.000    24764330.874 6 130137326.24106     -2221.483 6        36.113
G15         9.000    23320900.975 6 122552283.31806     -4596.263 6        40.708                                    23320904.429 4  95495252.86504     -3581.491 4        24.632    23320901.480 5  95495175.84105     -3581.835 5        32.186
G23        10.000                                                                                                                                                                    25233496.005 3                     -2908.744 3        20.310
G24        12.000    20158263.301 8 105932994.52608     -1136.266 8        52.442                                    20158264.087 8  82544756.47208      -885.405 8        52.395    20158264.937 7  82544730.46807      -885.352 7        46.262
E31        13.000    25520342.863 6 134110355.62706     -3045.138 6        38.916                                                                    25520348.683 7 100147295.56907     -2274.108 7        43.124    25520348.376 6 102759819.30406     -2333.222 6        40.031
G12        15.000    21060190.172 7 110672141.75507      1083.098 7        44.153                                    21060266.256 1  86238354.08201       843.927 1        11.630    21060190.496 6  86237959.58106       844.017 6        40.501
E24        16.000    23653208.369 8 124298421.63808      -870.335 8        48.480                                                                    23653209.719 7  92820318.07007      -649.937 7        46.790    23653210.012 8  95241743.29508      -666.891 8        48.361
G32        17.000    24927439.634 6 130994574.25806      2257.548 6        41.390                                    24927446.120 4 102073719.50204      1759.116 4        25.308    24927444.836 5 102073727.52505      1759.063 5        31.743
E05        18.000    22611423.742 6 118823840.42306     -2000.367 6        36.129                                                                    22611429.307 7  88732082.73707     -1493.610 7        45.412    22611427.775 8  91046835.97908     -1532.630 8        49.275
E09        21.000    26835531.516 7 141021618.12307     -3979.053 7        42.897                                                                    26835541.651 7 105308360.31807     -2971.327 7        42.624    26835539.300 7 108055502.31407     -3048.840 7        43.600
R14        23.000    19702243.003 8 105023970.86408       -75.935 8        53.246                                                                    19702244.906 6  81685298.93606       -59.133 6        39.450
S23        24.000    38254455.514 6 201028489.24206      -861.369 6        36.658
R23        25.000    21401869.997 7 114485612.18307        87.709 7        47.437
E03        26.000    25593271.251 7 134493697.24307       814.151 7        43.583                                                                    25593277.211 7 100433562.09707       607.994 7        46.155    25593275.462 7 103053579.52907       623.883 7        43.625
R13        27.000    21300825.992 7 113745226.64707     -3499.755 7        44.492
R04        29.000    20618638.557 7 110411941.85707     -3006.199 7        45.911                                                                    20618636.791 6  85875946.90706     -2338.254 6        40.903
R15        30.000                                                                                                                                    22719717.047 5                      1724.617 5        30.249
S36        31.000    38318219.282 5 201363676.04505      -857.736 5        34.995
C07        32.000                                                                                                                                                                                                    39699156.574 4                     -1308.369 4        28.863    39699151.761 5 167980089.56205     -1374.275 5        32.976
C10        33.000                                                                                                                                    38909139.587 6 202610088.69706     -1384.836 6        36.888    38909144.143 7 156670990.33107     -1070.708 7        42.210    38909139.461 6 164637284.29706     -1125.195 6        36.019
C36        34.000                                                                                                                                    25435284.128 5 132448185.16205     -3549.327 5        31.004
R03        36.000    23045858.725 4                     -5346.376 4        26.335                                                                    23045869.107 5  95951596.98605     -4158.254 5        31.042
C45        37.000                                                                                                                                    22122256.299 6 115196414.80106     -1960.291 6        38.967                                                                    22122258.442 7  93606537.75807     -1592.750 7        45.828
R24        38.000                                                                                                                                    22882615.803 4  95171711.52704      2502.108 4        24.977
C33        39.000                                                                                                                                                                                                                                                                    26304879.346 4                       777.977 4        25.669
C40        40.000                                                                                                                                    40042623.937 4                     -1973.396 4        25.594                                                                    40042620.938 3                     -1603.259 3        23.886
R22        41.000    23064802.152 5 123121407.19015     -3194.410 5        33.389
C35        42.000                                                                                                                                    25598747.342 5 133299352.20305      2531.292 5        35.514
R05        44.000    21492457.207 8 114889514.05008       934.297 8        48.194                                                                    21492462.159 7  89358541.17007       726.643 7        46.990
C42        45.000                                                                                                                                    24305358.818 7 126564500.09407     -1797.279 7        44.996                                                                    24305349.023 3                     -1463.314 3        21.786
C29        46.000                                                                                                                                    23375961.750 7 121724804.36807       515.239 7        42.203                                                                    23375963.641 6  98911398.08506       418.770 6        38.156
C30        47.000                                                                                                                                    25120328.491 5 130808208.62205     -2504.334 5        30.604
C26        48.000                                                                                                                                    22809503.173 6 118775090.91306       895.704 6        41.788                                                                    22809506.233 7  96514518.65107       727.977 7        42.756
C14        53.000                                                                                                                                    24948026.945 7 129910991.86107      -318.667 7        42.144    24948031.763 7 100455424.52807      -246.495 7        44.375    24948024.766 6 105563321.47106      -258.883 6        37.887
C21        55.000                                                                                                                                    25304434.837 6 131766842.02506     -3910.261 6        39.919                                                                    25304418.197 3                     -3178.094 3        22.667
I06        58.000    38465033.942 6 150945055.18306      -751.559 6        36.507
I02        59.000    37008564.185 6 145229526.32906      -678.178 6        40.064
> 2025 01 02 11 45 10.0000000  0 43
G13         1.000    24835455.554 3                     -4812.450 3        20.262
G17         2.000    23420839.965 7 123077317.28407     -3506.935 7        42.118                                    23420839.219 2  95904403.81002     -2732.682 2        17.208
G25         3.000    23724074.556 5 124670883.41615      2559.928 5        35.210
G19         4.000    21361618.803 6 112256084.46006     -1420.634 6        38.562                                    21361619.354 3  87472259.80503     -1107.001 3        21.238
E25         6.000    25610982.431 5 134586604.07005      1299.909 5        34.390                                                                    25611003.813 4                       969.796 4        26.742    25610988.579 6 103124906.49806       995.970 6        36.163
G10         7.000    24766444.486 6 130148439.27506     -2223.510 6        36.291                                                                                                    24766457.800 4                     -1732.074 4        26.024
G15         9.000    23325274.198 6 122575267.85106     -4596.973 6        40.660                                    23325277.591 4  95513162.83904     -3582.063 4        24.120    23325275.898 5  95513085.83905     -3582.190 5        31.260
G23        10.000                                                                                                                                                                    25237052.269 4                     -2909.795 4        24.286
G24        12.000    20159345.735 8 105938682.82808     -1138.780 8        52.306                                    20159346.573 8  82549188.91608      -887.362 8        52.641    20159347.562 7  82549162.91207      -887.355 7        46.649
E31        13.000    25523241.151 6 134125583.24206     -3045.353 6        39.288                                                                    25523246.495 7 100158666.80307     -2274.314 7        42.999    25523246.073 6 102771487.19306     -2333.593 6        40.119
G12        15.000    21059160.588 7 110666732.05207      1081.242 7        43.884                                    21059236.629 1  86234138.55201       842.547 1         6.625    21059161.369 6  86233744.20806       842.464 6        41.287
E24        16.000    23654037.277 8 124302776.95908      -871.505 8        48.604                                                                    23654038.447 7  92823570.41907      -650.785 7        46.349    23654038.663 8  95245080.48708      -667.760 8        48.167
G32        17.000    24925292.664 6 130983290.99306      2256.196 6        41.421                                    24925298.780 4 102064927.37904      1758.063 4        24.030    24925298.122 5 102064935.39005      1757.938 5        31.698
E05        18.000    22613329.985 6 118833847.36306     -2002.214 6        40.088                                                                    22613333.699 7  88739555.47107     -1495.253 7        45.323    22613332.196 8  91054503.65108     -1534.207 8        49.331
E09        21.000    26839318.022 7 141041515.04007     -3979.514 7        42.470                                                                    26839327.820 7 105323218.35907     -2971.777 7        42.802    26839325.733 7 108070747.95407     -3049.178 7        43.596
R14        23.000    19702314.551 8 105024355.79108       -77.810 8        52.805                                                                    19702316.621 6  81685598.31806       -60.496 6        39.348
S23        24.000    38255284.244 6 201032795.88206      -861.069 6        37.535
R23        25.000    21401788.160 7 114485184.61107        83.541 7        46.225
E03        26.000    25592497.030 7 134489631.21907       812.523 7        43.759                                                                    25592503.504 7 100430525.78607       606.736 7        46.054    25592501.818 7 103050464.00707       622.514 7        43.721
R13        27.000    21304103.112 7 113762728.17607     -3500.521 7        43.918
R04        29.000    20621450.130 7 110426983.24807     -3009.985 7        44.001                                                                    20621445.145 6  85887645.73606     -2341.240 6        40.849
R15        30.000                                                                                                                                    22717646.015 5                      1724.086 5        30.136
S36        31.000    38319027.345 5 201367963.71605      -857.180 5        34.457
C07        32.000                                                                                                                                                                                                    39700781.235 4                     -1308.505 4        29.839    39700775.731 5 167986963.87505     -1374.608 5        32.952
C10        33.000                                                                                                                                    38910470.404 6 202617012.86306     -1384.749 6        37.168    38910473.696 7 156676344.54107     -1070.777 7        42.042    38910469.280 5 164642910.75105     -1125.295 5        35.948
C36        34.000                                                                                                                                    25438697.294 4 132465932.47704     -3549.336 4        29.403
R03        36.000    23050847.177 4                     -5347.552 4        26.515                                                                    23050863.047 4  95972390.57604     -4159.243 4        29.526
C45        37.000                                                                                                                                    22124140.700 6 115206219.34006     -1961.325 6        38.348                                                                    22124141.366 7  93614504.78107     -1593.739 7        45.567
R24        38.000    22879621.148 4                      3215.438 4        29.024
C33        39.000                                                                                                                                                                                                                                                                    26303955.303 4                       775.605 4        25.835
C40        40.000                                                                                                                                    40044522.628 3                     -1971.902 3        20.833                                                                    40044508.817 4                     -1603.194 4        25.489
R22        41.000    23067801.509 4 123137389.31004     -3198.059 4        29.754
C35        42.000                                                                                                                                    25596319.812 5 133286696.41005      2531.372 5        35.581
R05        44.000    21491585.495 8 114884853.15808       930.314 8        49.882                                                                    21491589.630 7  89354916.02707       723.622 7        46.692
C42        45.000                                                                                                                                    24307086.059 7 126573493.39107     -1799.798 7        44.209                                                                    24307074.323 3                     -1459.521 3        20.310
C29        46.000                                                                                                                                    23375469.755 7 121722234.39307       512.909 7        43.145                                                                    23375470.157 6  98909309.80806       416.713 6        37.595
C30        47.000                                                                                                                                                                                                                                                                    25122734.421 5 106302507.30515     -2036.764 5        34.352
C26        48.000                                                                                                                                    22808643.180 6 118770615.40806       894.745 6        41.874                                                                    22808646.799 7  96510881.97807       727.046 7        42.872
C24        51.000                                                                                                                                    26599522.362 3                      1993.657 3        22.381
C14        53.000                                                                                                                                    24948337.878 7 129912592.33307      -321.291 7        43.213    24948339.075 7 100456662.10407      -248.423 7        46.049    24948332.081 6 105564621.98306      -260.965 6        37.274
C21        55.000                                                                                                                                    25308189.315 6 131786396.16006     -3911.098 6        40.884                                                                    25308173.179 3                     -3176.908 3        20.857
I06        58.000    38465991.150 6 150948812.67906      -751.338 6        36.586
I02        59.000    37009427.962 6 145232917.38006      -678.003 6        39.333
> 2025 01 02 11 45 15.0000000  0 41
G17         2.000    23424178.519 6 123094857.94006     -3509.106 6        40.853                                    23424177.580 3  95918071.81703     -2734.354 3        19.254    23424173.421 4                     -2734.389 4        27.174
G25         3.000    23721636.781 5 124658087.41205      2559.066 5        33.437
G19         4.000    21362973.206 6 112263197.54006     -1424.143 6        40.029                                    21362973.062 3  87477802.45803     -1109.729 3        21.929
E25         6.000    25609744.573 5 134580107.90105      1298.741 5        30.845                                                                    25609766.918 4                       969.715 4        29.858    25609752.026 5 103119928.97205       995.033 5        35.152
G10         7.000    24768563.370 5 130159565.48205     -2226.541 5        34.681                                                                                                    24768574.997 3                     -1734.925 3        23.181
G15         9.000    23329648.713 6 122598257.08406     -4598.420 6        38.970                                    23329651.196 3  95531076.48003     -3583.172 3        23.505    23329651.067 5  95530999.44205     -3583.436 5        30.664
G23        10.000                                                                                                                                                                    25240606.328 4                     -2910.464 4        24.301
G24        12.000    20160430.695 8 105944385.34208     -1141.879 8        51.562                                    20160431.813 8  82553632.43508      -889.775 8        52.663    20160432.607 7  82553606.44107      -889.833 7        46.809
E31        13.000    25526139.442 6 134140813.90606     -3046.299 6        40.067                                                                    25526145.048 7 100170040.32507     -2274.966 7        43.052    25526144.574 6 102783157.43306     -2334.257 6        40.539
G12        15.000    21058133.171 7 110661333.32107      1078.652 7        42.610                                    21058209.207 1  86229931.62601       840.446 1         8.476    21058133.826 6  86229537.41306       840.463 6        40.727
E24        16.000    23654867.244 8 124307139.69708      -873.249 8        48.530                                                                    23654868.600 7  92826828.32107      -652.038 7        46.129    23654868.957 8  95248423.36808      -669.059 8        48.148
G32        17.000    24923146.460 6 130972015.27706      2254.508 6        38.568                                    24923152.813 3 102056141.13303      1756.755 3        23.124    24923151.423 5 102056149.15105      1756.941 5        32.263
E05        18.000    22615236.509 6 118843865.80306     -2004.780 6        41.387                                                                    22615240.209 7  88747036.78007     -1497.040 7        45.696    22615238.996 8  91062180.13008     -1536.098 8        49.454
E09        21.000    26843105.324 7 141061415.53307     -3980.390 7        42.944                                                                    26843114.762 7 105338079.07207     -2972.427 7        43.253    26843112.719 7 108085996.34707     -3049.815 7        43.776
R14        23.000    19702388.298 8 105024751.04208       -80.008 8        52.603                                                                    19702391.137 6  81685905.72206       -62.188 6        39.363
S23        24.000    38256095.495 6 201037102.74606      -861.259 6        36.344
R23        25.000    21401711.411 7 114484779.95607        78.663 7        45.717
E03        26.000    25591725.105 7 134485574.93907       810.328 7        43.628                                                                    25591731.611 7 100427496.74807       605.107 7        45.782    25591730.161 7 103047355.94707       620.973 7        43.858
R13        27.000    21307381.989 7 113780235.61607     -3502.039 7        43.769
R04        29.000    20624260.039 7 110442045.30607     -3014.404 7        44.083                                                                    20624255.889 6  85899360.62006     -2344.623 6        38.754
R15        30.000    22715463.146 6 121385174.28316      2215.846 6        38.087                                                                    22715571.334 5                      1723.399 5        31.487
S36        31.000    38319843.487 5 201372251.45305      -857.491 5        33.964
C07        32.000                                                                                                                                    39702402.281 4                     -1692.318 4        26.802    39702405.557 4                     -1309.137 4        28.891    39702400.719 5 167993839.30605     -1374.995 5        32.677
C10        33.000                                                                                                                                    38911800.379 6 202623938.96406     -1385.259 6        36.892    38911803.867 7 156681700.23107     -1071.176 7        42.311    38911799.435 5 164648538.76405     -1125.650 5        35.633
C36        34.000                                                                                                                                    25442115.948 4 132483682.02504     -3550.202 4        28.066
R03        36.000    23055843.460 4                     -5348.558 4        25.459                                                                    23055857.160 4  95993187.32914     -4159.848 4        28.332
C45        37.000                                                                                                                                    22126027.593 5 115216031.03405     -1963.041 5        34.986                                                                    22126025.458 7  93622477.54807     -1595.051 7        45.434
R24        38.000    22876616.580 3                      3214.882 3        23.010                                                                    22876587.273 4  95146703.11704      2499.812 4        26.419
C33        39.000                                                                                                                                    26303018.175 4                       952.477 4        29.280
C40        40.000                                                                                                                                    40046409.277 4                     -1974.043 4        24.662                                                                    40046397.581 4                     -1603.044 4        25.218
C35        42.000                                                                                                                                    25593886.104 5 133274042.02605      2530.677 5        34.490
R05        44.000    21490718.459 8 114880213.66308       925.837 8        51.133                                                                    21490721.217 7  89351307.53407       720.135 7        45.974
C42        45.000                                                                                                                                    24308814.063 7 126582500.58807     -1802.881 7        43.156                                                                    24308804.411 3                     -1462.135 3        19.881
C29        46.000                                                                                                                                    23374981.005 7 121719677.50707       510.126 7        43.642                                                                    23374978.637 6  98907232.14706       414.321 6        36.185
C30        47.000                                                                                                                                    25125141.145 4                     -2509.859 4        28.919                                                                    25125142.233 5 106312698.57305     -2039.195 5        33.030
C26        48.000                                                                                                                                    22807784.159 6 118766145.68806       893.432 6        41.511                                                                    22807788.550 7  96507249.97807       725.995 7        42.952
C24        51.000                                                                                                                                    26597608.816 3                      1991.959 3        23.695
C14        53.000                                                                                                                                    24948647.709 7 129914207.38507      -324.473 7        43.132    24948649.384 7 100457910.98607      -250.790 7        47.193    24948641.566 6 105565934.34906      -263.414 6        36.673
C21        55.000                                                                                                                                    25311945.314 6 131805955.13806     -3912.237 6        40.951                                                                    25311933.724 3                     -3181.475 3        18.716
I06        58.000    38466949.085 6 150952570.37406      -751.415 6        36.609
I02        59.000    37010292.666 6 145236309.77006      -678.600 6        39.138
> 2025 01 02 11 45 20.0000000  0 40
G17         2.000    23427518.605 6 123112408.02206     -3511.033 6        39.309                                    23427518.016 3  95931747.19003     -2735.853 3        21.190    23427517.350 4                     -2735.451 4        29.242
G25         3.000    23719195.375 5 124645295.41605      2557.915 5        34.133
G19         4.000    21364330.697 7 112270327.23507     -1427.653 7        42.377                                    21364329.422 3  87483358.10403     -1112.453 3        22.933
E25         6.000    25608507.702 5 134573616.35505      1297.832 5        30.332                                                                    25608531.046 4                       969.232 4        29.118    25608515.625 5 103114954.91605       994.254 5        34.814
G10         7.000    24770688.009 5 130170704.42905     -2229.188 5        33.551
G15         9.000    23334022.622 6 122621250.70306     -4599.443 6        36.979                                    23334025.878 3  95548993.53303     -3583.980 3        22.819    23334026.329 5  95548916.53105     -3584.194 5        31.540
G23        10.000                                                                                                                                                                    25244159.716 3                     -2911.337 3        21.071
G24        12.000    20161518.348 8 105950101.71008     -1144.753 8        51.375                                    20161519.647 8  82558086.74608      -892.019 8        52.430    20161520.179 7  82558060.75007      -892.003 7        46.717
E31        13.000    25529038.010 6 134156047.25406     -3046.973 6        40.608                                                                    25529043.617 7 100181415.84507     -2275.334 7        42.531    25529043.054 6 102794829.71706     -2334.618 6        39.898
G12        15.000    21057108.151 6 110655945.19306      1076.586 6        41.156                                    21057183.712 1  86225733.40701       838.833 1         6.000    21057108.152 6  86225338.87906       838.804 6        41.263
E24        16.000    23655698.849 8 124311509.50408      -874.694 8        48.211                                                                    23655700.074 7  92830091.50107      -653.181 7        45.898    23655700.411 7  95251771.66307      -670.213 7        47.992
G32        17.000    24921001.871 6 130960746.81106      2252.745 6        36.548                                    24921008.035 3 102047360.53803      1755.390 3        21.952    24921006.466 5 102047368.53705      1755.615 5        31.615
E05        18.000    22617144.711 7 118853895.42107     -2007.048 7        42.946                                                                    22617148.849 7  88754526.42807     -1498.824 7        46.265    22617147.821 8  91069865.17008     -1537.898 8        49.635
E09        21.000    26846893.158 7 141081319.23907     -3981.158 7        43.418                                                                    26846902.393 7 105352942.18507     -2972.943 7        43.566    26846900.362 7 108101247.21107     -3050.505 7        43.759
R14        23.000    19702464.116 8 105025156.38708       -82.155 8        52.528                                                                    19702467.165 6  81686221.00906       -63.884 6        38.859
S23        24.000    38256912.420 6 201041409.66406      -861.347 6        36.363
R23        25.000    21401640.898 7 114484397.90807        74.074 7        46.251
E03        26.000    25590955.149 7 134481528.03107       808.347 7        44.773                                                                    25590961.570 7 100424474.71307       603.651 7        45.580    25590960.082 7 103044255.07207       619.391 7        44.108
R13        27.000    21310661.600 7 113797748.54607     -3503.244 7        44.042
R04        29.000    20627069.538 7 110457127.52707     -3018.580 7        43.556                                                                    20627069.730 6  85911091.22406     -2347.844 6        36.938
R15        30.000                                                                                                                                    22713499.153 5                      1722.823 5        31.117
S36        31.000    38320651.590 5 201376538.62305      -857.294 5        32.880
C07        32.000                                                                                                                                                                                                    39704031.953 5                     -1308.766 5        30.694    39704026.184 5 168000715.68105     -1375.355 5        32.425
C10        33.000                                                                                                                                    38913131.190 5 202630866.68505     -1385.875 5        35.910    38913133.798 7 156687057.15007     -1071.557 7        42.114    38913129.769 5 164654168.06305     -1126.054 5        35.667
R03        36.000    23060841.106 4                     -5348.833 4        27.102                                                                    23060854.252 4  96013987.00904     -4160.379 4        27.341
C45        37.000                                                                                                                                    22127915.481 5 115225849.45305     -1964.423 5        35.405                                                                    22127911.048 7  93630455.82707     -1596.225 7        45.318
R24        38.000                                                                                                                                    22873583.049 4  95134206.27504      2498.786 4        26.000
C33        39.000                                                                                                                                    26302104.519 5                       949.758 5        34.757                                                                    26302101.972 5                       771.704 5        30.309
C40        40.000                                                                                                                                    40048302.683 4                     -1973.934 4        24.391                                                                    40048291.850 4                     -1603.347 4        25.714
C35        42.000                                                                                                                                    25591450.899 5 133261388.78005      2530.523 5        32.281
R05        44.000    21489855.903 8 114875595.18108       921.511 8        52.144                                                                    21489857.735 7  89347715.39107       716.728 7        46.917
C42        45.000                                                                                                                                    24310543.868 7 126591521.30507     -1805.604 7        42.296                                                                    24310538.288 3                     -1466.826 3        20.310
C29        46.000                                                                                                                                    23374492.930 7 121717133.37507       507.457 7        42.813                                                                    23374489.306 5  98905164.83905       412.413 5        34.829
C30        47.000                                                                                                                                                                                                                                                                    25127553.795 5 106322899.56405     -2041.300 5        32.455
C26        48.000                                                                                                                                    22806926.781 6 118761681.45306       892.261 6        41.244                                                                    22806931.073 7  96503622.41207       725.048 7        42.882
C24        51.000                                                                                                                                    26595697.407 3                      1991.026 3        22.667
C14        53.000                                                                                                                                    24948959.770 7 129915836.70707      -327.451 7        43.173    24948962.455 7 100459170.89307      -253.170 7        47.724    24948954.603 6 105567258.29306      -265.930 6        36.839
C21        55.000                                                                                                                                    25315702.473 6 131825518.62506     -3913.321 6        40.012
I06        58.000    38467906.110 5 150956328.06305      -751.670 5        35.890
I02        59.000    37011156.994 6 145239703.17106      -678.826 6        39.150
> 2025 01 02 11 45 25.0000000  0 39
G17         2.000    23430859.485 6 123129967.66206     -3512.842 6        38.348                                    23430860.196 3  95945429.98103     -2737.273 3        21.857    23430859.812 5                     -2737.362 5        31.404
G25         3.000    23716760.236 5 124632507.47405      2557.052 5        31.547                                    23716764.184 1  97116184.01111      1992.411 1         9.619
G19         4.000    21365690.145 7 112277473.66207     -1430.832 7        42.159                                    21365689.206 3  87488926.76203     -1114.935 3        23.886
E25         6.000    25607273.357 5 134567129.47105      1297.022 5        31.698                                                                    25607294.352 4                       968.327 4        27.150    25607283.003 5 103109984.46805       993.746 5        35.210
G10         7.000    24772809.511 5 130181856.14305     -2231.781 5        33.156                                                                                                    24772803.877 4                     -1738.965 4        25.910
G15         9.000    23338399.168 6 122644248.78006     -4599.884 6        36.544                                    23338401.508 3  95566914.05703     -3584.314 3        21.833    23338404.227 5  95566837.03005     -3584.280 5        30.294
G24        12.000    20162609.178 8 105955832.10508     -1147.473 8        51.430                                    20162610.110 8  82562551.99008      -894.130 8        51.937    20162610.471 7  82562525.98907      -894.137 7        46.591
E31        13.000    25531937.352 6 134171283.41506     -3047.498 6        40.584                                                                    25531942.961 7 100192793.48007     -2275.736 7        42.209    25531942.230 6 102806504.15106     -2335.078 6        40.119
G12        15.000    21056086.121 7 110650567.83407      1074.475 7        42.652                                    21056159.670 1  86221543.44701       837.286 1         9.429    21056085.421 6  86221148.73006       837.304 6        41.831
E24        16.000    23656531.885 8 124315886.52608      -876.129 8        48.160                                                                    23656532.988 7  92833360.06807      -654.286 7        45.649    23656533.228 7  95255125.49107      -671.280 7        47.750
G32        17.000    24918857.834 5 130949485.70805      2251.312 5        33.964                                    24918864.370 3 102038585.67303      1754.265 3        21.143    24918862.035 4 102038593.64404      1754.928 4        29.905
E05        18.000    22619055.221 7 118863936.30207     -2009.282 7        44.442                                                                    22619059.549 7  88762024.49507     -1500.439 7        46.502    22619058.707 8  91077558.84008     -1539.614 8        49.927
E09        21.000    26850681.099 7 141101226.30707     -3981.667 7        43.934                                                                    26850690.530 7 105367807.80207     -2973.329 7        43.947    26850688.519 7 108116500.64007     -3051.020 7        43.577
R14        23.000    19702542.017 8 105025571.85608       -84.136 8        51.940                                                                    19702544.710 6  81686544.12806       -65.421 6        37.406
S23        24.000    38257725.317 5 201045716.70305      -861.371 5        35.657
R23        25.000    21401574.865 7 114484038.59607        69.584 7        45.840
E03        26.000    25590186.943 7 134477490.64307       806.558 7        44.945                                                                    25590193.261 7 100421459.79607       602.340 7        45.767    25590191.777 7 103041161.50607       617.991 7        44.409
R13        27.000    21313942.630 7 113815267.11107     -3504.290 7        44.191
R04        29.000    20629885.859 7 110472230.07107     -3022.467 7        44.707                                                                    20629891.124 6  85922837.66806     -2350.603 6        36.204
R15        30.000                                                                                                                                    22711427.432 5  94393436.36815      1722.283 5        32.856
S36        31.000    38321475.889 5 201380825.55305      -857.243 5        33.934
C07        32.000                                                                                                                                                                                                    39705654.812 4                     -1308.967 4        28.256    39705651.108 5 168007593.11805     -1375.553 5        31.253
C10        33.000                                                                                                                                    38914461.390 6 202637796.10006     -1385.987 6        36.526    38914464.894 7 156692415.41007     -1071.744 7        42.235    38914460.101 5 164659798.78205     -1126.318 5        35.433
R03        36.000    23065842.540 5                     -5349.481 5        32.772                                                                    23065848.924 4  96034789.58304     -4160.407 4        29.156
C45        37.000                                                                                                                                    22129803.356 5 115235674.80505     -1965.676 5        34.862                                                                    22129798.119 7  93638439.73507     -1597.517 7        45.475
R24        38.000                                                                                                                                    22870590.054 4  95121714.20514      2498.542 4        27.605
C33        39.000                                                                                                                                    26301190.300 6                       947.483 6        38.291                                                                    26301195.632 5                       769.927 5        31.049
C40        40.000                                                                                                                                    40050204.629 4                     -1973.959 4        24.421                                                                    40050186.083 4                     -1603.952 4        25.639
R22        41.000                                                                                                                                    23076790.579 4                     -2495.949 4        24.481
C35        42.000                                                                                                                                    25589017.868 4 133248736.76604      2530.140 4        28.626
R05        44.000    21488994.882 8 114870997.75008       917.410 8        51.901                                                                    21488997.974 7  89344139.62507       713.614 7        47.100
C42        45.000                                                                                                                                    24312278.023 7 126600555.67407     -1808.294 7        42.451                                                                    24312273.849 3                     -1469.099 3        20.500
