     3.04           OBSERVATION DATA    M                   RINEX VERSION / TYPE
ssrcrin-15.6.1x                         20250102 031500 UTC PGM / RUN BY / DATE 
(00000000023479385599111004) Septentrio proprietary         COMMENT             
ract                                                        MARKER NAME         
01                                                          MARKER NUMBER       
geodetic                                                    MARKER TYPE         
NFB                 CLIMERS@TUW                             OBSERVER / AGENCY   
3296359             SEPT ASTERX SB3 PROB4.14.4              REC # / TYPE / VERS 
Unknown             Unknown                                 ANT # / TYPE        
  4127447.6749  1206915.0644  4695543.6993                  APPROX POSITION XYZ 
        0.0000        0.0000        0.0000                  ANTENNA: DELTA H/E/N
G   23 X1  C1C L1C D1C S1C C1W S1W C2W L2W D2W S2W C2L L2L  SYS / # / OBS TYPES 
       D2L S2L C5Q L5Q D5Q S5Q C1L L1L D1L S1L              SYS / # / OBS TYPES 
E   21 X1  C1C L1C D1C S1C C6C L6C D6C S6C C5Q L5Q D5Q S5Q  SYS / # / OBS TYPES 
       C7Q L7Q D7Q S7Q C8Q L8Q D8Q S8Q                      SYS / # / OBS TYPES 
S    9 X1  C1C L1C D1C S1C C5I L5I D5I S5I                  SYS / # / OBS TYPES 
R   17 X1  C1C L1C D1C S1C C2P L2P D2P S2P C2C L2C D2C S2C  SYS / # / OBS TYPES 
       C3Q L3Q D3Q S3Q                                      SYS / # / OBS TYPES 
C   25 X1  C1P L1P D1P S1P C5P L5P D5P S5P C2I L2I D2I S2I  SYS / # / OBS TYPES 
       C7I L7I D7I S7I C6I L6I D6I S6I C7D L7D D7D S7D      SYS / # / OBS TYPES 
J   17 X1  C1C L1C D1C S1C C2L L2L D2L S2L C5Q L5Q D5Q S5Q  SYS / # / OBS TYPES 
       C1L L1L D1L S1L                                      SYS / # / OBS TYPES 
I    5 X1  C5A L5A D5A S5A                                  SYS / # / OBS TYPES 
SEPTENTRIO RECEIVERS OUTPUT ALIGNED CARRIER PHASES.         COMMENT             
NO FURTHER PHASE SHIFT APPLIED IN THE RINEX ENCODER.        COMMENT             
G L1C                                                       SYS / PHASE SHIFT   
G L2W                                                       SYS / PHASE SHIFT   
G L2L  0.00000                                              SYS / PHASE SHIFT   
G L5Q  0.00000                                              SYS / PHASE SHIFT   
G L1L  0.00000                                              SYS / PHASE SHIFT   
E L1C  0.00000                                              SYS / PHASE SHIFT   
E L6C  0.00000                                              SYS / PHASE SHIFT   
E L5Q  0.00000                                              SYS / PHASE SHIFT   
E L7Q  0.00000                                              SYS / PHASE SHIFT   
E L8Q  0.00000                                              SYS / PHASE SHIFT   
S L1C                                                       SYS / PHASE SHIFT   
S L5I                                                       SYS / PHASE SHIFT   
R L1C                                                       SYS / PHASE SHIFT   
R L2P  0.00000                                              SYS / PHASE SHIFT   
R L2C                                                       SYS / PHASE SHIFT   
R L3Q  0.00000                                              SYS / PHASE SHIFT   
C L1P  0.00000                                              SYS / PHASE SHIFT   
C L5P  0.00000                                              SYS / PHASE SHIFT   
C L2I                                                       SYS / PHASE SHIFT   
C L7I                                                       SYS / PHASE SHIFT   
C L6I                                                       SYS / PHASE SHIFT   
C L7D                                                       SYS / PHASE SHIFT   
J L1C                                                       SYS / PHASE SHIFT   
J L2L  0.00000                                              SYS / PHASE SHIFT   
J L5Q  0.00000                                              SYS / PHASE SHIFT   
J L1L  0.00000                                              SYS / PHASE SHIFT   
I L5A                                                       SYS / PHASE SHIFT   
  2025     1     2     3    15    0.0000000     GPS         TIME OF FIRST OBS   
 C1C    0.000 C2C    0.000 C2P    0.000                     GLONASS COD/PHS/BIS 
DBHZ                                                        SIGNAL STRENGTH UNIT
    18                                                      LEAP SECONDS        
 24 R01  1 R02 -4 R03  5 R04  6 R05  1 R06 -4 R07  5 R08  6 GLONASS SLOT / FRQ #
    R09 -2 R10 -7 R11  0 R12 -1 R13 -2 R14 -7 R15  0 R16 -1 GLONASS SLOT / FRQ #
    R17  4 R18 -3 R19  3 R20  2 R21  4 R22 -3 R23  3 R24  2 GLONASS SLOT / FRQ #
                                                            END OF HEADER       
> 2025 01 02 03 15  0.0000000  0 40
G03         1.000    21421626.207 6 112571392.11906     -3281.288 6        41.759                                    21421621.800 5  87717901.57305     -2556.854 5        33.156    21421624.034 6  87717994.56806     -2556.740 6        37.887
G19         2.000    23512348.515 5 123558216.30005     -3507.897 5        30.981
G07         5.000    23611301.562 7 124078299.54907      2430.319 7        42.449                                    23611294.501 5  96684329.77205      1893.760 5        34.352    23611295.232 6  96684300.75406      1893.744 6        38.345
G09         6.000    20151099.846 8 105894739.56208       238.820 8        48.456                                    20151095.617 8  82515395.53708       186.090 8        49.040    20151096.723 7  82515382.55407       186.066 7        43.977
G31        10.000    23653397.928 5                     -3866.641 5        32.509                                                                                                    23653378.712 4                     -3013.503 4        24.015
G17        11.000    24877183.219 3                     -3766.728 3        22.952
G04        12.000    20118130.586 7 105721539.70407     -1649.017 7        46.576                                    20118125.768 5  82380343.30005     -1284.946 5        33.006    20118126.768 7  82380367.30707     -1284.907 7        44.491
E12        13.000    23946935.934 8 125842019.86308     -1454.919 8        49.780                                                                    23946931.299 7  93972917.75207     -1086.439 7        45.688    23946931.351 8  96424407.48808     -1114.834 8        48.981
E29        14.000    25016106.923 6 131460531.85006     -2949.069 6        39.375                                                                    25016105.813 7  98168571.25507     -2202.281 7        43.881    25016107.262 7 100729535.33607     -2259.736 7        47.050
G06        15.000    21334684.403 6 112114586.01606       367.162 6        37.013
E11        16.000    25648661.302 7 134784979.11607      1317.201 7        42.540                                                                    25648657.201 6 100650864.24206       983.561 6        37.966    25648657.886 6 103276521.02306      1009.659 6        37.081
E04        17.000    25839726.655 5 135788744.10505      1510.419 5        35.867                                                                    25839725.249 6 101400697.00006      1127.817 6        39.961    25839724.625 6 104045908.51906      1157.321 6        41.695
R08        18.000    20091401.554 7 107588684.35807       718.328 7        45.315                                                                    20091400.876 5  83679966.43705       558.377 5        34.533
E19        20.000    22783042.488 7 119725702.81007      -914.689 7        42.631                                                                    22783039.373 7  89405568.92207      -683.027 7        43.989    22783040.255 7  91737875.11807      -700.766 7        47.479
S36        23.000    38147261.402 5 200465296.40105      -851.740 5        35.548
S23        24.000    38091025.195 6 200169642.84206      -847.526 6        40.965
G11        25.000                                                                                                                                                                    24005811.142 5                      1798.490 5        30.370
R16        26.000                                                                                                                                    22256232.115 6  92469061.47806     -1514.776 6        37.146
E33        28.000    25911448.383 6 136165593.19306     -3842.961 6        40.193                                                                    25911448.021 6 101682093.05306     -2869.638 6        36.665    25911449.954 5 104334654.59905     -2944.450 5        35.995
E10        29.000    24198261.700 7 127162734.90607       -22.659 7        46.608                                                                    24198259.041 6  94959227.66706       -16.861 6        39.141    24198260.330 7  97436511.04007       -17.333 7        42.925
C20        31.000                                                                                                                                    21973024.955 7 114419461.87107      -121.848 7        45.797                                                                    21973018.575 6  92975063.35006       -99.339 6        39.051
R23        33.000    20007683.701 6 107027635.69806     -1677.113 6        41.740
R07        34.000    19803566.778 7 106010025.56207     -2378.996 7        47.178                                                                    19803567.217 7  82452264.38707     -1850.317 7        44.548
R22        35.000    21480675.137 5                     -4787.711 5        31.170                                                                    21480650.454 3                     -3723.855 3        23.029
C32        36.000                                                                                                                                    23278741.511 7 121218488.88307     -2832.862 7        43.975                                                                    23278742.298 6  98500001.09406     -2302.351 6        41.185
R09        37.000    21712148.841 6 115941634.90306      1673.753 6        41.459                                                                    21712140.098 5  90176941.77005      1301.783 5        33.611
C30        38.000                                                                                                                                    26055339.356 4                     -4206.540 4        24.436                                                                    26055330.804 3                     -3418.255 3        21.357
C23        40.000                                                                                                                                    24450969.049 6 127322632.10506      -567.682 6        36.881                                                                    24450957.521 6 103460068.90906      -461.244 6        38.667
C35        41.000                                                                                                                                    24748895.739 6 128873983.62506       316.413 6        38.622                                                                    24748895.023 6 104720690.29606       256.802 6        36.786
C37        42.000                                                                                                                                                                                                                                                                    24694104.042 6 104488817.29106      1487.138 6        38.390
R24        43.000                                                                                                                                    22609605.179 4                      1905.103 4        26.323
C16        45.000                                                                                                                                    39067826.064 4                     -1575.677 4        28.635    39067826.361 5                     -1218.285 5        30.347    39067833.761 4                     -1280.627 4        27.509
C39        46.000                                                                                                                                    39723344.277 3                     -1892.723 3        23.657
C09        47.000                                                                                                                                    38428535.164 6 200107497.27306     -1039.631 6        37.104    38428532.100 6 154735799.24006      -803.668 6        38.901    38428528.784 5 162603698.88305      -844.831 5        31.411
C19        48.000                                                                                                                                    24929849.150 6 129816539.71006      1691.888 6        36.745                                                                    24929844.597 6 105486320.50306      1374.743 6        39.601
C06        50.000                                                                                                                                    38520795.761 5 200587941.24205     -1515.837 5        31.238    38520807.619 5 155107353.05305     -1172.659 5        33.593    38520789.955 4 162994067.94504     -1232.193 4        28.863
C25        51.000                                                                                                                                    26307887.309 3                     -3030.377 3        23.467
C29        54.000                                                                                                                                    23591468.598 5 122846946.89805     -2811.175 5        34.338                                                                    23591474.483 6  99823270.77706     -2284.935 6        37.516
I01        57.000   380514720.202 6 190080699.11306     -3037.727 6        37.119
I09        58.000    37471611.795 5 147046654.19005      -932.071 5        32.988
> 2025 01 02 03 15  5.0000000  0 40
G03         1.000    21424748.730 7 112587803.51107     -3283.020 7        42.798                                    21424745.027 5  87730689.67305     -2558.198 5        34.362    21424747.155 6  87730782.66506     -2558.094 6        39.147
G19         2.000    23515685.799 4 123575762.36204     -3510.061 4        29.640
G07         5.000    23608989.461 7 124066150.95107      2429.414 7        42.973                                    23608982.945 5  96674863.32605      1893.050 5        34.724    23608982.926 6  96674834.33206      1892.980 6        38.826
G09         6.000    20150873.467 8 105893552.30608       236.387 8        48.451                                    20150869.326 8  82514470.41008       184.195 8        48.600    20150870.849 7  82514457.42107       184.196 7        43.958
G31        10.000    23657077.009 5                     -3868.748 5        30.483                                                                                                    23657062.479 4                     -3014.136 4        24.015
G17        11.000    24880766.952 3                     -3770.399 3        20.381
G04        12.000    20119700.938 7 105729791.38507     -1651.353 7        46.875                                    20119696.085 5  82386773.18005     -1286.769 5        33.904    20119696.987 7  82386797.19407     -1286.782 7        44.951
E12        13.000    23948321.594 8 125849301.46608     -1457.406 8        50.021                                                                    23948316.919 7  93978355.31007     -1088.260 7        45.726    23948316.988 8  96429986.89208     -1116.674 8        48.894
E29        14.000    25018914.475 6 131475280.58106     -2950.035 6        39.147                                                                    25018912.105 7  98179584.92807     -2202.954 7        43.344    25018913.907 7 100740836.32607     -2260.410 7        46.937
G06        15.000    21334335.219 5 112112759.65305       363.864 5        34.586
E11        16.000    25647409.048 7 134778398.14507      1315.542 7        42.874                                                                    25647404.698 6 100645949.88206       982.493 6        37.974    25647405.410 6 103271478.48906      1008.062 6        37.267
E04        17.000    25838289.917 5 135781195.97605      1509.299 5        35.181                                                                    25838289.022 6 101395060.40606      1126.960 6        39.796    25838287.988 6 104040124.88406      1156.345 6        41.254
R08        18.000    20090733.242 7 107585098.72807       716.270 7        45.199                                                                    20090731.760 5  83677177.60705       556.840 5        35.010
E19        20.000    22783913.887 7 119730281.02407      -916.409 7        42.205                                                                    22783910.668 7  89408987.71207      -684.292 7        44.111    22783911.467 7  91741383.09007      -702.120 7        47.622
S36        23.000    38148069.760 5 200469557.16105      -851.982 5        35.076
S23        24.000    38091834.129 6 200173881.99906      -847.727 6        40.841
G11        25.000    24003608.247 4 126139902.10214      2306.757 4        29.801                                                                                                    24003618.370 5  98290804.51115      1797.040 5        34.881
R16        26.000    22258047.559 4 118898674.77614     -1952.240 4        29.318                                                                    22258067.463 6  92476644.96406     -1518.281 6        36.212
E33        28.000    25915105.564 6 136184811.56006     -3844.108 6        40.694                                                                    25915105.673 6 101696444.41206     -2870.364 6        37.406    25915107.196 5 104349380.37705     -2945.788 5        35.476
E10        29.000    24198284.902 7 127162854.97007       -25.045 7        47.233                                                                    24198282.641 6  94959317.32506       -18.700 6        38.420    24198282.605 7  97436603.04507       -19.166 7        42.900
C20        31.000                                                                                                                                    21973142.807 7 114420075.96107      -123.401 7        45.896                                                                    21973136.661 6  92975562.32006      -100.257 6        40.141
R23        33.000    20009253.482 6 107036033.81606     -1681.827 6        40.296
R07        34.000    19805790.085 7 106021926.14207     -2380.804 7        46.386                                                                    19805790.164 7  82461520.37307     -1851.732 7        44.068
R22        35.000    21485153.396 5 114689224.01015     -4789.880 5        35.762                                                                    21485137.768 3                     -3726.904 3        19.791
C32        36.000                                                                                                                                    23281463.126 7 121232656.80207     -2833.946 7        43.507                                                                    23281463.289 6  98511513.67906     -2302.840 6        41.540
R09        37.000    21710585.182 6 115933274.74806      1670.626 6        41.268                                                                    21710577.749 5  90170439.47705      1299.144 5        34.143
C30        38.000                                                                                                                                    26059375.134 4                     -4206.503 4        24.526                                                                    26059368.370 3                     -3418.162 3        21.548
C23        40.000                                                                                                                                    24451516.018 6 127325477.27106      -570.416 6        38.673                                                                    24451503.747 6 103462380.87906      -463.562 6        38.027
C35        41.000                                                                                                                                    24748593.642 6 128872409.63406       313.524 6        38.736                                                                    24748592.483 6 104719411.28306       254.737 6        36.919
C37        42.000                                                                                                                                                                                                                                                                    24692347.444 6 104481384.26606      1486.042 6        38.667
R24        43.000                                                                                                                                    22607319.626 4                      1902.713 4        29.005
C16        45.000                                                                                                                                    39069339.002 4                     -1576.203 4        29.460    39069340.032 5                     -1218.696 5        30.332    39069347.271 4                     -1280.502 4        28.493
C39        46.000                                                                                                                                    39725162.483 4                     -1892.935 4        24.241
C09        47.000                                                                                                                                    38429534.306 6 200112697.71306     -1040.343 6        37.180    38429530.948 6 154739820.56806      -804.519 6        38.616    38429527.795 5 162607924.69005      -845.641 5        32.299
C19        48.000                                                                                                                                    24928230.001 5 129808082.42905      1691.275 5        34.033                                                                    24928220.095 6 105479448.24006      1374.211 6        39.574
C06        50.000                                                                                                                                    38522251.587 5 200595523.13505     -1516.737 5        32.497    38522264.564 5 155113215.83705     -1172.420 5        33.138    38522245.721 4 163000228.84304     -1232.705 4        28.787
C25        51.000                                                                                                                                    26310803.411 4                     -3032.000 4        24.586
C29        54.000                                                                                                                                    23594168.490 6 122861010.68606     -2813.950 6        36.953                                                                    23594172.352 5  99834698.79505     -2286.430 5        35.100
I01        57.000   380518591.141 6 190095889.69106     -3038.066 6        36.786
I09        58.000    37472799.889 5 147051315.65805      -932.042 5        33.210
> 2025 01 02 03 15 10.0000000  0 39
G03         1.000    21427872.944 7 112604222.92607     -3284.492 7        43.966                                    21427869.962 5  87743484.02105     -2559.344 5        35.910    21427871.483 6  87743577.03206     -2559.398 6        40.265
G19         2.000    23519026.144 4 123593317.30604     -3511.657 4        27.820
G07         5.000    23606678.392 7 124054006.51107      2428.739 7        43.202                                    23606672.149 5  96665400.12005      1892.527 5        35.067    23606672.137 6  96665371.11906      1892.485 6        39.390
G09         6.000    20150649.738 8 105892376.75708       234.158 8        48.689                                    20150645.356 8  82513554.39608       182.459 8        48.282    20150647.095 7  82513541.40007       182.383 7        44.056
G31        10.000    23660762.928 4                     -3870.957 4        24.842                                                                                                    23660744.928 3                     -3014.844 3        21.167
G17        11.000    24884346.629 3                     -3761.924 3        18.388
G04        12.000    20121273.911 7 105738054.42007     -1653.514 7        47.598                                    20121268.648 5  82393211.90805     -1288.457 5        34.890    20121269.804 7  82393235.92407     -1288.488 7        45.719
E12        13.000    23949709.619 8 125856594.94208     -1459.609 8        49.709                                                                    23949704.647 7  93983801.73907     -1089.998 7        45.734    23949704.882 8  96435575.40308     -1118.434 8        48.919
E29        14.000    25021722.869 6 131490033.18306     -2950.815 6        39.195                                                                    25021719.110 7  98190601.48407     -2203.390 7        42.851    25021721.353 7 100752140.27607     -2260.951 7        46.757
G06        15.000    21333991.005 5 112110948.93605       360.684 5        31.396                                                                                                    21333976.919 3                       280.982 3        22.724
E11        16.000    25646158.305 7 134771824.84707      1314.179 7        42.275                                                                    25646153.991 6 100641041.26606       981.257 6        38.093    25646155.002 6 103266441.81406      1007.069 6        37.028
E04        17.000    25836853.955 5 135773652.46005      1508.840 5        33.431                                                                    25836853.676 6 101389427.26906      1126.404 6        40.000    25836852.248 6 104034344.79706      1155.814 6        41.066
R08        18.000    20090066.211 7 107581522.58007       714.612 7        46.631                                                                    20090065.248 6  83674396.11106       555.549 6        36.544
E19        20.000    22784786.521 6 119734867.07506      -917.723 6        41.352                                                                    22784783.392 7  89412412.35807      -685.335 7        44.492    22784784.100 7  91744897.07307      -703.252 7        47.806
S36        23.000    38148879.423 5 200473817.97805      -851.650 5        35.048
S23        24.000    38092638.208 6 200178121.18006      -847.655 6        40.727
G11        25.000    24001421.385 5 126128373.69005      2305.267 5        32.479                                    24001414.236 1  98281779.24611      1796.348 1         7.500    24001423.617 6  98281821.20406      1796.293 6        36.711
R16        26.000                                                                                                                                    22259901.134 5  92484245.24605     -1521.691 5        35.995
E33        28.000    25918764.179 6 136204034.93706     -3844.871 6        40.682                                                                    25918764.094 6 101710799.52906     -2871.213 6        38.447    25918764.605 5 104364109.96405     -2946.184 5        34.795
E10        29.000    24198310.482 7 127162986.32407       -27.199 7        47.547                                                                    24198307.847 6  94959415.41706       -20.395 6        37.716    24198307.429 7  97436703.69707       -20.925 7        42.802
C20        31.000                                                                                                                                    21973261.826 7 114420697.16207      -124.725 7        45.977                                                                    21973256.228 6  92976067.07206      -101.354 6        40.536
R23        33.000    20010829.823 6 107044455.57206     -1686.478 6        40.193
R07        34.000    19808014.322 7 106033835.48107     -2382.536 7        46.133                                                                    19808015.192 7  82470783.20807     -1853.074 7        44.804
R22        35.000    21489636.732 6 114713178.95906     -4791.947 6        38.384                                                                    21489627.313 3                     -3727.766 3        19.940
C32        36.000                                                                                                                                    23284186.050 7 121246829.34607     -2834.682 7        44.352                                                                    23284185.015 7  98523030.01607     -2303.458 7        42.102
R09        37.000    21709023.017 6 115924930.97706      1667.460 6        40.682                                                                    21709015.348 5  90163949.91105      1297.043 5        34.900
C30        38.000                                                                                                                                    26063409.673 4                     -4206.118 4        26.491                                                                    26063408.338 3                     -3422.664 3        19.612
C23        40.000                                                                                                                                    24452063.925 6 127328336.41306      -573.022 6        40.439                                                                    24452053.056 6 103464704.16306      -465.601 6        37.248
C35        41.000                                                                                                                                    24748292.353 6 128870848.88606       311.175 6        38.664                                                                    24748292.909 6 104718143.03806       252.591 6        36.722
C37        42.000                                                                                                                                                                                                                                                                    24690592.421 6 104473956.74206      1485.196 6        38.724
R24        43.000                                                                                                                                    22605035.588 5                      1900.739 5        32.108
C16        45.000                                                                                                                                    39070853.361 4                     -1576.509 4        29.763    39070854.043 5                     -1219.076 5        30.792    39070860.920 4                     -1281.305 4        28.863
C39        46.000                                                                                                                                    39726979.630 4                     -1893.547 4        24.857
C09        47.000                                                                                                                                    38430533.676 6 200117901.49406     -1040.945 6        36.809    38430529.990 6 154743844.43106      -804.799 6        37.962    38430527.035 5 162612153.16705      -845.719 5        31.955
C19        48.000                                                                                                                                    24926606.501 5 129799627.94905      1691.791 5        30.264                                                                    24926596.082 6 105472578.22606      1374.075 6        39.192
C06        50.000                                                                                                                                    38523710.327 5 200603107.95505     -1517.117 5        32.910    38523720.179 5 155119080.95305     -1173.210 5        32.287    38523701.375 4 163006392.11904     -1232.712 4        27.533
C29        54.000                                                                                                                                    23596875.041 6 122875085.32706     -2815.923 6        38.919                                                                    23596870.384 5  99846135.62105     -2288.128 5        33.760
I01        57.000   380522462.885 6 190111080.89206     -3038.073 6        37.248
I09        58.000    37473987.959 5 147055977.83305      -932.409 5        32.802
> 2025 01 02 03 15 15.0000000  0 39
G03         1.000    21430999.380 7 112620650.03507     -3286.035 7        44.612                                    21430996.454 6  87756284.36906     -2560.551 6        37.304    21430997.128 6  87756377.37406     -2560.496 6        40.269
G19         2.000    23522368.372 3                     -3513.238 3        20.500
G07         5.000    23604368.022 7 124041865.86407      2427.942 7        43.236                                    23604362.064 5  96655939.87005      1891.898 5        35.429    23604362.261 6  96655910.87206      1891.819 6        39.688
G09         6.000    20150428.106 8 105891212.55608       231.855 8        48.076                                    20150423.698 8  82512647.22808       180.668 8        48.259    20150425.763 7  82512634.22207       180.728 7        44.590
G31        10.000                                                                                                                                                                    23664420.356 3                     -3017.569 3        19.343
G04        12.000    20122848.550 8 105746328.48008     -1655.776 8        48.739                                    20122843.477 5  82399659.23005     -1290.215 5        35.790    20122844.528 7  82399683.24307     -1290.192 7        46.234
E12        13.000    23951099.556 8 125863899.92208     -1461.902 8        49.585                                                                    23951094.716 7  93989256.75607     -1091.670 7        45.622    23951095.018 8  96441172.72908     -1120.203 8        48.898
E29        14.000    25024531.077 6 131504789.30606     -2951.364 6        39.703                                                                    25024526.941 7  98201620.67907     -2203.895 7        42.326    25024529.385 7 100763446.93107     -2261.460 7        46.652
G06        15.000                                                                                                                                                                    21333638.324 3                       279.549 3        23.676
E11        16.000    25644908.847 7 134765258.91207      1312.557 7        42.027                                                                    25644904.561 6 100636138.14406       980.088 6        38.066    25644905.697 6 103261410.78606      1005.839 6        36.983
E04        17.000    25835419.481 5 135766113.33805      1507.452 5        33.180                                                                    25835419.175 6 101383797.38306      1125.761 6        40.000    25835417.460 6 104028568.03906      1155.273 6        41.042
R08        18.000    20089401.670 7 107577955.78307       712.663 7        46.929                                                                    20089399.010 6  83671621.95906       554.127 6        38.520
E19        20.000    22785660.661 6 119739460.76406      -919.302 6        40.925                                                                    22785657.629 7  89415842.70107      -686.442 7        44.722    22785658.257 7  91748416.90707      -704.400 7        47.834
S36        23.000    38149685.375 5 200478078.39105      -851.993 5        35.000
S23        24.000    38093446.503 6 200182360.34906      -847.605 6        41.159
G11        25.000    23999230.173 5 126116852.75905      2303.523 5        35.448                                    23999222.600 1  98272801.88201      1794.924 1         8.762    23999229.998 6  98272843.86106      1795.100 6        38.432
R16        26.000                                                                                                                                    22261734.176 5  92491862.14105     -1525.038 5        33.647
E33        28.000    25922423.839 6 136223262.97606     -3845.915 6        40.992                                                                    25922423.171 6 101725158.12906     -2871.972 6        38.925    25922422.880 5 104378843.12005     -2946.777 5        34.362
E10        29.000    24198337.417 7 127163128.64207       -29.397 7        47.579                                                                    24198335.090 6  94959521.68006       -21.981 6        36.628    24198334.339 7  97436812.74507       -22.562 7        42.542
C20        31.000                                                                                                                                    21973382.962 7 114421325.12007      -126.060 7        45.898                                                                    21973377.064 6  92976577.35106      -102.538 6        40.982
R23        33.000    20012408.951 6 107052900.68106     -1691.143 6        39.237
R07        34.000    19810241.470 7 106045753.58507     -2384.325 7        46.062                                                                    19810241.405 7  82480052.84707     -1854.498 7        45.649
R22        35.000    21494125.979 6 114737144.39306     -4793.974 6        39.766                                                                    21494122.237 4                     -3728.904 4        25.143
C32        36.000                                                                                                                                    23286909.077 7 121261006.19007     -2835.582 7        45.112                                                                    23286907.921 7  98534549.87907     -2304.256 7        42.480
R09        37.000    21707464.556 6 115916603.14106      1664.208 6        39.321                                                                    21707455.196 5  90157472.76105      1294.256 5        35.124
C30        38.000                                                                                                                                    26067450.974 4                     -4205.232 4        24.767                                                                    26067448.431 3                     -3415.729 3        20.071
C23        40.000                                                                                                                                    24452614.759 6 127331209.20806      -575.803 6        41.611                                                                    24452605.384 6 103467038.57606      -468.046 6        36.953
C35        41.000                                                                                                                                    24747994.131 6 128869301.12506       308.402 6        39.051                                                                    24747996.001 6 104716885.35406       250.611 6        36.389
C37        42.000                                                                                                                                    24688849.175 4                      1825.125 4        26.108                                                                    24688838.791 6 104466534.51706      1484.178 6        38.769
R24        43.000                                                                                                                                    22602754.126 5                      1898.698 5        33.713
C16        45.000                                                                                                                                    39072366.272 5                     -1577.025 5        30.219    39072368.931 5                     -1219.411 5        31.525    39072374.354 4                     -1281.726 4        29.071
C39        46.000                                                                                                                                    39728792.135 4                     -1892.602 4        25.098
C09        47.000                                                                                                                                    38431532.924 6 200123108.27406     -1041.495 6        36.696    38431529.684 6 154747870.67306      -805.315 6        37.819    38431526.826 5 162616384.12505      -846.739 5        31.826
C19        48.000                                                                                                                                    24924981.049 4 129791175.93204      1690.252 4        27.964                                                                    24924972.770 6 105465710.27306      1373.453 6        39.048
C06        50.000                                                                                                                                    38525167.112 5 200610695.32405     -1517.610 5        33.054    38525177.225 5 155124948.00105     -1173.608 5        32.473    38525159.337 4 163012557.52504     -1234.006 4        27.042
C25        51.000                                                                                                                                    26316652.222 4                     -3036.774 4        26.647
C29        54.000                                                                                                                                    23599580.762 6 122889170.52006     -2817.895 6        39.580                                                                    23599575.710 5  99857581.01305     -2290.079 5        35.048
I01        57.000   380526333.156 6 190126272.49106     -3038.237 6        37.297
I09        58.000    37475176.290 5 147060640.38805      -932.511 5        32.886
> 2025 01 02 03 15 20.0000000  0 37
G03         1.000    21434126.867 7 112637084.75007     -3287.857 7        45.339                                    21434124.475 6  87769090.64606     -2561.968 6        38.054    21434124.530 6  87769183.65406     -2561.963 6        40.107
G07         5.000    23602058.484 7 124029728.90107      2426.891 7        43.374                                    23602052.641 5  96646482.49705      1891.081 5        35.395    23602052.241 6  96646453.50806      1891.100 6        39.964
G09         6.000    20150208.282 8 105890059.59208       229.361 8        48.112                                    20150204.324 8  82511748.81208       178.723 8        48.072    20150206.074 7  82511735.81007       178.767 7        45.025
G31        10.000                                                                                                                                                                    23668098.900 3                     -3018.521 3        20.238
G04        12.000    20124425.381 8 105754613.45708     -1658.184 8        49.924                                    20124420.489 6  82406115.05606     -1292.089 6        36.839    20124421.328 7  82406139.06707     -1292.132 7        46.485
E12        13.000    23952491.688 8 125871216.35308     -1464.491 8        49.311                                                                    23952486.980 7  93994720.33007     -1093.634 7        45.657    23952487.255 8  96446778.82608     -1122.151 8        48.938
E29        14.000    25027339.876 6 131519548.85806     -2952.193 6        40.336                                                                    25027335.564 7  98212642.43807     -2204.693 7        42.059    25027337.959 7 100774756.21607     -2262.276 7        46.556
G06        15.000                                                                                                                                                                    21333300.564 4                       276.022 4        27.940
E11        16.000    25643660.892 6 134758700.26306      1310.820 6        41.776                                                                    25643656.280 6 100631240.44906       978.883 6        38.195    25643657.101 6 103256385.32206      1004.355 6        37.074
E04        17.000    25833987.041 5 135758578.39905      1506.576 5        33.012                                                                    25833985.456 6 101378170.66406      1124.899 6        39.907    25833983.682 6 104022794.54006      1154.211 6        40.956
R08        18.000    20088737.285 7 107574398.07707       710.548 7        45.892                                                                    20088733.468 6  83668854.84606       552.596 6        39.186
E19        20.000    22786536.182 6 119744061.87606      -921.034 6        40.479                                                                    22786533.422 7  89419278.60007      -687.796 7        44.936    22786533.735 7  91751942.42607      -705.772 7        47.775
S36        23.000    38150503.378 5 200482338.40305      -852.465 5        35.100
S23        24.000    38094253.948 6 200186599.19206      -847.866 6        40.853
G11        25.000    23997039.559 6 126105339.15406      2301.825 6        36.930                                    23997032.770 1  98263830.28601      1793.661 1         9.238    23997038.352 6  98263872.25606      1793.674 6        38.844
E33        28.000    25926083.620 6 136242495.56306     -3846.930 6        41.118                                                                    25926082.933 6 101739520.11806     -2872.724 6        39.072    25926082.101 5 104393579.81205     -2947.721 5        34.109
E10        29.000    24198366.280 7 127163281.82507       -31.824 7        47.594                                                                    24198364.023 5  94959636.06405       -23.759 5        35.719    24198363.589 7  97436930.12007       -24.379 7        42.531
C20        31.000                                                                                                                                    21973505.332 7 114421959.76507      -127.718 7        46.092                                                                    21973499.113 6  92977093.03106      -103.764 6        41.628
R23        33.000    20013993.075 6 107061368.93106     -1696.105 6        40.312
R07        34.000    19812469.538 7 106057680.19207     -2386.231 7        46.683                                                                    19812469.479 7  82489329.09807     -1855.934 7        46.240
R22        35.000    21498617.057 6                     -4796.413 6        40.129                                                                    21498621.838 4                     -3730.815 4        26.060
C32        36.000                                                                                                                                    23289633.281 7 121275187.24807     -2836.751 7        45.345                                                                    23289631.335 7  98546073.13707     -2305.243 7        42.976
R09        37.000    21705909.447 5 115908291.23205      1660.879 5        35.519                                                                    21705900.038 6  90151007.99206      1291.669 6        36.681
C30        38.000                                                                                                                                    26071489.614 4                     -4206.147 4        25.158                                                                    26071487.804 3                     -3415.854 3        20.571
C23        40.000                                                                                                                                    24453174.038 6 127334095.53506      -578.674 6        41.707                                                                    24453159.728 6 103469383.96806      -470.455 6        36.839
C35        41.000                                                                                                                                    24747701.816 6 128867766.20906       305.707 6        40.396                                                                    24747700.931 6 104715638.11306       248.236 6        36.287
C37        42.000                                                                                                                                    24687092.132 4                      1825.079 4        28.209                                                                    24687086.175 6 104459117.50606      1482.531 6        39.132
R24        43.000                                                                                                                                    22600469.195 5  93998243.27215      1896.525 5        34.719
C16        45.000                                                                                                                                    39073881.991 5                     -1577.504 5        30.151    39073882.141 5                     -1219.753 5        32.090    39073888.638 4                     -1281.955 4        28.948
C39        46.000                                                                                                                                    39730603.813 3                     -1893.367 3        23.429
C09        47.000                                                                                                                                    38432534.558 6 200128318.00306     -1042.340 6        36.813    38432530.753 6 154751899.17606      -805.939 6        37.607    38432527.624 5 162620617.42605      -846.943 5        31.766
C19        48.000                                                                                                                                    24923356.638 4 129782726.28904      1689.405 4        26.575                                                                    24923350.197 6 105458844.23306      1372.726 6        38.811
C06        50.000                                                                                                                                    38526624.896 5 200618285.13905     -1518.362 5        33.419    38526634.454 5 155130816.90605     -1173.681 5        31.585    38526617.656 4 163018724.84804     -1234.099 4        27.904
C25        51.000                                                                                                                                    26319563.038 4                     -3038.558 4        24.722
C29        54.000                                                                                                                                    23602288.833 6 122903266.14806     -2820.337 6        39.841                                                                    23602286.873 6  99869034.83806     -2291.675 6        37.365
I01        57.000   380530204.865 6 190141464.42506     -3038.566 6        37.198
I09        58.000    37476364.976 5 147065303.29905      -932.598 5        32.754
> 2025 01 02 03 15 25.0000000  0 38
G03         1.000    21437255.835 7 112653527.54307     -3289.229 7        45.437                                    21437254.078 6  87781903.21806     -2563.037 6        38.492    21437253.715 6  87781996.22606     -2563.123 6        39.997
G07         5.000    23599749.498 7 124017596.18007      2426.280 7        43.107                                    23599743.911 5  96637028.42305      1890.604 5        35.305    23599743.021 6  96636999.42506      1890.623 6        39.964
G09         6.000    20149991.079 8 105888918.40908       227.159 8        48.376                                    20149987.267 8  82510859.57408       177.005 8        48.068    20149988.779 7  82510846.58107       176.917 7        45.088
G31        10.000    23671813.742 3                     -3877.865 3        21.143                                                                                                    23671794.830 3                     -3021.271 3        19.493
G04        12.000    20126003.591 8 105762909.84008     -1660.334 8        50.026                                    20125999.718 6  82412579.77306     -1293.765 6        37.384    20126000.068 7  82412603.78507     -1293.764 7        46.837
E12        13.000    23953886.545 8 125878544.73608     -1466.757 8        49.155                                                                    23953881.444 7  94000192.82907     -1095.364 7        45.375    23953881.869 8  96452394.08308     -1123.912 8        49.114
E29        14.000    25030149.230 6 131534312.35806     -2953.024 6        40.930                                                                    25030145.048 6  98223667.12606     -2205.146 6        41.840    25030147.228 7 100786068.50107     -2262.674 7        46.466
G06        15.000    21333036.634 6 112105607.52816       351.365 6        36.885                                                                                                    21332968.121 4                       273.745 4        29.649
E11        16.000    25642414.127 6 134752149.38106      1309.351 6        41.449                                                                    25642409.758 6 100626348.56006       977.916 6        38.513    25642410.004 6 103251365.80406      1003.542 6        37.017
E04        17.000    25832554.863 5 135751048.22805      1505.559 5        32.431                                                                    25832552.654 6 101372547.46406      1124.480 6        39.532    25832550.810 6 104017024.67506      1153.634 6        41.082
R08        18.000    20088072.746 7 107570849.91007       708.728 7        46.013                                                                    20088072.087 6  83666095.18506       551.242 6        39.970
E19        20.000    22787413.189 6 119748670.91606      -922.636 6        40.203                                                                    22787410.492 7  89422720.41207      -688.924 7        45.177    22787410.604 7  91755474.01707      -706.823 7        47.665
S36        23.000    38151312.120 5 200486598.36605      -852.019 5        35.109
S23        24.000    38095059.716 6 200190838.05606      -847.565 6        40.667
G11        25.000    23994849.738 6 126093833.43106      2300.385 6        38.090                                    23994844.166 1  98254864.78101      1792.459 1        10.444    23994848.249 6  98254906.76206      1792.515 6        39.126
R16        26.000    22265391.497 5                     -1969.385 5        33.808                                                                    22265399.454 5  92507145.99515     -1531.892 5        34.457
E33        28.000    25929744.152 6 136261733.22606     -3847.879 6        41.025                                                                    25929743.655 6 101753885.89806     -2873.552 6        38.709    25929741.516 5 104408320.32805     -2948.252 5        33.910
E10        29.000    24198397.541 7 127163446.38107       -33.860 7        47.346                                                                    24198394.797 5  94959758.94305       -25.377 5        34.490    24198395.103 7  97437056.21507       -25.999 7        42.296
C20        31.000                                                                                                                                    21973628.612 7 114422601.56507      -128.973 7        46.622                                                                    21973622.429 6  92977614.58106      -104.768 6        41.809
R23        33.000    20015580.256 6 107069860.90306     -1700.625 6        41.728
R07        34.000    19814699.711 7 106069615.60907     -2387.914 7        47.457                                                                    19814699.118 7  82498612.19207     -1857.322 7        46.355
R22        35.000    21503110.510 6                     -4798.109 6        39.808
C32        36.000                                                                                                                                    23292357.842 7 121289372.99607     -2837.581 7        45.728                                                                    23292355.901 7  98557600.23507     -2305.730 7        43.441
R09        37.000    21704352.664 4 115899995.73604      1656.890 4        28.218                                                                    21704347.497 6  90144555.94006      1289.114 6        38.715
C30        38.000                                                                                                                                    26075522.821 4                     -4205.150 4        24.677                                                                    26075524.906 3                     -3416.461 3        21.452
C23        40.000                                                                                                                                                                                                                                                                    24453716.461 6 103471740.82406      -472.559 6        37.119
C35        41.000                                                                                                                                    24747412.090 7 128866244.68907       302.980 7        42.064                                                                    24747408.388 5 104714401.74305       246.448 5        35.933
C37        42.000                                                                                                                                    24685335.795 4                      1823.859 4        27.952                                                                    24685334.626 6 104451706.13106      1481.751 6        38.952
R24        43.000    22598329.634 6 120842741.19216      2435.789 6        36.665                                                                    22598189.050 5  93988766.69905      1894.204 5        34.695
C16        45.000                                                                                                                                    39075398.909 5                     -1577.957 5        30.332    39075398.321 5                     -1220.242 5        32.719    39075403.364 4                     -1282.048 4        29.583
C39        46.000                                                                                                                                    39732420.539 3                     -1896.129 3        21.429
C09        47.000                                                                                                                                    38433535.267 6 200133531.15106     -1042.822 6        36.696    38433531.262 6 154755930.31906      -806.411 6        37.244    38433528.891 5 162624853.62105      -847.793 5        31.940
