     3.04           OBSERVATION DATA    M                   RINEX VERSION / TYPE
ssrcrin-15.6.1x                         20250102 171500 UTC PGM / RUN BY / DATE 
(00000000023479385599111004) Septentrio proprietary         COMMENT             
ract                                                        MARKER NAME         
01                                                          MARKER NUMBER       
geodetic                                                    MARKER TYPE         
NFB                 CLIMERS@TUW                             OBSERVER / AGENCY   
3296359             SEPT ASTERX SB3 PROB4.14.4              REC # / TYPE / VERS 
Unknown             Unknown                                 ANT # / TYPE        
  4127446.3223  1206914.5181  4695543.3185                  APPROX POSITION XYZ 
        0.0000        0.0000        0.0000                  ANTENNA: DELTA H/E/N
G   23 X1  C1C L1C D1C S1C C1W S1W C2W L2W D2W S2W C2L L2L  SYS / # / OBS TYPES 
       D2L S2L C5Q L5Q D5Q S5Q C1L L1L D1L S1L              SYS / # / OBS TYPES 
E   21 X1  C1C L1C D1C S1C C6C L6C D6C S6C C5Q L5Q D5Q S5Q  SYS / # / OBS TYPES 
       C7Q L7Q D7Q S7Q C8Q L8Q D8Q S8Q                      SYS / # / OBS TYPES 
S    9 X1  C1C L1C D1C S1C C5I L5I D5I S5I                  SYS / # / OBS TYPES 
R   17 X1  C1C L1C D1C S1C C2P L2P D2P S2P C2C L2C D2C S2C  SYS / # / OBS TYPES 
       C3Q L3Q D3Q S3Q                                      SYS / # / OBS TYPES 
C   25 X1  C1P L1P D1P S1P C5P L5P D5P S5P C2I L2I D2I S2I  SYS / # / OBS TYPES 
       C7I L7I D7I S7I C6I L6I D6I S6I C7D L7D D7D S7D      SYS / # / OBS TYPES 
J   17 X1  C1C L1C D1C S1C C2L L2L D2L S2L C5Q L5Q D5Q S5Q  SYS / # / OBS TYPES 
       C1L L1L D1L S1L                                      SYS / # / OBS TYPES 
I    5 X1  C5A L5A D5A S5A                                  SYS / # / OBS TYPES 
SEPTENTRIO RECEIVERS OUTPUT ALIGNED CARRIER PHASES.         COMMENT             
NO FURTHER PHASE SHIFT APPLIED IN THE RINEX ENCODER.        COMMENT             
G L1C                                                       SYS / PHASE SHIFT   
G L2W                                                       SYS / PHASE SHIFT   
G L2L  0.00000                                              SYS / PHASE SHIFT   
G L5Q  0.00000                                              SYS / PHASE SHIFT   
G L1L  0.00000                                              SYS / PHASE SHIFT   
E L1C  0.00000                                              SYS / PHASE SHIFT   
E L6C  0.00000                                              SYS / PHASE SHIFT   
E L5Q  0.00000                                              SYS / PHASE SHIFT   
E L7Q  0.00000                                              SYS / PHASE SHIFT   
E L8Q  0.00000                                              SYS / PHASE SHIFT   
S L1C                                                       SYS / PHASE SHIFT   
S L5I                                                       SYS / PHASE SHIFT   
R L1C                                                       SYS / PHASE SHIFT   
R L2P  0.00000                                              SYS / PHASE SHIFT   
R L2C                                                       SYS / PHASE SHIFT   
R L3Q  0.00000                                              SYS / PHASE SHIFT   
C L1P  0.00000                                              SYS / PHASE SHIFT   
C L5P  0.00000                                              SYS / PHASE SHIFT   
C L2I                                                       SYS / PHASE SHIFT   
C L7I                                                       SYS / PHASE SHIFT   
C L6I                                                       SYS / PHASE SHIFT   
C L7D                                                       SYS / PHASE SHIFT   
J L1C                                                       SYS / PHASE SHIFT   
J L2L  0.00000                                              SYS / PHASE SHIFT   
J L5Q  0.00000                                              SYS / PHASE SHIFT   
J L1L  0.00000                                              SYS / PHASE SHIFT   
I L5A                                                       SYS / PHASE SHIFT   
  2025     1     2    17    15    0.0000000     GPS         TIME OF FIRST OBS   
 C1C    0.000 C2C    0.000 C2P    0.000                     GLONASS COD/PHS/BIS 
DBHZ                                                        SIGNAL STRENGTH UNIT
    18                                                      LEAP SECONDS        
 24 R01  1 R02 -4 R03  5 R04  6 R05  1 R06 -4 R07  5 R08  6 GLONASS SLOT / FRQ #
    R09 -2 R10 -7 R11  0 R12 -1 R13 -2 R14 -7 R15  0 R16 -1 GLONASS SLOT / FRQ #
    R17  4 R18 -3 R19  3 R20  2 R21  4 R22 -3 R23  3 R24  2 GLONASS SLOT / FRQ #
                                                            END OF HEADER       
> 2025 01 02 17 15  0.0000000  0 41
G20         1.000    24803695.807 3                     -3393.142 3        19.343
G25         3.000    23661807.001 4                     -4521.549 4        29.573                                                                                                    23661807.894 3                     -3523.632 3        21.310
G05         4.000    22964476.914 6 120679170.49606     -1389.103 6        39.955                                    22964465.244 3  94035627.55003     -1082.430 3        21.571    22964467.153 3                     -1083.766 3        23.524
E25         6.000                                                                                                                                    25323685.697 5  99375596.87105     -2397.414 5        31.698    25323687.083 6 101968024.97506     -2459.824 6        39.544
G31         7.000    22461505.181 7 118036063.01507     -3051.941 7        42.715                                    22461504.489 5  91976116.39905     -2378.132 5        30.113    22461503.788 6  91976105.37506     -2378.015 6        36.836
G28         8.000    23506741.820 5 123528840.71805     -4089.595 5        31.834                                    23506728.019 1  96256120.31001     -3186.703 1         3.000    23506735.093 4  96256137.20204     -3185.963 4        24.451
G29         9.000    21473844.035 8 112845902.48008     -2859.624 8        48.536                                    21473842.300 7  87931880.27007     -2228.276 7        44.509    21473841.662 6  87931832.27706     -2228.346 6        41.661
E11        10.000    25028065.651 5 131523457.47605     -2855.308 5        30.023                                                                    25028056.801 6  98215489.46506     -2131.939 6        37.800    25028053.963 5 100777684.79005     -2187.229 5        32.269
E10        11.000                                                                                                                                    27482836.387 3                     -2748.711 3        20.238    27482836.943 4                     -2821.310 4        24.481
G18        12.000    20763850.502 8 109114988.89608       266.610 8        50.256                                    20763846.457 6  85024543.08406       207.747 6        40.651    20763845.806 7  85024507.09007       207.722 7        47.970
G27        13.000    24930379.456 3                      2550.627 3        23.771
R02        16.000    23580834.215 4 125831737.04604       889.072 4        28.370
G26        17.000    20769028.746 8 109142011.28808       294.612 8        49.542                                    20769024.814 6  85045737.69406       229.566 6        36.246    20769026.279 5  85045731.74805       229.460 5        34.552
E30        19.000    26126420.690 6 137295403.17406      1529.786 6        41.113                                                                    26126422.703 7 102525837.96607      1142.502 7        47.253    26126422.641 7 105200366.93407      1172.315 7        44.224
E02        21.000    23222876.941 7 122037298.61307      -814.636 7        46.925                                                                    23222876.103 8  91131655.65208      -608.339 8        48.089    23222876.135 8  93509011.26308      -624.197 8        49.473
S23        22.000    38215096.234 6 200821710.26106      -866.116 6        38.060
R10        23.000    22721843.520 6 121120207.60406      3056.474 6        38.012
E36        24.000    23540398.457 7 123705652.82107      -178.910 7        45.434                                                                    23540399.591 7  92377763.17607      -133.516 7        47.077    23540398.551 8  94787599.87608      -137.029 8        48.103
R18        25.000    19987519.007 8 106694703.57608     -3202.289 8        49.085                                                                    19987519.105 7  82984796.09007     -2490.653 7        45.223
G16        26.000    22407419.572 5 117751845.34205      2140.462 5        35.062                                    22407416.463 2  91754668.94502      1667.901 2        17.736
S21        27.000    38491132.911 5 202272439.84405      -862.873 5        34.829
R01        28.000    23903807.946 4                     -2266.350 4        29.858
R19        29.000    19475484.910 6 104180767.11306       -65.922 6        37.115                                                                    19475485.564 6  81029759.99106       -51.172 6        38.523
S36        31.000    38262083.762 5 201068580.72305      -862.704 5        35.657
E34        32.000    26172660.283 5 137538269.37905      2007.177 5        35.962                                                                    26172674.369 5 102707160.63705      1498.813 5        30.075    26172656.688 5 105386454.84105      1538.078 5        32.341
R16        34.000    20294727.389 7 108410755.36207     -3888.646 7        46.286                                                                    20294728.097 6  84319499.03406     -3024.473 6        39.640
C44        35.000                                                                                                                                    22210937.778 7 115658129.25607     -2580.284 7        42.648                                                                    22210938.124 7  93981928.69007     -2096.630 7        43.670
R09        37.000    19662878.159 8 104998755.06908       518.524 8        48.893                                                                    19662874.103 6  81665730.02106       403.250 6        36.688
C11        38.000                                                                                                                                    23383086.718 6 121761911.40806      1421.554 6        39.504    23383096.726 7  94154108.64207      1099.211 7        42.345    23383089.688 5  98941560.91205      1155.189 5        34.781
C43        39.000                                                                                                                                    25347682.383 5                      2008.235 5        33.772                                                                    25347698.549 4                      1631.895 4        28.853
C35        40.000                                                                                                                                    26085953.057 3                     -3838.172 3        21.429
C12        41.000                                                                                                                                    21709422.293 7 113046759.30307     -1287.604 7        45.211    21709420.654 7  87414933.72207      -995.559 7        47.353    21709419.559 7  91859742.65407     -1046.250 7        45.326
C13        43.000                                                                                                                                    37866302.823 5 197179799.00705      -277.742 5        35.476    37866305.948 7 152471945.97107      -214.622 7        44.202    37866303.398 6 160224736.64106      -225.693 6        39.748
C38        44.000                                                                                                                                    38661771.282 5 201321985.74205     -1054.079 5        32.964                                                                    38661761.918 5                      -856.303 5        32.419
C25        45.000                                                                                                                                    22219995.936 7 115705408.39007      -911.962 7        47.895                                                                    22219993.563 7  94020297.27607      -741.064 7        43.272
C08        46.000                                                                                                                                    37819049.075 7 196933749.37107      -502.164 7        44.199    37819041.144 7 152281715.39107      -388.267 7        42.313    37819039.517 6 160024778.11206      -408.019 6        37.425
C23        47.000                                                                                                                                    25413362.520 6 132334351.98006      1793.369 6        40.927                                                                    25413354.591 7 107532366.39207      1457.452 7        44.021
C24        51.000                                                                                                                                    23429466.885 5 122003407.66705     -3762.184 5        34.314                                                                    23429467.438 7  99137748.84107     -3057.011 7        43.336
C34        52.000                                                                                                                                    21841678.915 8 113735417.10508       380.899 8        50.819                                                                    21841679.000 8  92419422.67008       309.530 8        48.524
I02        56.000    38508444.107 5 151115399.79405     -1182.169 5        34.633
I06        58.000    38776199.202 5 152166243.54805      -650.362 5        35.657
> 2025 01 02 17 15  5.0000000  0 39
G25         3.000    23666112.445 5                     -4522.025 5        30.053                                                                                                    23666107.869 3                     -3523.362 3        20.714
G05         4.000    22965800.367 6 120686124.21506     -1392.244 6        39.637                                    22965788.151 3  94041045.99903     -1084.863 3        22.114    22965792.627 4                     -1084.831 4        27.317
E25         6.000    25326733.328 5 133092935.19915     -3211.076 5        34.771                                                                    25326740.046 5  99387584.71905     -2398.487 5        30.355    25326742.373 6 101980325.48006     -2460.370 6        39.829
G31         7.000    22464409.159 6 118051328.51106     -3054.188 6        39.901                                    22464410.136 4  91988011.60704     -2379.886 4        28.190    22464409.228 6  91988000.56406     -2379.746 6        36.095
G28         8.000    23510631.982 5 123549291.82705     -4090.820 5        31.275                                    23510619.069 1  96272056.45201     -3187.543 1         2.000
G29         9.000    21476565.299 7 112860203.62607     -2860.773 7        47.874                                    21476563.770 7  87943024.02207     -2229.174 7        44.612    21476562.656 6  87942976.03206     -2229.182 6        41.509
E11        10.000    25030783.710 4 131537736.60904     -2856.459 4        28.104                                                                    25030773.646 6  98226152.42006     -2132.971 6        37.512    25030770.707 5 100788625.89505     -2188.644 5        31.245
E10        11.000                                                                                                                                    27486341.258 3                     -2747.667 3        20.976    27486340.942 4                     -2820.538 4        24.226
G18        12.000    20763598.022 8 109113662.63408       263.947 8        50.039                                    20763593.850 6  85023509.64406       205.669 6        40.451    20763593.301 7  85023473.64507       205.715 7        47.388
G27        13.000    24927946.589 4                      2550.815 4        24.496
R02        16.000    23580002.887 4 125827297.38004       886.033 4        27.401
G26        17.000    20768749.494 8 109140544.74908       292.067 8        49.141                                    20768746.653 5  85044594.93105       227.586 5        35.852    20768747.784 5  85044588.97105       227.569 5        34.548
E30        19.000    26124965.956 6 137287755.01706      1529.444 6        41.371                                                                    26124967.439 7 102520126.69607      1142.160 7        47.364    26124967.309 7 105194506.68707      1171.910 7        44.257
E02        21.000    23223652.771 7 122041375.84307      -816.192 7        46.758                                                                    23223651.949 8  91134700.34508      -609.522 8        48.059    23223652.053 8  93512135.38008      -625.324 8        49.635
S23        22.000    38215917.376 6 200826040.19406      -865.796 6        37.864
R10        23.000    22718973.456 6 121104928.37106      3055.073 6        36.057
E36        24.000    23540569.730 7 123706552.07707      -180.801 7        45.257                                                                    23540570.606 7  92378434.69607      -134.975 7        46.839    23540569.668 7  94788288.91507      -138.546 7        47.539
R18        25.000    19990519.433 8 106710720.04708     -3204.280 8        49.326                                                                    19990519.468 7  82997253.32507     -2492.128 7        45.005
G16        26.000    22405386.039 6 117741146.93006      2139.097 6        37.732                                    22405380.690 3  91746332.53103      1666.841 3        18.597
S21        27.000    38491950.507 5 202276755.13305      -863.056 5        34.462
R01        28.000    23905926.051 4                     -2270.833 4        28.882
R19        29.000    19475547.080 5 104181104.42105       -69.152 5        35.967                                                                    19475547.390 6  81030022.33706       -53.569 6        38.411
S36        31.000    38262902.101 5 201072893.49205      -862.378 5        35.471
E34        32.000    26170751.226 5 137528235.20105      2006.482 5        34.933                                                                    26170768.700 4 102699667.60204      1498.783 4        28.493    26170746.485 5 105378766.35305      1537.565 5        31.057
R16        34.000    20298367.898 7 108430206.02807     -3891.618 7        45.369                                                                    20298369.965 6  84334627.33006     -3026.823 6        40.007
C44        35.000                                                                                                                                    22213414.472 6 115671033.88606     -2581.327 6        41.452                                                                    22213416.632 7  93992414.79107     -2097.664 7        44.233
R09        37.000    19662394.302 7 104996172.05807       514.755 7        47.840                                                                    19662389.902 5  81663721.02705       400.223 5        33.796
C11        38.000                                                                                                                                    23381723.289 6 121754806.75106      1420.440 6        39.309    23381731.063 6  94148614.86006      1098.272 6        40.918    23381723.791 5  98935787.78305      1154.317 5        34.862
C43        39.000                                                                                                                                    25345753.346 5 131981993.23815      2007.680 5        33.886                                                                    25345769.111 4                      1631.356 4        28.398
C12        41.000                                                                                                                                    21710659.578 7 113053201.19207     -1289.188 7        45.339    21710657.836 7  87419915.00707      -996.812 7        47.845    21710656.598 7  91864977.23407     -1047.572 7        45.497
C13        43.000                                                                                                                                    37866570.612 5 197181189.49905      -278.632 5        35.152    37866572.576 7 152473021.19107      -215.375 7        44.238    37866570.534 6 160225866.53806      -226.423 6        39.727
C38        44.000                                                                                                                                    38662782.665 5 201327257.70605     -1054.765 5        32.988                                                                    38662774.458 5                      -857.044 5        32.659
C25        45.000                                                                                                                                    22220873.051 7 115709974.87407      -914.549 7        47.671                                                                    22220870.445 7  94024007.94107      -743.240 7        43.771
C08        46.000                                                                                                                                    37819531.905 7 196936262.54807      -503.100 7        44.129    37819523.824 7 152283658.75607      -388.904 7        42.627    37819522.183 6 160026820.30206      -408.734 6        37.365
C23        47.000                                                                                                                                    25411640.404 6 132325388.06706      1792.110 6        40.751                                                                    25411633.041 7 107525082.49207      1456.224 7        43.954
C24        51.000                                                                                                                                    23433078.844 5 122022221.90805     -3763.588 5        34.452                                                                    23433080.781 7  99153036.93707     -3058.113 7        42.986
C34        52.000                                                                                                                                    21841313.803 8 113733516.55608       379.407 8        50.684                                                                    21841313.983 8  92417878.34008       308.272 8        48.667
I02        56.000    38509948.232 5 151121311.67305     -1182.410 5        34.362
I06        58.000    38777027.571 6 152169494.26106      -650.020 6        36.064
> 2025 01 02 17 15 10.0000000  0 39
G20         1.000    24810157.620 3                     -3400.246 3        18.657
G25         3.000    23670418.403 5                     -4522.785 5        31.102
G05         4.000    22967126.697 6 120693094.74806     -1395.699 6        41.147                                    22967115.257 3  94046477.57803     -1087.564 3        23.086    22967122.801 5                     -1087.781 5        31.238
E25         6.000    25329795.276 6 133108993.64906     -3212.187 6        37.747                                                                    25329795.177 4  99399576.39704     -2398.810 4        29.517    25329798.659 6 101992630.00106     -2461.202 6        40.150
G31         7.000    22467313.686 5 118066605.93705     -3056.521 5        35.690                                    22467318.032 4  91999916.11004     -2381.707 4        24.812    22467314.921 5  91999905.05705     -2381.803 5        35.090
G28         8.000    23514524.571 5 123569748.31705     -4091.871 5        31.487                                    23514511.773 1  96287996.41001     -3188.448 1         2.400    23514528.267 4  96288013.41604     -3188.365 4        25.293
G29         9.000    21479288.164 7 112874511.26007     -2862.064 7        47.943                                    21479286.420 7  87954172.83007     -2230.181 7        44.471    21479285.055 6  87954124.83706     -2230.236 6        41.602
E11        10.000    25033503.405 4 131552022.27704     -2857.438 4        27.641                                                                    25033491.997 6  98236820.26106     -2134.001 6        37.425    25033489.270 5 100799572.03705     -2189.724 5        30.513
E10        11.000                                                                                                                                    27489844.341 3                     -2749.074 3        21.190    27489844.369 3                     -2822.330 3        23.981
G18        12.000    20763347.874 8 109112350.14408       261.200 8        50.081                                    20763343.752 6  85022486.93506       203.530 6        40.110    20763343.576 7  85022450.94607       203.483 7        47.167
R02        16.000    23579168.188 4 125822874.88904       883.101 4        28.720
G26        17.000    20768472.578 8 109139091.39108       289.409 8        48.977                                    20768471.076 5  85043462.44105       225.515 5        35.071    20768470.007 5  85043456.48205       225.390 5        33.341
E30        19.000    26123511.525 6 137280109.90506      1528.669 6        41.468                                                                    26123512.763 7 102514417.71407      1141.640 7        47.753    26123512.571 7 105188648.77907      1171.441 7        44.417
E02        21.000    23224430.321 7 122045461.48907      -817.940 7        46.686                                                                    23224429.411 8  91137751.31108      -610.717 8        48.110    23224429.596 8  93515265.94108      -626.677 8        49.930
S23        22.000    38216741.465 6 200830369.54106      -865.766 6        37.826
R10        23.000    22716108.964 5 121089656.07105      3053.568 5        35.590
E36        24.000    23540743.135 7 123707461.53607      -182.781 7        45.511                                                                    23540743.653 7  92379113.85607      -136.545 7        46.833    23540742.788 7  94788985.78707      -140.142 7        47.058
R18        25.000    19993522.017 8 106726747.06708     -3206.401 8        49.300                                                                    19993521.631 7  83009718.77507     -2493.833 7        43.932
G16        26.000    22403351.857 6 117730455.44506      2137.758 6        40.191                                    22403346.057 3  91738001.52403      1665.763 3        19.075
S21        27.000    38492769.963 5 202281069.56105      -862.881 5        34.305
R01        28.000    23908056.766 4                     -2274.242 4        28.341                                                                    23908104.785 4                     -1769.652 4        24.782
R19        29.000    19475613.431 6 104181457.46606       -72.064 6        36.147                                                                    19475615.674 6  81030296.96006       -55.958 6        39.426
S36        31.000    38263725.376 5 201077205.72905      -862.440 5        35.919
E34        32.000    26168842.157 5 137518205.38905      2005.339 5        33.844                                                                    26168863.212 4 102692177.73704      1498.250 4        25.774    26168836.716 5 105371081.21805      1536.609 5        30.136
R16        34.000    20302012.395 7 108449672.17407     -3894.726 7        44.838                                                                    20302013.855 6  84349767.66706     -3029.178 6        40.293
C44        35.000                                                                                                                                    22215891.380 6 115683944.54306     -2582.558 6        39.405                                                                    22215896.288 7  94002905.70307     -2098.636 7        44.957
R09        37.000    19661913.688 7 104993608.41407       510.861 7        46.983                                                                    19661911.754 5  81661727.14705       397.192 5        30.385
C11        38.000                                                                                                                                    23380359.260 6 121747708.01606      1419.208 6        39.165    23380365.274 6  94143125.62306      1097.272 6        39.477    23380358.578 5  98930019.45705      1153.205 5        34.414
C43        39.000                                                                                                                                    25343825.695 5 131971957.10805      2007.089 5        33.838                                                                    25343838.985 4                      1630.920 4        27.820
C12        41.000                                                                                                                                    21711898.877 7 113059651.52807     -1290.925 7        46.027    21711896.144 7  87424902.81607      -998.163 7        47.710    21711895.294 7  91870218.62807     -1049.007 7        45.685
C13        43.000                                                                                                                                    37866839.465 6 197182584.43306      -279.376 6        36.136    37866840.503 7 152474099.85707      -216.045 7        44.060    37866838.588 6 160227000.02906      -226.996 6        39.691
C38        44.000                                                                                                                                    38663794.883 5 201332533.85005     -1055.766 5        34.048                                                                    38663788.028 5                      -857.798 5        32.850
C25        45.000                                                                                                                                    22221752.505 7 115714554.77707      -917.292 7        47.253                                                                    22221749.913 7  94027729.46707      -745.476 7        44.066
C08        46.000                                                                                                                                    37820015.531 7 196938780.65407      -503.985 7        44.205    37820007.396 7 152285605.92307      -389.776 7        43.035    37820005.781 6 160028866.44306      -409.519 6        36.945
C23        47.000                                                                                                                                    25409919.804 6 132316431.12006      1790.852 6        41.154                                                                    25409912.563 7 107517804.22207      1455.078 7        43.657
C24        51.000                                                                                                                                    23436692.756 5 122041042.74605     -3764.854 5        35.405                                                                    23436695.638 7  99168330.41207     -3059.202 7        42.732
C34        52.000                                                                                                                                    21840950.441 8 113731623.99708       377.767 8        50.588                                                                    21840950.549 8  92416340.46708       306.963 8        48.702
I02        56.000    38511452.814 5 151127223.59305     -1182.419 5        33.665
I06        58.000    38777855.723 5 152172744.26105      -650.026 5        35.714
> 2025 01 02 17 15 15.0000000  0 39
G20         1.000    24813384.642 3                     -3397.634 3        21.452
G25         3.000    23674723.153 5                     -4523.705 5        30.792
G05         4.000    22968456.374 6 120700082.61606     -1399.319 6        40.913                                    22968446.115 4  94051922.65304     -1090.377 4        24.150    22968455.255 5  94051986.61015     -1090.487 5        34.343
E25         6.000    25332854.230 6 133125057.75606     -3213.394 6        40.524                                                                    25332852.124 4  99411572.32404     -2399.791 4        28.834    25332855.810 6 102004938.83706     -2462.228 6        40.291
G31         7.000    22470222.715 3 118081895.71703     -3059.547 3        22.552                                    22470227.815 3  92011830.25503     -2384.049 3        20.167    22470221.733 5  92011819.20805     -2383.874 5        32.617
G28         8.000    23518417.415 5 123590210.60605     -4092.669 5        31.781                                    23518406.896 1  96303941.12701     -3189.047 1         2.400    23518422.439 4  96303958.25604     -3190.085 4        26.084
G29         9.000    21482011.998 7 112888825.83607     -2863.669 7        47.922                                    21482010.349 7  87965327.04907     -2231.432 7        43.970    21482008.414 6  87965279.05806     -2231.522 6        41.173
E11        10.000    25036222.578 4 131566315.08404     -2859.898 4        26.862                                                                    25036211.713 6  98247493.37206     -2135.113 6        37.210    25036209.519 5 100810523.61205     -2190.915 5        30.023
E10        11.000                                                                                                                                    27493349.918 3                     -2750.356 3        21.714    27493349.298 3                     -2822.820 3        23.390
G18        12.000    20763100.649 8 109111051.90008       258.176 8        49.764                                    20763096.311 6  85021475.33406       201.172 6        39.571    20763096.633 7  85021439.33807       201.198 7        46.597
R02        16.000    23578340.788 5 125818469.82405       879.405 5        30.136
G26        17.000    20768198.387 8 109137651.67608       286.531 8        48.171                                    20768198.204 5  85042340.58105       223.278 5        34.048    20768195.157 5  85042334.60505       223.618 5        32.084
E30        19.000    26122057.505 7 137272468.29107      1528.023 7        42.421                                                                    26122058.674 7 102508711.33307      1141.027 7        47.891    26122058.380 7 105182793.54207      1170.771 7        44.570
E02        21.000    23225209.648 7 122049555.97907      -819.874 7        47.219                                                                    23225208.558 8  91140808.89408      -612.253 8        48.065    23225208.777 8  93518403.28508      -628.185 8        50.060
S23        22.000    38217562.741 6 200834698.55406      -865.825 6        38.405
R10        23.000    22713244.837 5 121074390.98005      3052.153 5        34.038
E36        24.000    23540918.256 7 123708381.68507      -185.212 7        45.735                                                                    23540918.675 7  92379800.99007      -138.270 7        46.742    23540918.039 7  94789690.83607      -141.849 7        46.619
R18        25.000    19996526.618 8 106742784.97608     -3208.749 8        49.248                                                                    19996525.892 7  83022192.70307     -2495.739 7        43.075
G16        26.000    22401318.132 6 117719771.38706      2136.118 6        40.894                                    22401312.734 3  91729676.29103      1664.497 3        19.791
S21        27.000    38493593.399 5 202285383.84105      -863.026 5        34.195
R01        28.000    23910192.350 4                     -2278.468 4        28.009                                                                    23910235.276 3                     -1773.962 3        21.857
R19        29.000    19475683.202 6 104181826.87206       -75.570 6        37.524                                                                    19475683.736 6  81030584.23506       -58.691 6        39.625
S36        31.000    38264548.740 5 201081518.20205      -862.445 5        35.852
E34        32.000    26166933.336 5 137508180.28505      2004.642 5        31.675                                                                    26166957.115 3 102684691.50003      1497.471 3        22.495    26166928.741 4 105363399.74904      1536.197 4        29.706
R16        34.000    20305659.510 7 108469154.24507     -3898.065 7        44.119                                                                    20305659.997 6  84364920.38306     -3031.698 6        40.605
C44        35.000                                                                                                                                    22218371.819 5 115696861.59205     -2584.010 5        35.990                                                                    22218377.109 7  94013401.87607     -2099.592 7        45.792
R09        37.000    19661437.996 7 104991064.67107       506.667 7        47.089                                                                    19661443.096 6  81659748.60706       394.199 6        36.129
C11        38.000                                                                                                                                    23378996.967 6 121740615.66806      1417.689 6        38.706    23379000.186 6  94137641.32306      1096.455 6        38.739    23378994.579 5  98924256.30205      1152.495 5        33.096
C43        39.000                                                                                                                                    25341898.453 5 131961924.18905      2006.123 5        33.138                                                                    25341909.779 4                      1630.363 4        27.844
C12        41.000                                                                                                                                    21713140.819 7 113066110.70407     -1292.797 7        46.302    21713135.819 7  87429897.45407      -999.670 7        47.365    21713135.708 7  91875467.25707     -1050.375 7        45.991
C13        43.000                                                                                                                                    37867109.967 6 197183984.35806      -280.391 6        37.233    37867109.331 7 152475182.38607      -216.886 7        43.719    37867107.288 6 160228137.62606      -227.939 6        39.997
C38        44.000                                                                                                                                    38664808.172 5 201337814.59905     -1056.784 5        34.381                                                                    38664802.268 5                      -858.544 5        32.671
C25        45.000                                                                                                                                    22222634.166 7 115719148.56007      -920.173 7        46.356                                                                    22222632.262 7  94031462.30707      -747.630 7        44.471
C08        46.000                                                                                                                                    37820499.600 7 196941304.23507      -505.396 7        43.731    37820492.157 7 152287557.31107      -390.689 7        43.263    37820490.311 6 160030917.07706      -410.665 6        36.703
C23        47.000                                                                                                                                    25408200.596 6 132307481.61806      1789.095 6        41.220                                                                    25408193.743 7 107510532.03707      1454.000 7        43.577
C24        51.000                                                                                                                                    23440308.327 6 122059870.65706     -3766.215 6        36.461                                                                    23440311.874 7  99183629.67807     -3060.396 7        42.087
C34        52.000                                                                                                                                    21840588.583 8 113729739.90508       375.891 8        50.306                                                                    21840588.822 8  92414809.52008       305.545 8        48.807
I02        56.000    38512958.393 5 151133135.79505     -1182.782 5        33.210
I06        58.000    38778683.666 5 152175993.89605      -650.101 5        35.914
> 2025 01 02 17 15 20.0000000  0 39
G20         1.000    24816624.717 3                     -3403.060 3        23.676
G25         3.000    23679027.179 4                     -4524.548 4        28.190                                                                                                    23679024.616 3                     -3523.666 3        18.328
G05         4.000    22969789.189 6 120707088.18706     -1403.054 6        41.366                                    22969780.800 4  94057381.54004     -1093.266 4        25.459    22969786.629 6  94057445.56806     -1093.375 6        36.098
E25         6.000    25335912.822 7 133141127.90107     -3214.795 7        42.083                                                                    25335910.517 4  99423572.74604     -2400.946 4        28.910    25335913.631 6 102017252.31806     -2463.213 6        40.260
G31         7.000                                                                                                                                                                    22473133.461 4  92023743.20804     -2385.828 4        29.052
G28         8.000    23522311.079 5 123610679.20205     -4094.422 5        30.136                                    23522301.156 1  96319890.85801     -3190.538 1         2.600    23522313.473 4  96319907.76304     -3189.832 4        26.874
G29         9.000    21484737.664 7 112903147.76407     -2865.182 7        47.982                                    21484735.616 7  87976487.00507     -2232.613 7        43.283    21484733.463 6  87976439.01606     -2232.752 6        40.682
E11        10.000    25038942.759 4 131580615.25204     -2860.816 4        28.313                                                                    25038932.945 6  98258172.05706     -2136.345 6        36.987    25038930.882 4 100821480.84404     -2192.093 4        28.379
E10        11.000    27496893.275 4 144497155.39114     -3683.591 4        29.678                                                                    27496854.535 3                     -2750.478 3        21.881    27496853.941 3                     -2822.016 3        22.248
G18        12.000    20762856.382 8 109109768.29608       255.182 8        49.521                                    20762851.740 6  85020475.13606       198.840 6        39.210    20762852.636 7  85020439.13507       198.841 7        46.857
R02        16.000    23577519.914 4 125814083.16004       875.652 4        29.839
G26        17.000    20767926.838 7 109136226.01307       283.721 7        47.329                                    20767927.948 5  85041229.66905       221.081 5        32.796    20767923.496 4  85041223.74304       220.788 4        29.782
E30        19.000    26120603.976 7 137264830.59907      1527.087 7        42.991                                                                    26120605.214 8 102503007.87708      1140.297 8        48.038    26120604.908 7 105176941.30707      1170.076 7        44.551
E02        21.000    23225990.559 7 122053659.73207      -821.720 7        47.492                                                                    23225989.541 8  91143873.39308      -613.704 8        48.189    23225989.598 8  93521547.72608      -629.677 8        50.133
S23        22.000    38218389.374 6 200839027.90406      -866.087 6        38.613
R10        23.000    22710383.522 5 121059133.47405      3050.672 5        34.629
E36        24.000    23541095.358 7 123709312.92407      -187.489 7        45.589                                                                    23541095.894 7  92380496.40207      -140.036 7        46.747    23541095.273 7  94790404.39207      -143.677 7        46.276
R18        25.000    19999533.282 8 106758834.21508     -3211.127 8        48.840                                                                    19999532.586 7  83034675.43707     -2497.579 7        42.595
G16        26.000    22399285.648 6 117709095.13706      2134.282 6        40.770                                    22399280.748 3  91721357.15403      1663.074 3        19.910
S21        27.000    38494417.322 5 202289698.23405      -862.872 5        34.276
R01        28.000    23912321.008 4                     -2280.937 4        24.211                                                                    23912366.402 3                     -1768.992 3        18.000
R19        29.000    19475757.448 6 104182212.95506       -78.870 6        38.000                                                                    19475755.650 6  81030884.53706       -61.472 6        40.212
S36        31.000    38265366.662 5 201085830.81105      -862.724 5        35.829
E34        32.000    26165026.593 4 137498160.38104      2003.321 4        29.896                                                                    26165048.814 3                      1496.559 3        22.419    26165021.729 4 105355722.21104      1535.094 4        29.536
R16        34.000    20309310.037 7 108488652.67307     -3901.404 7        42.912                                                                    20309310.516 6  84380085.85606     -3034.501 6        41.630
C44        35.000                                                                                                                                    22220854.309 5 115709785.45705     -2585.481 5        32.760                                                                    22220859.295 7  94023903.58807     -2101.001 7        46.513
R09        37.000    19660966.118 7 104988541.18607       502.616 7        47.466                                                                    19660968.698 6  81657785.94906       390.989 6        39.766
C11        38.000                                                                                                                                    23377633.484 6 121733530.09106      1416.200 6        36.204    23377637.104 6  94132162.33106      1095.197 6        39.156    23377631.478 5  98918498.65305      1151.161 5        32.850
C43        39.000                                                                                                                                    25339973.233 5 131951894.90005      2005.627 5        33.192                                                                    25339982.076 4                      1629.863 4        27.329
C12        41.000                                                                                                                                    21714383.467 7 113072579.13907     -1294.683 7        46.192    21714377.758 7  87434899.26607     -1001.177 7        47.386    21714377.870 7  91880723.39407     -1052.089 7        46.080
C13        43.000                                                                                                                                    37867379.546 6 197185389.63206      -281.514 6        37.819    37867379.477 7 152476269.04107      -217.802 7        43.598    37867377.179 6 160229279.53106      -228.962 6        40.155
C38        44.000                                                                                                                                    38665822.320 5 201343100.33605     -1057.646 5        34.176                                                                    38665817.384 5                      -859.332 5        33.000
C25        45.000                                                                                                                                    22223518.265 7 115723756.63007      -923.175 7        45.600                                                                    22223517.388 7  94035206.72707      -750.173 7        44.930
C08        46.000                                                                                                                                    37820985.133 7 196943833.65307      -506.500 7        43.230    37820978.123 7 152289513.23107      -391.663 7        43.920    37820975.871 6 160032972.43406      -411.796 6        36.832
C23        47.000                                                                                                                                    25406482.902 6 132298539.95706      1787.514 6        41.769                                                                    25406476.263 7 107503266.22907      1452.418 7        43.018
C24        51.000                                                                                                                                    23443926.598 6 122078706.06506     -3767.827 6        36.756                                                                    23443928.552 6  99198934.99206     -3061.814 6        41.242
C34        52.000                                                                                                                                    21840228.409 8 113727864.67008       374.078 8        50.141                                                                    21840228.737 8  92413285.74908       303.966 8        49.023
I02        56.000    38514464.495 5 151139048.80205     -1182.758 5        33.257
I06        58.000    38779512.330 5 152179243.50805      -650.044 5        35.776
> 2025 01 02 17 15 25.0000000  0 37
G25         3.000    23683328.818 3                     -4524.926 3        22.171
G05         4.000    22971126.199 6 120714111.62506     -1406.492 6        41.342                                    22971119.009 4  94062854.34304     -1095.960 4        26.934    22971123.702 6  94062918.38506     -1095.893 6        37.251
E25         6.000    25338971.900 7 133157204.27007     -3215.692 7        43.109                                                                    25338970.880 4  99435577.80704     -2401.109 4        29.962    25338972.552 6 102029570.56706     -2464.110 6        40.324
G31         7.000    22476069.245 6 118112540.41616     -3064.371 6        36.280                                                                                                    22476044.596 4  92035677.48404     -2388.389 4        24.602
G28         8.000    23526204.161 4 123631154.05904     -4095.127 4        26.359                                                                                                    23526212.949 4  96335862.49604     -3191.448 4        27.665
G29         9.000    21487464.110 7 112917477.18507     -2866.513 7        47.533                                    21487462.272 7  87987652.80007     -2233.652 7        42.445    21487459.991 6  87987604.80506     -2233.567 6        40.417
E11        10.000    25041664.675 4 131594922.99704     -2862.370 4        29.697                                                                    25041655.247 6  98268856.39506     -2137.404 6        36.370    25041654.086 4 100832443.91604     -2193.546 4        27.329
E10        11.000    27500395.927 4 144515576.23504     -3684.545 4        29.687                                                                    27500360.291 3                     -2750.017 3        23.105    27500359.930 3                     -2823.312 3        22.762
G18        12.000    20762614.915 8 109108499.52908       252.356 8        49.392                                    20762610.120 6  85019486.50406       196.640 6        38.862    20762611.441 7  85019450.49707       196.685 7        47.319
G26        17.000    20767658.388 7 109134814.62107       280.960 7        46.776                                    20767660.066 5  85040129.87005       218.937 5        30.566    20767656.204 4  85040123.95304       219.014 4        29.090
E30        19.000    26119151.472 7 137257197.03607      1526.328 7        43.894                                                                    26119152.745 8 102497307.49708      1139.808 8        48.143    26119152.155 7 105171092.21807      1169.608 7        44.564
E02        21.000    23226773.312 7 122057772.94807      -823.513 7        47.959                                                                    23226772.238 8  91146944.94908      -614.988 8        48.075    23226772.243 8  93524699.41308      -630.979 8        50.183
S23        22.000    38219214.424 6 200843357.59406      -865.963 6        38.694
R10        23.000    22707523.683 5 121043884.28705      3049.134 5        35.267
E36        24.000    23541274.594 7 123710255.42007      -189.557 7        45.302                                                                    23541275.173 7  92381200.22307      -141.574 7        46.888    23541274.724 7  94791126.57807      -145.289 7        46.054
R18        25.000    20002541.976 8 106774894.96308     -3213.240 8        48.435                                                                    20002540.853 7  83047167.11907     -2499.200 7        42.499
G16        26.000    22397255.074 6 117698426.87906      2132.854 6        40.501                                    22397250.547 3  91713044.23703      1661.944 3        20.143
S21        27.000    38495239.976 5 202294013.05205      -862.755 5        34.562
R01        28.000    23914460.863 4                     -2285.582 4        24.767                                                                    23914462.283 3                     -1773.581 3        20.381
R19        29.000    19475832.156 6 104182615.89106       -82.248 6        36.072                                                                    19475830.431 6  81031197.94406       -64.067 6        41.390
S36        31.000    38266184.267 5 201090143.37205      -862.491 5        35.533
E34        32.000                                                                                                                                                                                                    26163116.572 4 105348048.81804      1533.952 4        29.801
R16        34.000    20312964.006 7 108508167.54007     -3904.439 7        42.315                                                                    20312962.097 6  84395264.08606     -3036.652 6        40.493
C44        35.000                                                                                                                                    22223338.940 5 115722716.34305     -2586.710 5        31.268                                                                    22223342.790 7  94034410.97007     -2101.867 7        46.818
R09        37.000    19660496.824 7 104986038.22707       498.497 7        46.876                                                                    19660498.279 6  81655839.25106       387.865 6        41.661
C11        38.000                                                                                                                                    23376270.524 5 121726451.43905      1415.230 5        32.880    23376277.562 6  94126688.72906      1094.254 6        39.090    23376271.702 5  98912746.72705      1149.721 5        33.461
C43        39.000                                                                                                                                    25338049.712 5 131941869.38805      2004.681 5        33.497                                                                    25338055.665 4                      1629.957 4        25.504
C12        41.000                                                                                                                                    21715626.517 7 113079057.03707     -1296.452 7        45.917    21715622.097 7  87439908.37907     -1002.452 7        47.611    21715621.895 7  91885987.20807     -1053.397 7        46.137
C13        43.000                                                                                                                                    37867650.243 6 197186800.45706      -282.716 6        38.508    37867650.584 7 152477359.98607      -218.478 7        43.374    37867648.161 6 160230425.93406      -229.582 6        40.246
C38        44.000                                                                                                                                    38666837.990 5 201348391.25205     -1058.806 5        34.609                                                                    38666833.534 5                      -860.378 5        33.114
C25        45.000                                                                                                                                    22224405.475 7 115728379.14907      -925.863 7        45.615                                                                    22224405.289 7  94038962.91107      -752.193 7        45.210
C08        46.000                                                                                                                                    37821471.375 7 196946369.10707      -507.627 7        42.868    37821464.825 7 152291473.81107      -392.545 7        44.462    37821463.039 6 160035032.69606      -412.420 6        36.514
C23        47.000                                                                                                                                    25404766.834 7 132289606.35607      1786.011 7        42.419                                                                    25404760.318 7 107496006.96607      1451.362 7        42.787
C24        51.000                                                                                                                                    23447545.935 6 122097549.13006     -3769.390 6        37.225                                                                    23447546.624 6  99214246.52006     -3062.803 6        40.224
C34        52.000                                                                                                                                    21839870.267 8 113725998.48508       372.383 8        50.010                                                                    21839870.499 8  92411769.32908       302.705 8        49.018
I02        56.000    38515973.219 5 151144962.65505     -1183.073 5        32.844
I06        58.000    38780339.712 5 152182493.17505      -649.832 5        35.476
> 2025 01 02 17 15 30.0000000  0 37
G20         1.000    24823124.198 4                     -3407.160 4        26.443
