     3.04           OBSERVATION DATA    M                   RINEX VERSION / TYPE
ssrcrin-15.6.1x                         20250102 191500 UTC PGM / RUN BY / DATE 
(00000000023479385599111004) Septentrio proprietary         COMMENT             
ract                                                        MARKER NAME         
01                                                          MARKER NUMBER       
geodetic                                                    MARKER TYPE         
NFB                 CLIMERS@TUW                             OBSERVER / AGENCY   
3296359             SEPT ASTERX SB3 PROB4.14.4              REC # / TYPE / VERS 
Unknown             Unknown                                 ANT # / TYPE        
  4127447.7963  1206915.4453  4695544.3994                  APPROX POSITION XYZ 
        0.0000        0.0000        0.0000                  ANTENNA: DELTA H/E/N
G   23 X1  C1C L1C D1C S1C C1W S1W C2W L2W D2W S2W C2L L2L  SYS / # / OBS TYPES 
       D2L S2L C5Q L5Q D5Q S5Q C1L L1L D1L S1L              SYS / # / OBS TYPES 
E   21 X1  C1C L1C D1C S1C C6C L6C D6C S6C C5Q L5Q D5Q S5Q  SYS / # / OBS TYPES 
       C7Q L7Q D7Q S7Q C8Q L8Q D8Q S8Q                      SYS / # / OBS TYPES 
S    9 X1  C1C L1C D1C S1C C5I L5I D5I S5I                  SYS / # / OBS TYPES 
R   17 X1  C1C L1C D1C S1C C2P L2P D2P S2P C2C L2C D2C S2C  SYS / # / OBS TYPES 
       C3Q L3Q D3Q S3Q                                      SYS / # / OBS TYPES 
C   25 X1  C1P L1P D1P S1P C5P L5P D5P S5P C2I L2I D2I S2I  SYS / # / OBS TYPES 
       C7I L7I D7I S7I C6I L6I D6I S6I C7D L7D D7D S7D      SYS / # / OBS TYPES 
J   17 X1  C1C L1C D1C S1C C2L L2L D2L S2L C5Q L5Q D5Q S5Q  SYS / # / OBS TYPES 
       C1L L1L D1L S1L                                      SYS / # / OBS TYPES 
I    5 X1  C5A L5A D5A S5A                                  SYS / # / OBS TYPES 
SEPTENTRIO RECEIVERS OUTPUT ALIGNED CARRIER PHASES.         COMMENT             
NO FURTHER PHASE SHIFT APPLIED IN THE RINEX ENCODER.        COMMENT             
G L1C                                                       SYS / PHASE SHIFT   
G L2W                                                       SYS / PHASE SHIFT   
G L2L  0.00000                                              SYS / PHASE SHIFT   
G L5Q  0.00000                                              SYS / PHASE SHIFT   
G L1L  0.00000                                              SYS / PHASE SHIFT   
E L1C  0.00000                                              SYS / PHASE SHIFT   
E L6C  0.00000                                              SYS / PHASE SHIFT   
E L5Q  0.00000                                              SYS / PHASE SHIFT   
E L7Q  0.00000                                              SYS / PHASE SHIFT   
E L8Q  0.00000                                              SYS / PHASE SHIFT   
S L1C                                                       SYS / PHASE SHIFT   
S L5I                                                       SYS / PHASE SHIFT   
R L1C                                                       SYS / PHASE SHIFT   
R L2P  0.00000                                              SYS / PHASE SHIFT   
R L2C                                                       SYS / PHASE SHIFT   
R L3Q  0.00000                                              SYS / PHASE SHIFT   
C L1P  0.00000                                              SYS / PHASE SHIFT   
C L5P  0.00000                                              SYS / PHASE SHIFT   
C L2I                                                       SYS / PHASE SHIFT   
C L7I                                                       SYS / PHASE SHIFT   
C L6I                                                       SYS / PHASE SHIFT   
C L7D                                                       SYS / PHASE SHIFT   
J L1C                                                       SYS / PHASE SHIFT   
J L2L  0.00000                                              SYS / PHASE SHIFT   
J L5Q  0.00000                                              SYS / PHASE SHIFT   
J L1L  0.00000                                              SYS / PHASE SHIFT   
I L5A                                                       SYS / PHASE SHIFT   
  2025     1     2    19    15    0.0000000     GPS         TIME OF FIRST OBS   
 C1C    0.000 C2C    0.000 C2P    0.000                     GLONASS COD/PHS/BIS 
DBHZ                                                        SIGNAL STRENGTH UNIT
    18                                                      LEAP SECONDS        
 24 R01  1 R02 -4 R03  5 R04  6 R05  1 R06 -4 R07  5 R08  6 GLONASS SLOT / FRQ #
    R09 -2 R10 -7 R11  0 R12 -1 R13 -2 R14 -7 R15  0 R16 -1 GLONASS SLOT / FRQ #
    R17  4 R18 -3 R19  3 R20  2 R21  4 R22 -3 R23  3 R24  2 GLONASS SLOT / FRQ #
                                                            END OF HEADER       
> 2025 01 02 19 15  0.0000000  0 38
G10         1.000    22581123.741 6 118664619.42506      2187.918 6        36.692                                    22581126.890 4  92465861.48104      1704.867 4        26.168    22581123.722 5  92465938.56805      1704.975 5        35.567
G23         2.000    20985754.568 6 110280895.57806       -40.489 6        41.161                                    20985750.057 3  85933185.69103       -31.550 3        23.048    20985751.054 7  85933141.68907       -31.528 7        42.734
G08         5.000                                                                                                                                                                    23503721.209 5  96243898.74505      1822.752 5        31.155
G07         8.000    25230262.277 5                      -194.378 5        30.211                                                                                                    25230222.464 4 103313536.98104      -151.451 4        25.248
G18        12.000    21824194.477 7 114687152.29407     -3182.963 7        42.569                                    21824190.169 3  89366490.33503     -2480.215 3        22.952    21824191.282 5  89366690.28905     -2480.138 5        35.876
G27        13.000    20950794.733 7 110097231.21407      1136.563 7        43.841                                    20950794.662 6  85789922.42306       885.635 6        38.228    20950794.455 6  85790065.40606       885.512 6        38.739
E27        14.000    26846695.357 7 141080391.81907      1611.876 7        44.671                                                                    26846694.480 7 105352208.80407      1203.691 7        43.274    26846694.953 7 108100568.63307      1235.044 7        44.909
R03        15.000    22256981.252 4                     -1785.895 4        29.706                                                                    22256981.466 5  92667089.41305     -1388.674 5        32.491
E15        16.000    26932072.635 5                      1694.690 5        33.287                                                                                                                                    26932078.957 5 108444314.29605      1298.734 5        32.096
G26        17.000    22080714.722 4 116034885.49204     -3743.616 4        26.012                                    22080693.527 1  90417187.91801     -2917.040 1         5.714    22080732.072 4                     -2917.146 4        25.113
E30        19.000    24147258.779 7 126894699.64907      -788.632 7        44.880                                                                    24147258.388 8  94759070.36808      -589.025 8        50.438    24147256.356 7  97231038.67907      -604.370 7        47.634
R20        20.000    19986969.254 5 106879329.74305       399.899 5        32.377                                                                    19986967.917 6  83128359.50006       310.893 6        37.516
E02        21.000    25005356.564 6 131404024.28706     -3433.343 6        41.483                                                                    25005356.401 6  98126404.79506     -2563.965 6        40.367    25005370.879 6 100686317.47506     -2630.731 6        39.465
S23        22.000    38202134.002 6 200753597.55506      -865.231 6        40.236
R10        23.000    20380326.895 7 108638587.56207     -2150.449 7        42.057
E36        24.000    24457761.426 8 128526483.04208     -2602.652 8        49.001                                                                    24457761.273 7  95977692.68307     -1943.542 7        47.254    24457760.293 7  98481440.49007     -1994.228 7        45.698
G16        26.000    20692104.980 8 108737749.22108     -1860.454 8        48.689                                    20692099.994 6  84730702.19606     -1449.709 6        38.030
S21        27.000    38475602.345 5 202190953.07005      -864.158 5        33.407
C22        28.000                                                                                                                                    24967797.212 6 130013740.92506     -1987.743 6        37.285
R19        29.000    20980291.228 3                     -3398.165 3        23.752                                                                    20980291.856 6  87290331.87706     -2642.353 6        36.673
S36        31.000    38245559.798 6 200981740.92406      -863.529 6        36.234
E34        32.000    23546857.806 8 123739586.88208       -55.960 8        48.970                                                                    23546858.115 8  92402943.09408       -41.821 8        49.452    23546857.790 8  94813513.97208       -42.945 8        51.059
R11        33.000    22036692.658 7 117757759.07307      1895.007 7        44.149                                                                    22036689.248 7  91589395.32607      1473.864 7        42.948
C08        36.000                                                                                                                                    38299576.340 4                     -1790.338 4        25.323    38299575.277 6 154216579.98306     -1382.899 6        37.123    38299573.755 6 162058130.70806     -1453.284 6        37.841
R09        37.000    21806071.405 6 116443361.39006     -4905.360 6        36.363                                                                    21806067.334 5  90566920.87405     -3815.228 5        30.174
C11        38.000                                                                                                                                    21619681.547 6 112579358.94806      -619.823 6        41.104    21619679.940 8  87053556.14808      -479.428 8        52.274    21619679.465 8  91479921.81308      -503.811 8        50.202
R21        39.000    23729287.607 4 126980449.61904      2405.639 4        28.882
C12        41.000                                                                                                                                    23695592.773 7 123389168.07207     -3055.479 7        44.333    23695591.432 6  95412413.16506     -2362.601 6        40.210    23695586.892 6 100263872.50106     -2482.800 6        38.093
C13        43.000                                                                                                                                                                                                    37984313.463 6 152947148.25206     -1174.332 6        39.901    37984370.999 3                     -1235.485 3        22.286
C38        44.000                                                                                                                                    39689042.577 4                     -2010.109 4        28.948
C25        45.000                                                                                                                                    24726961.176 6 128759813.70106     -3933.792 6        37.025                                                                    24726956.525 5 104627847.16905     -3196.511 5        34.133
C21        46.000                                                                                                                                    24195702.975 6 125993351.99906       833.969 6        39.138                                                                    24195705.970 5 102379911.39505       677.478 5        35.148
C23        47.000                                                                                                                                    23978572.871 7 124862608.54507     -1753.569 7        42.095                                                                    23978569.917 7 101461249.01407     -1424.963 7        46.361
C43        48.000                                                                                                                                    22264351.617 6 115936429.70206       587.868 6        36.340                                                                    22264354.649 7  94207810.78907       477.878 7        46.781
C34        52.000                                                                                                                                    21757589.232 8 113297548.52708     -1895.596 8        50.456                                                                    21757588.048 7  92063621.44307     -1540.381 7        46.188
C37        54.000                                                                                                                                    25850083.170 6 134608173.87206       904.470 6        36.008                                                                    25850072.839 7 109380178.52707       734.969 7        43.759
I09        57.000    39140253.372 6 153594763.54806       141.294 6        39.330
I06        58.000    38717086.119 6 151934284.84706      -593.756 6        38.916
> 2025 01 02 19 15  5.0000000  0 38
G10         1.000    22579043.380 6 118653684.40506      2186.060 6        37.467                                    22579045.792 4  92457340.72704      1703.413 4        25.068    22579042.075 5  92457417.80905      1703.497 5        34.695
G23         2.000    20985794.737 6 110281106.50506       -43.804 6        41.778                                    20985790.319 4  85933350.04704       -34.134 4        24.421    20985790.971 7  85933306.04807       -34.184 7        43.058
G08         5.000    23501493.771 6 123501154.83306      2338.976 6        36.484                                                                                                    23501495.593 5  96234784.85105      1822.560 5        30.098
G07         8.000    25230447.062 4                      -196.696 4        29.299
G18        12.000    21827223.394 6 114703070.97306     -3184.502 6        41.380                                    21827219.166 3  89378894.47903     -2481.425 3        22.876    21827223.177 6  89379094.45706     -2481.417 6        38.243
G27        13.000    20949713.743 7 110091553.78107      1134.513 7        43.189                                    20949713.754 6  85785498.44106       884.035 6        38.027    20949713.772 6  85785641.42906       884.027 6        39.255
E27        14.000    26845162.369 7 141072335.39507      1610.593 7        44.214                                                                    26845161.470 7 105346192.64307      1202.753 7        43.748    26845161.882 7 108094395.53307      1234.069 7        45.097
R03        15.000                                                                                                                                    22258647.821 5  92674043.03015     -1392.901 5        33.605
E15        16.000    26930463.772 5                      1694.267 5        33.587                                                                    26930514.292 4 105680921.48714      1264.856 4        27.006    26930469.123 5 108437822.46905      1297.760 5        31.623
G26        17.000    22084275.705 4 116053608.75904     -3745.625 4        24.556                                    22084256.377 1  90431777.46501     -2918.615 1         4.429
E30        19.000    24148010.561 7 126898649.51207      -791.227 7        45.133                                                                    24148010.043 8  94762019.94408      -590.853 8        50.575    24148008.059 7  97234065.20107      -606.245 7        47.286
R20        20.000    19986591.537 5 106877335.50305       397.463 5        31.502                                                                    19986595.918 6  83126808.41506       309.273 6        37.747
E02        21.000    25008624.061 6 131421194.69806     -3434.822 6        41.900                                                                    25008623.902 6  98139226.84706     -2564.972 6        39.868    25008637.777 6 100699474.01806     -2631.835 6        38.210
S23        22.000    38202958.601 6 200757923.52906      -865.117 6        40.441
R10        23.000    20382346.197 7 108649351.66407     -2155.111 7        42.449
E36        24.000    24460238.077 8 128539499.04208     -2603.765 8        48.774                                                                    24460237.957 7  95987412.41407     -1944.311 7        47.117    24460237.260 7  98491413.77607     -1995.079 7        45.756
G16        26.000    20693876.856 8 108747059.91008     -1863.896 8        48.417                                    20693871.835 6  84737957.27906     -1452.385 6        37.629
S21        27.000    38476432.550 5 202195274.83305      -864.672 5        33.539
C22        28.000                                                                                                                                    24969711.285 6 130023687.29106     -1990.616 6        37.996
R19        29.000                                                                                                                                    20983467.285 6  87303546.11606     -2643.378 6        37.051
S36        31.000    38246384.481 6 200986058.50506      -863.498 6        36.129
E34        32.000    23546911.582 8 123739871.17508       -57.663 8        49.418                                                                    23546912.214 8  92403155.39408       -43.070 8        49.336    23546911.859 8  94813731.80308       -44.234 8        50.957
R11        33.000    22034919.752 7 117748292.89007      1891.440 7        42.650                                                                    22034917.900 7  91582032.73107      1471.247 7        42.916
C08        36.000                                                                                                                                    38301291.386 4                     -1788.634 4        26.120    38301292.676 6 154223496.11206     -1383.575 6        36.631    38301291.527 6 162065398.48306     -1453.687 6        37.728
R09        37.000    21810670.326 6 116467893.38706     -4907.286 6        37.928                                                                    21810663.832 4  90586001.29404     -3816.522 4        29.668
C11        38.000                                                                                                                                    21620277.088 6 112582462.46806      -621.490 6        40.365    21620276.072 8  87055955.98508      -480.579 8        52.239    21620275.517 8  91482443.68008      -504.983 8        50.027
R04        40.000    21808401.534 6 116782604.78516      1685.445 6        36.677
C12        41.000                                                                                                                                    23698526.931 7 123404447.44707     -3056.349 7        44.364    23698524.606 6  95424228.13706     -2363.316 6        39.616    23698520.787 6 100276288.24506     -2483.409 6        36.994
C13        43.000                                                                                                                                                                                                    37985772.293 6 152953021.54206     -1174.942 6        39.760    37985830.412 3                     -1233.715 3        22.190
C38        44.000                                                                                                                                    39690972.149 4                     -2010.287 4        28.891
C25        45.000                                                                                                                                    24730738.079 6 128779485.15706     -3934.872 6        36.677                                                                    24730734.267 5 104643831.83605     -3197.256 5        33.814
C21        46.000                                                                                                                                    24194905.487 6 125989189.02506       831.373 6        36.779                                                                    24194905.694 6 102376528.62606       675.479 6        36.159
C23        47.000                                                                                                                                    23980258.519 7 124871383.03607     -1756.276 7        42.064                                                                    23980255.042 7 101468379.01707     -1427.121 7        46.100
C43        48.000                                                                                                                                    22263786.599 5 115933492.54705       586.685 5        34.776                                                                    22263790.583 7  94205424.10307       476.800 7        46.485
C34        52.000                                                                                                                                    21759409.869 8 113307030.02108     -1896.990 8        50.647                                                                    21759408.802 7  92071325.93707     -1541.487 7        46.045
C37        54.000                                                                                                                                    25849214.894 5 134603657.39405       902.422 5        34.743                                                                    25849205.492 7 109376508.50207       733.106 7        43.426
I09        57.000    39140073.074 6 153594057.92806       141.056 6        39.288
I06        58.000    38717842.223 6 151937253.66106      -593.793 6        38.739
> 2025 01 02 19 15 10.0000000  0 36
G10         1.000    22576964.308 6 118642757.35806      2184.535 6        38.069                                    22576965.714 4  92448826.18504      1702.202 4        24.617    22576961.786 5  92448903.29005      1701.891 5        33.748
G23         2.000    20985837.797 7 110281333.35607       -47.025 7        42.523                                    20985833.596 4  85933526.81204       -36.644 4        25.534    20985833.409 7  85933482.80907       -36.681 7        43.027
G08         5.000    23499270.422 6 123489460.84906      2338.368 6        38.982                                    23499265.081 2  96225557.68012      1822.100 2        16.604    23499267.403 4  96225672.76204      1822.104 4        28.047
G07         8.000    25230637.571 4                      -199.819 4        29.005                                                                                                    25230599.073 4 103315072.60704      -155.353 4        25.158
G18        12.000    21830254.204 6 114718996.26606     -3185.710 6        39.553                                    21830249.540 3  89391303.78703     -2482.366 3        23.105    21830253.362 6  89391503.79206     -2482.446 6        40.677
G27        13.000    20948636.152 7 110085885.03707      1132.693 7        44.560                                    20948634.412 6  85781081.24606       882.619 6        37.958    20948634.815 6  85781224.23206       882.575 6        38.871
E27        14.000    26843630.522 7 141064284.26507      1609.753 7        43.754                                                                    26843629.469 7 105340180.45007      1201.969 7        44.041    26843629.762 7 108088226.49107      1233.301 7        45.312
R03        15.000    22260307.469 4                     -1794.532 4        27.329                                                                    22260314.193 5  92681013.04605     -1395.683 5        33.527
E15        16.000    26928852.110 5                      1693.460 5        33.156                                                                    26928896.030 4 105674596.95504      1264.779 4        26.659    26928858.972 5 108431332.96405      1297.802 5        31.638
E30        19.000    24148763.861 7 126902610.38307      -793.305 7        45.657                                                                    24148763.672 8  94764977.73908      -592.425 8        50.554    24148761.788 7  97237100.15907      -607.863 7        47.129
R20        20.000    19986223.060 5 106875351.16305       395.895 5        32.581                                                                    19986226.408 6  83125265.03706       307.966 6        36.435
E02        21.000    25011892.818 7 131438371.44707     -3436.052 7        42.265                                                                    25011892.319 6  98152053.64506     -2565.952 6        39.201    25011906.739 5 100712635.45605     -2632.904 5        35.933
S23        22.000    38203779.886 6 200762249.01906      -865.023 6        40.226
R10        23.000    20384370.634 7 108660137.37907     -2159.342 7        42.806
E36        24.000    24462715.623 8 128552519.38308     -2604.582 8        48.428                                                                    24462715.529 7  95997135.39407     -1945.049 7        46.895    24462714.915 7  98501390.39207     -1995.704 7        45.952
G16        26.000    20695651.786 8 108756386.68108     -1866.957 8        48.324                                    20695646.800 6  84745224.89606     -1454.771 6        37.202
S21        27.000    38477251.568 5 202199596.21105      -864.380 5        33.311
R19        29.000                                                                                                                                    20986646.387 6  87316764.44906     -2644.218 6        38.150
S36        31.000    38247204.935 6 200990375.89606      -863.574 6        36.087
E34        32.000    23546967.228 8 123740162.64008       -59.035 8        49.376                                                                    23546967.660 8  92403373.04408       -44.090 8        49.302    23546967.173 8  94813955.12808       -45.239 8        51.077
R11        33.000    22033150.597 7 117738843.33007      1888.221 7        42.047                                                                    22033149.461 7  91574683.09507      1468.623 7        43.016
C08        36.000                                                                                                                                    38303012.245 4                     -1790.383 4        26.204    38303010.888 6 154230413.97706     -1383.755 6        36.170    38303009.877 6 162072668.15006     -1454.216 6        37.603
R09        37.000    21815265.115 6 116492434.16506     -4908.973 6        37.739                                                                    21815257.708 5  90605088.50905     -3818.401 5        31.955
C11        38.000                                                                                                                                    21620873.833 6 112585572.51506      -622.780 6        40.327    21620873.733 8  87058360.87408      -481.537 8        52.421    21620872.776 8  91484970.85408      -506.117 8        50.044
R21        39.000    23724803.143 4 126956402.99404      2404.464 4        29.033                                                                    23724787.926 3                      1870.365 3        23.295
C12        41.000                                                                                                                                    23701461.862 7 123419729.99007     -3056.889 7        44.393    23701458.469 6  95436045.59406     -2363.877 6        39.378    23701455.550 6 100288706.58706     -2484.063 6        36.454
C13        43.000                                                                                                                                                                                                    37987231.159 6 152958896.71806     -1175.262 6        39.510    37987290.285 3                     -1236.480 3        22.781
C38        44.000                                                                                                                                    39692903.282 4                     -2010.910 4        29.100
C25        45.000                                                                                                                                    24734515.208 6 128799160.01706     -3935.372 6        36.601                                                                    24734512.339 5 104659819.27305     -3197.839 5        34.019
C21        46.000                                                                                                                                    24194108.404 5 125985037.64905       829.135 5        33.910                                                                    24194105.492 6 102373155.28506       673.683 6        37.202
C23        47.000                                                                                                                                    23981946.173 7 124880170.38407     -1758.768 7        42.580                                                                    23981942.373 7 101475519.47107     -1429.153 7        45.907
C43        48.000                                                                                                                                    22263223.279 5 115930561.06605       585.735 5        34.910                                                                    22263227.588 7  94203042.03107       475.895 7        46.345
C34        52.000                                                                                                                                    21761231.648 8 113316517.77408     -1898.191 8        50.742                                                                    21761230.836 7  92079035.52207     -1542.443 7        45.856
C37        54.000                                                                                                                                    25848343.790 5 134599152.03405       899.480 5        33.204                                                                    25848340.155 7 109372847.43207       731.355 7        43.230
I09        57.000    39139893.431 6 153593352.36806       140.967 6        39.700
I06        58.000    38718598.873 6 151940221.91606      -593.633 6        38.901
> 2025 01 02 19 15 15.0000000  0 38
G10         1.000    22574888.715 6 118631839.31306      2182.691 6        38.378                                    22574886.701 4  92440318.65904      1700.795 4        24.060    22574884.287 5  92440395.73005      1701.191 5        31.932
G23         2.000    20985885.017 7 110281577.08007       -50.425 7        42.580                                    20985880.110 4  85933716.72404       -39.292 4        26.515    20985879.930 7  85933672.71607       -39.225 7        42.673
G08         5.000    23497050.681 6 123477770.34406      2337.795 6        39.447                                    23497042.148 2  96216448.17202      1821.652 2        17.283    23497041.669 4  96216563.23004      1821.774 4        28.351
G07         8.000    25230823.671 4                      -202.488 4        29.014
G18        12.000    21833287.077 6 114734929.17406     -3187.400 6        37.070                                    21833281.599 3  89403719.02303     -2483.688 3        23.543    21833284.529 6  89403919.03306     -2483.556 6        41.862
G27        13.000    20947558.965 7 110080225.96007      1130.972 7        44.748                                    20947556.845 6  85776671.58006       881.274 6        37.875    20947557.956 6  85776814.57006       881.222 6        37.501
E27        14.000    26842099.690 7 141056239.42307      1608.392 7        42.980                                                                    26842098.682 7 105334172.93507      1201.087 7        44.140    26842098.782 7 108082062.26407      1232.393 7        45.440
R03        15.000    22261983.903 4                     -1799.155 4        29.403                                                                    22261992.455 5  92688000.16505     -1399.298 5        32.251
E15        16.000    26927240.336 5                      1692.513 5        32.180                                                                    26927283.112 4 105668275.58804      1263.981 4        26.874    26927249.466 5 108424846.62205      1297.276 5        31.902
G26        17.000    22091389.030 5 116091083.07305     -3749.513 5        35.952                                    22091387.403 1  90460978.31001     -2921.709 1         9.810    22091391.052 4                     -2921.745 4        27.725
E30        19.000    24149519.686 7 126906583.24307      -795.733 7        45.795                                                                    24149519.676 8  94767944.48108      -594.171 8        50.465    24149517.819 7  97240144.30307      -609.687 7        47.074
R20        20.000    19985855.439 5 106873377.70605       393.124 5        32.653                                                                    19985857.375 6  83123730.10206       306.240 6        36.208
E02        21.000    25015163.063 7 131455555.52207     -3437.661 7        42.631                                                                    25015162.065 6  98164885.91106     -2566.984 6        38.414    25015181.266 5 100725802.55905     -2634.170 5        33.665
S23        22.000    38204605.007 6 200766575.11906      -865.344 6        40.467
R10        23.000    20386397.942 7 108670945.60207     -2163.752 7        42.045
E36        24.000    24465194.317 7 128565545.02107     -2605.618 7        47.796                                                                    24465194.117 7  96006862.32507     -1945.815 7        46.654    24465193.596 7  98511371.07107     -1996.574 7        46.290
G16        26.000    20697429.837 8 108765730.44108     -1870.400 8        48.352                                    20697425.022 6  84752505.75406     -1457.459 6        36.794
S21        27.000    38478071.727 5 202203918.12105      -864.139 5        33.389
C22        28.000                                                                                                                                    24973517.968 6 130043620.61006     -1996.132 6        37.849
R19        29.000                                                                                                                                    20989825.616 6  87329987.67106     -2645.144 6        37.917
S36        31.000    38248027.503 5 200994693.78605      -863.820 5        35.986
E34        32.000    23547024.720 8 123740462.25908       -60.744 8        49.237                                                                    23547024.633 8  92403596.78108       -45.301 8        49.157    23547024.082 8  94814184.69808       -46.505 8        51.094
R11        33.000    22031385.564 6 117729411.38306      1884.574 6        41.554                                                                    22031384.474 7  91567347.13307      1465.865 7        42.861
C08        36.000                                                                                                                                    38304733.601 4                     -1790.354 4        27.353    38304729.566 5 154237334.35305     -1384.290 5        35.852    38304728.465 6 162079940.39306     -1454.597 6        37.921
R09        37.000    21819863.486 5 116516984.64505     -4911.077 5        35.729                                                                    21819858.936 5  90624183.30505     -3819.581 5        35.000
C11        38.000                                                                                                                                    21621473.178 6 112588690.04206      -624.219 6        41.206    21621472.709 8  87060771.54908      -482.694 8        52.503    21621471.470 8  91487504.10608      -507.228 8        49.910
R21        39.000                                                                                                                                    23722541.088 3                      1869.554 3        21.595
C12        41.000                                                                                                                                    23704398.178 7 123435016.78307     -3057.772 7        44.626    23704394.662 6  95447866.30506     -2364.489 6        40.064    23704391.465 6 100301128.35406     -2484.768 6        36.257
C13        43.000                                                                                                                                                                                                    37988690.803 6 152964774.49706     -1175.871 6        39.321    37988750.927 3                     -1232.367 3        22.057
C38        44.000                                                                                                                                    39694834.406 4                     -2011.452 4        29.071
C25        45.000                                                                                                                                    24738294.059 6 128818839.18706     -3936.229 6        37.259                                                                    24738291.804 5 104675810.22405     -3198.712 5        33.407
C21        46.000                                                                                                                                    24193312.129 5 125980898.83705       826.471 5        30.679                                                                    24193309.045 6 102369792.14306       671.693 6        38.024
C23        47.000                                                                                                                                    23983637.530 7 124888971.53007     -1761.652 7        43.827                                                                    23983632.005 7 101482671.14307     -1431.423 7        45.339
C43        48.000                                                                                                                                    22262661.360 5 115927636.20905       584.335 5        35.633                                                                    22262665.915 7  94200665.37807       474.828 7        46.236
C34        52.000                                                                                                                                    21763054.532 8 113326012.76408     -1899.698 8        50.518                                                                    21763054.141 7  92086750.98607     -1543.619 7        45.666
C37        54.000                                                                                                                                    25847479.935 5 134594658.47005       897.432 5        33.323                                                                    25847477.130 7 109369196.07307       729.291 7        43.009
I09        57.000    39139713.974 6 153592647.55306       140.941 6        39.595
I06        58.000    38719355.412 6 151943190.34106      -593.814 6        38.655
> 2025 01 02 19 15 20.0000000  0 40
G10         1.000    22572814.620 6 118620929.63106      2181.305 6        38.694                                    22572808.903 3  92431817.64503      1699.700 3        23.238    22572806.090 4  92431894.71604      1699.739 4        28.663
G23         2.000    20985934.570 7 110281837.07807       -53.583 7        43.630                                    20985929.664 4  85933919.32404       -41.754 4        27.653    20985929.760 7  85933875.30007       -41.644 7        42.758
G08         5.000    23494828.978 6 123466082.55606      2337.437 6        39.291                                    23494818.884 2  96207340.79802      1821.347 2        17.585    23494821.807 4  96207455.85704      1821.219 4        29.915
G07         8.000                                                                                                                                                                    25230981.866 4 103316650.27504      -159.831 4        24.887
G18        12.000    21836321.253 6 114750869.06006     -3188.661 6        36.771                                    21836315.260 4  89416139.69604     -2484.673 4        24.391    21836316.597 7  89416339.71507     -2484.583 7        42.178
G27        13.000    20946483.624 7 110074575.96907      1128.967 7        44.892                                    20946480.968 6  85772268.99906       879.714 6        37.921    20946482.680 5  85772411.97205       879.873 5        35.819
E27        14.000    26840569.854 7 141048200.25607      1607.375 7        42.671                                                                    26840568.913 7 105328169.65607      1200.314 7        44.275    26840568.790 7 108075902.38107      1231.630 7        45.732
R03        15.000    22263678.102 5                     -1803.274 5        34.767                                                                    22263675.637 4  92695004.30504     -1402.245 4        29.450
E15        16.000    26925629.456 5                      1692.002 5        30.875                                                                    26925672.505 4 105661956.74204      1263.726 4        27.521    26925639.939 5 108418362.94405      1296.531 5        31.841
G26        17.000    22094960.409 6 116109834.50606     -3751.177 6        39.508                                    22094955.562 2  90475589.84702     -2922.988 2        14.286    22094965.578 4                     -2923.218 4        29.678
E30        19.000    24150277.866 7 126910567.45007      -797.818 7        46.202                                                                    24150277.807 8  94770919.70708      -595.795 8        50.398    24150275.992 7  97243197.14707      -611.319 7        47.102
R20        20.000    19985486.161 5 106871414.37705       391.940 5        30.589                                                                    19985491.788 5  83122203.10305       304.632 5        35.695
E02        21.000    25018434.574 7 131472746.26907     -3438.714 7        43.536                                                                    25018432.927 6  98177723.16906     -2567.888 6        37.051    25018460.006 5 100738974.81305     -2634.952 5        32.623
S23        22.000    38205426.055 6 200770901.15006      -865.043 6        40.377
R10        23.000    20388428.853 6 108681775.63806     -2168.073 6        40.877
E36        24.000    24467674.052 7 128578575.34107     -2606.414 7        47.574                                                                    24467673.670 7  96016592.76307     -1946.378 7        46.441    24467673.198 7  98521355.33607     -1997.082 7        46.532
G16        26.000    20699211.219 8 108775090.54708     -1873.489 8        48.720                                    20699206.301 6  84759799.34806     -1459.864 6        36.612
S21        27.000    38478899.674 5 202208239.99605      -864.206 5        33.335
C22        28.000                                                                                                                                    24975435.193 6 130053607.90406     -1998.885 6        37.108
R19        29.000    20993008.764 3                     -3404.419 3        21.429                                                                    20993003.739 6  87343215.39506     -2645.907 6        36.718
S36        31.000    38248847.496 6 200999011.83806      -863.504 6        36.526
E34        32.000    23547083.040 8 123740769.40908       -62.134 8        49.248                                                                    23547083.053 8  92403826.14408       -46.341 8        49.128    23547082.488 8  94814420.04108       -47.600 8        51.107
R11        33.000    22029623.197 6 117719996.46806      1881.305 6        41.604                                                                    22029622.610 7  91560024.43607      1463.229 7        42.783
C08        36.000                                                                                                                                    38306453.534 4                     -1790.644 4        27.473    38306448.511 5 154244256.79405     -1384.577 5        34.762    38306447.305 6 162087214.83606     -1455.073 6        38.243
R09        37.000    21824462.413 5 116541544.12805     -4912.883 5        33.533                                                                    21824461.073 6  90643285.01506     -3821.049 6        37.459
C11        38.000                                                                                                                                    21622074.205 7 112591814.45007      -625.487 7        42.136    21622072.721 8  87063187.55508      -483.660 8        52.316    21622071.498 8  91490042.96908      -508.229 8        50.028
R21        39.000    23720299.275 4                      2402.713 4        28.853                                                                    23720297.952 4                      1868.916 4        26.096
R04        40.000    21803635.303 5 116757397.21015      1675.446 5        34.248
C12        41.000                                                                                                                                    23707335.255 7 123450307.09607     -3058.382 7        44.799    23707331.860 6  95459689.75306     -2364.921 6        40.906    23707328.075 6 100313552.98306     -2485.046 6        36.363
C13        43.000                                                                                                                                                                                                    37990151.276 6 152970654.44806     -1176.006 6        38.547    37990209.069 3                     -1233.522 3        21.810
C38        44.000                                                                                                                                    39696766.438 4                     -2011.882 4        28.853
C25        45.000                                                                                                                                    24742074.433 6 128838522.08706     -3937.025 6        37.716                                                                    24742071.481 5 104691804.17405     -3199.068 5        33.527
C21        46.000                                                                                                                                    24192520.236 4 125976771.91204       824.375 4        29.592                                                                    24192515.855 6 102366438.70806       669.756 6        38.787
C23        47.000                                                                                                                                    23985331.305 7 124897785.85207     -1764.147 7        44.313                                                                    23985324.171 7 101489833.52507     -1433.559 7        44.885
C43        48.000                                                                                                                                    22262099.905 6 115924717.42806       583.255 6        36.926                                                                    22262105.533 7  94198293.65107       473.857 7        46.212
C34        52.000                                                                                                                                    21764878.597 8 113335514.36808     -1900.864 8        50.256                                                                    21764878.807 7  92094471.83907     -1544.667 7        45.609
I01        53.000   410976844.611 5 309620614.78815     -1802.924 5        35.405
C37        54.000                                                                                                                                    25846619.528 5 134590176.29205       895.390 5        33.814                                                                    25846616.247 7 109365553.96007       727.617 7        42.950
I09        57.000    39139534.598 6 153591943.10406       140.910 6        39.586
I06        58.000    38720111.354 6 151946158.44606      -593.487 6        38.697
> 2025 01 02 19 15 25.0000000  0 39
G10         1.000    22570741.897 6 118610028.70206      2179.360 6        37.187                                    22570732.657 3  92423323.43703      1698.158 3        21.929    22570731.946 4  92423400.51904      1698.347 4        27.353
G23         2.000    20985987.644 7 110282113.66807       -57.015 7        44.266                                    20985982.228 4  85934134.84704       -44.423 4        28.768    20985982.639 7  85934090.83407       -44.426 7        43.431
G08         5.000    23492602.473 6 123454397.78806      2336.590 6        39.003                                    23492595.437 3  96198235.81103      1820.706 3        18.567    23492598.693 5  96198350.90405      1820.629 5        30.226
G07         8.000                                                                                                                                                                    25231178.625 4 103317454.74504      -162.192 4        26.431
G18        12.000    21839356.510 6 114766816.22006     -3190.146 6        37.565                                    21839350.391 4  89428566.04904     -2485.836 4        25.053    21839351.947 7  89428766.07507     -2485.815 7        42.459
G27        13.000    20945410.145 7 110068935.34807      1127.134 7        44.814                                    20945406.884 6  85767873.71606       878.282 6        37.837    20945409.936 5  85768016.70305       878.393 5        35.338
E27        14.000    26839041.017 7 141040167.07007      1606.089 7        42.645                                                                    26839040.228 7 105322170.85107      1199.417 7        44.594    26839040.062 7 108069747.08807      1230.632 7        45.871
R03        15.000    22265371.425 6 119188233.27516     -1807.574 6        38.733                                                                    22265358.429 4  92702025.37704     -1405.698 4        26.623
E15        16.000    26924018.053 4                      1691.315 4        29.422                                                                    26924061.288 4 105655640.73304      1262.743 4        27.425    26924031.793 5 108411882.15905      1296.124 5        30.883
G26        17.000    22098532.458 6 116128595.60606     -3753.320 6        41.015                                    22098525.531 2  90490208.90102     -2924.658 2        17.736    22098534.228 4                     -2924.726 4        29.431
E30        19.000    24151038.172 7 126914563.35007      -800.319 7        46.513                                                                    24151038.155 8  94773903.66008      -597.624 8        50.465    24151036.463 7  97246258.94007      -613.146 7        47.103
R20        20.000    19985121.479 5 106869461.65605       389.627 5        30.838                                                                    19985128.160 6  83120684.32606       303.010 6        36.117
E02        21.000    25021707.321 7 131489944.04007     -3440.236 7        44.307                                                                    25021704.879 5  98190565.64905     -2568.872 5        35.652    25021733.877 5 100752152.40905     -2636.107 5        32.563
S23        22.000    38206249.317 6 200775227.24706      -865.268 6        40.374
R10        23.000    20390463.913 6 108692627.83506     -2172.708 6        38.312
E36        24.000    24470154.556 7 128591610.65907     -2607.564 7        47.464                                                                    24470154.217 7  96026326.92607     -1947.232 7        46.373    24470153.617 7  98531343.42907     -1997.999 7        46.766
G16        26.000    20700995.203 8 108784467.36108     -1876.998 8        48.404                                    20700990.618 6  84767105.95606     -1462.599 6        36.193
S21        27.000    38479717.749 5 202212562.04605      -864.345 5        33.341
C22        28.000                                                                                                                                    24977357.814 6 130063608.94306     -2001.521 6        36.159
R19        29.000    20996179.708 3                     -3401.658 3        23.790                                                                    20996184.874 6  87356447.75606     -2647.116 6        36.321
S36        31.000    38249668.589 6 201003329.84806      -863.612 6        36.310
E34        32.000    23547142.961 8 123741084.39608       -63.715 8        49.736                                                                    23547142.920 8  92404061.36508       -47.636 8        49.218    23547142.363 8  94814661.39008       -48.874 8        51.077
R11        33.000    22027865.004 6 117710598.85906      1877.786 6        40.353                                                                    22027864.296 7  91552715.20007      1460.523 7        42.775
C08        36.000                                                                                                                                    38308174.814 4                     -1791.211 4        27.844    38308168.779 5 154251181.48505     -1385.137 5        34.557    38308167.242 6 162094491.63506     -1455.842 6        38.357
R09        37.000    21829067.046 6 116566112.86806     -4914.757 6        36.163                                                                    21829063.874 6  90662393.98106     -3822.493 6        38.652
C11        38.000                                                                                                                                    21622675.925 7 112594946.02107      -626.977 7        43.145    21622674.160 8  87065609.09108      -484.822 8        52.267    21622672.937 8  91492587.62708      -509.708 8        50.097
R21        39.000    23718059.483 5 126920355.65015      2402.193 5        35.162                                                                    23718051.207 4                      1868.663 4        27.365
C12        41.000                                                                                                                                    23710273.173 7 123465601.28307     -3059.166 7        45.052    23710268.748 7  95471516.18807     -2365.471 7        42.184    23710265.610 6 100325980.74806     -2486.050 6        36.552
C13        43.000                                                                                                                                                                                                    37991611.906 6 152976536.79006     -1176.562 6        38.180    37991665.665 3                     -1234.984 3        22.400
C38        44.000                                                                                                                                    39698697.910 4                     -2012.089 4        29.090
C25        45.000                                                                                                                                    24745855.144 6 128858209.00706     -3937.955 6        38.213                                                                    24745851.895 5 104707801.37405     -3200.061 5        33.287
C21        46.000                                                                                                                                    24191733.271 5 125972657.26505       821.598 5        31.675                                                                    24191725.386 6 102363095.24006       667.516 6        39.408
C23        47.000                                                                                                                                    23987026.851 7 124906613.70007     -1766.885 7        44.978                                                                    23987018.974 7 101497006.85507     -1435.976 7        44.318
C43        48.000                                                                                                                                    22261541.019 6 115921805.00706       581.976 6        38.814                                                                    22261546.264 7  94195927.05107       472.675 7        46.170
C34        52.000                                                                                                                                    21766704.612 8 113345022.90208     -1902.391 8        50.092                                                                    21766704.824 7  92102198.28207     -1546.062 7        45.583
I01        53.000   410979142.623 5 309629630.05305     -1803.224 5        35.014
C37        54.000                                                                                                                                    25845758.427 5 134585705.85305       893.306 5        32.371                                                                    25845757.664 7 109361921.30707       725.392 7        42.954
I09        57.000    39139355.326 6 153591239.20906       140.682 6        39.844
I06        58.000    38720868.253 6 151949126.49806      -593.563 6        38.763
> 2025 01 02 19 15 30.0000000  0 41
G10         1.000    22568666.028 5 118599136.43205      2177.370 5        32.934                                    22568657.976 3  92414835.91803      1696.649 3        18.836    22568659.385 4  92414912.94704      1696.694 4        26.790
G23         2.000    20986043.476 7 110282406.72007       -60.226 7        44.883                                    20986038.074 4  85934363.19504       -46.927 4        29.754    20986038.592 7  85934319.18807       -46.974 7        43.537
G08         5.000    23490372.974 6 123442715.95906      2336.053 6        38.042                                    23490372.683 3  96189133.09903      1820.275 3        18.955    23490372.646 5  96189248.16705      1820.035 5        30.392
G07         8.000    25231384.095 4                      -210.598 4        27.126                                                                                                    25231376.047 4 103318269.78004      -164.362 4        27.413
G18        12.000    21842391.481 6 114782770.50906     -3191.528 6        36.892                                    21842387.106 4  89440997.97104     -2486.911 4        25.850    21842388.228 7  89441198.00907     -2486.883 7        42.851
