     3.04           OBSERVATION DATA    M                   RINEX VERSION / TYPE
ssrcrin-15.6.1x                         20250102 053000 UTC PGM / RUN BY / DATE 
(00000000023479385599111004) Septentrio proprietary         COMMENT             
ract                                                        MARKER NAME         
01                                                          MARKER NUMBER       
geodetic                                                    MARKER TYPE         
NFB                 CLIMERS@TUW                             OBSERVER / AGENCY   
3296359             SEPT ASTERX SB3 PROB4.14.4              REC # / TYPE / VERS 
Unknown             Unknown                                 ANT # / TYPE        
  4127444.9382  1206914.4738  4695542.6279                  APPROX POSITION XYZ 
        0.0000        0.0000        0.0000                  ANTENNA: DELTA H/E/N
G   23 X1  C1C L1C D1C S1C C1W S1W C2W L2W D2W S2W C2L L2L  SYS / # / OBS TYPES 
       D2L S2L C5Q L5Q D5Q S5Q C1L L1L D1L S1L              SYS / # / OBS TYPES 
E   21 X1  C1C L1C D1C S1C C6C L6C D6C S6C C5Q L5Q D5Q S5Q  SYS / # / OBS TYPES 
       C7Q L7Q D7Q S7Q C8Q L8Q D8Q S8Q                      SYS / # / OBS TYPES 
S    9 X1  C1C L1C D1C S1C C5I L5I D5I S5I                  SYS / # / OBS TYPES 
R   17 X1  C1C L1C D1C S1C C2P L2P D2P S2P C2C L2C D2C S2C  SYS / # / OBS TYPES 
       C3Q L3Q D3Q S3Q                                      SYS / # / OBS TYPES 
C   25 X1  C1P L1P D1P S1P C5P L5P D5P S5P C2I L2I D2I S2I  SYS / # / OBS TYPES 
       C7I L7I D7I S7I C6I L6I D6I S6I C7D L7D D7D S7D      SYS / # / OBS TYPES 
J   17 X1  C1C L1C D1C S1C C2L L2L D2L S2L C5Q L5Q D5Q S5Q  SYS / # / OBS TYPES 
       C1L L1L D1L S1L                                      SYS / # / OBS TYPES 
I    5 X1  C5A L5A D5A S5A                                  SYS / # / OBS TYPES 
SEPTENTRIO RECEIVERS OUTPUT ALIGNED CARRIER PHASES.         COMMENT             
NO FURTHER PHASE SHIFT APPLIED IN THE RINEX ENCODER.        COMMENT             
G L1C                                                       SYS / PHASE SHIFT   
G L2W                                                       SYS / PHASE SHIFT   
G L2L  0.00000                                              SYS / PHASE SHIFT   
G L5Q  0.00000                                              SYS / PHASE SHIFT   
G L1L  0.00000                                              SYS / PHASE SHIFT   
E L1C  0.00000                                              SYS / PHASE SHIFT   
E L6C  0.00000                                              SYS / PHASE SHIFT   
E L5Q  0.00000                                              SYS / PHASE SHIFT   
E L7Q  0.00000                                              SYS / PHASE SHIFT   
E L8Q  0.00000                                              SYS / PHASE SHIFT   
S L1C                                                       SYS / PHASE SHIFT   
S L5I                                                       SYS / PHASE SHIFT   
R L1C                                                       SYS / PHASE SHIFT   
R L2P  0.00000                                              SYS / PHASE SHIFT   
R L2C                                                       SYS / PHASE SHIFT   
R L3Q  0.00000                                              SYS / PHASE SHIFT   
C L1P  0.00000                                              SYS / PHASE SHIFT   
C L5P  0.00000                                              SYS / PHASE SHIFT   
C L2I                                                       SYS / PHASE SHIFT   
C L7I                                                       SYS / PHASE SHIFT   
C L6I                                                       SYS / PHASE SHIFT   
C L7D                                                       SYS / PHASE SHIFT   
J L1C                                                       SYS / PHASE SHIFT   
J L2L  0.00000                                              SYS / PHASE SHIFT   
J L5Q  0.00000                                              SYS / PHASE SHIFT   
J L1L  0.00000                                              SYS / PHASE SHIFT   
I L5A                                                       SYS / PHASE SHIFT   
  2025     1     2     5    30    0.0000000     GPS         TIME OF FIRST OBS   
 C1C    0.000 C2C    0.000 C2P    0.000                     GLONASS COD/PHS/BIS 
DBHZ                                                        SIGNAL STRENGTH UNIT
    18                                                      LEAP SECONDS        
 24 R01  1 R02 -4 R03  5 R04  6 R05  1 R06 -4 R07  5 R08  6 GLONASS SLOT / FRQ #
    R09 -2 R10 -7 R11  0 R12 -1 R13 -2 R14 -7 R15  0 R16 -1 GLONASS SLOT / FRQ #
    R17  4 R18 -3 R19  3 R20  2 R21  4 R22 -3 R23  3 R24  2 GLONASS SLOT / FRQ #
                                                            END OF HEADER       
> 2025 01 02 05 30  0.0000000  0 39
G20         4.000    21320217.234 7 112038497.46407      1067.983 7        46.133                                    21320208.982 4  87302715.01104       832.195 4        26.335
G07         5.000    20813704.094 8 109376779.96508      -827.376 8        48.407                                    20813699.017 6  85228668.61706      -644.707 6        39.300    20813697.728 6  85228614.57806      -644.796 6        37.229
G09         6.000    21244848.404 7 111642418.87207     -2958.471 7        42.163                                    21244844.374 6  86994106.10106     -2305.303 6        38.949    21244845.226 6  86994093.10006     -2305.359 6        41.590
G30         7.000    21563515.951 6 113317033.84606      1468.510 6        40.091                                    21563518.442 4  88298981.44704      1144.301 4        26.168    21563520.387 5  88298961.47105      1144.302 5        30.725
E21        10.000    26001607.365 6 136639360.71606        89.671 6        40.255                                                                    26001603.017 5 102035893.95605        66.866 5        32.479    26001603.218 6 104697715.08306        68.627 6        36.594
E06        11.000    24804780.054 5 130349987.58905       879.563 5        33.359                                                                    24804778.043 6  97339313.49406       657.070 6        41.554    24804776.629 6  99878577.61606       674.001 6        41.070
G04        12.000    23483950.300 5 123409086.00805     -3813.222 5        31.683                                                                                                    23483973.867 3                     -2970.863 3        23.219
E12        13.000    27434506.585 3                     -4062.903 3        22.990                                                                    27434541.041 3                     -3035.293 3        21.405    27434509.727 5 110467401.77405     -3114.470 5        30.709
G05        14.000    23822918.188 6 125190357.84106      2625.611 6        36.314                                    23822966.664 1  97550885.59901      2045.904 1        10.667    23822912.843 5  97550878.06205      2046.104 5        33.186
G06        15.000    23469664.326 4 123334263.65804     -4130.043 4        29.640                                    23469658.912 1  96104329.79801     -3218.241 1        10.370    23469665.655 4                     -3218.149 4        25.519
E11        16.000    25081526.971 5                     -2360.883 5        31.426                                                                    25081523.247 6  98425290.20106     -1762.938 6        40.555    25081523.530 7 100992900.02507     -1808.825 7        42.618
E04        17.000    23568920.858 6 123855534.33706      -147.610 6        36.439                                                                    23568920.813 6  92489578.33506      -110.197 6        39.571    23568920.306 6  94902279.69006      -112.875 6        39.171
R08        18.000    20194699.176 6 108141849.27006     -2500.533 6        40.613                                                                    20194692.943 6  84110180.74006     -1944.853 6        41.678
E19        20.000    24501220.408 6 128754792.55706     -2620.342 6        37.966                                                                    24501217.155 6  96148061.08006     -1956.800 6        39.108    24501217.851 6  98656258.50306     -2007.571 6        39.997
E09        21.000    26912032.049 5 141423747.82805      1428.072 5        33.928                                                                    26912035.559 4 105608592.06304      1066.471 4        29.194    26912035.503 6 108363621.32306      1094.411 6        40.527
E36        22.000    26367310.894 7 138561143.64807       315.190 7        43.845                                                                    26367309.226 7 103470988.84507       235.348 7        42.828    26367308.909 7 106170224.64207       241.524 7        42.847
S36        23.000    38257593.095 5 201045151.99405      -851.170 5        34.195
S23        24.000    38195107.491 6 200716602.58006      -847.456 6        40.460
G11        25.000    22492268.189 7 118198021.17907     -2346.962 7        45.443                                    22492263.856 4  92102065.93604     -1828.801 4        25.684    22492262.373 6  92101955.96706     -1828.594 6        41.754
R17        27.000    22333712.255 7 119512199.16007      -495.510 7        43.302                                                                    22333711.162 7  92953893.70907      -385.423 7        42.445
E10        29.000    25955173.307 5 136395309.21705     -3556.050 5        34.881                                                                    25955163.322 5 101853694.11105     -2655.391 5        34.538    25955162.819 5 104510830.26905     -2724.852 5        34.881
R11        30.000    20721890.180 7 110731496.82007      2399.718 7        42.265                                                                    20721890.667 6  86124490.41006      1866.405 6        38.024
C20        31.000                                                                                                                                    22812107.030 8 118788765.81708     -2549.337 8        48.595                                                                    22812081.769 3                     -2072.138 3        19.313
R10        32.000    20296972.851 7 108194298.72907     -1784.364 7        44.212
R02        35.000    23868960.626 6 127369357.32506      2587.912 6        36.635                                                                    23868963.909 4  99065035.65404      2013.007 4        27.473
R09        37.000    22916086.913 5 122370456.66505     -4505.844 5        34.071
C05        38.000                                                                                                                                                                                                    39273438.883 5 158137858.02305      -697.058 5        33.982
C35        41.000                                                                                                                                    26282648.963 4                     -3339.246 4        26.814                                                                    26282642.092 3                     -2713.633 3        23.048
C37        42.000                                                                                                                                    23463731.554 7 122181790.22507     -2139.360 7        46.145                                                                    23463734.751 7  99282816.03807     -1738.399 7        46.544
R24        43.000    22533160.971 5 120494974.14405     -3908.689 5        35.895                                                                    22533165.000 5  93718261.09605     -3039.974 5        32.431
R01        44.000    20085898.439 8 107370652.08308      1132.888 8        48.996                                                                    20085895.672 6  83510489.77906       881.281 6        38.847
C09        47.000                                                                                                                                    39423881.940 4                     -1628.814 4        27.677    39423845.708 6 158743477.19406     -1259.033 6        38.102
C19        48.000                                                                                                                                    22103562.604 8 115099210.33808       106.996 8        50.331                                                                    22103555.693 7  93527388.96607        86.891 7        46.165
C06        50.000                                                                                                                                                                                                    40103766.750 3                     -1471.025 3        19.851
C22        51.000                                                                                                                                    25169935.056 6 131066406.36506      2023.763 6        41.216                                                                    25169919.374 5 106502182.72905      1644.504 5        34.919
C44        52.000                                                                                                                                    25881692.399 4 134772728.61104     -1751.883 4        25.519                                                                    25881669.642 4 109513778.90004     -1423.868 4        29.536
C12        54.000                                                                                                                                    26343050.012 5 137175537.29605      -444.378 5        34.114    26343053.202 7 106072520.40907      -343.752 7        43.941    26343049.234 6 111466056.55906      -361.178 6        38.048
I09        57.000    38383768.955 6 150626153.75706     -1116.879 6        37.584
I06        59.000    38009125.129 5 149155971.22805      -633.131 5        34.429
> 2025 01 02 05 30  5.0000000  0 39
G20         4.000    21319201.850 7 112033163.81707      1065.165 7        45.862                                    21319194.063 4  87298558.91704       830.005 4        25.684
G07         5.000    20814492.379 8 109380922.80108      -830.061 8        48.851                                    20814486.671 6  85231896.78806      -646.797 6        39.135    20814486.308 6  85231842.76406      -646.932 6        36.597
G09         6.000    21247663.221 7 111657214.34707     -2960.085 7        42.916                                    21247660.039 6  87005635.04506     -2306.558 6        39.715    21247660.735 7  87005622.03507     -2306.598 7        42.334
G30         7.000    21562119.948 6 113309696.21906      1466.290 6        39.342                                    21562122.102 3  88293263.76703      1142.588 3        23.524    21562123.794 4  88293243.69904      1143.064 4        28.161
E21        10.000    26001522.218 6 136638917.65806        87.267 6        40.358                                                                    26001518.633 5 102035563.08405        65.302 5        33.293    26001517.386 5 104697375.62405        66.880 5        35.643
E06        11.000    24803942.463 5 130345590.40105       878.755 5        33.461                                                                    24803941.182 6  97336029.86906       656.298 6        41.707    24803939.996 6  99875208.31406       673.382 6        41.211
G04        12.000    23487578.866 5 123428152.48705     -3814.141 5        30.777                                                                                                    23487605.526 3                     -2970.973 3        22.057
E12        13.000    27438375.258 3                     -4064.148 3        23.486                                                                    27438411.150 3                     -3035.713 3        19.612    27438377.311 5 110482973.56805     -3114.722 5        31.675
G05        14.000    23820420.074 5 125177232.37305      2624.607 5        30.438                                    23820468.654 1  97540657.94201      2045.222 1         7.750    23820415.348 5  97540650.41405      2044.892 5        34.090
G06        15.000    23473595.543 5 123354917.92805     -4131.445 5        31.660                                    23473589.643 1  96120424.05401     -3219.333 1        10.074    23473597.334 4                     -3219.506 4        29.071
E11        16.000    25083770.702 5                     -2363.072 5        31.275                                                                    25083770.384 6  98434108.77706     -1764.792 6        40.579    25083770.569 7 101001948.65807     -1810.805 7        42.430
E04        17.000    23569061.600 6 123856274.77106      -149.070 6        36.824                                                                    23569061.952 6  92490131.22706      -111.103 6        40.265    23569061.306 6  94902847.00006      -114.036 6        39.198
R08        18.000    20197033.269 6 108154356.87106     -2502.836 6        41.754                                                                    20197028.779 6  84119908.84206     -1946.734 6        40.830
E19        20.000    24503713.622 6 128767895.28006     -2621.219 6        38.438                                                                    24503710.124 6  96157845.58706     -1957.417 6        39.204    24503711.330 6  98666298.26206     -2008.362 6        40.412
E09        21.000    26910673.552 5 141416607.21205      1427.593 5        31.268                                                                    26910676.335 4 105603259.79404      1066.501 4        29.611    26910677.170 6 108358149.93206      1093.843 6        40.651
E36        22.000    26367011.942 7 138559573.23507       312.679 7        43.198                                                                    26367010.330 7 103469816.12807       233.576 7        42.603    26367010.302 7 106169021.34407       239.596 7        42.665
S36        23.000    38258401.220 5 201049406.42105      -851.075 5        34.195
S23        24.000    38195911.498 6 200720839.68906      -847.636 6        40.224
G11        25.000    22494501.622 7 118209762.53807     -2350.052 7        44.173                                    22494498.388 4  92111215.05104     -1831.208 4        24.812    22494495.948 6  92111105.08506     -1831.120 6        40.734
R17        27.000    22334175.621 7 119514687.69907      -500.208 7        42.459                                                                    22334176.341 7  92955829.23907      -389.012 7        43.234
E10        29.000    25958555.799 6 136413093.00606     -3557.749 6        36.170                                                                    25958547.257 5 101866974.18305     -2656.800 5        33.695    25958547.468 5 104524456.77705     -2726.142 5        35.524
R11        30.000    20719644.422 6 110719505.42306      2396.559 6        40.586                                                                    20719646.782 6  86115163.75506      1863.964 6        38.685
C20        31.000                                                                                                                                    22814555.802 8 118801515.87008     -2551.054 8        48.512                                                                    22814535.214 3                     -2070.806 3        22.629
R10        32.000    20298648.871 7 108203231.58507     -1789.143 7        44.757
R02        35.000    23866535.012 5 127356417.24305      2587.775 5        35.967                                                                    23866541.467 4  99054971.13104      2012.923 4        28.711
R09        37.000    22920311.524 5 122392991.81005     -4508.361 5        32.419
C05        38.000                                                                                                                                                                                                    39274303.485 5 158141341.92105      -696.874 5        33.539
C35        41.000                                                                                                                                    26285859.535 4                     -3339.987 4        27.018                                                                    26285846.077 3                     -2713.698 3        22.057
C37        42.000                                                                                                                                    23465786.890 7 122192492.67207     -2142.040 7        44.877                                                                    23465790.045 7  99291512.63207     -1740.423 7        46.597
R24        43.000    22536815.875 6 120514524.54106     -3911.696 6        36.790                                                                    22536826.624 5  93733467.01405     -3042.188 5        33.168
R01        44.000    20084839.872 8 107364991.46508      1130.983 8        49.560                                                                    20084836.910 6  83506087.08306       879.525 6        37.766
C09        47.000                                                                                                                                    39425445.738 4                     -1628.807 4        27.257    39425409.032 6 158749773.16006     -1259.509 6        38.207
C19        48.000                                                                                                                                    22103460.485 8 115098679.20908       105.116 8        50.282                                                                    22103453.671 7  93526957.34707        85.588 7        45.866
C06        50.000                                                                                                                                                                                                    40105592.402 3                     -1468.924 3        22.609
C22        51.000                                                                                                                                    25167995.033 6 131056287.44906      2023.374 6        40.720                                                                    25167976.303 5 106493960.30205      1644.283 5        34.548
C44        52.000                                                                                                                                                                                                                                                                    25883349.578 4 109520902.59204     -1425.887 4        28.512
C12        54.000                                                                                                                                    26343478.999 5 137177765.97005      -447.319 5        34.790    26343480.876 7 106074243.74007      -345.870 7        43.905    26343476.874 6 111467867.51706      -363.443 6        38.006
I09        57.000    38385191.855 6 150631739.10906     -1117.266 6        37.652
I06        59.000    38009932.532 5 149159136.53905      -633.359 5        34.200
> 2025 01 02 05 30 10.0000000  0 40
G16         2.000    24051584.290 4                     -2716.184 4        25.895
G20         4.000    21318188.541 7 112027842.57907      1062.912 7        45.157                                    21318181.580 4  87294412.50004       828.238 4        24.406
G07         5.000    20815282.954 8 109385077.73808      -832.340 8        48.877                                    20815276.699 6  85235134.38006      -648.574 6        39.195    20815277.548 6  85235080.34806      -648.584 6        37.127
G09         6.000    21250479.858 7 111672016.82907     -2961.146 7        43.589                                    21250477.121 6  87017169.44906     -2307.386 6        40.548    21250477.780 7  87017156.44007     -2307.506 7        42.728
G30         7.000    21560726.065 6 113302368.80006      1464.453 6        38.135                                    21560728.176 3  88287553.99603      1141.148 3        21.524    21560730.130 4  88287533.98404      1141.225 4        29.687
E21        10.000    26001440.359 6 136638486.06006        85.091 6        40.439                                                                    26001436.622 5 102035240.81605        63.406 5        33.719    26001434.338 5 104697044.95905        65.150 5        35.305
E06        11.000    24803106.247 5 130341196.86305       878.451 5        32.922                                                                    24803104.968 6  97332748.96606       655.830 6        41.814    24803103.862 6  99871841.82306       672.942 6        41.123
G04        12.000    23491205.567 4 123447221.79704     -3814.333 4        29.469
E12        13.000    27442244.853 4                     -4065.088 4        27.078                                                                    27442279.206 3                     -3036.924 3        19.791    27442244.794 5 110498546.76405     -3115.140 5        31.811
G05        14.000                                                                                                                                                                    23817918.323 5  97530426.41805      2044.261 5        34.724
G06        15.000    23477534.635 5 123375577.95805     -4132.494 5        34.381                                    23477522.238 1  96136522.79201     -3220.145 1        11.778    23477530.940 5                     -3220.364 5        31.653
E11        16.000    25086022.906 5                     -2365.035 5        33.275                                                                    25086019.645 6  98442935.61106     -1766.294 6        40.629    25086019.737 7 101011005.75707     -1812.384 7        42.157
E04        17.000    23569205.055 6 123857020.21906      -149.621 6        37.444                                                                    23569204.511 6  92490687.90106      -111.743 6        40.694    23569203.249 6  94903418.17506      -114.620 6        39.114
R08        18.000    20199374.565 7 108166874.75907     -2504.678 7        43.369                                                                    20199366.723 6  84129644.90106     -1947.878 6        40.541
E19        20.000    24506207.328 6 128781001.10406     -2621.758 6        39.033                                                                    24506204.062 6  96167632.38306     -1957.664 6        39.069    24506205.334 6  98676340.37706     -2008.719 6        40.508
E09        21.000    26909315.650 4 141409468.30704      1427.577 4        29.744                                                                    26909317.699 4 105597928.88404      1065.856 4        28.806    26909319.110 6 108352679.91106      1093.776 6        40.303
E36        22.000    26366715.141 7 138558014.47107       310.530 7        42.542                                                                    26366713.865 7 103468652.12907       231.914 7        42.453    26366713.732 7 106167826.96807       238.007 7        42.318
S36        23.000    38259210.624 5 201053660.81005      -850.950 5        34.086
S23        24.000    38196715.563 6 200725076.54106      -847.459 6        40.048
G11        25.000    22496739.168 7 118221518.58407     -2352.790 7        43.630                                    22496735.420 4  92120375.60004     -1833.342 4        24.241    22496733.269 6  92120265.65106     -1833.353 6        38.943
R17        27.000    22334644.402 7 119517198.54407      -504.509 7        43.437                                                                    22334644.689 7  92957782.10207      -392.351 7        43.566
E10        29.000    25961939.808 6 136430883.20806     -3558.890 6        37.671                                                                    25961932.777 5 101880259.04605     -2657.433 5        33.790    25961933.234 5 104538088.20205     -2727.012 5        35.133
R11        30.000    20717400.881 6 110707529.41906      2393.555 6        37.807                                                                    20717406.084 6  86105849.07406      1861.767 6        39.814
C20        31.000                                                                                                                                    22817005.014 8 118814273.44208     -2552.342 8        48.212
R10        32.000    20300329.624 7 108212187.04607     -1793.415 7        45.007
R02        35.000    23864109.301 5 127343476.35005      2588.147 5        32.527                                                                    23864115.663 4  99044905.98904      2012.888 4        27.988
R09        37.000                                                                                                                                    22924474.208 4                     -3508.414 4        24.226
C05        38.000                                                                                                                                                                                                    39275168.739 5 158144825.78505      -696.663 5        33.886
C35        41.000                                                                                                                                    26289068.760 4                     -3341.006 4        29.194                                                                    26289052.481 3                     -2718.480 3        20.690
C37        42.000                                                                                                                                    23467844.362 7 122203207.63907     -2144.478 7        43.088                                                                    23467847.773 7  99300219.42207     -1742.545 7        46.658
R24        43.000    22540475.336 6 120534087.95306     -3913.996 6        36.076                                                                    22540482.886 5  93748682.98105     -3043.837 5        32.461
R01        44.000    20083782.886 8 107359339.41708      1129.492 8        49.651                                                                    20083780.395 6  83501691.05906       878.367 6        38.174
C09        47.000                                                                                                                                    39427007.662 4                     -1629.174 4        26.850    39426972.405 6 158756069.36606     -1259.227 6        38.129
C19        48.000                                                                                                                                    22103359.943 8 115098155.96608       103.762 8        50.436                                                                    22103353.377 7  93526532.16507        84.277 7        45.803
C06        50.000                                                                                                                                                                                                    40107418.393 3                     -1471.179 3        22.229
C22        51.000                                                                                                                                    25166058.945 6 131046169.65106      2023.415 6        40.079                                                                    25166034.212 5 106485738.81805      1644.048 5        34.195
C44        52.000                                                                                                                                                                                                                                                                    25885031.397 4 109528036.03004     -1427.912 4        27.976
C12        54.000                                                                                                                                    26343912.779 5 137180008.17505      -450.059 5        35.033    26343911.236 7 106075977.53907      -347.924 7        43.816    26343907.433 6 111469689.46306      -365.647 6        38.147
I09        57.000    38386615.192 6 150637324.92406     -1117.220 6        37.781
I06        59.000    38010739.307 5 149162301.95105      -633.116 5        34.495
> 2025 01 02 05 30 15.0000000  0 40
G16         2.000    24054164.961 3                     -2720.496 3        22.076
G20         4.000    21317177.324 7 112022533.75007      1060.456 7        44.516                                    21317171.610 3  87290275.73603       826.332 3        23.124
G07         5.000    20816075.458 8 109389244.69908      -834.638 8        48.836                                    20816069.209 6  85238381.34606      -650.365 6        39.532    20816069.961 6  85238327.33506      -650.370 6        38.727
G09         6.000    21253298.224 7 111686826.31407     -2962.547 7        43.636                                    21253295.634 6  87028709.31106     -2308.480 6        41.206    21253296.087 7  87028696.28807     -2308.473 7        43.287
G30         7.000    21559332.491 6 113295051.58606      1462.478 6        36.060                                    21559336.236 3  88281852.17703      1139.610 3        21.619    21559341.352 5  88281832.21605      1140.088 5        31.879
E21        10.000    26001360.337 6 136638065.86706        82.819 6        40.369                                                                    26001356.700 5 102034927.05305        61.851 5        34.476    26001354.626 5 104696723.03105        63.253 5        35.152
E06        11.000    24802270.870 5 130336806.90205       877.393 5        33.976                                                                    24802269.572 6  97329470.75106       655.303 6        41.621    24802268.526 6  99868478.07606       672.498 6        41.230
G04        12.000    23494836.652 4 123466293.70304     -3814.555 4        27.964
E12        13.000    27446113.804 4                     -4065.617 4        28.360                                                                    27446111.208 5 107704436.66115     -3035.645 5        32.365    27446111.407 5 110514121.08805     -3114.875 5        31.857
G05        14.000                                                                                                                                                                    23815422.267 6  97520206.04806      2043.654 6        36.091
G06        15.000    23481474.770 5 123396243.64805     -4133.819 5        34.657                                    23481456.018 2  96152625.92702     -3221.151 2        12.848    23481464.716 5                     -3221.142 5        33.719
E11        16.000    25088276.568 5 131839777.85715     -2367.294 5        35.286                                                                    25088270.870 6  98451770.65506     -1767.852 6        40.629    25088271.068 6 101020071.28106     -1813.958 6        41.731
E04        17.000    23569348.990 6 123857770.71406      -150.682 6        38.994                                                                    23569347.725 6  92491248.32206      -112.474 6        41.535    23569346.117 6  94903993.22206      -115.310 6        39.240
R08        18.000    20201719.895 7 108179402.80007     -2506.639 7        43.926                                                                    20201706.230 6  84139388.91206     -1949.623 6        41.740
E19        20.000    24508701.463 6 128794110.03606     -2622.094 6        39.324                                                                    24508698.702 6  96177421.53206     -1957.961 6        38.994    24508699.879 6  98686384.90206     -2009.211 6        40.713
E09        21.000    26907958.678 4 141402331.20204      1426.901 4        29.318                                                                    26907959.559 4 105592599.24004      1065.835 4        28.294    26907961.014 6 108347211.21006      1093.644 6        40.029
E36        22.000    26366420.572 6 138556467.31406       308.305 6        41.964                                                                    26366419.569 7 103467496.78007       230.167 7        42.277    26366419.636 7 106166641.48007       236.216 7        42.167
S36        23.000    38260022.805 5 201057915.13505      -851.032 5        34.386
S23        24.000    38197522.306 6 200729313.20506      -847.337 6        40.091
G11        25.000    22498979.407 7 118233289.26107     -2355.663 7        42.842                                    22498974.702 3  92129547.55303     -1835.602 3        23.638    22498973.568 6  92129437.59006     -1835.687 6        38.075
R17        27.000    22335119.624 7 119519731.61707      -508.896 7        42.789                                                                    22335118.319 7  92959752.26407      -395.704 7        44.448
E10        29.000    25965326.393 6 136448679.80206     -3559.903 6        38.715                                                                    25965319.756 5 101893548.68105     -2658.415 5        33.856    25965319.915 5 104551724.51105     -2727.527 5        34.752
R11        30.000    20715164.931 6 110695568.85006      2390.416 6        37.853                                                                    20715166.563 6  86096546.42306      1859.258 6        40.315
C20        31.000                                                                                                                                    22819455.241 8 118827038.50008     -2553.800 8        48.219                                                                    22819461.726 4                     -2075.301 4        29.194
R10        32.000    20302014.166 7 108221164.98007     -1797.932 7        44.533
R02        35.000    23861680.023 4 127330534.88604      2588.582 4        28.796                                                                    23861692.383 4  99034840.27104      2013.608 4        29.175
R09        37.000                                                                                                                                    22928701.564 4                     -3508.792 4        25.594
C05        38.000                                                                                                                                                                                                    39276033.721 5 158148309.53905      -696.842 5        33.976
C35        41.000                                                                                                                                    26292279.367 5                     -3341.687 5        31.517                                                                    26292260.821 3                     -2716.578 3        20.524
C37        42.000                                                                                                                                    23469905.147 6 122213935.05806     -2146.641 6        41.087                                                                    23469907.862 7  99308936.33607     -1744.354 7        46.864
R24        43.000    22544137.191 5 120553664.41105     -3916.563 5        35.500                                                                    22544141.154 5  93763909.23105     -3046.315 5        32.234
R01        44.000    20082726.944 8 107353695.75908      1127.903 8        49.229                                                                    20082725.836 6  83497301.54006       877.232 6        39.276
C09        47.000                                                                                                                                    39428573.830 4                     -1628.626 4        26.479    39428536.174 6 158762365.73606     -1259.146 6        38.093
C19        48.000                                                                                                                                    22103261.002 8 115097640.57408       102.240 8        50.968                                                                    22103254.532 7  93526113.36707        83.128 7        45.543
C06        50.000                                                                                                                                                                                                    40109241.009 3                     -1468.343 3        23.143
C22        51.000                                                                                                                                    25164123.999 6 131036052.90606      2023.254 6        39.387                                                                    25164092.649 5 106477518.14205      1644.210 5        33.742
C44        52.000                                                                                                                                    25886735.670 5                     -1759.432 5        30.226                                                                    25886719.817 4 109535179.17204     -1429.186 4        28.104
C12        54.000                                                                                                                                    26344345.144 5 137182263.74205      -452.339 5        35.386    26344344.494 7 106077721.70207      -349.857 7        43.700    26344340.069 6 111471522.33106      -367.715 6        38.204
I09        57.000    38388038.967 6 150642911.20506     -1117.434 6        38.003
I06        59.000    38011546.203 5 149165467.44105      -633.176 5        34.595
> 2025 01 02 05 30 20.0000000  0 39
G16         2.000    24056747.489 3                     -2721.752 3        20.381
G20         4.000    21316169.490 7 112017237.86707      1057.880 7        43.979                                    21316164.310 3  87286149.06803       824.319 3        21.976
G07         5.000    20816870.558 8 109393424.24608      -837.033 8        48.924                                    20816864.353 6  85241638.11706      -652.233 6        40.086    20816866.016 6  85241584.11306      -652.315 6        40.288
G09         6.000    21256117.628 7 111701643.29707     -2964.103 7        43.640                                    21256115.582 6  87040255.00806     -2309.688 6        41.454    21256115.680 7  87040241.98407     -2309.739 7        43.515
G30         7.000    21557941.937 5 113287745.12605      1460.292 5        35.724                                    21557946.094 3  88276158.78703      1137.901 3        23.086    21557947.582 5  88276138.83805      1137.713 5        32.760
E21        10.000    26001282.147 6 136637657.63406        80.544 6        39.664                                                                    26001278.965 5 102034622.20105        60.116 5        34.381    26001277.585 5 104696410.22805        61.632 5        35.752
E06        11.000    24801435.678 5 130332421.04305       876.897 5        35.967                                                                    24801434.712 6  97326195.61906       654.690 6        41.433    24801434.138 6  99865117.52206       671.879 6        41.547
G04        12.000    23498469.204 4 123485368.91104     -3815.396 4        26.407
E12        13.000    27449982.598 5                     -4065.798 5        30.158                                                                    27449979.802 5 107719616.67405     -3036.204 5        32.623    27449979.311 5 110529697.14905     -3115.344 5        32.425
G05        14.000                                                                                                                                                                    23812927.096 6  97509989.65206      2042.921 6        36.488
G06        15.000    23485411.224 5 123416915.44705     -4134.939 5        35.290                                    23485391.073 2  96168733.81602     -3222.043 2        13.879    23485398.499 5  96168782.84215     -3222.064 5        34.762
E11        16.000    25090527.999 6 131851620.69706     -2369.827 6        36.843                                                                    25090524.422 6  98460614.33206     -1769.700 6        40.689    25090524.588 6 101029145.68206     -1815.910 6        41.392
E04        17.000    23569493.394 6 123858526.71806      -151.564 6        39.826                                                                    23569492.180 7  92491812.88007      -113.190 7        42.148    23569490.626 6  94904572.51406      -116.387 6        39.369
R08        18.000    20204070.540 7 108191941.40907     -2508.752 7        42.751                                                                    20204048.033 7  84149141.16907     -1951.207 7        42.334
E19        20.000    24511196.497 6 128807222.61306     -2622.823 6        38.790                                                                    24511193.857 6  96187213.38006     -1958.692 6        38.898    24511195.115 6  98696432.16706     -2009.685 6        40.920
E09        21.000    26906602.784 5 141395196.33505      1426.729 5        30.325                                                                    26906601.193 4 105587271.29604      1065.642 4        27.976    26906603.607 6 108341744.24706      1093.284 6        39.625
E36        22.000    26366128.524 6 138554932.30006       305.834 6        41.580                                                                    26366127.577 7 103466350.49007       228.387 7        42.461    26366127.766 7 106165465.29207       234.427 7        42.165
S36        23.000    38260832.915 5 201062169.82205      -850.895 5        34.324
S23        24.000    38198331.728 6 200733550.35906      -847.553 6        40.317
G11        25.000    22501222.766 7 118245075.08207     -2358.663 7        43.259                                    22501216.729 3  92138731.30903     -1837.925 3        23.333    22501217.132 6  92138621.35106     -1837.883 6        38.153
R17        27.000    22335598.367 6 119522287.39006      -513.357 6        41.743                                                                    22335596.167 7  92961740.09907      -399.334 7        44.280
E10        29.000    25968715.192 6 136466483.33606     -3561.521 6        38.976                                                                    25968707.837 5 101906843.51305     -2659.238 5        33.910    25968707.975 5 104565366.15505     -2728.862 5        34.810
R11        30.000    20712932.280 6 110683624.25106      2387.441 6        38.745                                                                    20712929.938 6  86087256.18106      1856.768 6        40.124
C20        31.000                                                                                                                                    22821907.125 7 118839811.56307     -2555.358 7        47.662                                                                    22821912.305 5                     -2076.506 5        32.102
R10        32.000    20303701.760 7 108230165.99507     -1802.492 7        42.559
R02        35.000    23859255.308 5 127317593.17905      2588.492 5        31.487                                                                    23859265.585 4  99024774.39804      2013.402 4        29.270
C05        38.000                                                                                                                                                                                                    39276899.503 5 158151793.59005      -696.491 5        34.171
C35        41.000                                                                                                                                    26295490.095 5                     -3342.872 5        33.533                                                                    26295471.598 3                     -2722.493 3        20.190
C37        42.000                                                                                                                                    23471967.964 6 122224675.51706     -2149.269 6        39.183                                                                    23471970.434 7  99317663.84407     -1746.464 7        46.881
R24        43.000    22547798.131 5 120573254.46805     -3919.175 5        34.586                                                                    22547804.313 5  93779146.01505     -3048.533 5        32.174
R01        44.000    20081672.302 8 107348060.95408      1126.119 8        49.329                                                                    20081671.692 6  83492918.93506       875.840 6        39.946
C09        47.000                                                                                                                                    39430137.619 4                     -1629.288 4        25.669    39430100.480 6 158768662.71206     -1259.401 6        38.042
C19        48.000                                                                                                                                    22103163.741 8 115097133.56808       100.590 8        51.474                                                                    22103157.248 7  93525701.41007        81.712 7        45.536
C06        50.000                                                                                                                                                                                                    40111067.273 4                     -1470.911 4        24.105
C22        51.000                                                                                                                                    25162186.860 6 131025937.78906      2022.952 6        39.123                                                                    25162151.268 5 106469298.82305      1643.509 5        32.677
C44        52.000                                                                                                                                    25888423.059 4                     -1761.942 4        29.915                                                                    25888410.273 4 109542332.48604     -1431.842 4        29.545
C12        54.000                                                                                                                                    26344781.491 5 137184533.38205      -455.118 5        34.848    26344780.788 7 106079476.71807      -352.022 7        43.450    26344775.694 6 111473366.60406      -370.075 6        38.003
I09        57.000    38389462.719 6 150648498.27306     -1117.442 6        37.713
I06        59.000    38012353.147 5 149168633.36205      -633.345 5        34.448
> 2025 01 02 05 30 25.0000000  0 40
G16         2.000    24059334.569 4                     -2726.450 4        26.994
G20         4.000    21315164.110 7 112011954.45907      1055.259 7        42.510                                    21315159.555 3  87282032.11203       822.281 3        20.905
G07         5.000    20817668.030 8 109397615.89708      -839.790 8        48.622                                    20817662.010 6  85244904.32606      -654.377 6        40.393    20817662.543 6  85244850.32306      -654.352 6        40.751
G09         6.000    21258938.777 7 111716467.30907     -2965.730 7        43.742                                    21258936.818 6  87051806.18806     -2310.955 6        40.977    21258936.093 7  87051793.15607     -2310.990 7        43.209
G30         7.000    21556555.326 6 113280448.89106      1457.903 6        37.713                                    21556557.744 4  88270473.39604      1136.032 4        24.887    21556553.531 5  88270453.34305      1135.983 5        32.611
E21        10.000    26001206.672 6 136637260.89606        78.020 6        38.868                                                                    26001203.618 5 102034325.94405        58.127 5        34.814    26001202.962 6 104696106.24606        59.676 6        36.544
E06        11.000    24800600.680 6 130328038.86206       876.136 6        36.261                                                                    24800600.593 6  97322923.22306       654.151 6        41.285    24800600.289 6  99861759.77906       671.022 6        41.971
G04        12.000    23502097.505 4 123504446.96604     -3815.941 4        26.036
E12        13.000    27453850.954 5                     -4066.335 5        31.042                                                                    27453848.006 5 107734797.96905     -3036.320 5        32.263    27453848.410 5 110545274.47805     -3115.912 5        32.964
G05        14.000                                                                                                                                                                    23810432.276 6  97499776.86906      2041.998 6        36.745
G06        15.000    23489344.096 5 123437592.95205     -4136.100 5        34.295                                    23489326.799 2  96184846.19602     -3222.940 2        14.619    23489332.828 5  96184895.23205     -3222.990 5        35.524
E11        16.000    25092783.756 6 131863474.60406     -2372.177 6        36.953                                                                    25092780.007 6  98469466.27306     -1771.411 6        40.486    25092780.103 6 101038228.54306     -1817.743 6        40.825
E04        17.000    23569638.958 6 123859287.85506      -152.930 6        40.107                                                                    23569637.277 7  92492381.25307      -114.175 7        42.535    23569635.463 6  94905155.69006      -117.122 6        39.405
R08        18.000    20206415.070 6 108204490.41706     -2511.079 6        38.736                                                                    20206391.673 7  84158901.52107     -1953.076 7        42.775
E19        20.000    24513692.611 6 128820338.25706     -2623.797 6        38.204                                                                    24513689.532 6  96197007.52106     -1959.370 6        38.414    24513691.176 6  98706481.80806     -2010.324 6        41.168
E09        21.000    26905247.699 5 141388063.33305      1426.219 5        32.114                                                                    26905243.339 4 105581944.72204      1064.414 4        27.305    26905246.229 6 108336278.67906      1092.784 6        39.255
E36        22.000    26365838.901 6 138553408.96406       303.244 6        41.616                                                                    26365837.926 7 103465212.94007       226.399 7        42.262    26365837.882 7 106164298.06707       232.454 7        42.400
S36        23.000    38261645.262 5 201066424.50205      -851.081 5        34.386
S23        24.000    38199136.477 6 200737787.30806      -847.563 6        40.315
G11        25.000    22503469.064 7 118256875.57707     -2361.784 7        42.347                                    22503461.456 3  92147926.49303     -1840.349 3        22.267    22503462.881 6  92147816.53206     -1840.408 6        38.574
R17        27.000    22336079.720 6 119524865.49206      -518.105 6        41.902                                                                    22336077.514 7  92963745.29707      -402.946 7        43.598
E10        29.000    25972104.547 6 136484293.29606     -3562.688 6        39.042                                                                    25972097.180 5 101920143.15305     -2660.476 5        34.048    25972096.498 5 104579012.70905     -2729.726 5        34.657
R11        30.000    20710700.252 6 110671695.14206      2383.996 6        40.262                                                                    20710696.832 6  86077977.96306      1854.222 6        40.234
C20        31.000                                                                                                                                    22824360.340 7 118852592.18807     -2557.129 7        47.191                                                                    22824359.606 5                     -2077.682 5        33.748
R10        32.000    20305393.736 6 108239189.66206     -1807.278 6        41.128
R02        35.000                                                                                                                                    23856841.528 4  99014708.02404      2013.189 4        27.365
R09        37.000                                                                                                                                    22937169.646 3                     -3514.051 3        22.914
C05        38.000                                                                                                                                                                                                    39277763.984 5 158155277.61305      -697.241 5        33.575
C35        41.000                                                                                                                                    26298701.223 5                     -3344.079 5        35.019                                                                    26298683.363 3                     -2716.264 3        21.095
C37        42.000                                                                                                                                    23474036.537 6 122235428.52406     -2152.046 6        39.928                                                                    23474035.407 7  99326401.50407     -1748.623 7        47.020
R24        43.000    22551459.469 5 120592857.68205     -3922.226 5        32.234                                                                    22551471.091 5  93794393.00505     -3050.921 5        31.260
R01        44.000    20080620.424 8 107342434.64508      1124.172 8        49.647                                                                    20080619.443 6  83488542.90606       874.443 6        40.565
C09        47.000                                                                                                                                    39431701.372 4                     -1628.635 4        24.617    39431664.030 6 158774959.88706     -1259.438 6        37.675
C19        48.000                                                                                                                                    22103067.837 8 115096634.50208        98.797 8        51.806                                                                    22103061.410 7  93525295.86307        80.339 7        45.547
C06        50.000                                                                                                                                                                                                    40112895.791 4                     -1469.720 4        24.451
C22        51.000                                                                                                                                    25160243.035 6 131015823.86506      2022.553 6        37.346                                                                    25160207.966 5 106461080.44005      1643.296 5        31.419
