     3.04           OBSERVATION DATA    M                   RINEX VERSION / TYPE
ssrcrin-15.6.1x                         20250102 234500 UTC PGM / RUN BY / DATE 
(00000000023479385599111004) Septentrio proprietary         COMMENT             
ract                                                        MARKER NAME         
01                                                          MARKER NUMBER       
geodetic                                                    MARKER TYPE         
NFB                 CLIMERS@TUW                             OBSERVER / AGENCY   
3296359             SEPT ASTERX SB3 PROB4.14.4              REC # / TYPE / VERS 
Unknown             Unknown                                 ANT # / TYPE        
  4127445.9479  1206914.6182  4695541.4286                  APPROX POSITION XYZ 
        0.0000        0.0000        0.0000                  ANTENNA: DELTA H/E/N
G   23 X1  C1C L1C D1C S1C C1W S1W C2W L2W D2W S2W C2L L2L  SYS / # / OBS TYPES 
       D2L S2L C5Q L5Q D5Q S5Q C1L L1L D1L S1L              SYS / # / OBS TYPES 
E   21 X1  C1C L1C D1C S1C C6C L6C D6C S6C C5Q L5Q D5Q S5Q  SYS / # / OBS TYPES 
       C7Q L7Q D7Q S7Q C8Q L8Q D8Q S8Q                      SYS / # / OBS TYPES 
S    9 X1  C1C L1C D1C S1C C5I L5I D5I S5I                  SYS / # / OBS TYPES 
R   17 X1  C1C L1C D1C S1C C2P L2P D2P S2P C2C L2C D2C S2C  SYS / # / OBS TYPES 
       C3Q L3Q D3Q S3Q                                      SYS / # / OBS TYPES 
C   25 X1  C1P L1P D1P S1P C5P L5P D5P S5P C2I L2I D2I S2I  SYS / # / OBS TYPES 
       C7I L7I D7I S7I C6I L6I D6I S6I C7D L7D D7D S7D      SYS / # / OBS TYPES 
J   17 X1  C1C L1C D1C S1C C2L L2L D2L S2L C5Q L5Q D5Q S5Q  SYS / # / OBS TYPES 
       C1L L1L D1L S1L                                      SYS / # / OBS TYPES 
I    5 X1  C5A L5A D5A S5A                                  SYS / # / OBS TYPES 
SEPTENTRIO RECEIVERS OUTPUT ALIGNED CARRIER PHASES.         COMMENT             
NO FURTHER PHASE SHIFT APPLIED IN THE RINEX ENCODER.        COMMENT             
G L1C                                                       SYS / PHASE SHIFT   
G L2W                                                       SYS / PHASE SHIFT   
G L2L  0.00000                                              SYS / PHASE SHIFT   
G L5Q  0.00000                                              SYS / PHASE SHIFT   
G L1L  0.00000                                              SYS / PHASE SHIFT   
E L1C  0.00000                                              SYS / PHASE SHIFT   
E L6C  0.00000                                              SYS / PHASE SHIFT   
E L5Q  0.00000                                              SYS / PHASE SHIFT   
E L7Q  0.00000                                              SYS / PHASE SHIFT   
E L8Q  0.00000                                              SYS / PHASE SHIFT   
S L1C                                                       SYS / PHASE SHIFT   
S L5I                                                       SYS / PHASE SHIFT   
R L1C                                                       SYS / PHASE SHIFT   
R L2P  0.00000                                              SYS / PHASE SHIFT   
R L2C                                                       SYS / PHASE SHIFT   
R L3Q  0.00000                                              SYS / PHASE SHIFT   
C L1P  0.00000                                              SYS / PHASE SHIFT   
C L5P  0.00000                                              SYS / PHASE SHIFT   
C L2I                                                       SYS / PHASE SHIFT   
C L7I                                                       SYS / PHASE SHIFT   
C L6I                                                       SYS / PHASE SHIFT   
C L7D                                                       SYS / PHASE SHIFT   
J L1C                                                       SYS / PHASE SHIFT   
J L2L  0.00000                                              SYS / PHASE SHIFT   
J L5Q  0.00000                                              SYS / PHASE SHIFT   
J L1L  0.00000                                              SYS / PHASE SHIFT   
I L5A                                                       SYS / PHASE SHIFT   
  2025     1     2    23    45    0.0000000     GPS         TIME OF FIRST OBS   
 C1C    0.000 C2C    0.000 C2P    0.000                     GLONASS COD/PHS/BIS 
DBHZ                                                        SIGNAL STRENGTH UNIT
    18                                                      LEAP SECONDS        
 24 R01  1 R02 -4 R03  5 R04  6 R05  1 R06 -4 R07  5 R08  6 GLONASS SLOT / FRQ #
    R09 -2 R10 -7 R11  0 R12 -1 R13 -2 R14 -7 R15  0 R16 -1 GLONASS SLOT / FRQ #
    R17  4 R18 -3 R19  3 R20  2 R21  4 R22 -3 R23  3 R24  2 GLONASS SLOT / FRQ #
                                                            END OF HEADER       
> 2025 01 02 23 45  0.0000000  0 32
G03         2.000    21233185.931 7 111581281.52307      1459.660 7        46.353                                    21233181.180 6  86946382.54506      1137.392 6        40.443    21233182.622 6  86946323.56206      1137.406 6        40.656
G32         3.000    22510642.679 5 118294338.77105     -2860.326 5        35.095                                    22510639.795 5  92177289.61705     -2228.839 5        33.132    22510641.157 5  92177366.45805     -2228.216 5        32.922
G21         4.000    20904011.764 7 109851369.90207     -1940.322 7        42.686                                    20904005.242 3  85598437.51003     -1511.944 3        23.143
G08         5.000    23273279.197 6 122301883.06806     -4399.483 6        39.120                                    23273274.695 3  95300152.25603     -3428.177 3        19.612
G02         6.000    20705094.211 7 108805998.23407      -444.407 7        46.679                                    20705086.147 6  84783871.87806      -346.286 6        36.828
G14         7.000    24485064.924 5 128669861.91705     -2688.774 5        32.635                                                                                                    24485077.075 4                     -2094.897 4        28.521
E03         9.000    24000718.425 5 126124633.50205      -338.101 5        35.043                                                                    24000718.879 7  94184039.52107      -252.296 7        47.501    24000719.341 8  96640985.58808      -258.798 8        48.659
G17        10.000    23418049.864 7 123062668.16707      1652.732 7        45.558                                    23418044.486 7  95892952.85307      1287.829 7        44.099    23418043.888 7  95892965.86807      1287.873 7        42.887
E05        11.000    24813394.983 5 130395310.86405     -2971.571 5        35.338                                                                    24813391.224 4  97373107.20304     -2218.547 4        28.825    24813393.041 5  99913229.70305     -2277.034 5        32.772
E13        12.000    24576614.559 6 129150967.76506       976.029 6        41.240                                                                    24576613.647 6  96443916.76706       729.032 6        39.492    24576607.363 6  98959925.56606       747.832 6        38.045
E21        15.000    27563397.212 5 144846619.33005     -2723.433 5        34.857                                                                    27563383.411 5 108164636.19905     -2033.302 5        34.948    27563414.320 5                     -2086.629 5        34.114
E15        16.000    23447224.037 6 123215980.84606     -1441.734 6        41.635                                                                    23447224.220 7  92011927.99107     -1076.660 7        43.414    23447224.838 7  94412279.32807     -1104.654 7        46.184
E08        19.000    25687239.759 6 134987512.55606      2012.853 6        37.115                                                                    25687236.035 6 100802269.40406      1502.950 6        38.063    25687237.717 6 103431905.62606      1542.173 6        40.832
S23        21.000    38155317.692 6 200507588.00206      -848.768 6        38.730
R06        25.000    19850674.851 6 105926997.77906     -2989.431 6        41.092
R14        26.000    23822852.031 5                     -1211.385 5        30.121
R07        27.000    19508559.755 7 104430823.87707       909.497 7        43.118                                                                    19508557.972 7  81223988.65107       707.321 7        43.848
C41        29.000                                                                                                                                    23079774.977 7 120182472.74507      1407.403 7        46.728                                                                    23079775.934 6                      1143.469 6        38.709
R08        30.000    22941499.942 4                      3279.574 4        27.808                                                                    22941466.924 5                      2550.406 5        31.117
E34        32.000    26631374.805 5                     -3242.584 5        30.725                                                                    26631351.372 5 104507151.00005     -2421.185 5        30.853    26631348.769 4 107233419.85204     -2485.035 4        29.005
R23        33.000    22136876.140 5 118417412.47205      2916.827 5        30.672
R22        35.000    19306912.021 8 103061601.72908       261.844 8        49.405                                                                    19306909.793 8  80159051.66608       203.744 8        49.825
C33        37.000                                                                                                                                    21931360.809 8 114202373.18008     -1466.257 8        51.618                                                                    21931370.044 7  92798793.14107     -1191.595 7        42.650
R21        39.000    20689235.899 5 110712420.56905     -3772.493 5        35.862                                                                    20689230.606 5  86109529.73805     -2934.276 5        32.162
C27        41.000                                                                                                                                    22605507.989 7 117712825.25107      1001.134 7        44.915                                                                    22605505.148 6  95651336.17806       813.156 6        39.901
C14        42.000                                                                                                                                    23012287.074 5 119830967.89505     -2947.427 5        35.848    23012278.947 6  92660952.65306     -2279.229 6        40.467    23012293.104 5                     -2395.433 5        30.317
C39        45.000                                                                                                                                    39276715.775 5                        59.392 5        33.551                                                                    39276706.771 4                        48.417 4        28.351
C43        48.000                                                                                                                                    25501803.571 5                     -4180.804 5        30.211
C30        49.000                                                                                                                                    26738598.648 3                      2408.948 3        22.552                                                                    26738575.478 4                      1957.115 4        29.630
C42        50.000                                                                                                                                    25140798.363 5 130914773.36105     -3827.247 5        33.880
C28        55.000                                                                                                                                    21621649.414 8 112589704.66808     -1720.902 8        48.641                                                                    21621649.595 8  91488260.57008     -1398.509 8        49.653
I09        56.000    37134822.535 7 145725016.57107      -540.481 7        43.617
> 2025 01 02 23 45  5.0000000  0 32
G03         2.000    21231798.660 7 111573987.73907      1457.955 7        46.849                                    21231793.014 6  86940699.07306      1136.076 6        39.613    21231795.451 5  86940640.05805      1135.999 5        35.424
G32         3.000    22513363.482 6 118308644.20206     -2862.430 6        37.853                                    22513361.542 5  92188436.66105     -2230.546 5        30.566    22513362.732 6  92188513.71506     -2230.622 6        37.361
G21         4.000    20905858.745 6 109861075.71106     -1942.010 6        41.652                                    20905851.674 3  85606000.43003     -1513.248 3        23.981
G08         5.000    23277465.152 6 122323882.33306     -4400.512 6        36.102                                    23277460.330 3  95317294.55303     -3429.025 3        19.373    23277496.358 3                     -3430.193 3        22.800
G02         6.000    20705517.852 7 108808225.69107      -446.496 7        46.137                                    20705510.218 6  84785607.55606      -347.926 6        36.688
G14         7.000    24487624.159 5 128683310.10105     -2690.631 5        35.881
E03         9.000    24001039.267 5 126126328.32205      -339.647 5        33.557                                                                    24001041.898 8  94185305.12808      -253.980 8        48.090    24001041.778 8  96642284.20708      -260.647 8        48.847
G17        10.000    23416477.949 7 123054408.76007      1650.932 7        46.167                                    23416472.774 7  95886516.96907      1286.441 7        43.318    23416472.514 7  95886529.94107      1286.486 7        42.222
E05        11.000    24816222.965 5 130410172.02105     -2973.031 5        31.042                                                                    24816223.525 5  97384204.82005     -2220.421 5        33.491    24816216.512 5  99924616.82405     -2278.586 5        31.087
E13        12.000    24575685.947 6 129146089.31006       975.473 6        39.994                                                                    24575686.220 7  96440273.72107       728.231 7        42.235    24575683.495 7  98956187.51207       747.324 7        43.395
E21        15.000    27565985.631 5 144860240.72405     -2724.802 5        31.155                                                                    27565978.414 5 108174806.95905     -2035.108 5        30.657    27566008.956 4                     -2087.218 4        25.383
E15        16.000    23448595.546 6 123223192.87606     -1443.102 6        40.133                                                                    23448596.539 7  92017313.62407     -1077.617 7        45.704    23448596.638 7  94417805.49107     -1105.694 7        46.805
E08        19.000    25685324.252 5 134977451.71705      2011.558 5        35.786                                                                    25685323.606 6 100794756.47706      1501.982 6        38.976    25685320.982 6 103424196.69406      1541.501 6        38.880
S23        21.000    38156140.359 6 200511831.37706      -848.630 6        41.228
R06        25.000    19853477.084 6 105941953.34706     -2992.701 6        41.697
R14        26.000                                                                                                                                    23824016.798 5  98774267.55615      -945.386 5        32.341
R07        27.000    19507710.541 7 104426285.89107       905.840 7        44.900                                                                    19507710.101 7  81220459.07007       704.502 7        44.081
C41        29.000                                                                                                                                    23078426.230 7 120175440.34707      1405.588 7        46.943                                                                    23078422.897 6                      1142.016 6        36.756
R08        30.000                                                                                                                                    22938406.863 5  95537645.32815      2549.457 5        31.004
E34        32.000                                                                                                                                    26634440.596 5 104519258.87905     -2421.597 5        32.533    26634435.664 5 107245843.59305     -2485.181 5        31.381
R23        33.000    22134146.856 5 118402832.24105      2915.878 5        33.521
R22        35.000    19306668.015 8 103060300.44508       258.687 8        49.999                                                                    19306665.586 8  80158039.57608       201.210 8        48.229
C33        37.000                                                                                                                                    21932769.928 8 114209710.08008     -1468.533 8        51.668                                                                    21932779.357 7  92804754.93107     -1193.107 7        42.590
R21        39.000    20692762.583 5                     -3775.469 5        34.829                                                                    20692755.270 4                     -2936.457 4        29.336
C27        41.000                                                                                                                                    22604548.190 7 117707825.04007       999.243 7        43.035                                                                    22604547.059 5  95647273.05205       811.868 5        34.510
C14        42.000                                                                                                                                    23015116.220 6 119845709.78506     -2948.825 6        40.155    23015111.123 7  92672352.03907     -2280.361 7        44.426    23015121.186 5                     -2396.199 5        31.026
C39        45.000                                                                                                                                    39276662.788 5 204523872.09515        58.445 5        33.413                                                                    39276650.133 4                        46.990 4        26.156
C43        48.000                                                                                                                                    25505820.188 5                     -4181.033 5        31.117
C30        49.000                                                                                                                                    26736279.750 4                      2407.988 4        25.444                                                                    26736262.254 5                      1956.852 5        30.732
C42        50.000                                                                                                                                    25144476.209 5 130933911.93705     -3827.736 5        31.411                                                                    25144478.684 5                     -3110.694 5        32.114
C28        55.000                                                                                                                                    21623303.670 8 112598315.19108     -1723.320 8        49.990                                                                    21623303.284 8  91495257.32408     -1400.220 8        49.171
I09        56.000    37135510.113 6 145727719.50006      -540.750 6        41.511
> 2025 01 02 23 45 10.0000000  0 31
G03         2.000    21230412.719 7 111566703.03107      1455.967 7        47.594                                    21230406.480 6  86935022.70106      1134.526 6        40.994    21230410.134 6  86934963.69106      1134.574 6        37.705
G32         3.000    22516089.339 6 118322962.32406     -2864.796 6        40.088                                    22516085.815 4  92199593.67704     -2232.349 4        29.024    22516086.813 5  92199670.74205     -2232.513 5        34.300
G21         4.000    20907707.743 7 109870790.90507     -1943.978 7        43.081                                    20907700.046 3  85613570.74703     -1514.781 3        23.676
G08         5.000    23281651.584 6 122345886.08006     -4401.073 6        38.468                                    23281646.878 3  95334440.31003     -3429.389 3        19.015
G02         6.000    20705943.649 7 108810463.37207      -448.473 7        47.704                                    20705935.988 6  84787351.20206      -349.455 6        37.157
G14         7.000    24490187.918 5 128696768.70605     -2692.823 5        32.437                                                                                                    24490202.065 3                     -2097.959 3        21.762
E03         9.000    24001366.851 6 126128035.28806      -342.789 6        36.318                                                                    24001367.098 8  94186579.78608      -255.808 8        48.796    24001366.869 8  96643592.12108      -262.528 8        49.138
G17        10.000    23414908.062 7 123046159.20107      1649.013 7        46.398                                    23414902.782 7  95880088.73707      1284.949 7        42.561    23414901.387 6  95880101.73106      1285.097 6        41.206
E05        11.000    24819048.102 5 130425041.34205     -2975.062 5        30.151                                                                    24819052.084 5  97395308.37905     -2221.172 5        32.347    24819044.390 5  99936010.08005     -2279.949 5        30.430
E13        12.000    24574759.129 6 129141214.80806       974.616 6        40.377                                                                    24574758.739 6  96436633.66306       727.762 6        41.697    24574756.528 7  98952452.49907       746.684 7        42.066
E15        16.000    23449970.207 6 123230411.93206     -1444.373 6        39.492                                                                    23449971.253 7  92022704.53507     -1078.729 7        46.711    23449970.322 7  94423337.02307     -1106.807 7        46.441
E08        19.000    25683411.970 5 134967396.62405      2010.612 5        34.710                                                                    25683409.756 6 100787247.83606      1501.299 6        39.670    25683406.541 6 103416492.15706      1540.502 6        40.350
S23        21.000    38156956.090 6 200516074.92006      -848.842 6        41.990
R06        25.000    19856282.335 6 105956925.00506     -2995.944 6        41.869
R14        26.000                                                                                                                                    23825157.204 5  98779003.05805      -949.167 5        32.180
R07        27.000    19506868.091 7 104421766.37407       902.051 7        45.287                                                                    19506865.458 7  81216943.89307       701.541 7        43.456
C41        29.000                                                                                                                                    23077078.041 7 120168417.09507      1403.710 7        47.097                                                                    23077077.460 6  97646658.03416      1140.824 6        38.078
R08        30.000                                                                                                                                    22935343.998 4  95524900.42604      2549.087 4        26.623
E34        32.000    26637534.506 4                     -3244.399 4        29.147                                                                    26637521.855 5 104531369.59005     -2422.713 5        31.540    26637524.105 5 107258270.20605     -2485.720 5        30.770
R23        33.000    22131425.016 5 118388256.85305      2914.699 5        35.219
R22        35.000    19306427.199 8 103059015.57408       255.273 8        48.494                                                                    19306424.711 8  80157040.22608       198.599 8        48.877
C33        37.000                                                                                                                                    21934181.229 8 114217058.56308     -1470.839 8        49.750                                                                    21934191.170 6  92810726.16906     -1195.166 6        41.921
R21        39.000                                                                                                                                    20696283.641 5  86138894.41915     -2939.258 5        31.321
C27        41.000                                                                                                                                    22603590.489 7 117702834.55807       997.088 7        46.380                                                                    22603583.433 6  95643217.93006       810.204 6        36.938
C14        42.000                                                                                                                                    23017946.968 6 119860459.88906     -2950.785 6        37.550    23017944.656 7  92683757.77807     -2281.814 7        44.826    23017955.532 5  97396509.04815     -2397.566 5        34.576
C39        45.000                                                                                                                                    39276604.588 4 204523582.22404        58.154 4        29.422                                                                    39276598.406 4                        46.836 4        28.436
C43        48.000                                                                                                                                    25509829.177 4                     -4182.220 4        29.640
C30        49.000                                                                                                                                                                                                                                                                    26733948.395 5                      1956.675 5        30.091
C42        50.000                                                                                                                                    25148153.780 4 130953053.98904     -3828.415 4        29.896                                                                    25148150.021 4                     -3111.047 4        27.018
C28        55.000                                                                                                                                    21624959.766 8 112606938.28108     -1725.898 8        49.112                                                                    21624959.128 8  91502264.28508     -1402.382 8        49.621
I09        56.000    37136199.176 6 145730423.69006      -540.944 6        41.666
> 2025 01 02 23 45 15.0000000  0 31
G03         2.000    21229027.492 7 111559427.19507      1454.421 7        46.973                                    21229021.887 6  86929353.20506      1133.308 6        41.533    21229025.559 6  86929294.23106      1133.252 6        40.656
G32         3.000                                                                                                                                                                    22518814.932 6  92210837.22806     -2234.288 6        39.553
G21         4.000    20909558.238 7 109880515.24607     -1945.611 7        43.848                                    20909549.983 3  85621148.16503     -1516.044 3        22.990
G08         5.000    23285839.624 6 122367894.17206     -4401.982 6        38.946                                    23285835.496 3  95351589.44903     -3430.086 3        20.619
G02         6.000    20706371.534 8 108812711.09208      -450.376 8        48.419                                    20706363.801 6  84789102.68006      -350.957 6        38.435
G14         7.000    24492744.481 5 128710237.56105     -2694.802 5        32.557
E03         9.000    24001694.198 7 126129754.25507      -344.901 7        43.458                                                                    24001694.673 8  94187863.41008      -257.555 8        49.191    24001693.804 8  96644909.20708      -264.159 8        48.567
G17        10.000    23413340.582 7 123037919.36607      1647.156 7        46.953                                    23413334.638 7  95873668.07207      1283.494 7        43.342    23413333.772 7  95873681.08307      1283.426 7        42.256
E05        11.000    24821881.562 4                     -2976.497 4        26.838                                                                    24821886.923 5  97406417.98405     -2222.573 5        32.257    24821883.499 5  99947409.62305     -2280.632 5        34.200
E13        12.000    24573832.446 6 129136344.05406       973.733 6        39.087                                                                    24573830.338 6  96432996.49606       727.354 6        40.296    24573830.251 6  98948720.40006       746.335 6        41.538
E21        15.000    27571173.302 4                     -2728.229 4        28.028
E15        16.000    23451343.098 6 123237637.98806     -1445.961 6        36.926                                                                    23451346.048 7  92028100.54007     -1079.577 7        46.544    23451345.549 7  94428873.79907     -1107.785 7        45.989
E08        19.000    25681500.653 5 134957347.26805      2009.216 5        35.081                                                                    25681496.987 6 100779743.39706      1500.607 6        40.923    25681495.330 6 103408791.95306      1539.683 6        38.859
S23        21.000    38157759.739 6 200520318.43306      -848.594 6        41.633
R06        25.000    19859091.560 6 105971912.44806     -2998.909 6        41.964
R07        27.000    19506028.423 8 104417265.18308       898.613 8        48.870                                                                    19506024.963 7  81213443.01607       698.851 7        43.409
C41        29.000                                                                                                                                    23075731.205 7 120161402.73207      1402.093 7        47.403                                                                    23075728.239 6  97640958.32306      1139.472 6        37.077
R08        30.000                                                                                                                                    22932284.862 5  95512160.11215      2547.362 5        31.532
E34        32.000    26640626.633 4                     -3244.527 4        29.175                                                                    26640608.185 4 104543482.88504     -2422.315 4        28.787
R23        33.000    22128700.324 6 118373686.03306      2914.015 6        36.280
R22        35.000    19306188.619 7 103057746.93307       252.320 7        47.322                                                                    19306186.892 8  80156053.51008       196.160 8        48.017
C33        37.000                                                                                                                                    21935594.508 8 114224418.47008     -1472.960 8        49.071                                                                    21935603.767 6  92816706.71706     -1196.797 6        41.812
R21        39.000    20699836.256 5 110769073.45915     -3780.653 5        35.929                                                                    20699818.255 5  86153592.29405     -2940.719 5        32.305
C27        41.000                                                                                                                                    22602635.196 7 117697853.95707       995.419 7        43.860                                                                    22602629.623 6  95639170.72406       808.881 6        38.183
C14        42.000                                                                                                                                    23020781.896 5                     -2952.324 5        32.862    23020777.278 7  92695169.59307     -2282.778 7        44.116    23020789.281 6  97408501.20606     -2399.101 6        37.183
C39        45.000                                                                                                                                    39276550.308 5 204523297.22705        57.277 5        30.332                                                                    39276538.361 4                        45.839 4        27.401
C43        48.000                                                                                                                                    25513847.064 4                     -4182.920 4        28.844
C30        49.000                                                                                                                                    26731644.005 3                      2408.032 3        23.486                                                                    26731636.584 4                      1956.334 4        29.659
C42        50.000                                                                                                                                    25151834.820 5                     -3828.736 5        30.709                                                                    25151830.413 4                     -3110.922 4        25.398
C28        55.000                                                                                                                                    21626617.901 8 112615573.77308     -1728.148 8        50.601                                                                    21626617.594 8  91509281.38208     -1404.159 8        48.401
I09        56.000    37136889.365 6 145733129.00506      -541.001 6        41.423
> 2025 01 02 23 45 20.0000000  0 31
G03         2.000    21227644.100 7 111552159.44907      1452.629 7        46.356                                    21227639.037 6  86923690.04606      1131.917 6        41.719    21227642.140 7  86923631.03807      1131.969 7        43.024
G32         3.000    22521573.762 5 118351632.79515     -2870.397 5        33.024                                                                                                    22521544.432 6  92222012.70106     -2236.138 6        39.090
G21         4.000    20911409.764 7 109890247.95907     -1947.450 7        43.482                                    20911401.583 3  85628732.08603     -1517.495 3        22.438
G08         5.000    23290029.392 5 122389905.68405     -4402.734 5        33.108                                    23290024.946 3  95368741.28803     -3430.683 3        20.238    23290021.968 5                     -3430.705 5        30.257
G02         6.000    20706800.864 8 108814968.14908      -452.394 8        49.392                                    20706793.225 6  84790861.41806      -352.506 6        38.228
G14         7.000                                                                                                                                                                    24495326.808 3                     -2105.544 3        20.310
E03         9.000    24002023.126 7 126131484.37207      -347.222 7        42.595                                                                    24002023.659 8  94189155.38008      -259.329 8        48.580    24002022.756 8  96646234.89908      -266.049 8        48.279
G17        10.000    23411774.165 7 123029688.40407      1645.232 7        46.349                                    23411768.251 7  95867254.33807      1281.998 7        42.995    23411766.864 6  95867267.37006      1282.048 6        39.288
E05        11.000    24824714.777 5                     -2977.904 5        30.143                                                                    24824723.333 5  97417532.99605     -2223.839 5        32.922    24824715.195 5  99958814.41705     -2281.575 5        33.437
E13        12.000    24572904.554 6 129131476.32506       973.231 6        36.405                                                                    24572905.064 6  96429361.56306       726.566 6        38.979    24572904.661 7  98944990.66507       745.585 7        44.346
E21        15.000    27573780.468 5                     -2729.485 5        31.291                                                                    27573775.404 5 108205355.55205     -2038.195 5        31.675    27573751.772 4                     -2091.280 4        26.120
E15        16.000    23452720.160 5 123244869.98605     -1446.873 5        34.386                                                                    23452722.558 7  92033501.12107     -1080.694 7        46.545    23452721.725 7  94434415.23507     -1108.777 7        46.918
E08        19.000    25679589.934 6 134947302.65306      2008.453 6        38.279                                                                    25679586.418 6 100772242.52606      1499.721 6        38.324    25679583.699 6 103401095.35006      1538.957 6        38.006
S23        21.000    38158561.443 7 200524561.27107      -848.492 7        42.226
R06        25.000    19861903.945 6 105986914.95206     -3002.041 6        40.453
R07        27.000    19505191.009 8 104412781.93808       894.846 8        49.804                                                                    19505186.617 6  81209955.98506       696.043 6        41.666
C41        29.000                                                                                                                                    23074383.802 7 120154396.60307      1400.319 7        46.935                                                                    23074387.741 6  97635265.24406      1137.846 6        39.474
R08        30.000                                                                                                                                    22929229.279 4                      2546.585 4        28.768
E34        32.000    26643718.456 4                     -3244.938 4        28.351                                                                    26643694.403 4 104555598.22604     -2423.513 4        28.436    26643696.454 4 107283130.92104     -2486.635 4        28.332
R23        33.000    22125983.791 6 118359118.96906      2912.913 6        36.193
R22        35.000    19305953.978 8 103056493.80708       249.061 8        48.744                                                                    19305951.995 7  80155078.87007       193.661 7        47.509
C33        37.000                                                                                                                                    21937009.749 8 114231789.00408     -1475.214 8        50.310                                                                    21937020.022 7  92822695.94007     -1198.814 7        42.573
R21        39.000                                                                                                                                    20703352.798 5  86168300.03105     -2942.544 5        34.662
C27        41.000                                                                                                                                    22601678.898 7 117692882.31807       993.475 7        47.212                                                                    22601675.021 6  95635130.88506       807.001 6        40.288
C14        42.000                                                                                                                                    23023619.568 6                     -2953.742 6        36.234    23023613.796 7  92706587.02207     -2284.108 7        45.612    23023624.366 5  97420499.23705     -2400.399 5        32.347
C39        45.000                                                                                                                                    39276498.026 5 204523016.63505        55.754 5        33.395                                                                    39276485.672 4                        45.175 4        27.521
C43        48.000                                                                                                                                    25517871.086 4                     -4183.475 4        26.419
C30        49.000                                                                                                                                                                                                                                                                    26729326.436 5                      1956.396 5        30.423
C42        50.000                                                                                                                                    25155513.642 5                     -3829.789 5        31.909                                                                    25155503.243 3                     -3111.846 3        21.429
C28        55.000                                                                                                                                    21628278.860 8 112624220.98308     -1730.642 8        50.341                                                                    21628277.764 7  91516307.95307     -1406.324 7        47.755
I09        56.000    37137578.479 6 145735834.91206      -541.372 6        41.964
> 2025 01 02 23 45 25.0000000  0 31
G03         2.000    21226263.007 8 111544900.43008      1450.978 8        48.110                                    21226258.223 7  86918033.66407      1130.625 7        42.950    21226260.911 7  86917974.66207      1130.667 7        42.519
G32         3.000                                                                                                                                                                    22524274.213 6  92233197.57906     -2237.861 6        37.512
G21         4.000    20913263.611 6 109899989.67806     -1949.307 6        40.770                                    20913255.272 3  85636323.02703     -1518.950 3        22.190
G08         5.000    23294218.866 6 122411921.41206     -4403.435 6        39.297                                    23294214.780 3  95385896.34503     -3431.245 3        18.776    23294217.794 5                     -3431.449 5        31.555
G02         6.000    20707232.288 8 108817235.07108      -454.254 8        48.953                                    20707224.607 6  84792627.82806      -353.956 6        38.544
E03         9.000    24002355.000 6 126133226.36606      -349.576 6        41.733                                                                    24002355.017 8  94190456.19408      -261.055 8        48.631    24002353.740 7  96647569.62907      -267.810 7        47.903
G17        10.000    23410209.392 7 123021467.08907      1643.281 7        44.980                                    23410203.277 7  95860848.12607      1280.462 7        42.705    23410202.869 6  95860861.16906      1280.538 6        41.268
E05        11.000    24827548.896 4                     -2979.196 4        28.654                                                                    24827560.836 4  97428653.64804     -2224.817 4        29.090    24827545.041 4  99970225.32104     -2282.813 4        29.848
E13        12.000    24571979.062 5 129126612.23005       972.605 5        35.095                                                                    24571978.377 6  96425729.37206       726.229 6        38.571    24571979.498 7  98941263.66807       745.259 7        44.193
E21        15.000    27576380.555 5                     -2731.156 5        32.317                                                                    27576369.951 4                     -2039.928 4        27.042
E15        16.000    23454099.692 6 123252108.79306     -1448.352 6        39.279                                                                    23454100.370 7  92038906.66807     -1081.500 7        47.574    23454099.134 7  94439961.83907     -1109.789 7        47.224
E08        19.000    25677678.233 6 134937263.38406      2007.348 6        37.422                                                                    25677673.981 6 100764745.76606      1499.044 6        37.645    25677675.902 6 103393403.05806      1537.953 6        41.094
S23        21.000    38159372.090 6 200528804.02406      -848.476 6        41.185
R06        25.000    19864717.359 6 106001933.05806     -3005.107 6        40.372
R14        26.000    23828601.481 5 127019865.90415     -1232.084 5        34.686
R07        27.000    19504356.830 7 104408316.98407       891.075 7        44.001                                                                    19504353.554 7  81206483.26607       693.153 7        44.221
C41        29.000                                                                                                                                    23073040.304 7 120147399.25407      1398.584 7        47.326                                                                    23073046.269 7  97629579.33907      1136.515 7        42.550
R08        30.000    22926180.337 5                      3273.530 5        30.272                                                                    22926174.645 5                      2545.980 5        35.771
E34        32.000    26646795.938 3                     -3245.243 3        18.955                                                                    26646783.898 4 104567716.12804     -2423.322 4        28.483    26646779.884 4                     -2486.852 4        27.689
R23        33.000    22123256.718 6 118344556.49406      2911.930 6        39.568
R22        35.000    19305723.196 8 103055256.80608       245.824 8        49.299                                                                    19305720.863 7  80154116.72407       191.200 7        47.742
C33        37.000                                                                                                                                    21938426.803 8 114239170.87508     -1477.436 8        50.422                                                                    21938438.109 7  92828694.31607     -1200.537 7        42.747
R21        39.000    20706886.852 6 110806906.52106     -3785.714 6        37.913                                                                    20706886.732 4  86183017.92204     -2944.663 4        28.588
C27        41.000                                                                                                                                    22600725.499 7 117687920.31207       991.471 7        44.928                                                                    22600723.210 6  95631098.79706       805.629 6        40.231
C14        42.000                                                                                                                                    23026456.034 6 119904804.19516     -2955.525 6        40.012    23026449.146 7  92718010.40007     -2285.280 7        42.538
C39        45.000                                                                                                                                    39276445.433 5 204522740.49305        55.128 5        31.706                                                                    39276432.486 4                        44.676 4        24.917
C43        48.000                                                                                                                                    25521894.826 5                     -4183.667 5        30.762
C30        49.000                                                                                                                                    26727048.720 4                      2407.693 4        27.437                                                                    26727012.425 5                      1955.988 5        30.921
C42        50.000                                                                                                                                    25159183.887 4                     -3831.393 4        28.455                                                                    25159186.621 5                     -3112.462 5        31.955
C28        55.000                                                                                                                                    21629942.039 8 112632880.49008     -1733.129 8        50.037                                                                    21629940.252 7  91523344.48207     -1408.432 7        47.579
I09        56.000    37138268.033 6 145738541.80306      -541.453 6        39.381
> 2025 01 02 23 45 30.0000000  0 32
G03         2.000    21224883.194 8 111537650.62208      1449.023 8        48.542                                    21224879.192 7  86912384.46007      1129.111 7        42.842    21224881.110 6  86912325.45906      1129.188 6        41.728
G32         3.000    22527001.879 6 118380177.13816     -2874.395 6        39.012                                    22526994.575 4  92244278.25514     -2239.834 4        29.450    22527008.637 7  92244392.29707     -2240.010 7        42.123
G21         4.000    20915118.894 6 109909740.81606     -1951.104 6        39.844                                    20915110.419 3  85643921.30803     -1520.350 3        21.714
G08         5.000    23298409.923 6 122433941.65206     -4404.514 6        37.376                                    23298405.164 3  95403054.89403     -3432.095 3        20.143    23298409.480 5                     -3432.371 5        32.102
G02         6.000    20707665.597 7 108819512.33707      -456.243 7        45.145                                    20707657.938 6  84794402.31606      -355.481 6        37.845
G14         7.000    24500445.235 4                     -2700.625 4        28.815                                                                                                    24500479.606 3                     -2103.415 3        22.419
E03         9.000    24002688.480 6 126134980.60606      -352.058 6        40.348                                                                    24002688.101 7  94191766.16507      -262.933 7        47.003    24002688.340 8  96648913.77608      -269.726 8        48.032
G17        10.000    23408646.500 7 123013255.79507      1641.465 7        47.420                                    23408640.034 7  95854449.72507      1279.061 7        42.154    23408640.189 6  95854462.72806      1278.958 6        41.292
E05        11.000    24830384.088 5 130484545.39915     -2980.685 5        34.900                                                                                                                                    24830380.282 5  99981642.28905     -2284.062 5        31.509
E13        12.000    24571056.515 6 129121752.33706       971.582 6        39.090                                                                    24571047.822 5  96422100.18005       725.632 5        33.443    24571055.611 7  98937539.82607       744.396 7        43.439
E21        15.000    27578972.749 5 144928506.33115     -2732.878 5        34.910                                                                                                                                    27578968.228 5                     -2093.884 5        32.216
E15        16.000    23455478.986 7 123259354.73707     -1449.908 7        42.952                                                                    23455479.104 7  92044317.57207     -1082.698 7        47.231    23455478.414 8  94445513.87208     -1110.866 8        48.126
E08        19.000    25675769.341 6 134927230.19706      2006.174 6        38.862                                                                    25675764.480 6 100757253.45106      1498.108 6        37.002    25675766.725 7 103385715.27707      1537.177 7        42.277
S23        21.000    38160167.967 6 200533047.12606      -848.879 6        38.180
R06        25.000    19867534.534 6 106016967.33006     -3008.265 6        41.247
R14        26.000    23829757.169 4                     -1237.697 4        24.090
R07        27.000    19503523.899 7 104403870.83807       887.565 7        46.141                                                                    19503523.704 7  81203025.20707       690.264 7        45.973
C41        29.000                                                                                                                                    23071697.911 7 120140411.17807      1396.795 7        45.081                                                                    23071702.609 7  97623900.93807      1134.941 7        42.482
R08        30.000    22923133.383 4                      3271.503 4        28.474                                                                    22923117.285 5                      2544.664 5        33.659
E34        32.000    26649887.470 4                     -3245.763 4        26.994                                                                    26649871.816 5 104579836.95605     -2424.259 5        30.755    26649868.787 4                     -2486.926 4        28.199
R23        33.000    22120541.394 6 118329998.93306      2911.057 6        37.444
R22        35.000    19305495.326 8 103054036.34508       242.561 8        51.249                                                                    19305492.469 7  80153167.46107       188.680 7        47.659
C33        37.000                                                                                                                                    21939846.432 8 114246564.41408     -1479.739 8        50.891                                                                    21939857.387 7  92834702.11007     -1202.484 7        43.750
R21        39.000    20710427.219 5 110825843.24105     -3787.879 5        31.547                                                                    20710428.480 5  86197746.59805     -2947.031 5        32.641
C27        41.000                                                                                                                                    22599774.043 7 117682968.30907       989.771 7        43.420                                                                    22599771.538 6  95627074.89706       804.038 6        40.965
C14        42.000                                                                                                                                    23029295.111 6 119919585.46306     -2957.158 6        39.529    23029287.824 6  92729440.28406     -2286.661 6        40.448    23029299.807 5                     -2402.822 5        33.677
C39        45.000                                                                                                                                    39276403.288 5 204522470.57105        53.779 5        31.857                                                                    39276375.464 4                        43.949 4        26.156
C43        48.000                                                                                                                                    25525911.135 5                     -4184.110 5        31.132
C30        49.000                                                                                                                                    26724730.827 3                      2408.514 3        22.114                                                                    26724702.085 5                      1955.793 5        32.090
C42        50.000                                                                                                                                    25162862.253 4                     -3832.158 4        25.383                                                                    25162869.624 4                     -3113.533 4        26.156
C28        55.000                                                                                                                                    21631607.396 8 112641552.62908     -1735.593 8        49.083                                                                    21631605.309 7  91530391.30507     -1410.289 7        44.659
I09        56.000    37138958.349 6 145741250.10806      -541.859 6        40.348
> 2025 01 02 23 45 35.0000000  0 30
G03         2.000    21223504.879 7 111530410.15707      1447.226 7        47.415                                    21223501.874 7  86906742.54807      1127.711 7        42.762    21223503.009 6  86906683.50606      1127.743 6        40.598
G32         3.000    22529744.996 6 118394556.46106     -2877.356 6        40.215                                    22529733.158 4  92255482.96804     -2242.103 4        29.223    22529744.690 6  92255596.93606     -2241.714 6        39.982
G21         4.000    20916974.513 6 109919501.62106     -1953.185 6        36.945                                    20916967.886 3  85651527.13603     -1521.956 3        19.015
G08         5.000    23302599.806 7 122455966.63407     -4405.405 7        42.476                                    23302597.642 3  95420217.20903     -3432.792 3        22.971    23302600.087 5                     -3432.767 5        32.641
G02         6.000    20708101.105 7 108821800.05307      -458.445 7        46.989                                    20708093.277 6  84796184.91706      -357.231 6        38.093
G14         7.000                                                                                                                                                                    24503046.139 3                     -2106.121 3        21.833
E03         9.000    24003024.383 6 126136747.25806      -354.572 6        37.989                                                                    24003024.429 7  94193085.40007      -264.711 7        47.481    24003024.081 8  96650267.43408      -271.551 8        48.085
G17        10.000    23407086.246 7 123005054.70507      1639.260 7        47.441                                    23407078.668 6  95848059.27906      1277.351 6        41.826    23407079.657 6  95848072.27706      1277.464 6        41.230
E05        11.000    24833226.359 5                     -2982.438 5        32.940                                                                    24833224.022 4                     -2226.802 4        27.377    24833223.105 6  99993065.98006     -2285.268 6        38.066
E13        12.000    24570131.842 6 129116896.69306       970.820 6        36.858                                                                    24570123.990 5  96418474.19705       725.252 5        32.880    24570131.551 7  98933819.24407       744.025 7        42.645
E21        15.000    27581567.080 5 144942174.92605     -2734.713 5        32.593                                                                    27581574.669 3                     -2041.939 3        20.310    27581563.285 5 111059555.79915     -2095.034 5        32.766
