     3.04           OBSERVATION DATA    M                   RINEX VERSION / TYPE
ssrcrin-15.6.1x                         20250102 010000 UTC PGM / RUN BY / DATE 
(00000000023479385599111004) Septentrio proprietary         COMMENT             
ract                                                        MARKER NAME         
01                                                          MARKER NUMBER       
geodetic                                                    MARKER TYPE         
NFB                 CLIMERS@TUW                             OBSERVER / AGENCY   
3296359             SEPT ASTERX SB3 PROB4.14.4              REC # / TYPE / VERS 
Unknown             Unknown                                 ANT # / TYPE        
  4127446.6467  1206915.6869  4695543.9826                  APPROX POSITION XYZ 
        0.0000        0.0000        0.0000                  ANTENNA: DELTA H/E/N
G   23 X1  C1C L1C D1C S1C C1W S1W C2W L2W D2W S2W C2L L2L  SYS / # / OBS TYPES 
       D2L S2L C5Q L5Q D5Q S5Q C1L L1L D1L S1L              SYS / # / OBS TYPES 
E   21 X1  C1C L1C D1C S1C C6C L6C D6C S6C C5Q L5Q D5Q S5Q  SYS / # / OBS TYPES 
       C7Q L7Q D7Q S7Q C8Q L8Q D8Q S8Q                      SYS / # / OBS TYPES 
S    9 X1  C1C L1C D1C S1C C5I L5I D5I S5I                  SYS / # / OBS TYPES 
R   17 X1  C1C L1C D1C S1C C2P L2P D2P S2P C2C L2C D2C S2C  SYS / # / OBS TYPES 
       C3Q L3Q D3Q S3Q                                      SYS / # / OBS TYPES 
C   25 X1  C1P L1P D1P S1P C5P L5P D5P S5P C2I L2I D2I S2I  SYS / # / OBS TYPES 
       C7I L7I D7I S7I C6I L6I D6I S6I C7D L7D D7D S7D      SYS / # / OBS TYPES 
J   17 X1  C1C L1C D1C S1C C2L L2L D2L S2L C5Q L5Q D5Q S5Q  SYS / # / OBS TYPES 
       C1L L1L D1L S1L                                      SYS / # / OBS TYPES 
I    5 X1  C5A L5A D5A S5A                                  SYS / # / OBS TYPES 
SEPTENTRIO RECEIVERS OUTPUT ALIGNED CARRIER PHASES.         COMMENT             
NO FURTHER PHASE SHIFT APPLIED IN THE RINEX ENCODER.        COMMENT             
G L1C                                                       SYS / PHASE SHIFT   
G L2W                                                       SYS / PHASE SHIFT   
G L2L  0.00000                                              SYS / PHASE SHIFT   
G L5Q  0.00000                                              SYS / PHASE SHIFT   
G L1L  0.00000                                              SYS / PHASE SHIFT   
E L1C  0.00000                                              SYS / PHASE SHIFT   
E L6C  0.00000                                              SYS / PHASE SHIFT   
E L5Q  0.00000                                              SYS / PHASE SHIFT   
E L7Q  0.00000                                              SYS / PHASE SHIFT   
E L8Q  0.00000                                              SYS / PHASE SHIFT   
S L1C                                                       SYS / PHASE SHIFT   
S L5I                                                       SYS / PHASE SHIFT   
R L1C                                                       SYS / PHASE SHIFT   
R L2P  0.00000                                              SYS / PHASE SHIFT   
R L2C                                                       SYS / PHASE SHIFT   
R L3Q  0.00000                                              SYS / PHASE SHIFT   
C L1P  0.00000                                              SYS / PHASE SHIFT   
C L5P  0.00000                                              SYS / PHASE SHIFT   
C L2I                                                       SYS / PHASE SHIFT   
C L7I                                                       SYS / PHASE SHIFT   
C L6I                                                       SYS / PHASE SHIFT   
C L7D                                                       SYS / PHASE SHIFT   
J L1C                                                       SYS / PHASE SHIFT   
J L2L  0.00000                                              SYS / PHASE SHIFT   
J L5Q  0.00000                                              SYS / PHASE SHIFT   
J L1L  0.00000                                              SYS / PHASE SHIFT   
I L5A                                                       SYS / PHASE SHIFT   
  2025     1     2     1     0    0.0000000     GPS         TIME OF FIRST OBS   
 C1C    0.000 C2C    0.000 C2P    0.000                     GLONASS COD/PHS/BIS 
DBHZ                                                        SIGNAL STRENGTH UNIT
    18                                                      LEAP SECONDS        
 24 R01  1 R02 -4 R03  5 R04  6 R05  1 R06 -4 R07  5 R08  6 GLONASS SLOT / FRQ #
    R09 -2 R10 -7 R11  0 R12 -1 R13 -2 R14 -7 R15  0 R16 -1 GLONASS SLOT / FRQ #
    R17  4 R18 -3 R19  3 R20  2 R21  4 R22 -3 R23  3 R24  2 GLONASS SLOT / FRQ #
                                                            END OF HEADER       
> 2025 01 02 01 00  0.0000000  0 40
G03         1.000    20151496.501 7 105896839.02907      -191.629 7        45.142                                    20151494.546 6  82517020.16506      -149.320 6        41.220    20151494.323 7  82517028.16607      -149.353 7        42.053
G19         2.000    23215461.690 7 121998295.15107      1472.833 7        44.725                                    23215450.294 4  95063357.11204      1147.656 4        25.609
G32         3.000    24917431.563 3                     -4187.132 3        23.771
E25         4.000    28641549.972 6 150512365.38006     -1312.056 6        36.537                                                                    28641539.211 4 112395572.53104      -979.605 4        24.301    28641558.446 5                     -1005.886 5        30.362
E07         5.000    25923414.452 5 136228534.37205     -3110.404 5        34.410                                                                    25923439.564 5 101729180.28505     -2322.476 5        32.647    25923415.285 6 104382844.63106     -2383.119 6        37.516
G09         6.000    24475585.854 5 128620111.81105      2925.815 5        34.619                                    24475580.939 1 100223410.04901      2279.940 1        10.296
G28         7.000                                                                                                                                                                    23274736.386 5                      -386.082 5        33.204
G21         8.000    22518894.931 7 118337567.14007     -3363.715 7        44.364                                    22518892.007 3  92211049.51903     -2621.079 3        20.024
G02         9.000    21258579.619 8 111714588.70208     -2332.681 8        50.686                                    21258572.074 6  87050271.29206     -1817.671 6        39.036
G31        10.000    23023443.472 6 120988972.05706      1261.489 6        41.354                                    23023433.787 4  94277072.88904       982.974 4        24.857    23023436.026 5  94277146.85805       982.851 5        35.352
G17        11.000    22363982.964 6 117523531.83006      -580.605 6        38.351                                    22363971.806 4  91576663.66404      -452.420 4        25.383    22363974.190 6  91576871.66806      -452.576 6        36.106
G04        12.000    22196017.530 6 116640842.55706      2258.783 6        41.771                                    22196018.207 3  90888983.01603      1760.090 3        22.286    22196018.509 6  90888953.06806      1760.345 6        38.315
E12        13.000    25723925.530 6 135180185.98206      1364.619 6        37.267                                                                    25723922.490 7 100946206.05707      1019.010 7        44.576    25723921.467 7 103579658.81607      1045.585 7        43.666
E29        14.000    23617207.546 7 124109317.34407      -395.779 7        47.868                                                                    23617204.775 7  92678999.99907      -295.565 7        44.137    23617204.673 7  95096682.39407      -303.256 7        45.195
E24        15.000                                                                                                                                    29197121.269 3                     -2264.823 3        22.210    29197111.469 5                     -2323.220 5        30.483
E26        19.000    25944498.114 6 136339267.93906     -3293.393 6        38.925                                                                    25944497.517 6 101811772.34406     -2459.425 6        38.474    25944495.761 6 104467761.38706     -2523.470 6        40.222
E19        20.000    24989325.192 3                      1764.328 3        19.164                                                                    24989331.974 5  98063521.95305      1315.175 5        34.910    24989331.163 5 100621688.09105      1349.486 5        35.419
R06        21.000    19419626.607 5 103626839.59905     -1769.438 5        30.913
S36        23.000    38334111.849 6 201447086.26106      -850.594 6        36.873
S23        24.000    38283881.634 6 201183138.94606      -847.241 6        40.501
R05        27.000                                                                                                                                    23397913.345 4                     -3756.505 4        24.842
E33        28.000    23356255.436 7 122737938.64007     -1203.183 7        42.491                                                                    23356253.212 7  91655001.52607      -898.565 7        47.804    23356252.110 7  94045956.01407      -921.926 7        45.081
E10        29.000    27595121.252 6 145013391.83306      1896.776 6        36.775                                                                    27595111.481 4 108289241.84804      1416.108 4        28.370    27595119.722 5 111114118.42005      1453.386 5        34.376
R21        30.000    19897292.248 7 106474639.26707     -3144.559 7        42.508                                                                    19897288.438 7  82813413.51007     -2445.789 7        44.259
C20        31.000                                                                                                                                    24957061.210 5 129957999.96905      1928.852 5        35.533                                                                    24957056.615 5 105601500.34205      1567.333 5        32.216
R14        32.000                                                                                                                                    23970442.935 4                     -1286.072 4        29.573
R23        33.000    23792424.319 3                      3412.771 3        21.071
R07        34.000    20556523.919 8 110040773.78008      1675.585 8        48.280                                                                    20556521.384 6  85587200.81206      1303.103 6        38.748
R22        35.000    20128401.074 8 107447182.26308      1358.352 8        49.205                                                                    20128400.389 8  83569741.27608      1056.479 8        48.148
C32        36.000                                                                                                                                    21928105.446 7 114185363.22707      -526.727 7        47.211                                                                    21928105.122 7  92785009.56207      -427.977 7        47.443
C30        38.000                                                                                                                                    22224257.684 7 115727539.26607     -1833.949 7        45.064                                                                    22224256.735 8  94038121.06908     -1490.235 8        49.348
C16        45.000                                                                                                                                    38994508.767 6 203054642.51806      -324.729 6        38.048    38994507.871 6 157014744.87806      -251.218 6        39.021    38994504.245 5 164998521.72005      -264.127 5        33.617
C39        46.000                                                                                                                                    39015200.169 3                      -777.815 3        22.838                                                                    39015208.206 5                      -631.974 5        30.664
C09        47.000                                                                                                                                    39279390.152 5 204538065.01305       248.960 5        34.771    39279388.000 6 158161808.75006       192.339 6        37.535    39279374.161 3                       203.245 3        23.695
C41        49.000                                                                                                                                    23932116.440 6 124620785.53206     -3277.813 6        41.919                                                                    23932119.905 7 101264666.19307     -2663.535 7        46.165
C06        50.000                                                                                                                                    38599206.276 5 200996183.51105      -202.465 5        30.687    38599211.852 5 155423115.09705      -156.566 5        35.767    38599199.334 4 163325834.66604      -164.505 4        29.924
C27        52.000                                                                                                                                    24257024.709 5                     -4061.079 5        32.581
C29        54.000                                                                                                                                    24035060.781 7 125156886.83407      1382.165 7        45.372                                                                    24035058.022 7 101700257.32507      1123.223 7        45.770
I01        59.000   375928367.424 6 172082846.82706     -2850.584 6        38.994
I09        60.000    37262082.028 5 146224414.36805      -707.629 5        31.585
> 2025 01 02 01 00  5.0000000  0 39
G03         1.000    20151679.197 7 105897802.11507      -193.561 7        44.742                                    20151677.726 6  82517770.62706      -150.824 6        40.653    20151677.120 6  82517778.62306      -150.786 6        41.070
G19         2.000    23214061.935 7 121990937.69807      1470.189 7        45.282                                    23214050.613 4  95057624.02904      1145.604 4        25.609
G32         3.000    24921411.365 4                     -4187.864 4        24.406
E25         4.000    28642801.605 6 150518932.29306     -1314.464 6        36.378                                                                    28642786.415 3                      -981.685 3        22.590    28642809.364 4                     -1007.030 4        29.602
E07         5.000    25926375.066 5 136244088.94705     -3111.372 5        34.748                                                                    25926395.662 5 101740795.73005     -2323.588 5        33.084    25926374.488 6 104394763.08606     -2384.247 6        37.221
G09         6.000    24472802.980 5 128605483.97705      2925.402 5        34.481                                    24472797.256 1 100212011.79601      2279.515 1        10.074
G28         7.000                                                                                                                                                                    23275209.260 5                      -388.698 5        31.683
G21         8.000    22522095.904 7 118354388.96207     -3364.902 7        44.217                                    22522093.608 3  92224157.46503     -2622.001 3        19.731
G02         9.000    21260800.347 8 111726257.58008     -2334.801 8        50.393                                    21260792.521 6  87059363.92506     -1819.325 6        38.934
G31        10.000    23022245.187 6 120982671.84906      1258.789 6        41.959                                    23022235.817 4  94272163.65904       980.864 4        26.120    23022238.429 5  94272237.61905       980.992 5        35.295
G17        11.000    22364535.779 5 117526442.50405      -583.561 5        35.729                                    22364527.472 4  91578931.73504      -454.736 4        24.812    22364528.021 5  91579139.71305      -454.554 5        34.433
G04        12.000    22193869.305 6 116629551.65706      2257.382 6        41.137                                    22193869.588 3  90880184.91303      1759.000 3        21.643    22193870.717 6  90880154.97506      1759.235 6        36.620
E12        13.000    25722626.942 6 135173364.97506      1363.772 6        37.308                                                                    25722624.483 7 100941112.44107      1018.515 7        44.363    25722623.562 7 103574432.32607      1045.104 7        43.619
E29        14.000    23617584.788 7 124111301.36207      -397.793 7        47.591                                                                    23617582.317 7  92680481.58607      -297.177 7        44.093    23617582.158 7  95098202.61707      -304.799 7        45.053
E24        15.000    29200005.142 3                     -3032.758 3        21.405                                                                    29200007.147 3                     -2265.209 3        21.881    29199995.021 5                     -2324.004 5        31.321
E26        19.000    25947631.535 6 136355736.83406     -3294.280 6        38.504                                                                    25947631.203 6 101824070.54006     -2459.964 6        39.099    25947629.352 6 104480380.39706     -2524.072 6        40.010
E19        20.000                                                                                                                                    24987656.469 5  98056947.74705      1314.548 5        35.229    24987655.620 5 100614942.37505      1348.449 5        35.510
R06        21.000    19421286.446 5 103635695.58405     -1772.826 5        31.970
S36        23.000    38334921.535 6 201451338.96406      -850.158 6        36.836
S23        24.000    38284690.010 6 201187374.78506      -847.132 6        40.360
R05        27.000    23402350.019 4                     -4830.303 4        26.263                                                                    23402430.726 4                     -3756.224 4        24.737
E33        28.000    23357400.900 7 122743958.79207     -1204.819 7        43.600                                                                    23357398.937 7  91659497.08407      -899.681 7        47.969    23357397.653 7  94050568.85907      -923.182 7        44.995
E10        29.000    27593316.562 6 145003908.94206      1896.779 6        37.285                                                                    27593306.263 4 108282160.42204      1416.132 4        27.856    27593315.249 5 111106852.34305      1452.981 5        34.290
R21        30.000    19900234.514 6 106490371.14706     -3148.095 6        40.226                                                                    19900228.681 7  82825649.43607     -2448.508 7        44.611
C20        31.000                                                                                                                                    24955215.722 6 129948358.05506      1928.207 6        37.225                                                                    24955203.316 5 105593665.50305      1566.797 5        32.874
R14        32.000    23972018.033 4                     -1657.589 4        26.874                                                                    23971994.633 5                     -1289.336 5        30.551
R07        34.000    20554959.906 8 110032402.20008      1673.161 8        49.082                                                                    20554957.729 6  85580689.58406      1301.376 6        39.562
R22        35.000    20127129.836 8 107440398.23908      1355.269 8        48.777                                                                    20127129.825 8  83564464.81508      1054.092 8        48.491
C32        36.000                                                                                                                                    21928612.687 7 114188001.55407      -528.575 7        46.909                                                                    21928611.708 7  92787153.42207      -429.593 7        47.295
C30        38.000                                                                                                                                    22226020.877 7 115736715.60807     -1836.455 7        46.840                                                                    22226019.011 8  94045577.63408     -1492.469 8        49.428
C16        45.000                                                                                                                                    38994821.004 6 203056268.52506      -325.745 6        38.297    38994819.703 6 157016002.19906      -251.667 6        39.300    38994816.258 5 164999843.00205      -264.568 5        33.473
C39        46.000                                                                                                                                    39015943.862 4                      -778.129 4        24.060                                                                    39015953.183 5                      -632.749 5        30.770
C09        47.000                                                                                                                                    39279152.381 5 204536822.06205       248.320 5        34.905    39279149.604 6 158160847.60506       191.928 6        37.656    39279135.113 4 166202910.62614       201.042 4        24.180
C41        49.000                                                                                                                                    23935264.309 7 124637177.24607     -3278.621 7        42.472                                                                    23935267.461 7 101277985.82307     -2664.322 7        45.767
C06        50.000                                                                                                                                    38599400.067 4 200997198.40504      -203.285 4        29.156    38599406.877 5 155423899.84705      -157.307 5        35.109    38599394.612 5 163326659.33705      -165.359 5        30.589
C27        52.000                                                                                                                                    24260925.350 5 126333013.58515     -4061.995 5        34.719
C29        54.000                                                                                                                                    24033734.814 7 125149980.64507      1380.382 7        45.828                                                                    24033731.876 7 101694645.49807      1121.520 7        45.708
I01        59.000   375931999.175 6 172097099.19706     -2850.398 6        38.994
I09        60.000    37262984.358 5 146227953.56305      -707.730 5        31.638
> 2025 01 02 01 00 10.0000000  0 39
G03         1.000    20151864.794 7 105898775.37607      -195.866 7        43.625                                    20151862.632 6  82518529.00706      -152.623 6        40.038    20151861.850 6  82518537.00106      -152.598 6        40.040
G19         2.000    23212664.218 7 121983594.14007      1467.142 7        45.673                                    23212653.558 4  95051901.78004      1143.235 4        26.216
G32         3.000    24925390.626 3                     -4190.942 3        21.690
E25         4.000    28644056.578 5 150525510.59305     -1317.027 5        35.881                                                                    28644036.707 3                      -983.212 3        20.857    28644063.543 4                     -1008.979 4        28.749
E07         5.000    25929336.598 5 136259649.78105     -3113.125 5        34.452                                                                    25929356.098 5 101752415.83505     -2324.728 5        34.190    25929335.314 6 104406686.29606     -2385.110 6        36.749
G09         6.000    24470020.354 5 128590858.75105      2924.476 5        34.705                                    24470014.064 1 100200615.51801      2278.740 1        10.667
G28         7.000                                                                                                                                                                    23275683.283 4                      -391.247 4        29.242
G21         8.000    22525297.519 7 118371217.83607     -3366.752 7        43.372                                    22525296.390 3  92237270.91203     -2623.451 3        19.433
G02         9.000    21263023.217 8 111737937.77308     -2337.321 8        50.398                                    21263015.060 6  87068465.37406     -1821.286 6        38.886
G31        10.000    23021047.453 6 120976384.64306      1255.879 6        41.468                                    23021040.262 4  94267264.54704       978.607 4        26.407    23021040.652 5  94267338.53805       978.501 5        35.338
G17        11.000    22365092.286 5 117529368.43905      -586.973 5        33.665                                    22365085.683 3  91581211.69303      -457.378 3        23.410    22365084.867 5  91581419.68005      -457.348 5        33.180
G04        12.000    22191722.869 6 116618269.35306      2255.396 6        40.319                                    22191722.329 3  90871393.48303      1757.461 3        19.761    22191723.719 5  90871363.57305      1757.516 5        35.090
E12        13.000    25721329.501 6 135166547.99906      1362.764 6        37.338                                                                    25721327.269 7 100936021.85207      1017.584 7        44.172    25721326.571 7 103569208.93207      1044.266 7        43.702
E29        14.000    23617964.216 7 124113296.26407      -400.278 7        46.938                                                                    23617962.004 7  92681971.29007      -298.912 7        43.736    23617961.738 7  95099731.19807      -306.686 7        44.877
E24        15.000                                                                                                                                    29202898.087 3                     -2265.269 3        23.029    29202880.394 5                     -2324.820 5        30.958
E26        19.000    25950765.269 6 136372210.87806     -3295.615 6        36.919                                                                    25950766.263 6 101836372.57406     -2460.849 6        39.727    25950764.120 6 104493003.36206     -2525.110 6        40.157
E19        20.000    24986013.629 4                      1759.143 4        24.241                                                                    24985982.529 5  98050378.29305      1313.379 5        35.710    24985981.738 5 100608201.55505      1347.340 5        35.152
R06        21.000    19422947.192 5 103644566.92305     -1776.388 5        31.479
S36        23.000    38335729.584 6 201455591.87906      -850.900 6        37.229
S23        24.000    38285493.771 6 201191610.51206      -847.186 6        40.574
R05        27.000                                                                                                                                    23406948.294 4                     -3756.985 4        25.218
E33        28.000    23358547.879 7 122749987.72407     -1206.748 7        44.101                                                                    23358546.220 8  91663999.21208      -901.228 8        48.145    23358544.885 7  94055188.43107      -924.705 7        44.928
E10        29.000    27591512.492 6 144994426.85106      1896.141 6        37.028                                                                    27591501.191 4 108275079.68704      1415.794 4        28.104    27591510.578 5 111099586.85005      1452.882 5        34.843
R21        30.000    19903180.740 6 106506121.43306     -3152.073 6        39.868                                                                    19903171.393 7  82837899.67107     -2451.638 7        44.152
C20        31.000                                                                                                                                    24953372.491 6 129938721.03106      1926.860 6        39.069                                                                    24953352.755 5 105585834.66305      1565.601 5        33.611
R14        32.000                                                                                                                                    23973549.966 5                     -1292.245 5        31.042
R07        34.000    20553398.728 8 110024043.74008      1670.186 8        49.741                                                                    20553396.734 6  85574188.55906      1299.092 6        40.856
R22        35.000    20125861.697 8 107433630.55608      1351.725 8        48.072                                                                    20125861.598 8  83559201.06008      1051.367 8        48.385
C32        36.000                                                                                                                                    21929121.906 7 114190649.69307      -530.766 7        46.948                                                                    21929120.270 7  92789305.24407      -431.204 7        47.219
C30        38.000                                                                                                                                    22227785.733 7 115745905.40407     -1839.472 7        47.767                                                                    22227783.836 8  94053045.08908     -1494.623 8        49.545
C16        45.000                                                                                                                                    38995133.754 6 203057899.18906      -326.978 6        38.742    38995133.315 6 157017263.13506      -252.676 6        39.817    38995129.556 5 165001168.04705      -265.388 5        33.419
C39        46.000                                                                                                                                    39016691.473 4                      -779.137 4        25.504                                                                    39016699.193 5                      -633.576 5        30.928
C09        47.000                                                                                                                                    39278915.253 5 204535583.03005       247.238 5        35.671    39278912.365 6 158159889.50006       191.329 6        37.856    39278896.367 4                       201.149 4        24.827
C41        49.000                                                                                                                                    23938412.353 7 124653573.25707     -3279.841 7        43.213                                                                    23938416.005 7 101291308.91707     -2665.069 7        45.476
C06        50.000                                                                                                                                    38599594.357 4 200998218.02204      -204.822 4        27.844    38599603.207 5 155424688.25805      -158.213 5        34.833    38599589.563 5 163327487.80405      -165.963 5        30.808
C27        52.000                                                                                                                                    24264818.063 5 126353326.79205     -4063.355 5        35.581
C29        54.000                                                                                                                                    24032410.789 7 125143084.15807      1378.167 7        46.533                                                                    24032407.485 7 101689041.53807      1119.899 7        45.651
I01        59.000   375935632.013 6 172111352.27306     -2850.898 6        39.300
I09        60.000    37263885.636 5 146231493.64405      -708.281 5        31.947
> 2025 01 02 01 00 15.0000000  0 38
G03         1.000    20152051.542 6 105899758.45706      -197.633 6        41.299                                    20152049.309 6  82519295.04706      -153.997 6        39.321    20152049.902 6  82519303.02706      -153.820 6        40.019
G19         2.000    23211269.009 7 121976264.11307      1464.785 7        46.396                                    23211258.863 4  95046190.07204      1141.391 4        26.491
G32         3.000    24929366.252 3                     -4190.861 3        22.457
E25         4.000    28645311.526 5 150532099.93305     -1318.949 5        35.405                                                                    28645288.636 3                      -983.150 3        19.224    28645318.414 4                     -1010.604 4        28.038
E07         5.000    25932300.164 5 136275216.43505     -3114.097 5        34.786                                                                    25932318.590 5 101764040.32605     -2325.282 5        34.114    25932296.670 6 104418613.97106     -2385.786 6        36.159
G09         6.000    24467236.556 5 128576235.77205      2924.263 5        33.814                                    24467231.378 1 100189221.04901      2278.696 1         9.905
G28         7.000    23276165.259 4                      -505.075 4        29.915                                                                                                    23276163.048 4                      -393.007 4        27.006
G21         8.000    22528500.945 6 118388053.36406     -3367.618 6        41.993                                    22528500.214 3  92250389.50803     -2624.094 3        18.060
G02         9.000    21265248.372 8 111749628.92608     -2339.184 8        50.684                                    21265239.679 6  87077575.36106     -1822.743 6        38.730
G31        10.000    23019852.110 6 120970110.08706      1253.682 6        39.649                                    23019847.036 4  94262375.29604       976.891 4        25.955    23019847.223 6  94262449.31106       976.835 6        36.537
G17        11.000    22365648.671 4 117532309.23604      -589.376 4        27.042                                    22365646.447 3  91583503.23103      -459.249 3        22.076    22365644.648 5  91583711.24305      -459.337 5        33.581
G04        12.000    22189577.512 6 116606995.28706      2254.124 6        38.270                                    22189576.777 2  90862608.48402      1756.461 2        17.132    22189577.917 5  90862578.54905      1756.438 5        33.629
E12        13.000    25720032.917 6 135159734.69506      1362.288 6        37.346                                                                    25720030.733 7 100930934.00507      1017.357 7        43.920    25720030.071 7 103563988.36707      1043.875 7        43.867
E29        14.000    23618345.833 7 124115301.70407      -401.971 7        47.025                                                                    23618343.836 7  92683468.85807      -300.115 7        43.467    23618343.272 7  95101267.83107      -307.988 7        44.928
E24        15.000                                                                                                                                    29205792.604 3                     -2265.448 3        23.086    29205766.088 5                     -2325.779 5        31.434
E26        19.000    25953900.530 5 136388689.70705     -3296.142 5        35.595                                                                    25953902.129 6 101848678.18506     -2461.421 6        40.331    25953900.090 6 104505630.00606     -2525.544 6        40.334
E19        20.000    24984343.433 4                      1757.240 4        26.683                                                                    24984309.671 6  98043813.35606      1312.821 6        36.541    24984308.874 5 100601465.34105      1346.990 5        35.052
R06        21.000    19424611.768 5 103653453.28205     -1778.362 5        31.192
S36        23.000    38336539.287 6 201459844.48006      -850.256 6        37.221
S23        24.000    38286300.371 6 201195845.81806      -846.925 6        40.529
E33        28.000    23359696.905 7 122756025.05607     -1208.155 7        44.835                                                                    23359695.121 8  91668507.60408      -902.157 8        48.281    23359693.830 7  94059814.43707      -925.760 7        44.894
E10        29.000    27589708.173 6 144984945.19406      1896.333 6        36.926                                                                    27589696.285 4 108267999.18104      1416.271 4        26.850    27589706.204 5 111092321.69705      1452.758 5        35.410
R21        30.000    19906121.420 6 106521889.60206     -3155.238 6        37.062                                                                    19906117.774 7  82850163.87307     -2454.163 7        42.756
C20        31.000                                                                                                                                    24951522.618 6 129929088.56406      1926.115 6        40.482                                                                    24951504.212 5 105578007.48405      1565.322 5        34.652
R14        32.000    23975148.258 4                     -1665.796 4        28.758                                                                    23975109.829 5                     -1295.379 5        31.577
R07        34.000    20551839.703 8 110015698.24508      1667.982 8        49.309                                                                    20551837.135 6  85567697.63006      1297.380 6        41.063
R22        35.000    20124597.856 8 107426878.85908      1348.882 8        48.318                                                                    20124596.862 8  83553949.72708      1049.123 8        48.174
C32        36.000                                                                                                                                    21929632.751 7 114193307.30207      -532.263 7        47.069                                                                    21929630.678 7  92791464.77107      -432.473 7        47.304
C30        38.000                                                                                                                                    22229552.111 8 115755108.27808     -1841.718 8        48.311                                                                    22229551.153 8  94060523.17708     -1496.464 8        49.710
C16        45.000                                                                                                                                    38995447.857 6 203059534.10706      -327.360 6        38.937    38995447.602 6 157018527.38006      -252.974 6        40.200    38995443.522 5 165002496.56005      -265.825 5        33.707
C39        46.000                                                                                                                                    39017442.084 4                      -780.586 4        26.778                                                                    39017448.355 5                      -634.236 5        31.155
C09        47.000                                                                                                                                    39278678.437 6 204534347.68706       246.720 6        36.189    39278675.492 6 158158934.25206       190.877 6        38.000    39278659.358 4                       201.149 4        24.617
C41        49.000                                                                                                                                    23941560.686 7 124669973.19007     -3280.279 7        43.621                                                                    23941565.394 7 101304635.20307     -2665.308 7        45.165
C06        50.000                                                                                                                                                                                                    38599799.938 5 155425479.99705      -158.763 5        34.448    38599785.956 5 163328319.82205      -166.656 5        30.981
C27        52.000                                                                                                                                    24268718.463 5 126373645.04705     -4064.013 5        35.190
C29        54.000                                                                                                                                    24031088.201 7 125136197.01907      1376.643 7        46.944                                                                    24031084.977 7 101683445.17107      1118.727 7        45.660
I01        59.000   375939264.232 6 172125605.75606     -2850.603 6        39.568
I09        60.000    37264787.903 5 146235034.23505      -708.251 5        31.502
> 2025 01 02 01 00 20.0000000  0 40
G03         1.000    20152240.264 6 105900751.52306      -199.613 6        39.513                                    20152237.927 6  82520068.86406      -155.544 6        38.520    20152239.229 6  82520076.86606      -155.651 6        40.625
G19         2.000    23209876.805 7 121968947.78507      1461.931 7        47.386                                    23209866.766 4  95040489.04104      1139.165 4        26.275
G32         3.000    24933348.621 3                     -4189.171 3        20.810
E25         4.000    28646566.870 5 150538700.46705     -1320.908 5        34.195                                                                                                                                    28646570.308 4                     -1012.103 4        27.078
E07         5.000    25935264.952 5 136290789.11705     -3115.306 5        34.919                                                                    25935282.527 5 101775669.27905     -2326.082 5        34.686    25935259.686 5 104430546.27605     -2386.899 5        35.943
G09         6.000    24464454.059 5 128561615.23005      2923.690 5        33.473                                    24464449.090 1 100177828.40201      2278.222 1         9.429
G28         7.000    23276652.876 5                      -508.725 5        30.664                                                                                                    23276647.414 4                      -395.411 4        25.654
G21         8.000    22531705.832 6 118404895.75006     -3369.271 6        40.136                                    22531705.495 2  92263513.48802     -2625.417 2        17.132
G02         9.000    21267475.506 8 111761331.21308     -2341.607 8        51.103                                    21267466.408 6  87086694.02806     -1824.631 6        38.622
G31        10.000    23018659.722 5 120963848.36705      1251.009 5        35.605                                    23018656.283 4  94257496.04604       974.806 4        24.436    23018657.892 6  94257570.07906       974.634 6        36.673
G17        11.000    22366208.330 3                      -591.957 3        20.476                                                                                                    22366209.687 5  91586014.59205      -461.896 5        34.748
G04        12.000    22187433.847 5 116595729.68105      2252.226 5        34.138                                    22187432.750 2  90853830.05402      1754.990 2        14.095    22187435.129 5  90853800.08105      1755.124 5        32.665
E12        13.000    25718738.297 6 135152925.25806      1361.445 6        37.206                                                                    25718734.909 7 100925849.03407      1016.679 7        43.517    25718734.493 7 103558770.74807      1043.189 7        44.114
E29        14.000    23618729.801 7 124117317.84207      -404.306 7        47.199                                                                    23618727.551 7  92684974.42507      -301.945 7        43.151    23618726.940 7  95102812.66907      -309.733 7        44.926
E24        15.000                                                                                                                                    29208684.894 4                     -2266.845 4        24.135    29208653.643 5                     -2326.526 5        31.479
E26        19.000    25957038.056 5 136405173.51005     -3297.387 5        33.156                                                                    25957038.938 6 101860987.53706     -2462.316 6        40.563    25957036.943 6 104518260.45806     -2526.458 6        40.412
E19        20.000    24982668.824 4                      1756.430 4        27.593                                                                    24982638.096 6  98037252.98106      1311.675 6        36.824    24982637.120 5 100594733.81405      1345.885 5        34.743
R06        21.000    19426279.479 5 103662354.94805     -1781.779 5        32.168
S36        23.000    38337349.858 6 201464095.85506      -850.254 6        37.115
S23        24.000    38287106.846 6 201200081.05806      -847.133 6        40.553
R05        27.000                                                                                                                                    23415964.673 3                     -3752.501 3        20.571
E33        28.000    23360847.593 7 122762071.00207     -1210.119 7        45.019                                                                    23360845.536 8  91673022.43008      -903.627 8        48.216    23360844.353 7  94064447.03907      -927.229 7        44.739
E10        29.000    27587904.359 6 144975464.15706      1896.062 6        36.703                                                                    27587892.481 4 108260919.23904      1416.032 4        26.347    27587901.951 5 111085057.00005      1453.111 5        35.833
R21        30.000    19909067.325 6 106537676.13506     -3159.241 6        37.164                                                                    19909068.304 7  82862442.27507     -2457.167 7        42.209
C20        31.000                                                                                                                                    24949669.637 6 129919460.80706      1925.088 6        39.799                                                                    24949655.959 5 105570184.15605      1564.170 5        34.748
R14        32.000                                                                                                                                    23976676.592 5                     -1298.449 5        31.426
R23        33.000    23779650.441 5                      3412.938 5        30.921
R07        34.000    20550283.009 8 110007365.44408      1665.208 8        49.059                                                                    20550279.873 6  85561216.55506      1295.230 6        41.011
R22        35.000    20123337.622 8 107420143.34508      1345.377 8        49.330                                                                    20123334.826 7  83548710.97607      1046.464 7        47.394
C32        36.000                                                                                                                                    21930145.131 7 114195974.54707      -534.420 7        47.154                                                                    21930142.874 7  92793632.14307      -434.284 7        47.500
C30        38.000                                                                                                                                    22231321.969 8 115764324.40708     -1844.567 8        48.320                                                                    22231320.999 8  94068012.04808     -1498.905 8        49.769
C16        45.000                                                                                                                                    38995763.084 6 203061173.53206      -328.362 6        39.081    38995762.738 6 157019795.07006      -253.800 6        40.596    38995758.284 5 165003828.72905      -266.827 5        33.521
C39        46.000                                                                                                                                    39018190.889 4                      -781.756 4        28.275                                                                    39018198.801 5                      -635.061 5        31.917
C09        47.000                                                                                                                                    39278442.833 6 204533116.08806       245.951 6        36.318    39278439.354 6 158157981.91106       190.298 6        38.174    39278423.448 4                       200.285 4        25.444
C41        49.000                                                                                                                                    23944710.537 7 124686377.23407     -3281.229 7        43.907                                                                    23944715.742 7 101317964.84507     -2666.253 7        45.240
C06        50.000                                                                                                                                    38599982.059 3                      -206.853 3        23.695    38599996.021 5 155426275.22305      -159.268 5        34.219    38599984.261 5 163329155.49505      -167.205 5        31.766
C27        52.000                                                                                                                                    24272621.344 5 126393968.40905     -4065.178 5        34.310                                                                    24272619.020 5                     -3303.255 5        35.310
C29        54.000                                                                                                                                    24029767.556 7 125129319.40107      1374.583 7        47.403                                                                    24029764.221 7 101677856.56907      1116.852 7        45.682
I01        59.000   375942896.121 6 172139859.80006     -2850.834 6        39.423
I09        60.000    37265690.886 5 146238575.56505      -707.980 5        31.328
> 2025 01 02 01 00 25.0000000  0 39
G03         1.000    20152431.820 6 105901755.10906      -202.029 6        40.543                                    20152428.641 6  82520850.87406      -157.428 6        38.039    20152430.383 6  82520858.88906      -157.330 6        41.511
G19         2.000    23208487.293 7 121961645.71507      1458.925 7        47.337                                    23208476.977 4  95034799.11804      1136.828 4        26.527
G32         3.000    24937337.473 3                     -4194.277 3        19.672                                                                                                    24937302.495 3                     -3264.347 3        19.881
E25         4.000    28647825.693 5 150545312.79805     -1323.895 5        33.611                                                                                                                                    28647816.334 4                     -1014.368 4        28.616
E07         5.000    25938231.149 5 136306368.34905     -3116.713 5        34.781                                                                    25938247.485 5 101787303.14105     -2327.257 5        34.986    25938223.270 5 104442483.60105     -2388.157 5        35.376
G09         6.000    24461673.591 5 128546997.67005      2922.880 5        32.317                                    24461667.499 1 100166438.08801      2277.533 1         8.476
G28         7.000    23277135.681 4                      -512.730 4        28.227                                                                                                    23277133.462 3                      -399.017 3        22.495
G21         8.000    22534911.276 6 118421745.49506     -3370.726 6        38.291                                    22534912.064 2  92276643.16002     -2626.593 2        15.238
G02         9.000    21269704.368 8 111773045.14908     -2344.028 8        51.120                                    21269695.423 6  87095821.77206     -1826.516 6        38.535
G31        10.000    23017470.136 5 120957600.01905      1248.542 5        31.894                                    23017468.106 3  94252627.19603       972.900 3        22.762    23017468.643 6  94252701.23106       972.616 6        36.166
G17        11.000    22366772.582 3                      -594.418 3        19.015                                                                                                    22366774.330 5  91588330.09905      -464.360 5        35.195
G04        12.000                                                                                                                                                                    22185291.313 5  90845028.63405      1753.601 5        32.138
E12        13.000    25717443.692 6 135146120.19106      1360.419 6        36.991                                                                    25717439.924 7 100920767.33607      1015.939 7        43.181    25717439.517 7 103553556.47607      1042.508 7        43.983
E29        14.000    23619115.861 7 124119345.21607      -406.752 7        47.205                                                                    23619113.402 7  92686488.37207      -303.725 7        42.684    23619112.678 7  95104366.11407      -311.612 7        44.817
E24        15.000                                                                                                                                    29211576.227 4                     -2268.740 4        24.526    29211542.396 5                     -2327.473 5        30.672
E26        19.000    25960176.187 5 136421662.82705     -3298.531 5        32.012                                                                    25960176.675 6 101873300.97906     -2463.183 6        40.987    25960174.800 6 104530895.11906     -2527.366 6        40.026
E19        20.000    24980993.982 4                      1755.106 4        28.142                                                                    24980967.915 6  98030697.65706      1310.633 6        37.369    24980966.765 5 100588007.48605      1344.621 5        34.481
R06        21.000    19427953.295 5 103671272.34705     -1785.174 5        34.343
S36        23.000    38338161.449 6 201468347.48206      -850.450 6        37.380
S23        24.000    38287910.414 6 201204316.64506      -847.213 6        40.603
E33        28.000    23361999.935 7 122768126.04807     -1212.080 7        45.133                                                                    23361997.671 7  91677544.05207      -905.068 7        47.961    23361996.563 7  94069086.61807      -928.712 7        44.253
E10        29.000    27586100.092 6 144965984.28106      1895.817 6        36.408                                                                    27586089.326 4 108253840.13204      1415.513 4        26.599    27586097.797 6 111077793.23506      1452.513 6        36.306
R21        30.000    19912022.618 7 106553481.37707     -3162.949 7        42.114                                                                    19912021.284 6  82874735.18706     -2460.110 6        41.683
C20        31.000                                                                                                                                    24947818.889 6 129909838.29506      1923.929 6        38.715                                                                    24947808.887 5 105562365.10705      1563.276 5        35.143
R14        32.000    23978312.387 3                     -1673.354 3        22.400
R23        33.000    23776464.454 5                      3412.518 5        32.030
R07        34.000    20548729.023 8 109999046.37608      1662.371 8        48.761                                                                    20548725.360 6  85554746.18006      1292.814 6        40.329
R22        35.000    20122079.788 8 107413424.53308      1342.010 8        50.145                                                                    20122075.853 7  83543485.23307      1043.790 7        46.801
C32        36.000                                                                                                                                    21930659.367 7 114198651.96307      -536.648 7        47.066                                                                    21930657.064 7  92795807.76607      -436.012 7        47.592
C30        38.000                                                                                                                                    22233094.548 8 115773554.28808     -1847.465 8        48.347                                                                    22233093.501 8  94075512.09308     -1501.249 8        49.697
C16        45.000                                                                                                                                    38996079.703 6 203062817.93806      -329.516 6        39.601    38996078.897 6 157021066.63306      -254.862 6        40.877    38996074.421 5 165005164.95305      -267.894 5        33.557
C39        46.000                                                                                                                                    39018939.385 4                      -782.813 4        28.379                                                                    39018951.008 5                      -636.028 5        31.804
C09        47.000                                                                                                                                    39278208.052 6 204531888.87006       244.868 6        37.040    39278203.845 6 158157032.93706       189.311 6        37.981    39278188.473 4                       199.031 4        25.353
C41        49.000                                                                                                                                    23947861.750 7 124702785.88507     -3282.305 7        43.903                                                                    23947867.025 7 101331298.21607     -2667.015 7        45.339
C06        50.000                                                                                                                                                                                                    38600195.494 5 155427074.41705      -160.511 5        33.024    38600182.466 5 163329995.28905      -168.499 5        32.216
C27        52.000                                                                                                                                    24276524.762 5 126414297.42205     -4066.543 5        33.748                                                                    24276521.261 5 102721913.50415     -3304.448 5        35.119
