     3.04           OBSERVATION DATA    M                   RINEX VERSION / TYPE
ssrcrin-15.6.1x                         20250102 063000 UTC PGM / RUN BY / DATE 
(00000000023479385599111004) Septentrio proprietary         COMMENT             
ract                                                        MARKER NAME         
01                                                          MARKER NUMBER       
geodetic                                                    MARKER TYPE         
NFB                 CLIMERS@TUW                             OBSERVER / AGENCY   
3296359             SEPT ASTERX SB3 PROB4.14.4              REC # / TYPE / VERS 
Unknown             Unknown                                 ANT # / TYPE        
  4127446.2844  1206914.1396  4695545.4062                  APPROX POSITION XYZ 
        0.0000        0.0000        0.0000                  ANTENNA: DELTA H/E/N
G   23 X1  C1C L1C D1C S1C C1W S1W C2W L2W D2W S2W C2L L2L  SYS / # / OBS TYPES 
       D2L S2L C5Q L5Q D5Q S5Q C1L L1L D1L S1L              SYS / # / OBS TYPES 
E   21 X1  C1C L1C D1C S1C C6C L6C D6C S6C C5Q L5Q D5Q S5Q  SYS / # / OBS TYPES 
       C7Q L7Q D7Q S7Q C8Q L8Q D8Q S8Q                      SYS / # / OBS TYPES 
S    9 X1  C1C L1C D1C S1C C5I L5I D5I S5I                  SYS / # / OBS TYPES 
R   17 X1  C1C L1C D1C S1C C2P L2P D2P S2P C2C L2C D2C S2C  SYS / # / OBS TYPES 
       C3Q L3Q D3Q S3Q                                      SYS / # / OBS TYPES 
C   25 X1  C1P L1P D1P S1P C5P L5P D5P S5P C2I L2I D2I S2I  SYS / # / OBS TYPES 
       C7I L7I D7I S7I C6I L6I D6I S6I C7D L7D D7D S7D      SYS / # / OBS TYPES 
J   17 X1  C1C L1C D1C S1C C2L L2L D2L S2L C5Q L5Q D5Q S5Q  SYS / # / OBS TYPES 
       C1L L1L D1L S1L                                      SYS / # / OBS TYPES 
I    5 X1  C5A L5A D5A S5A                                  SYS / # / OBS TYPES 
SEPTENTRIO RECEIVERS OUTPUT ALIGNED CARRIER PHASES.         COMMENT             
NO FURTHER PHASE SHIFT APPLIED IN THE RINEX ENCODER.        COMMENT             
G L1C                                                       SYS / PHASE SHIFT   
G L2W                                                       SYS / PHASE SHIFT   
G L2L  0.00000                                              SYS / PHASE SHIFT   
G L5Q  0.00000                                              SYS / PHASE SHIFT   
G L1L  0.00000                                              SYS / PHASE SHIFT   
E L1C  0.00000                                              SYS / PHASE SHIFT   
E L6C  0.00000                                              SYS / PHASE SHIFT   
E L5Q  0.00000                                              SYS / PHASE SHIFT   
E L7Q  0.00000                                              SYS / PHASE SHIFT   
E L8Q  0.00000                                              SYS / PHASE SHIFT   
S L1C                                                       SYS / PHASE SHIFT   
S L5I                                                       SYS / PHASE SHIFT   
R L1C                                                       SYS / PHASE SHIFT   
R L2P  0.00000                                              SYS / PHASE SHIFT   
R L2C                                                       SYS / PHASE SHIFT   
R L3Q  0.00000                                              SYS / PHASE SHIFT   
C L1P  0.00000                                              SYS / PHASE SHIFT   
C L5P  0.00000                                              SYS / PHASE SHIFT   
C L2I                                                       SYS / PHASE SHIFT   
C L7I                                                       SYS / PHASE SHIFT   
C L6I                                                       SYS / PHASE SHIFT   
C L7D                                                       SYS / PHASE SHIFT   
J L1C                                                       SYS / PHASE SHIFT   
J L2L  0.00000                                              SYS / PHASE SHIFT   
J L5Q  0.00000                                              SYS / PHASE SHIFT   
J L1L  0.00000                                              SYS / PHASE SHIFT   
I L5A                                                       SYS / PHASE SHIFT   
  2025     1     2     6    30    0.0000000     GPS         TIME OF FIRST OBS   
 C1C    0.000 C2C    0.000 C2P    0.000                     GLONASS COD/PHS/BIS 
DBHZ                                                        SIGNAL STRENGTH UNIT
    18                                                      LEAP SECONDS        
 24 R01  1 R02 -4 R03  5 R04  6 R05  1 R06 -4 R07  5 R08  6 GLONASS SLOT / FRQ #
    R09 -2 R10 -7 R11  0 R12 -1 R13 -2 R14 -7 R15  0 R16 -1 GLONASS SLOT / FRQ #
    R17  4 R18 -3 R19  3 R20  2 R21  4 R22 -3 R23  3 R24  2 GLONASS SLOT / FRQ #
                                                            END OF HEADER       
> 2025 01 02 06 30  0.0000000  0 36
G13         1.000    22757526.897 3 119591613.39103      2146.669 3        23.676                                    22757519.357 2  93188261.20202      1672.780 2        12.545
G20         4.000    20706068.136 7 108811186.20907     -1127.865 7        46.507                                    20706062.668 4  84787889.21204      -878.861 4        29.583
G07         5.000    21335200.630 7 112117255.85907     -2354.564 7        46.006                                    21335196.778 6  87364102.37906     -1834.721 6        38.967    21335194.686 6  87364048.39806     -1834.860 6        37.323
G09         6.000    22984789.744 5                     -3811.838 5        30.936
G30         7.000    20517074.423 8 107817972.85508      -205.444 8        50.601                                    20517072.420 8  84013926.01308      -160.085 8        49.032    20517073.834 7  84013973.98707      -160.086 7        45.034
G14         8.000    23445098.685 6 123204799.85006      2602.934 6        36.310                                    23445095.732 1  96003740.08201      2028.201 1         6.375    23445100.011 3                      2025.829 3        20.357
E21        10.000    25939802.087 5 136314599.70505     -1665.905 5        33.898                                                                    25939798.166 6 101793340.92706     -1244.188 6        39.336    25939799.099 7 104448836.13007     -1276.506 7        42.083
E06        11.000    23801453.205 7 125077453.68807       277.262 7        43.621                                                                    23801451.533 6  93402078.54506       207.088 6        41.855    23801451.208 6  95838595.29506       212.599 6        41.049
G05        14.000    21800591.245 7 114562877.59507      1319.799 7        45.096                                    21800583.959 5  89269722.49205      1028.407 5        35.324    21800588.342 6  89269770.51806      1028.355 6        38.150
E11        16.000                                                                                                                                    26567707.123 4                     -2676.535 4        25.188    26567704.146 3                     -2746.870 3        23.981
E04        17.000    23331211.974 7 122606332.46007      -917.945 7        44.998                                                                    23331210.916 7  91556741.39807      -685.450 7        45.339    23331209.417 7  93945108.21107      -703.340 7        43.816
R08        18.000    21764520.837 7 116548100.53007     -3914.921 7        42.341                                                                    21764513.086 6  90648424.71406     -3044.873 6        41.068
E19        20.000    25845026.920 5                     -3037.970 5        30.196
E09        21.000    25439180.398 6 133683979.14906      1102.243 6        37.890                                                                    25439179.942 5  99828812.98005       822.965 5        35.543    25439181.221 6 102433053.41006       844.529 6        41.313
E36        22.000    26168155.354 5 137514571.02705     -1501.515 5        34.452                                                                    26168154.248 7 102689537.67807     -1121.222 7        43.471    26168149.757 5 105368289.59005     -1150.089 5        34.086
S36        23.000    38241493.497 5 200960483.66405      -852.130 5        34.357
S23        24.000    38176753.171 6 200620108.03906      -849.200 6        41.242
G11        25.000    24098499.267 5                     -3868.896 5        32.623                                                                                                    24098510.132 4                     -3014.504 4        28.474
E34        26.000    28138492.113 5 147868841.98605       939.407 5        31.872                                                                    28138503.082 4                       701.868 4        27.593
R17        27.000    23098757.659 5 123606093.57205     -3388.243 5        35.852                                                                    23098787.072 4                     -2635.046 4        25.293
R18        28.000    23117111.553 5 123400855.38905      -471.709 5        35.362
E10        29.000    28006497.246 5 147175168.16605     -4018.135 5        30.611                                                                                                                                    28006497.537 4                     -3078.543 4        28.341
R11        30.000    19424655.578 8 103799466.70108      -499.424 8        50.458                                                                    19424654.520 7  80732908.46207      -388.523 7        44.995
C20        31.000                                                                                                                                    24338256.124 6 126735665.39306     -3560.593 6        37.679                                                                    24338254.195 6 102983131.78706     -2893.225 6        39.718
R10        32.000    21867965.393 5 116568526.44405     -4378.267 5        34.671
C36        34.000                                                                                                                                    23550440.358 4 122633463.25804      2047.244 4        28.389                                                                    23550458.682 5  99649683.62705      1663.481 5        32.976
R02        35.000    21559153.544 8 115043715.37108      2362.921 8        49.518                                                                    21559149.068 6  89478647.99606      1837.750 6        37.497
R12        38.000                                                                                                                                    21964925.838 5  91258923.23605      2586.616 5        33.868
C05        40.000                                                                                                                                                                                                    39299199.825 5 158241594.84805      -701.367 5        32.114
C37        42.000                                                                                                                                                                                                                                                                    24884157.585 5 105292978.97705     -2891.117 5        32.916
R01        44.000    19234544.653 6 102819647.90706      -527.984 6        39.709                                                                    19234546.008 5  79970841.08605      -410.469 5        35.281
C19        48.000                                                                                                                                    21881792.493 7 113944387.80407     -1265.532 7        45.064                                                                    21881781.358 5  92588998.84105     -1028.191 5        31.245
C34        49.000                                                                                                                                    26794523.833 4                     -1318.248 4        27.988
C22        51.000                                                                                                                                    23295297.816 7 121304709.14007      1561.481 7        45.059                                                                    23295289.768 7  98570015.47107      1268.966 7        42.762
C12        54.000                                                                                                                                    26711397.868 4                     -2286.698 4        24.977    26711356.973 5 107555740.54205     -1768.202 5        30.438    26711358.247 5                     -1858.018 5        30.536
I09        59.000    38846963.827 6 152443854.44106     -1198.575 6        38.057
> 2025 01 02 06 30  5.0000000  0 35
G20         4.000    20707143.125 7 108816834.10707     -1131.442 7        47.811                                    20707137.409 5  84792290.17005      -881.643 5        30.181
G07         5.000    21337441.376 7 112129032.54807     -2356.403 7        47.376                                    21337436.981 6  87373279.00806     -1836.149 6        38.459    21337436.443 6  87373225.00206     -1836.060 6        37.028
G09         6.000    22988415.018 5                     -3812.813 5        32.156
G30         7.000    20517270.939 8 107819005.36108      -207.981 8        50.000                                    20517268.988 8  84014730.54608      -162.061 8        49.006    20517269.923 7  84014778.52407      -162.050 7        44.755
G14         8.000    23442621.694 6 123191785.15906      2602.232 6        37.403                                    23442618.708 1  95993598.72601      2027.854 1         4.714
E21        10.000    25941385.913 5 136322935.84205     -1668.463 5        30.906                                                                    25941384.438 6 101799565.94106     -1246.032 6        39.168    25941385.472 7 104455223.54507     -1278.513 7        42.836
E06        11.000    23801190.040 7 125076069.11007       276.229 7        43.537                                                                    23801188.365 7  93401044.58607       206.197 7        42.290    23801187.230 6  95837534.36906       211.639 6        40.243
G05        14.000    21799337.382 7 114556284.81907      1316.974 7        45.458                                    21799329.923 6  89264585.27406      1026.214 6        36.994    21799333.832 6  89264633.28106      1026.139 6        39.462
E11        16.000                                                                                                                                    26571122.986 4                     -2677.712 4        26.120    26571110.776 4                     -2747.766 4        25.368
E04        17.000    23332085.827 7 122610924.28307      -919.055 7        44.382                                                                    23332084.522 7  91560170.34307      -686.383 7        45.389    23332083.043 7  93948626.60407      -704.222 7        43.810
R08        18.000    21768173.663 6 116567678.93706     -3916.770 6        41.089                                                                    21768169.158 6  90663652.37006     -3046.504 6        40.524
E19        20.000    25847920.583 5                     -3038.357 5        32.335
E09        21.000    25438131.677 6 133678469.23306      1101.283 6        36.646                                                                    25438130.332 5  99824698.42105       822.682 5        33.479    25438133.399 6 102428831.52506       843.941 6        40.725
E36        22.000    26169586.914 6 137522083.69706     -1503.902 6        36.302                                                                    26169584.053 7 102695147.73407     -1123.122 7        43.515    26169578.369 5 105374045.98705     -1152.383 5        33.731
S36        23.000    38242307.618 5 200964744.72905      -852.365 5        34.324
S23        24.000    38177553.345 6 200624354.34506      -849.565 6        40.779
G11        25.000    24102182.529 5                     -3870.224 5        32.934
E34        26.000    28137600.225 5 147864148.06605       937.251 5        34.714                                                                    28137613.533 4                       700.244 4        26.790    28137575.941 3 113298359.60813       718.159 3        23.810
R17        27.000    23101928.432 6 123623042.83506     -3391.612 6        37.164                                                                    23101956.325 4                     -2637.479 4        27.605
E10        29.000    28010321.009 5 147195257.74305     -4017.908 5        30.626                                                                                                                                    28010320.502 4                     -3078.759 4        29.488
R11        30.000    19425124.771 8 103801974.66508      -504.073 8        49.275                                                                    19425123.629 7  80734859.09607      -392.116 7        44.868
C20        31.000                                                                                                                                    24341675.443 6 126753470.75206     -3561.981 6        37.788                                                                    24341673.290 6 102997600.11906     -2894.519 6        40.689
R10        32.000    21872076.091 5 116590423.09105     -4380.989 5        32.778
C36        34.000                                                                                                                                                                                                                                                                    23548493.683 6  99641370.54006      1661.720 6        36.023
R02        35.000    21556939.426 8 115031902.70708      2361.907 8        48.394                                                                    21556936.321 6  89469460.37206      1836.971 6        36.095
R12        38.000                                                                                                                                    21961814.570 5  91245992.81105      2585.085 5        32.563
C05        40.000                                                                                                                                                                                                    39300071.907 5 158245101.82405      -702.105 5        32.826
C37        42.000                                                                                                                                                                                                                                                                    24887574.560 5 105307436.30505     -2892.648 5        30.415
R01        44.000    19235039.153 6 102822294.24006      -530.939 6        37.803                                                                    19235040.648 6  79972899.36306      -412.948 6        36.246
C09        47.000                                                                                                                                                                                                    39957646.228 4                     -1257.536 4        29.090
C19        48.000                                                                                                                                    21883010.206 7 113950720.57407     -1267.911 7        46.537                                                                    21882998.143 5  92594144.81505     -1030.109 5        33.054
C34        49.000                                                                                                                                    26795792.186 4                     -1320.439 4        29.706                                                                    26795795.770 4                     -1072.982 4        28.995
C22        51.000                                                                                                                                    23293797.393 7 121296904.12707      1560.182 7        44.144                                                                    23293790.836 7  98563673.29007      1267.790 7        42.844
C12        54.000                                                                                                                                                                                                    26713550.008 4 107564586.02804     -1770.764 4        26.024    26713557.833 5                     -1859.871 5        32.389
I09        59.000    38848490.418 6 152449847.64606     -1198.898 6        38.411
> 2025 01 02 06 30 10.0000000  0 35
G20         4.000    20708221.522 7 108822499.35207     -1134.821 7        46.601                                    20708215.155 4  84796704.65604      -884.275 4        29.659
G07         5.000    21339684.301 7 112140818.28507     -2358.106 7        46.979                                    21339678.887 6  87382462.68406     -1837.484 6        37.686    21339679.234 6  87382408.72806     -1837.452 6        36.450
G09         6.000    22992042.237 4                     -3813.830 4        27.760
G30         7.000    20517468.925 8 107820050.51408      -210.312 8        48.575                                    20517467.980 8  84015544.93808      -163.883 8        48.415    20517468.846 7  84015592.93407      -163.909 7        44.770
G14         8.000    23440147.044 6 123178774.89106      2601.784 6        37.028                                    23440142.766 1  95983460.87601      2027.275 1         4.000
E21        10.000                                                                                                                                    25942972.750 6 101805800.26306     -1247.728 6        39.568    25942974.254 7 104461620.49207     -1280.379 7        43.001
E06        11.000    23800927.828 7 125074689.81407       275.369 7        45.099                                                                    23800926.411 7  93400014.58207       205.558 7        43.236    23800924.306 6  95836477.49806       210.963 6        39.276
G05        14.000    21798085.253 7 114549705.98107      1314.342 7        44.498                                    21798078.933 6  89259458.90806      1024.166 6        37.792    21798082.533 6  89259506.89806      1024.134 6        40.191
E11        16.000    26574532.860 5 139650117.35515     -3587.385 5        32.701                                                                    26574537.066 4                     -2678.534 4        26.695    26574522.807 4                     -2748.257 4        26.898
E04        17.000    23332960.995 7 122615522.26507      -920.255 7        46.243                                                                    23332959.302 7  91563603.87807      -687.134 7        44.641    23332958.147 7  93952149.70907      -705.051 7        43.482
R08        18.000    21771830.541 6 116587266.71706     -3918.459 6        39.222                                                                    21771826.476 6  90678887.28206     -3047.831 6        40.377
E19        20.000    25850811.339 5                     -3038.862 5        32.880
E09        21.000    25437085.391 6 133672962.64706      1100.860 6        39.300                                                                    25437081.654 5  99820586.38405       822.349 5        32.581    25437086.388 6 102424612.15906       843.514 6        39.084
E36        22.000    26171020.114 6 137529609.35306     -1506.283 6        36.779                                                                    26171016.443 7 102700767.53707     -1124.916 7        44.691    26171010.720 5 105379812.43105     -1154.379 5        33.084
S36        23.000    38243117.831 5 200969006.10105      -852.574 5        32.413
S23        24.000    38178370.673 6 200628601.10706      -849.365 6        40.455
G11        25.000    24105866.238 5                     -3871.466 5        34.010                                                                                                    24105845.994 3                     -3016.723 3        22.857
E34        26.000    28136710.232 5 147859464.75105       935.831 5        34.824                                                                    28136722.424 4                       698.864 4        28.938
R17        27.000    23105095.973 6 123640008.19816     -3394.462 6        36.851
E10        29.000    28014144.628 5 147215347.64205     -4017.682 5        31.887                                                                                                                                    28014143.377 4                     -3078.466 4        29.346
R11        30.000    19425597.826 7 103804505.64407      -508.500 7        47.920                                                                    19425596.890 7  80736827.65307      -395.561 7        44.327
C20        31.000                                                                                                                                    24345095.908 6 126771282.71506     -3563.073 6        37.229                                                                    24345095.216 6 103012073.76906     -2895.288 6        40.698
R10        32.000    21876185.685 5 116612332.11005     -4382.984 5        32.096
C36        34.000                                                                                                                                    23546556.687 4                      2043.766 4        29.194                                                                    23546530.702 6  99633063.70506      1660.803 6        37.822
R02        35.000    21554724.916 7 115020095.03807      2361.011 7        47.296                                                                    21554723.238 5  89460276.63705      1836.365 5        34.100
R12        38.000    21958688.397 5 117299523.47015      3322.190 5        32.527                                                                    21958701.901 5  91233069.60805      2584.105 5        31.638
C05        40.000                                                                                                                                                                                                    39300941.629 5 158248609.23705      -701.672 5        32.605
C37        42.000                                                                                                                                    24890987.908 4                     -3560.842 4        26.000                                                                    24890988.840 4 105321899.37904     -2892.764 4        28.834
R01        44.000    19235537.656 6 102824955.51006      -533.742 6        39.847                                                                    19235538.281 6  79974969.25506      -415.126 6        36.310
C09        47.000                                                                                                                                    39959173.316 3                     -1627.237 3        20.619    39959198.673 4                     -1257.562 4        28.464
C19        48.000                                                                                                                                    21884228.157 7 113957064.64307     -1269.998 7        47.566                                                                    21884213.803 5  92599299.88205     -1032.028 5        32.431
C34        49.000                                                                                                                                                                                                                                                                    26797059.616 4                     -1075.435 4        28.597
C22        51.000                                                                                                                                    23292300.357 7 121289105.18307      1559.163 7        46.348                                                                    23292292.821 7  98557336.00507      1267.110 7        42.231
C12        54.000                                                                                                                                    26715759.757 4                     -2291.413 4        29.630    26715752.892 4 107573440.29204     -1771.965 4        29.062    26715756.311 5                     -1861.815 5        32.293
I09        59.000    38850018.720 6 152455841.78506     -1198.920 6        38.327
> 2025 01 02 06 30 15.0000000  0 37
G13         1.000    22751489.334 4 119559455.30904      2142.732 4        29.564                                    22751458.412 1  93163203.41201      1669.702 1         3.800
G20         4.000    20709302.229 7 108828181.68607     -1137.820 7        46.198                                    20709296.000 4  84801132.44904      -886.614 4        29.242
G07         5.000    21341928.440 7 112152612.89307     -2359.468 7        47.518                                    21341922.586 6  87391653.28406     -1838.548 6        37.376    21341923.605 6  87391599.30106     -1838.427 6        36.805
G09         6.000    22995669.796 4                     -3814.867 4        27.976                                                                                                    22995729.048 4                     -2972.597 4        27.892
G30         7.000    20517669.899 7 107821108.13807      -212.402 7        46.469                                    20517669.449 8  84016369.05108      -165.512 8        48.100    20517670.162 7  84016417.04207      -165.480 7        45.154
G14         8.000    23437671.786 6 123165768.84106      2601.014 6        37.066                                    23437667.437 1  95973326.37501      2026.715 1         1.556    23437692.201 4                      2026.521 4        25.038
E21        10.000                                                                                                                                    25944564.048 6 101812043.69206     -1249.352 6        39.817    25944565.122 7 104468026.80207     -1281.951 7        43.456
E06        11.000    23800666.415 7 125073315.55707       274.720 7        45.652                                                                    23800665.596 7  93398988.32607       205.212 7        44.035    23800663.031 6  95835424.48506       210.479 6        38.907
G05        14.000    21796835.994 7 114543140.85107      1312.028 7        43.263                                    21796830.769 6  89254343.22106      1022.361 6        38.444    21796833.011 6  89254391.22006      1022.253 6        40.608
E11        16.000    26577941.398 5 139668056.15505     -3587.921 5        30.392                                                                    26577951.606 4                     -2679.616 4        24.722    26577937.271 4                     -2749.460 4        25.534
E04        17.000    23333837.347 7 122620126.17207      -920.930 7        46.730                                                                    23333835.499 7  91567041.84907      -687.695 7        44.381    23333834.344 7  93955677.37207      -705.793 7        43.564
R08        18.000    21775487.313 6 116606863.54306     -3919.899 6        37.686                                                                    21775486.520 6  90694129.28706     -3048.901 6        38.802
E19        20.000    25853702.561 5                     -3039.379 5        31.955
E09        21.000    25436038.560 6 133667459.12906      1100.739 6        40.524                                                                    25436035.293 5  99816476.61105       821.962 5        32.964    25436037.329 6 102420395.15606       843.504 6        38.402
E36        22.000    26172452.628 6 137537147.84606     -1508.568 6        36.711                                                                    26172451.109 7 102706396.91007     -1126.519 7        44.414    26172446.880 5 105385588.63605     -1155.950 5        34.152
S36        23.000    38243929.959 5 200973268.49105      -852.216 5        34.090
S23        24.000    38179168.907 6 200632848.25606      -849.039 6        40.327
G11        25.000    24109551.302 5 126696540.02715     -3872.178 5        32.832                                                                                                    24109532.717 3                     -3017.437 3        22.743
E34        26.000    28135823.369 5 147854791.80405       934.024 5        34.995                                                                    28135832.441 4                       697.472 4        29.412    28135799.408 4 113291190.54004       715.141 4        25.474
R17        27.000    23108265.441 6 123656989.17606     -3397.436 6        40.136
R18        28.000    23118481.157 5                      -484.552 5        31.291
E10        29.000    28017966.371 5 147235437.72105     -4017.667 5        31.426                                                                                                                                    28017967.298 4                     -3078.513 4        28.332
R11        30.000    19426075.604 7 103807059.51007      -512.684 7        46.692                                                                    19426074.602 7  80738813.98807      -398.850 7        44.132
C20        31.000                                                                                                                                    24348517.340 6 126789101.05406     -3563.856 6        37.664                                                                    24348517.381 6 103026552.60606     -2896.037 6        40.665
R10        32.000    21880296.906 4 116634253.28904     -4384.547 4        28.777
C36        34.000                                                                                                                                    23544589.396 5                      2042.354 5        34.729                                                                    23544570.287 6  99624762.94806      1659.973 6        36.669
R02        35.000    21552510.973 7 115008292.31707      2360.459 7        43.945                                                                    21552510.831 5  89451096.74805      1835.912 5        33.275
R12        38.000    21955591.300 4 117282916.73004      3321.175 4        28.474                                                                    21955592.212 5  91220153.37305      2582.733 5        30.808
C05        40.000                                                                                                                                                                                                    39301813.063 5 158252116.94205      -701.159 5        32.533
C37        42.000                                                                                                                                    24894404.071 4                     -3561.211 4        25.549                                                                    24894407.931 4 105336368.27504     -2894.481 4        27.737
R01        44.000    19236039.639 6 102827631.56406      -536.276 6        41.037                                                                    19236039.501 6  79977050.57806      -417.180 6        36.268
C09        47.000                                                                                                                                                                                                    39960764.326 4                     -1257.425 4        27.174
C19        48.000                                                                                                                                    21885447.752 8 113963419.77308     -1271.767 8        48.518                                                                    21885435.890 5  92604463.88705     -1033.363 5        31.192
C34        49.000                                                                                                                                    26798294.032 4                     -1326.375 4        25.699                                                                    26798330.800 4                     -1076.725 4        26.719
C22        51.000                                                                                                                                    23290803.491 7 121281312.16707      1558.396 7        46.641                                                                    23290796.394 6  98551003.53006      1266.420 6        41.337
C12        54.000                                                                                                                                    26717963.677 4                     -2293.774 4        26.970                                                                    26717955.983 5                     -1863.408 5        31.011
I09        59.000    38851546.368 6 152461836.72106     -1198.758 6        38.141
> 2025 01 02 06 30 20.0000000  0 34
G20         4.000    20710386.994 7 108833880.31407     -1141.500 7        47.180                                    20710380.011 4  84805572.94804      -889.476 4        28.673
G07         5.000    21344174.693 7 112164415.53207     -2361.488 7        46.818                                    21344167.904 6  87400850.15006     -1840.122 6        37.293    21344169.327 6  87400796.16906     -1840.110 6        36.185
G09         6.000    22999303.222 4                     -3815.924 4        27.701
G30         7.000    20517874.239 7 107822177.37607      -215.102 7        46.677                                    20517873.167 7  84017202.21907      -167.610 7        47.664    20517873.459 7  84017250.21507      -167.744 7        45.499
G14         8.000    23435196.512 6 123152766.11806      2600.223 6        36.994                                    23435193.141 1  95963194.72501      2026.029 1         2.200    23435212.521 4                      2025.949 4        25.774
E21        10.000                                                                                                                                    25946157.756 6 101818295.60106     -1251.221 6        40.215    25946158.460 7 104474441.82207     -1284.022 7        43.632
E06        11.000    23800405.200 7 125071945.53007       273.420 7        45.475                                                                    23800405.234 7  93397965.25107       204.182 7        44.403    23800402.130 6  95834374.71706       209.488 6        39.655
G05        14.000    21795590.624 7 114536588.68707      1308.949 7        45.687                                    21795585.065 6  89249237.63506      1019.966 6        39.727    21795586.823 6  89249285.62006      1019.998 6        40.741
E11        16.000    26581355.624 5 139685999.84705     -3589.430 5        33.054                                                                    26581363.910 4                     -2679.899 4        26.156    26581350.165 4                     -2750.457 4        26.719
E04        17.000    23334714.584 7 122624735.19907      -922.542 7        47.352                                                                    23334712.443 7  91570483.64207      -688.891 7        44.798    23334711.564 7  93959208.96207      -706.898 7        43.740
R08        18.000    21779146.277 6 116626468.56306     -3922.222 6        36.560                                                                    21779148.289 6  90709377.65306     -3050.346 6        39.580
E19        20.000    25856593.876 5                     -3040.005 5        31.411
E09        21.000    25434991.301 6 133661957.88006      1099.857 6        38.994                                                                    25434988.554 5  99812368.51305       821.173 5        32.808    25434988.285 6 102416179.85306       842.922 6        38.520
E36        22.000    26173890.170 5 137544698.33205     -1511.443 5        35.814                                                                    26173888.033 7 102712035.25307     -1128.661 7        44.149    26173883.961 5 105391374.06405     -1158.040 5        35.843
S36        23.000    38244748.373 6 200977529.59506      -852.231 6        36.597
S23        24.000    38179979.697 6 200637095.21406      -849.335 6        40.684
G11        25.000    24113236.444 5 126715905.11305     -3874.131 5        32.371                                                                                                    24113218.899 4                     -3017.592 4        26.240
E34        26.000    28134936.945 5 147850128.36805       931.779 5        35.476                                                                    28134947.431 4                       695.550 4        28.408
R17        27.000    23111441.405 6 123673984.94306     -3400.548 6        38.712                                                                    23111434.613 5                     -2644.915 5        30.891
R18        28.000    23118937.508 4 123410476.65714      -489.016 4        27.976                                                                    23118905.974 3                      -379.577 3        23.352
E10        29.000    28021789.666 5 147255527.04705     -4017.685 5        31.419                                                                                                                                    28021791.658 4                     -3078.467 4        29.554
R11        30.000    19426557.846 7 103809635.35007      -517.539 7        46.280                                                                    19426556.988 7  80740817.43707      -402.455 7        44.045
C20        31.000                                                                                                                                    24351940.187 6 126806924.94506     -3565.376 6        37.720                                                                    24351940.138 6 103041035.95806     -2897.146 6        39.811
C36        34.000                                                                                                                                                                                                                                                                    23542611.226 5  99616467.73005      1658.339 5        35.990
R02        35.000    21550299.092 7 114996493.37307      2359.244 7        43.545                                                                    21550300.978 5  89441919.85705      1835.155 5        33.042
R12        38.000    21952483.257 4 117266318.09504      3318.562 4        26.683                                                                    21952484.559 4  91207243.38804      2581.176 4        24.677
C05        40.000                                                                                                                                                                                                    39302684.457 5 158255624.32305      -701.835 5        32.874
R01        44.000    19236542.935 7 102830321.63507      -539.476 7        42.758                                                                    19236543.856 6  79979142.87806      -419.738 6        36.083
C09        47.000                                                                                                                                                                                                    39962332.243 4                     -1256.929 4        27.485
C19        48.000                                                                                                                                    21886669.700 8 113969785.12808     -1274.236 8        48.753                                                                    21886661.064 5  92609636.28505     -1035.223 5        33.174
C34        49.000                                                                                                                                    26799570.283 4                     -1330.875 4        24.150                                                                    26799597.275 4                     -1078.624 4        25.143
C22        51.000                                                                                                                                    23289307.056 7 121273524.24307      1556.954 7        46.583                                                                    23289300.912 6  98544675.19406      1265.300 6        40.906
C12        54.000                                                                                                                                    26720166.979 3                     -2295.525 3        21.619    26720150.396 3                     -1775.532 3        22.057    26720158.266 5                     -1865.303 5        30.694
I09        59.000    38853073.142 6 152467831.84406     -1199.202 6        37.834
> 2025 01 02 06 30 25.0000000  0 34
G20         4.000    20711475.251 7 108839595.83607     -1144.769 7        47.010                                    20711467.277 4  84810026.60704      -892.022 4        28.313
G07         5.000    21346422.271 7 112176226.84607     -2363.042 7        47.040                                    21346415.060 6  87410053.77406     -1841.333 6        36.904    21346417.041 6  87409999.79906     -1841.481 6        36.703
G09         6.000    23002923.573 3                     -3817.901 3        18.866
G30         7.000    20518080.646 7 107823258.86307      -217.506 7        46.509                                    20518079.183 7  84018044.93307      -169.479 7        47.284    20518079.298 7  84018092.91007      -169.495 7        44.969
G14         8.000    23432725.982 6 123139767.42006      2599.296 6        37.146                                    23432719.528 1  95953065.80101      2025.388 1         4.143    23432736.015 5                      2025.357 5        30.241
E21        10.000    25947749.478 5 136356334.61515     -1678.164 5        34.348                                                                    25947753.370 6 101824556.48206     -1253.049 6        40.632    25947754.028 7 104480866.04907     -1285.738 7        44.229
E06        11.000    23800145.324 7 125070580.36407       272.519 7        45.932                                                                    23800145.520 7  93396945.79907       203.483 7        45.016    23800141.971 6  95833328.67206       208.748 6        39.150
G05        14.000    21794346.745 7 114530050.02707      1306.344 7        46.770                                    21794341.730 6  89244142.58106      1017.930 6        40.269    21794342.162 6  89244190.58406      1017.923 6        40.460
E11        16.000    26584770.638 5 139703948.86605     -3589.968 5        31.313                                                                    26584784.178 4                     -2681.610 4        25.624    26584763.909 4                     -2750.889 4        25.699
E04        17.000    23335592.550 8 122629349.95408      -923.470 8        48.111                                                                    23335590.124 7  91573929.71207      -689.618 7        43.363    23335590.021 7  93962744.92207      -707.558 7        43.729
R08        18.000    21782809.801 6 116646082.60306     -3923.879 6        37.406                                                                    21782810.476 6  90724632.96606     -3051.767 6        39.303
E19        20.000    25859482.916 4                     -3041.039 4        28.379
E09        21.000    25433945.358 6 133656459.54106      1099.284 6        39.742                                                                    25433941.815 5  99808262.60205       820.997 5        31.585    25433941.761 6 102411966.78906       842.395 6        38.069
E36        22.000    26175330.936 6 137552261.44706     -1513.844 6        37.588                                                                    26175326.975 7 102717682.99907     -1130.457 7        44.119    26175322.653 6 105397169.15906     -1160.014 6        37.025
S36        23.000    38245545.408 5 200981791.27505      -852.445 5        34.862
S23        24.000    38180783.788 6 200641342.19206      -849.443 6        40.000
G11        25.000    24116922.465 5 126735275.85805     -3874.851 5        31.879
E34        26.000    28134054.137 5 147845475.14805       929.763 5        34.243                                                                    28134062.796 4                       694.406 4        28.322    28134048.834 4 113284052.03604       712.495 4        27.042
R17        27.000    23114616.876 5 123690996.25205     -3403.885 5        34.805                                                                    23114616.920 5                     -2647.436 5        32.257
E10        29.000    28025613.164 5 147275616.29505     -4017.531 5        30.664                                                                                                                                    28025615.128 4                     -3078.617 4        28.502
R11        30.000    19427043.524 7 103812233.82307      -521.870 7        46.173                                                                    19427043.479 7  80742838.47807      -405.975 7        44.176
C20        31.000                                                                                                                                    24355363.890 6 126824754.95406     -3566.733 6        39.078                                                                    24355363.622 6 103055524.32306     -2898.045 6        39.973
C36        34.000                                                                                                                                    23540652.631 6 122582445.25216      2039.452 6        36.026                                                                    23540654.042 5  99608178.45305      1657.176 5        33.138
R02        35.000    21548091.600 7 114984699.30907      2358.357 7        44.087                                                                    21548092.783 5  89432746.68005      1834.342 5        35.305
R12        38.000    21949377.662 5 117249728.30015      3317.646 5        30.921                                                                    21949375.753 4                      2580.436 4        24.541
C05        40.000                                                                                                                                                                                                    39303554.479 5 158259131.80105      -701.706 5        32.030
C37        42.000                                                                                                                                    24901238.696 4                     -3564.823 4        26.766                                                                    24901243.332 4 105365321.25204     -2897.036 4        27.257
R01        44.000    19237048.609 7 102833026.22407      -542.392 7        43.604                                                                    19237048.277 5  79981246.41705      -421.833 5        34.319
C09        47.000                                                                                                                                    39963853.066 3                     -1626.304 3        22.743
C19        48.000                                                                                                                                    21887894.427 8 113976161.38808     -1276.314 8        48.951                                                                    21887887.230 5  92614817.50705     -1036.832 5        34.348
C34        49.000                                                                                                                                    26800845.451 3                     -1329.600 3        21.976                                                                    26800864.850 4                     -1081.220 4        25.218
C22        51.000                                                                                                                                    23287812.117 7 121265742.04107      1555.861 7        46.947                                                                    23287806.222 6  98538351.52906      1264.296 6        41.135
C12        54.000                                                                                                                                                                                                                                                                    26722364.283 4                     -1866.991 4        28.436
I09        59.000    38854601.558 6 152473827.59106     -1199.315 6        36.919
> 2025 01 02 06 30 30.0000000  0 36
G20         4.000    20712566.426 7 108845328.34807     -1148.250 7        46.714                                    20712558.004 4  84814493.48704      -894.730 4        28.171
G07         5.000    21348671.801 7 112188046.92207     -2364.926 7        46.867                                    21348664.268 6  87419264.21306     -1842.796 6        36.722    21348665.757 6  87419210.21706     -1842.820 6        37.713
G09         6.000                                                                                                                                                                    23006547.625 5                     -2974.652 5        31.064
G30         7.000    20518288.425 7 107824352.66107      -220.023 7        46.005                                    20518287.467 7  84018897.23007      -171.443 7        46.787    20518287.287 7  84018945.22607      -171.411 7        44.331
G14         8.000    23430257.936 5 123126772.85005      2598.470 5        35.152                                    23430246.685 1  95942940.17501      2024.818 1         4.571    23430260.252 5                      2024.707 5        31.396
E21        10.000    25949350.980 5 136364730.87605     -1680.566 5        34.733                                                                    25949350.922 6 101830826.41106     -1254.951 6        40.572    25949351.894 7 104487299.52807     -1287.660 7        44.685
E06        11.000    23799887.007 7 125069220.15507       271.559 7        46.290                                                                    23799886.858 7  93395930.04907       202.823 7        45.427    23799882.976 6  95832286.42606       208.000 6        38.282
G05        14.000    21793104.515 7 114523525.03007      1303.607 7        47.866                                    21793100.645 6  89239058.16706      1015.801 6        40.310    21793099.131 6  89239106.16606      1015.767 6        39.637
E11        16.000    26588188.237 4 139721903.47204     -3591.677 4        29.848                                                                                                                                    26588177.921 3                     -2750.754 3        23.219
E04        17.000    23336471.887 8 122633970.55908      -924.694 8        48.566                                                                    23336469.113 7  91577380.16107      -690.566 7        42.404    23336469.510 7  93966285.37507      -708.529 7        43.852
R08        18.000    21786474.936 6 116665705.63806     -3925.344 6        38.429                                                                    21786475.108 6  90739895.27706     -3053.232 6        37.769
E19        20.000    25862379.007 4                     -3041.126 4        26.982
E09        21.000    25432900.230 6 133650964.14206      1098.790 6        40.257                                                                    25432896.301 5  99804158.93905       820.368 5        31.660    25432897.525 6 102407756.05906       841.812 6        36.457
E36        22.000    26176773.829 6 137559837.28606     -1516.415 6        37.981                                                                    26176768.445 7 102723340.25107     -1132.360 7        44.342    26176764.538 6 105402973.98306     -1162.026 6        38.006
S36        23.000    38246339.743 5 200986053.26105      -852.332 5        31.819
S23        24.000    38181588.935 6 200645589.34206      -849.374 6        38.429
G11        25.000    24120604.890 5 126754652.33805     -3876.419 5        30.181
E34        26.000    28133172.300 5 147840832.17605       927.423 5        33.617                                                                    28133180.720 5                       692.568 5        30.943    28133172.746 4 113280494.53704       710.988 4        29.213
R17        27.000    23117798.552 6 123708023.18606     -3406.945 6        36.696                                                                    23117798.765 5                     -2649.837 5        33.245
R18        28.000    23119841.362 5 123415258.88515      -497.826 5        35.067
E10        29.000    28029435.411 5 147295705.54105     -4017.614 5        31.721                                                                                                                                    28029437.596 4                     -3078.953 4        27.976
R11        30.000    19427534.746 7 103814855.08207      -526.448 7        46.298                                                                    19427533.291 7  80744877.19607      -409.549 7        43.532
C20        31.000                                                                                                                                    24358791.064 6 126842591.17706     -3567.819 6        40.079                                                                    24358790.080 6 103070017.73106     -2899.169 6        40.117
R10        32.000    21892661.403 4                     -4392.034 4        28.114
C36        34.000                                                                                                                                    23538692.569 6 122572251.53306      2038.086 6        36.219                                                                    23538698.491 5  99599895.19705      1655.903 5        32.617
R02        35.000    21545883.970 7 114972909.98407      2357.316 7        45.762                                                                    21545883.350 6  89423577.19306      1833.424 6        36.631
R12        38.000    21946271.504 5 117233147.38215      3315.633 5        32.904
C05        40.000                                                                                                                                                                                                    39304425.193 5 158262639.47805      -701.326 5        31.117
C37        42.000                                                                                                                                    24904665.667 5                     -3565.796 5        30.158                                                                    24904662.826 4 105379806.18304     -2897.935 4        26.934
