     3.04           OBSERVATION DATA    M                   RINEX VERSION / TYPE
ssrcrin-15.6.1x                         20250102 154500 UTC PGM / RUN BY / DATE 
(00000000023479385599111004) Septentrio proprietary         COMMENT             
ract                                                        MARKER NAME         
01                                                          MARKER NUMBER       
geodetic                                                    MARKER TYPE         
NFB                 CLIMERS@TUW                             OBSERVER / AGENCY   
3296359             SEPT ASTERX SB3 PROB4.14.4              REC # / TYPE / VERS 
Unknown             Unknown                                 ANT # / TYPE        
  4127446.6687  1206915.1237  4695542.3122                  APPROX POSITION XYZ 
        0.0000        0.0000        0.0000                  ANTENNA: DELTA H/E/N
G   23 X1  C1C L1C D1C S1C C1W S1W C2W L2W D2W S2W C2L L2L  SYS / # / OBS TYPES 
       D2L S2L C5Q L5Q D5Q S5Q C1L L1L D1L S1L              SYS / # / OBS TYPES 
E   21 X1  C1C L1C D1C S1C C6C L6C D6C S6C C5Q L5Q D5Q S5Q  SYS / # / OBS TYPES 
       C7Q L7Q D7Q S7Q C8Q L8Q D8Q S8Q                      SYS / # / OBS TYPES 
S    9 X1  C1C L1C D1C S1C C5I L5I D5I S5I                  SYS / # / OBS TYPES 
R   17 X1  C1C L1C D1C S1C C2P L2P D2P S2P C2C L2C D2C S2C  SYS / # / OBS TYPES 
       C3Q L3Q D3Q S3Q                                      SYS / # / OBS TYPES 
C   25 X1  C1P L1P D1P S1P C5P L5P D5P S5P C2I L2I D2I S2I  SYS / # / OBS TYPES 
       C7I L7I D7I S7I C6I L6I D6I S6I C7D L7D D7D S7D      SYS / # / OBS TYPES 
J   17 X1  C1C L1C D1C S1C C2L L2L D2L S2L C5Q L5Q D5Q S5Q  SYS / # / OBS TYPES 
       C1L L1L D1L S1L                                      SYS / # / OBS TYPES 
I    5 X1  C5A L5A D5A S5A                                  SYS / # / OBS TYPES 
SEPTENTRIO RECEIVERS OUTPUT ALIGNED CARRIER PHASES.         COMMENT             
NO FURTHER PHASE SHIFT APPLIED IN THE RINEX ENCODER.        COMMENT             
G L1C                                                       SYS / PHASE SHIFT   
G L2W                                                       SYS / PHASE SHIFT   
G L2L  0.00000                                              SYS / PHASE SHIFT   
G L5Q  0.00000                                              SYS / PHASE SHIFT   
G L1L  0.00000                                              SYS / PHASE SHIFT   
E L1C  0.00000                                              SYS / PHASE SHIFT   
E L6C  0.00000                                              SYS / PHASE SHIFT   
E L5Q  0.00000                                              SYS / PHASE SHIFT   
E L7Q  0.00000                                              SYS / PHASE SHIFT   
E L8Q  0.00000                                              SYS / PHASE SHIFT   
S L1C                                                       SYS / PHASE SHIFT   
S L5I                                                       SYS / PHASE SHIFT   
R L1C                                                       SYS / PHASE SHIFT   
R L2P  0.00000                                              SYS / PHASE SHIFT   
R L2C                                                       SYS / PHASE SHIFT   
R L3Q  0.00000                                              SYS / PHASE SHIFT   
C L1P  0.00000                                              SYS / PHASE SHIFT   
C L5P  0.00000                                              SYS / PHASE SHIFT   
C L2I                                                       SYS / PHASE SHIFT   
C L7I                                                       SYS / PHASE SHIFT   
C L6I                                                       SYS / PHASE SHIFT   
C L7D                                                       SYS / PHASE SHIFT   
J L1C                                                       SYS / PHASE SHIFT   
J L2L  0.00000                                              SYS / PHASE SHIFT   
J L5Q  0.00000                                              SYS / PHASE SHIFT   
J L1L  0.00000                                              SYS / PHASE SHIFT   
I L5A                                                       SYS / PHASE SHIFT   
  2025     1     2    15    45    0.0000000     GPS         TIME OF FIRST OBS   
 C1C    0.000 C2C    0.000 C2P    0.000                     GLONASS COD/PHS/BIS 
DBHZ                                                        SIGNAL STRENGTH UNIT
    18                                                      LEAP SECONDS        
 24 R01  1 R02 -4 R03  5 R04  6 R05  1 R06 -4 R07  5 R08  6 GLONASS SLOT / FRQ #
    R09 -2 R10 -7 R11  0 R12 -1 R13 -2 R14 -7 R15  0 R16 -1 GLONASS SLOT / FRQ #
    R17  4 R18 -3 R19  3 R20  2 R21  4 R22 -3 R23  3 R24  2 GLONASS SLOT / FRQ #
                                                            END OF HEADER       
> 2025 01 02 15 45  0.0000000  0 42
G20         1.000    23703025.851 4                      -331.048 4        26.575
G11         2.000    24009609.496 4                     -3795.408 4        27.473                                                                                                    24009596.826 4                     -2957.211 4        28.531
G25         3.000    20656867.115 7 108552734.00007     -2829.886 7        43.886                                    20656866.171 5  84586532.18605     -2205.108 5        32.497    20656866.475 6  84586451.25306     -2205.321 6        36.284
E25         6.000    23641086.401 7 124234797.50707     -1787.676 7        46.981                                                                    23641089.345 8  92772869.48708     -1335.019 8        48.311    23641087.383 7  95192926.80407     -1369.853 7        45.794
G31         7.000    21941930.432 6 115305849.05606       420.001 6        39.715                                    21941926.908 5  89848545.50305       327.277 5        30.332    21941928.642 5  89848546.50305       327.512 5        34.862
G28         8.000    21398709.477 7 112450959.08607     -1356.085 7        44.150                                    21398710.247 5  87624184.23405     -1056.695 5        31.117    21398709.676 7  87624257.24707     -1056.645 7        46.282
G29         9.000    20399239.719 8 107198798.12908      -817.712 8        50.490                                    20399236.440 7  83531533.93307      -637.180 7        45.311    20399236.908 6  83531485.93406      -637.191 6        41.061
E11        10.000    24056069.749 6 126415622.61606      -592.046 6        38.994                                                                    24056068.232 7  94401216.99407      -442.227 7        42.847    24056066.650 6  96863864.08606      -453.603 6        40.973
E10        11.000    25214737.498 7 132504492.45207     -2187.650 7        42.047                                                                    25214738.782 6  98948077.44506     -1633.661 6        38.739    25214735.416 5 101529387.55605     -1676.111 5        35.138
G18        12.000    23324784.540 6 122572633.57206      2652.051 6        37.444                                    23324783.874 3  95511183.20903      2066.532 3        19.343    23324787.670 5  95511216.17305      2066.634 5        35.176
E12        13.000    27062620.840 5                     -3219.329 5        30.981                                                                                                                                    27062619.548 5 108969939.14105     -2466.899 5        31.736
G04        14.000    25371322.175 4                       194.244 4        28.038
G12        15.000    23871227.205 4 125444111.92504     -4189.284 4        29.299                                    23871208.204 1  97748624.88401     -3264.466 1         7.375
E24        16.000                                                                                                                                                                                                    27608587.844 4                     -2584.843 4        25.519
G26        17.000    23173156.340 6 121775765.72206      2285.857 6        37.686                                    23173159.526 3  94890227.75203      1781.163 3        21.476    23173162.343 5  94890241.76805      1781.219 5        31.389
E07        18.000    27876925.024 4                      -927.626 4        24.030                                                                    27876939.001 4 109395115.71604      -692.624 4        27.341    27876957.200 5 112248953.48705      -710.254 5        34.295
E30        19.000    28806537.068 4                      1778.516 4        27.269                                                                    28806561.006 4                      1328.248 4        29.403    28806545.925 4 115992067.10504      1363.107 4        26.287
E08        20.000                                                                                                                                    27638460.497 3                     -2247.379 3        21.619    27638477.222 4                     -2307.172 4        27.401
E02        21.000    24138502.275 5                       684.727 5        30.415                                                                    24138500.347 5  94724691.37305       510.805 5        31.947    24138488.349 6  97195739.30506       524.682 6        39.270
S23        22.000    38224195.383 6 200869548.98006      -866.769 6        36.359
R08        23.000    23848164.195 4                      -964.627 4        29.735
E36        24.000    25394108.541 6 133447001.47706      1886.535 6        36.042                                                                    25394112.908 6  99652061.96806      1408.923 6        37.577    25394113.673 6 102251665.67106      1445.641 6        38.510
R18        25.000    19333267.349 8 103202326.14708       464.703 8        49.900                                                                    19333268.351 6  80268462.25806       361.395 6        41.871
S21        27.000    38504030.238 5 202340127.13105      -862.217 5        35.414
R07        28.000                                                                                                                                    24329782.165 4                     -2755.247 4        29.573
R19        29.000    22018530.019 3                      3066.533 3        23.657                                                                    22018512.742 4                      2385.458 4        29.014
R15        30.000    20651861.528 6 110357557.83706     -3769.543 6        38.811                                                                    20651865.087 5  85833522.63005     -2931.972 5        31.057
S36        31.000    38275337.893 5 201138242.64505      -862.076 5        35.533
R16        34.000    19301758.587 8 103107127.59908       177.150 8        51.083                                                                    19301760.631 7  80194120.90807       137.727 7        44.572
C44        35.000                                                                                                                                    21396070.348 7 111415273.98107      -537.358 7        47.160                                                                    21396071.659 6  90533929.10706      -436.335 6        38.318
R17        36.000    20147679.658 8 107814701.08708     -3371.642 8        52.555                                                                    20147680.463 7  83855614.58007     -2622.382 7        47.571
R09        37.000                                                                                                                                    22691664.514 6  94244953.22706      2387.494 6        39.517
C12        41.000                                                                                                                                    22404868.155 7 116668090.68107       943.591 7        43.264    22404869.242 7  90215167.99507       729.642 7        46.439    22404866.023 6  94802363.94606       767.056 6        41.483
C35        42.000                                                                                                                                    23229974.169 7 120964549.84907     -3161.585 7        44.555                                                                    23229974.208 6  98293645.39506     -2568.657 6        40.391
C05        43.000                                                                                                                                                                                                    39484540.924 5 158987888.49305      -625.764 5        33.940
C38        44.000                                                                                                                                    39042850.445 6 203306358.82806        69.019 6        40.079                                                                    39042869.167 4                        56.243 4        29.280
C25        45.000                                                                                                                                    23589443.220 8 122836398.57708      1571.612 8        50.411                                                                    23589441.694 7  99814819.88807      1277.321 7        44.265
C08        46.000                                                                                                                                    38827138.200 3                       686.607 3        23.543    38827157.428 4 156340840.10904       529.595 4        27.078    38827152.565 4                       556.962 4        28.464
C26        48.000                                                                                                                                    24292919.782 5                     -3875.915 5        31.615                                                                    24292910.567 5 102791231.98505     -3149.372 5        35.629
C24        51.000                                                                                                                                    21533509.359 7 112130642.21007     -1435.566 7        46.801                                                                    21533507.395 8  91115395.04808     -1166.200 8        49.909
C34        52.000                                                                                                                                    24049984.754 5 125234655.56505      2041.673 5        35.371                                                                    24049983.138 6 101763398.22506      1659.400 6        38.369
I06        58.000    38750646.383 5 152065922.59405      -693.309 5        34.043
> 2025 01 02 15 45  5.0000000  0 42
G20         1.000    23703345.348 4                      -333.332 4        28.483
G11         2.000    24013217.984 4                     -3798.268 4        28.038                                                                                                    24013214.119 4                     -2958.792 4        28.057
G25         3.000    20659560.998 7 108566887.25307     -2831.479 7        44.548                                    20659560.471 5  84597560.70205     -2206.348 5        33.018    20659559.811 6  84597479.74406     -2206.240 6        36.507
E25         6.000    23642787.771 7 124243737.95507     -1788.711 7        47.221                                                                    23642790.677 8  92779545.79208     -1335.691 8        48.233    23642788.546 7  95199777.27207     -1370.513 7        45.922
G31         7.000    21941532.207 6 115303755.67206       417.158 6        37.996                                    21941527.919 4  89846914.29304       325.058 4        29.024    21941530.165 5  89846915.29705       324.990 5        33.802
G28         8.000    21400001.464 7 112457746.45207     -1359.040 7        43.837                                    21400002.287 5  87629473.09405     -1058.994 5        31.298    21400001.072 7  87629546.11107     -1059.030 7        46.142
G29         9.000    20400018.358 8 107202890.72608      -819.599 8        50.454                                    20400015.173 7  83534722.96907      -638.651 7        45.175    20400015.048 6  83534674.97706      -638.523 6        40.279
E11        10.000    24056634.235 6 126418588.17906      -594.344 6        39.601                                                                    24056632.683 7  94403431.54707      -443.738 7        43.035    24056631.052 6  96866136.40606      -455.306 6        40.877
E10        11.000    25216820.083 7 132515434.58807     -2189.452 7        42.423                                                                    25216820.718 6  98956248.50906     -1634.851 6        37.943    25216818.220 5 101537771.80505     -1677.787 5        35.876
G18        12.000    23322263.671 6 122559374.80706      2651.327 6        38.270                                    23322260.345 3  95500851.71903      2065.961 3        19.522    23322265.349 5  95500884.71105      2065.738 5        35.771
E12        13.000    27065684.151 5                     -3220.618 5        31.140                                                                                                                                    27065683.047 5 108982274.77705     -2467.499 5        32.078
G04        14.000    25371143.301 4                       195.767 4        29.810
G12        15.000    23875208.854 4 125465058.34304     -4190.267 4        26.503                                    23875193.931 1  97764946.61601     -3265.001 1         3.600
E24        16.000                                                                                                                                                                                                    27611798.348 4                     -2584.607 4        26.754
G26        17.000    23170982.761 6 121764337.06106      2285.439 6        38.625                                    23170983.786 3  94881322.31603      1780.835 3        20.214    23170985.263 5  94881336.33705      1781.088 5        30.792
E07        18.000    27877806.850 3                      -929.916 3        23.771                                                                    27877821.194 4 109398580.09604      -693.896 4        27.030    27877836.183 5 112252508.19105      -711.610 5        35.605
E30        19.000    28804844.702 4                      1778.838 4        27.976                                                                    28804868.712 4                      1328.400 4        29.611    28804854.408 4 115985252.12904      1362.435 4        26.778
E08        20.000                                                                                                                                    27641329.374 3                     -2250.083 3        21.667    27641344.176 4                     -2308.576 4        28.493
E02        21.000    24137860.486 5                       683.838 5        32.533                                                                    24137849.528 5  94722135.52505       510.975 5        32.497    24137837.890 6  97193116.87806       524.348 6        39.240
S23        22.000    38225016.279 6 200873879.98106      -866.109 6        36.250
R08        23.000                                                                                                                                    23849011.765 3                      -753.051 3        23.200
E36        24.000    25392313.470 6 133437569.66706      1885.766 6        36.405                                                                    25392318.202 6  99645018.75906      1408.381 6        37.414    25392318.945 6 102244438.71906      1444.958 6        38.111
R18        25.000    19332834.106 8 103200010.91108       461.171 8        50.402                                                                    19332834.965 6  80266661.52406       358.575 6        41.287
S21        27.000    38504849.278 5 202344437.32405      -861.776 5        35.210
R07        28.000    24333092.754 5                     -3544.903 5        31.645                                                                    24333096.147 5                     -2757.112 5        31.072
R19        29.000    22015664.451 3                      3064.208 3        22.743                                                                    22015649.414 5                      2384.144 5        32.030
R15        30.000    20655388.348 6 110376410.35906     -3771.745 6        37.826                                                                    20655392.781 5  85848185.73205     -2933.827 5        33.096
S36        31.000    38276153.602 5 201142551.69305      -861.588 5        35.576
R16        34.000    19301594.471 8 103106248.65108       174.248 8        51.212                                                                    19301596.397 7  80193437.28007       135.484 7        44.418
C44        35.000                                                                                                                                    21396587.291 7 111417965.37107      -539.357 7        46.999                                                                    21396589.087 6  90536116.12506      -438.358 6        39.033
R17        36.000    20150831.486 8 107831565.01308     -3374.166 8        52.388                                                                    20150831.506 7  83868730.96107     -2624.308 7        47.365
R09        37.000    22688783.157 4                      3069.114 4        26.683                                                                    22688791.278 6  94233016.16606      2387.204 6        39.219
C12        41.000                                                                                                                                    22403963.301 7 116663375.91507       942.008 7        43.771    22403964.157 7  90211522.26207       728.387 7        46.825    22403960.313 6  94798532.86606       765.468 6        41.616
C35        42.000                                                                                                                                    23233010.600 7 120980359.73007     -3162.569 7        45.418                                                                    23233010.238 6  98306492.25506     -2569.733 6        40.651
C05        43.000                                                                                                                                                                                                    39485317.367 5 158991015.02505      -625.167 5        34.248
C38        44.000                                                                                                                                    39042784.052 6 203306014.99806        68.304 6        40.010                                                                    39042804.092 4                        55.038 4        28.559
C25        45.000                                                                                                                                    23587934.341 8 122828542.68808      1570.527 8        50.293                                                                    23587932.897 7  99808436.39107      1276.230 7        43.873
C08        46.000                                                                                                                                    38826483.742 4                       685.629 4        24.662    38826500.424 4 156338190.50604       529.382 4        26.084    38826494.328 4                       556.449 4        28.379
C26        48.000                                                                                                                                    24296642.577 5                     -3876.981 5        33.695                                                                    24296632.676 6 102806981.78706     -3150.294 6        36.310
C24        51.000                                                                                                                                    21534888.306 7 112137824.61007     -1437.687 7        47.426                                                                    21534886.868 8  91121231.38008     -1168.190 8        50.190
C34        52.000                                                                                                                                    24048027.420 5 125224448.71805      2040.873 5        35.143                                                                    24048022.760 6 101755104.37106      1658.342 6        37.781
I06        58.000    38751530.963 5 152069387.93705      -693.126 5        33.778
> 2025 01 02 15 45 10.0000000  0 41
G20         1.000    23703663.719 4                      -336.181 4        28.095
G11         2.000                                                                                                                                                                    24016823.192 4                     -2960.223 4        26.383
G25         3.000    20662256.038 7 108581050.95907     -2833.863 7        45.153                                    20662256.659 5  84608597.36105     -2208.204 5        33.527    20662255.419 6  84608516.42706     -2208.405 6        36.563
E25         6.000    23644490.159 7 124252684.65407     -1790.096 7        46.801                                                                    23644493.125 8  92786226.77708     -1336.724 8        48.337    23644491.174 7  95206632.55007     -1371.626 7        46.135
G31         7.000    21941138.992 6 115301677.93006       413.956 6        37.217                                    21941132.064 4  89845295.27604       322.567 4        27.904    21941135.415 5  89845296.28105       322.698 5        34.219
G28         8.000    21401296.764 7 112464550.43307     -1362.592 7        44.448                                    21401297.416 5  87634774.90905     -1061.760 5        31.955    21401295.974 7  87634847.93507     -1061.739 7        46.132
G29         9.000    20400799.435 8 107206994.51008      -822.075 8        50.865                                    20400795.887 7  83537920.72407      -640.580 7        44.944    20400796.122 6  83537872.72306      -640.474 6        40.298
E11        10.000    24057200.645 6 126421565.83906      -596.915 6        39.919                                                                    24057199.383 7  94405655.13307      -445.795 7        43.471    24057197.603 6  96868418.00206      -457.377 6        40.913
E10        11.000    25218904.306 7 132526387.17407     -2191.711 7        42.646                                                                    25218904.771 6  98964427.39506     -1636.701 6        37.149    25218902.503 6 101546164.03506     -1679.349 6        36.291
G18        12.000    23319741.856 6 122546121.56906      2650.051 6        39.628                                    23319738.202 3  95490524.55003      2064.982 3        19.970    23319743.541 6  95490557.53206      2065.093 6        36.609
E12        13.000    27068748.291 5                     -3222.046 5        31.177                                                                                                                                    27068748.182 5 108994615.73705     -2468.447 5        32.126
G04        14.000    25370967.079 5                       192.941 5        31.517
E24        16.000                                                                                                                                    27614985.670 5 108367130.31515     -2519.137 5        30.143    27615010.024 4                     -2585.448 4        27.090
G26        17.000    23168809.241 6 121752912.46706      2284.304 6        38.982                                    23168809.178 3  94872420.04203      1779.995 3        18.418    23168811.156 5  94872434.05005      1779.888 5        30.181
E07        18.000    27878696.202 4                      -931.800 4        27.138                                                                    27878707.102 4 109402052.98904      -695.129 4        25.880    27878719.538 6 112256071.75906      -713.652 6        36.794
E30        19.000    28803149.434 4                      1779.184 4        27.880                                                                    28803176.243 5                      1328.660 5        30.536    28803160.573 4 115978436.30104      1363.235 4        26.623
E08        20.000                                                                                                                                                                                                    27644212.257 4                     -2309.361 4        29.507
E02        21.000    24137214.435 5                       683.001 5        33.862                                                                    24137198.423 5  94719582.97005       509.991 5        31.970    24137189.177 6  97190497.77306       523.424 6        38.958
S23        22.000    38225844.700 6 200878210.65506      -866.243 6        36.265
R08        23.000                                                                                                                                    23849912.242 4                      -756.171 4        24.707
E36        24.000    25390519.634 5 133428144.31505      1884.255 5        35.829                                                                    25390524.866 6  99637980.37506      1407.163 6        37.561    25390525.654 6 102237216.69106      1443.746 6        38.105
R18        25.000    19332403.932 8 103197715.11908       456.997 8        50.398                                                                    19332404.511 7  80264875.90207       355.552 7        42.290
S21        27.000    38505668.842 5 202348746.95705      -862.096 5        35.276
R07        28.000    24336412.446 5                     -3547.617 5        34.338                                                                    24336414.757 5                     -2759.365 5        32.000
R19        29.000    22012803.776 3                      3062.670 3        20.190                                                                    22012784.441 5                      2382.451 5        33.000
R15        30.000    20658921.274 6 110395275.66106     -3774.601 6        39.240                                                                    20658923.145 5  85862858.71105     -2935.852 5        33.820
S36        31.000    38276973.818 5 201146859.61105      -861.724 5        35.548
R16        34.000    19301433.017 8 103105386.43208       170.620 8        51.581                                                                    19301434.526 7  80192766.67407       132.660 7        44.980
C44        35.000                                                                                                                                    21397106.519 7 111420668.02507      -541.777 7        47.003                                                                    21397108.438 6  90538312.23706      -440.272 6        40.207
R17        36.000    20153985.788 8 107848443.36908     -3377.268 8        52.368                                                                    20153985.681 7  83881858.58707     -2626.759 7        47.291
R09        37.000                                                                                                                                    22685916.943 6                      2386.701 6        39.261
C12        41.000                                                                                                                                    22403059.306 7 116658671.13207       939.852 7        43.644    22403060.963 7  90207884.23707       726.777 7        46.666    22403056.829 7  94794709.82907       763.622 7        42.061
C35        42.000                                                                                                                                    23236048.326 7 120996176.10907     -3164.023 7        46.195                                                                    23236047.862 6  98319344.35406     -2571.064 6        40.868
C05        43.000                                                                                                                                                                                                    39486093.954 5 158994141.23505      -625.482 5        33.671
C38        44.000                                                                                                                                    39042718.249 6 203305675.96506        67.179 6        39.787                                                                    39042740.219 4                        54.417 4        28.758
C25        45.000                                                                                                                                    23586426.832 8 122820693.91908      1568.899 8        49.870                                                                    23586425.377 7  99802058.61407      1274.911 7        43.501
C08        46.000                                                                                                                                    38825833.019 4                       684.611 4        24.767                                                                    38825837.751 4                       555.729 4        28.095
C26        48.000                                                                                                                                    24300366.451 5                     -3878.205 5        33.198                                                                    24300355.945 6 102822736.00406     -3151.359 6        37.180
C24        51.000                                                                                                                                    21536269.694 7 112145019.16707     -1440.297 7        47.383                                                                    21536268.643 8  91127077.53408     -1170.354 8        50.712
C34        52.000                                                                                                                                    24046071.725 5 125214247.25405      2039.499 5        35.743                                                                    24046063.646 6 101746814.87906      1657.233 6        37.183
I06        58.000    38752413.221 5 152072852.79405      -693.095 5        33.910
> 2025 01 02 15 45 15.0000000  0 40
G20         1.000    23703992.044 4                      -339.191 4        29.090
G11         2.000                                                                                                                                                                    24020435.655 4                     -2961.459 4        25.850
G25         3.000    20664953.070 7 108595226.57407     -2836.362 7        44.333                                    20664954.956 5  84619643.29205     -2210.148 5        33.892    20664953.264 6  84619562.33306     -2210.054 6        36.355
E25         6.000    23646194.119 7 124261639.08607     -1791.676 7        46.518                                                                    23646197.156 8  92792913.53108     -1337.939 8        48.405    23646195.210 7  95213493.74407     -1372.934 7        46.314
G31         7.000    21940747.750 5 115299617.37205       410.356 5        35.929                                    21940739.804 4  89843689.63604       319.767 4        26.479    21940742.947 5  89843690.65005       319.523 5        33.976
G28         8.000    21402595.239 7 112471372.46907     -1366.172 7        44.960                                    21402595.895 5  87640090.79605     -1064.555 5        32.066    21402593.846 7  87640163.82407     -1064.585 7        46.029
G29         9.000    20401582.870 8 107211110.91308      -824.516 8        50.723                                    20401578.761 7  83541128.31507      -642.479 7        44.280    20401579.867 6  83541080.32606      -642.436 6        39.652
E11        10.000    24057769.978 6 126424556.99106      -599.704 6        40.269                                                                    24057768.764 7  94407888.79807      -447.824 7        43.702    24057766.800 6  96870709.93706      -459.447 6        41.025
E10        11.000    25220990.732 7 132537351.64707     -2194.199 7        43.264                                                                    25220991.243 6  98972615.17506     -1638.603 6        37.028    25220989.419 6 101554565.39206     -1681.345 6        36.904
G18        12.000    23317220.925 6 122532875.38206      2648.338 6        40.250                                    23317217.746 3  95480202.86803      2063.638 3        20.952    23317223.396 6  95480235.84006      2063.779 6        37.826
E12        13.000    27071815.175 5                     -3224.053 5        30.528                                                                                                                                    27071814.493 5 109006963.11705     -2469.983 5        32.096
G04        14.000    25370791.845 5                       189.407 5        30.755
E24        16.000                                                                                                                                    27618194.262 5 108379728.15905     -2520.121 5        30.430    27618221.159 4                     -2585.206 4        27.078
G26        17.000    23166635.220 6 121741493.37506      2283.331 6        38.156                                    23166635.929 2  94863522.06802      1779.208 2        15.762    23166637.715 4  94863536.06104      1778.808 4        28.540
E07        18.000    27879585.577 4                      -934.173 4        29.621                                                                                                                                    27879604.345 6 112259645.25206      -715.773 6        37.467
E30        19.000    28801456.871 4                      1778.237 4        26.934                                                                    28801483.783 5                      1328.381 5        31.917    28801467.734 4 115971620.78304      1363.135 4        25.759
E08        20.000    27647064.559 5 145286297.39215     -3015.192 5        34.048                                                                    27647099.319 5                     -2252.057 5        32.647    27647081.867 5                     -2310.750 5        31.004
E02        21.000    24136559.579 5 126838485.16315       681.925 5        34.681                                                                    24136545.649 5  94717034.68205       508.979 5        32.647    24136541.412 6  97187883.06306       522.502 6        38.682
S23        22.000    38226668.901 6 200882542.27506      -866.392 6        36.280
E36        24.000    25388726.971 5 133418726.85305      1882.673 5        34.114                                                                    25388732.867 6  99630947.88206      1405.799 6        37.784    25388734.763 6 102230000.71306      1442.446 6        38.120
R18        25.000    19331977.536 8 103195440.23408       452.851 8        50.008                                                                    19331978.763 7  80263106.56607       352.164 7        43.069
S21        27.000    38506487.591 5 202353057.73605      -862.375 5        35.143
R07        28.000    24339733.529 5 130292453.84305     -3550.292 5        34.157                                                                    24339731.221 5                     -2761.616 5        32.042
R19        29.000                                                                                                                                    22009921.785 5                      2380.893 5        33.180
R15        30.000    20662454.678 6 110414155.21806     -3777.271 6        40.012                                                                    20662457.525 5  85877542.81905     -2937.878 5        35.638
S36        31.000    38277795.984 5 201151169.16005      -862.060 5        35.457
R16        34.000    19301274.972 8 103104542.24708       167.016 8        51.359                                                                    19301276.113 7  80192110.07207       129.891 7        44.700
C44        35.000                                                                                                                                    21397628.037 7 111423383.38707      -544.296 7        47.316                                                                    21397630.136 6  90540518.69806      -442.313 6        41.228
R17        36.000    20157142.926 8 107865337.67108     -3380.507 8        52.440                                                                    20157142.810 7  83894998.59907     -2629.248 7        46.677
R09        37.000                                                                                                                                    22683043.074 6  94209150.41816      2385.955 6        38.658
C12        41.000                                                                                                                                    22402157.361 7 116653977.71807       937.504 7        43.928    22402159.189 7  90204254.99407       724.965 7        45.722    22402155.554 7  94790896.04107       761.991 7        42.445
C35        42.000                                                                                                                                    23239087.748 7 121012000.38907     -3165.650 7        46.802                                                                    23239086.903 6  98332202.87206     -2572.322 6        41.011
C05        43.000                                                                                                                                                                                                    39486870.121 5 158997268.17405      -625.677 5        33.138
C38        44.000                                                                                                                                    39042654.158 6 203305343.18506        66.036 6        39.703                                                                    39042678.341 4                        53.696 4        28.047
C25        45.000                                                                                                                                    23584920.747 8 122812853.72708      1567.215 8        49.675                                                                    23584919.513 7  99795687.83407      1273.558 7        43.280
C08        46.000                                                                                                                                    38825177.617 4                       682.552 4        25.444    38825186.173 4 156332902.84804       528.322 4        25.925    38825184.027 4                       554.749 4        28.360
C26        48.000                                                                                                                                    24304093.249 5                     -3879.599 5        32.323                                                                    24304080.190 6 102838495.85406     -3152.504 6        37.720
C24        51.000                                                                                                                                    21537653.811 7 112152227.31207     -1442.984 7        47.577                                                                    21537652.999 8  91132934.74408     -1172.511 8        51.197
C34        52.000                                                                                                                                    24044114.987 5 125204052.72105      2038.055 5        35.710                                                                    24044105.938 6 101738531.00206      1656.263 6        36.711
I06        58.000    38753295.766 5 152076318.25305      -693.076 5        33.916
> 2025 01 02 15 45 20.0000000  0 40
G11         2.000    24024032.160 5                     -3802.331 5        30.098                                                                                                    24024055.308 4                     -2962.885 4        25.714
G25         3.000    20667652.062 7 108609413.09507     -2838.560 7        44.160                                    20667655.114 5  84630697.73005     -2211.865 5        34.048    20667652.983 6  84630616.79706     -2211.995 6        36.435
E25         6.000    23647899.277 7 124270600.28607     -1793.103 7        46.365                                                                    23647902.428 8  92799605.33808     -1338.972 8        48.413    23647900.510 7  95220360.11907     -1373.898 7        46.545
G31         7.000    21940358.427 6 115297572.95706       407.202 6        36.166                                    21940350.429 4  89842096.58204       317.304 4        25.293    21940353.147 5  89842097.58405       317.169 5        33.006
G28         8.000    21403896.889 7 112478211.60107     -1369.602 7        45.083                                    21403897.463 5  87645419.99805     -1067.231 5        32.335    21403895.301 7  87645493.03307     -1067.275 7        46.094
G29         9.000    20402368.148 8 107215238.97408      -826.851 8        50.913                                    20402363.665 7  83544344.99107      -644.297 7        43.873    20402365.288 6  83544297.03106      -644.313 6        38.444
E11        10.000    24058341.654 6 126427560.70906      -602.087 6        40.710                                                                    24058340.274 7  94410131.84007      -449.578 7        43.644    24058338.467 6  96873011.49106      -461.338 6        41.054
E10        11.000    25223079.031 7 132548327.04307     -2196.208 7        43.534                                                                    25223079.774 6  98980811.07806     -1640.035 6        36.571    25223078.237 6 101562975.11806     -1682.876 6        37.176
G18        12.000    23314701.350 6 122519635.23206      2647.335 6        41.042                                    23314698.478 3  95469885.88203      2062.851 3        21.786    23314703.416 6  95469918.85906      2062.875 6        38.730
E12        13.000    27074885.570 4                     -3225.024 4        29.735                                                                                                                                    27074882.273 5 109019316.18405     -2471.204 5        32.251
G04        14.000    25370612.895 4                       186.100 4        29.517
G12        15.000    23887169.497 3                     -4194.570 3        21.119                                                                                                    23887156.313 3                     -3263.646 3        20.405
E24        16.000                                                                                                                                    27621404.178 5 108392328.03105     -2520.639 5        30.106    27621433.259 4                     -2585.849 4        26.311
G26        17.000    23164461.677 6 121730078.84806      2282.318 6        36.945                                    23164463.575 2  94854627.62702      1778.454 2        13.455
E07        18.000    27880478.676 5                      -936.389 5        32.443                                                                    27880484.884 4 109409027.35404      -699.516 4        24.737    27880492.507 6 112263227.94906      -717.632 6        37.939
E30        19.000    28799762.694 4                      1778.986 4        24.586                                                                    28799790.742 5                      1328.549 5        33.018    28799775.673 4 115964804.83504      1362.882 4        26.958
E08        20.000    27649935.327 5 145301378.09805     -3016.919 5        35.738                                                                    27649961.940 5                     -2252.775 5        33.808    27649952.224 5                     -2311.622 5        31.804
E02        21.000    24135903.270 5 126835077.48705       680.965 5        35.719                                                                    24135891.821 5  94714490.00405       508.490 5        34.233    24135893.854 6  97185272.05306       521.686 6        38.000
S23        22.000    38227495.766 6 200886874.26006      -866.553 6        36.223
E36        24.000    25386936.383 5 133409316.31905      1881.391 5        31.879                                                                    25386942.299 6  99623920.54906      1404.717 6        38.015    25386945.756 6 102222790.02506      1441.583 6        38.009
R18        25.000    19331555.024 8 103193185.32408       448.890 8        50.019                                                                    19331556.661 7  80261352.77007       349.146 7        43.297
S21        27.000    38507311.447 5 202357368.58305      -862.077 5        35.181
R07        28.000                                                                                                                                    24343049.134 5                     -2763.235 5        30.853
R19        29.000                                                                                                                                    22007063.828 5                      2379.411 5        32.359
R15        30.000    20665989.403 6 110433048.24206     -3779.993 6        41.266                                                                    20665993.237 6  85892237.39406     -2940.050 6        37.701
S36        31.000    38278612.565 5 201155480.24305      -862.373 5        35.195
R16        34.000    19301119.651 8 103103715.33008       163.559 8        51.132                                                                    19301121.331 7  80191466.93007       127.216 7        44.214
C44        35.000                                                                                                                                    21398151.685 7 111426110.50207      -546.756 7        47.666                                                                    21398153.983 7  90542734.71007      -444.166 7        42.112
R17        36.000    20160302.871 8 107882246.85008     -3383.444 8        52.443                                                                    20160302.573 7  83908150.19607     -2631.582 7        46.022
R09        37.000                                                                                                                                    22680170.321 6                      2385.176 6        37.962
C12        41.000                                                                                                                                    22401258.701 7 116649294.73307       935.476 7        44.494    22401259.155 7  90200633.81807       723.379 7        44.426    22401256.411 7  94787090.75707       760.136 7        42.938
C35        42.000                                                                                                                                    23242127.964 7 121027831.62407     -3167.043 7        47.334                                                                    23242127.338 6  98345067.07606     -2573.418 6        41.371
C05        43.000                                                                                                                                                                                                    39487647.038 5 159000395.12705      -625.321 5        33.180
C38        44.000                                                                                                                                    39042590.942 6 203305015.68806        64.923 6        39.390                                                                    39042615.653 4                        52.631 4        28.569
C25        45.000                                                                                                                                    23583416.191 8 122805021.15108      1565.626 8        49.921                                                                    23583415.210 7  99789323.26107      1272.281 7        42.944
C08        46.000                                                                                                                                    38824518.974 4                       681.730 4        26.359    38824528.827 4 156330265.27804       526.837 4        28.019    38824531.926 4                       554.008 4        29.308
C26        48.000                                                                                                                                    24307822.828 5                     -3880.758 5        30.913                                                                    24307805.597 6 102854260.54806     -3153.523 6        37.917
C24        51.000                                                                                                                                    21539040.577 7 112159448.09207     -1445.530 7        47.633                                                                    21539039.821 8  91138802.23808     -1174.538 8        51.748
C34        52.000                                                                                                                                    24042159.685 5 125193864.10805      2037.051 5        35.386                                                                    24042149.232 6 101730251.96106      1655.283 6        36.321
I06        58.000    38754180.021 5 152079783.61805      -693.189 5        34.405
> 2025 01 02 15 45 25.0000000  0 39
G11         2.000    24027659.393 5                     -3804.667 5        31.525                                                                                                    24027681.821 4                     -2964.926 4        25.248
G25         3.000    20670354.048 7 108623610.29107     -2840.811 7        43.009                                    20670357.057 5  84641760.48605     -2213.621 5        34.195    20670354.156 5  84641679.52705     -2213.706 5        35.981
E25         6.000    23649605.939 7 124279567.98407     -1794.495 7        46.697                                                                    23649608.744 8  92806301.99608     -1340.032 8        48.193    23649607.116 7  95227231.47807     -1375.025 7        46.530
G31         7.000    21939973.138 6 115295544.51406       403.684 6        36.688                                    21939964.139 3  89840515.98303       314.583 3        22.838    21939968.097 5  89840516.96605       314.637 5        31.426
G28         8.000    21405201.600 7 112485067.58607     -1373.201 7        44.769                                    21405202.176 5  87650762.34105     -1070.029 5        32.605    21405200.202 7  87650835.36707     -1070.064 7        46.234
G29         9.000    20403155.714 8 107219378.45308      -829.352 8        50.748                                    20403150.706 7  83547570.56707      -646.251 7        43.456    20403153.007 6  83547522.59906      -646.262 6        36.302
E11        10.000    24058915.693 6 126430576.74706      -604.771 6        41.344                                                                    24058914.253 7  94412384.08007      -451.610 7        43.780    24058912.612 6  96875322.47806      -463.463 6        41.268
E10        11.000    25225169.779 7 132559313.12407     -2198.580 7        43.776                                                                    25225170.915 6  98989014.98406     -1641.923 6        36.004    25225169.415 6 101571393.01506     -1684.691 6        37.425
G18        12.000    23312182.404 6 122506400.90306      2646.011 6        41.323                                    23312180.704 3  95459573.45103      2061.816 3        22.990    23312184.586 6  95459606.43206      2061.798 6        40.021
E12        13.000    27077958.210 4                     -3226.330 4        29.450                                                                                                                                    27077951.874 5 109031674.69205     -2472.712 5        32.024
G12        15.000    23891156.606 3                     -4194.177 3        21.500                                                                                                    23891147.710 3                     -3268.514 3        22.076
E24        16.000                                                                                                                                    27624615.739 4 108404929.76404     -2520.426 4        29.848    27624645.677 4                     -2585.282 4        24.526
G26        17.000    23162291.148 5 121718668.63505      2281.147 5        35.000                                    23162291.752 1  94845736.55001      1777.529 1        11.852
E07        18.000    27881373.126 5 146517603.02415      -938.946 5        34.238                                                                    27881379.657 4 109412527.69304      -701.166 4        25.263    27881384.207 6 112266819.66506      -719.555 6        37.943
E30        19.000    28798066.827 3                      1779.215 3        22.229                                                                    28798097.508 5                      1328.768 5        32.982    28798083.705 4 115957988.28204      1363.510 4        27.389
E08        20.000    27652807.734 6 145316465.41506     -3018.485 6        36.888                                                                    27652833.544 5 108515655.24915     -2254.196 5        33.293    27652821.991 5                     -2312.740 5        32.952
E02        21.000    24135249.555 5 126831674.37705       679.802 5        35.305                                                                    24135241.692 5  94711948.73605       507.684 5        35.857    24135246.646 6  97182664.52006       520.934 6        36.851
S23        22.000    38228320.660 6 200891206.05806      -866.712 6        36.442
E36        24.000    25385147.664 5 133399912.45905      1879.865 5        30.664                                                                    25385152.903 6  99616898.19806      1403.691 6        38.276    25385157.749 6 102215584.47306      1440.418 6        37.584
R18        25.000    19331136.621 8 103190950.04708       444.723 8        49.255                                                                    19331137.351 7  80259614.22907       345.818 7        43.498
S21        27.000    38508131.753 5 202361679.06105      -862.504 5        34.700
R07        28.000                                                                                                                                    24346368.137 5                     -2765.465 5        30.226
R19        29.000                                                                                                                                    22004205.455 5                      2377.776 5        30.823
